"lineid","car","time","location","longitude","latitude","cityid","cityname"
"234044","148-BY","2019/11/12 13:43:22","新北市永和區成功路一段106巷3號","121.52626","25.0028166666667","6500400","永和區"
"234078","298-R6","2019/11/12 13:43:25","新北市永和區永亨路127號","121.524493333333","25.00406","6500400","永和區"
"234036","336-UY","2019/11/12 13:43:23","新北市永和區民樂街39巷18弄44號","121.528461666667","24.9989033333333","6500400","永和區"
"234062","337-UY","2019/11/12 13:43:18","新北市永和區秀朗路一段192巷6弄14號","121.519066666667","25.0022633333333","6500400","永和區"
"234084","338-UY","2019/11/12 13:43:29","新北市永和區永亨路59號","121.521008333333","25.006045","6500400","永和區"
"234068","552-UM","2019/11/12 13:43:34","新北市永和區永和路二段243號","121.515763333333","25.01468","6500400","永和區"
"234015","745-BX","2019/11/12 13:43:23","新北市永和區永和路二段290號","121.516071666667","25.015725","6500400","永和區"
"234028","746-BX","2019/11/12 13:43:23","新北市永和區民生路49號","121.522845","24.99777","6500400","永和區"
"234052","KEA-2590","2019/11/12 13:43:38","新北市永和區竹林路64號","121.518401666667","25.0134516666667","6500400","永和區"
"234005","KED-0605","2019/11/12 13:43:37","新北市永和區永和路一段107號","121.51392","25.0079933333333","6500400","永和區"
"234012","KEA-2591","2019/11/12 13:43:31","新北市永和區仁愛路198號","121.509485","25.0124383333333","6500400","永和區"
"234060","AAD-866","2019/11/12 13:43:25","新北市永和區中正路362號","121.517668333333","25.000765","6500400","永和區"
"234040","862-TW","2019/11/12 13:43:33","新北市永和區中和路305巷12號","121.507248333333","25.0011733333333","6500400","永和區"
"234048","863-TW","2019/11/12 13:43:37","新北市永和區保安路144號","121.508615","25.0149933333333","6500400","永和區"
"234025","9371-KE","2019/11/12 13:43:33","新北市永和區自由街54號","121.513653333333","25.0059883333333","6500400","永和區"
"234010","9373-KE","2019/11/12 13:43:31","新北市永和區保福路二段133巷2號","121.509461666667","25.013855","6500400","永和區"
"248017","KED-0813","2019/11/12 13:43:35","新北市五股區民義路二段48巷5-10號","121.413913333333","25.1032366666667","6501500","五股區"
"234022","9380-KE","2019/11/12 13:43:35","新北市永和區中正路662巷10號","121.517525","25.0087883333333","6500400","永和區"
"234076","969-R7","2019/11/12 13:43:23","新北市永和區民權路24號","121.520273333333","24.9992433333333","6500400","永和區"
"234072","AAC-211","2019/11/12 13:43:20","新北市永和區竹林路179巷37號","121.522328333333","25.0103366666667","6500400","永和區"
"234066","AAC-212","2019/11/12 13:43:38","新北市永和區永平路157巷2弄22號","121.51036","25.0086133333333","6500400","永和區"
"234001","AAC-295","2019/11/12 13:43:36","新北市永和區自由街69號","121.51352","25.0053633333333","6500400","永和區"
"244002","248-BX","2019/11/12 13:43:32","新北市林口區頂福16-5號","121.35613","25.088595","6501700","林口區"
"231003","001-UM","2019/11/12 13:43:32","新北市新店區中興路一段266-6號","121.545221666667","24.967585","6500600","新店區"
"231030","002-UM","2019/11/12 13:43:25","新北市新店區安康路一段235-1號","121.525108333333","24.9632616666667","6500600","新店區"
"231024","0291-UT","2019/11/12 13:43:34","新北市新店區中華路47巷2弄1號","121.53967","24.9675233333333","6500600","新店區"
"231005","046-UY","2019/11/12 13:43:25","新北市新店區寶中路77號","121.547661666667","24.9805416666667","6500600","新店區"
"231029","106-UY","2019/11/12 13:43:23","新北市新店區安康路二段250號","121.509078333333","24.9590883333333","6500600","新店區"
"231018","107-UY","2019/11/12 13:43:34","新北市新店區百忍街17巷2號","121.534301666667","24.97563","6500600","新店區"
"231013","108-UY","2019/11/12 13:43:27","新北市新店區二十張路58-1號","121.536888333333","24.9803216666667","6500600","新店區"
"231036","110-UY","2019/11/12 13:43:40","新北市新店區安祥路145巷10號","121.475056666667","24.9559016666667","6500600","新店區"
"231032","256-BX","2019/11/12 13:43:17","新北市新店區莒光路44巷21弄11-6號","121.519051666667","24.9525616666667","6500600","新店區"
"231023","260-TV","2019/11/12 13:43:24","新北市新店區新店路205號","121.537008333333","24.95653","6500600","新店區"
"231035","278-BY","2019/11/12 13:43:31","新北市新店區安忠路57巷1-8號","121.513481666667","24.95925","6500600","新店區"
"231015","AAD-862","2019/11/12 13:43:40","新北市新店區竹林路2巷27弄11號","121.550985","24.9507833333333","6500600","新店區"
"231006","355-BY","2019/11/12 13:43:31","新北市新店區北宜路一段66號","121.538551666667","24.95594","6500600","新店區"
"231038","3712-VJ","2019/11/12 13:43:19","新北市新店區安華路30巷1號","121.519528333333","24.9592933333333","6500600","新店區"
"231027","3713-VJ","2019/11/12 13:43:28","新北市新店區新店路6號","121.53828","24.9523883333333","6500600","新店區"
"231025","4715-K9","2019/11/12 13:43:28","新北市新店區中央路208號","121.53013","24.9738883333333","6500600","新店區"
"231020","513-UM","2019/11/12 13:43:28","新北市新店區永興路88號","121.544178333333","24.9328083333333","6500600","新店區"
"231001","617-UM","2019/11/12 13:43:27","新北市新店區中正路401號","121.534363333333","24.9774533333333","6500600","新店區"
"231002","619-UM","2019/11/12 13:43:40","新北市新店區中央三街127號","121.524166666667","24.9768833333333","6500600","新店區"
"231034","641-BX","2019/11/12 13:43:26","新北市新店區達觀路14巷1號","121.50432","24.9416716666667","6500600","新店區"
"231012","KED-0819","2019/11/12 13:43:33","新北市新店區德正街27巷29弄28號","121.54578","24.972245","6500600","新店區"
"231010","719-UM","2019/11/12 13:43:25","新北市新店區三民路60巷2號","121.535435","24.9724333333333","6500600","新店區"
"231026","720-UM","2019/11/12 13:43:21","新北市新店區北新路一段189號","121.5403","24.9645766666667","6500600","新店區"
"231028","897-TW","2019/11/12 13:43:27","新北市新店區安和路二段77-1號","121.518555","24.968725","6500600","新店區"
"231004","899-TW","2019/11/12 13:43:33","新北市新店區北新路二段70號","121.542933333333","24.97259","6500600","新店區"
"231037","AKT-0513","2019/11/12 13:43:30","新北市新店區安康路三段91號","121.491745","24.9518933333333","6500600","新店區"
"235030","003-UY","2019/11/12 13:43:41","新北市中和區光華街44號","121.504923333333","25.0036283333333","6500300","中和區"
"235028","005-UY","2019/11/12 13:43:25","新北市中和區泰和街9號","121.49953","25.0002566666667","6500300","中和區"
"235027","006-UY","2019/11/12 13:43:26","新北市中和區錦和路196巷5號","121.489741666667","24.9949183333333","6500300","中和區"
"235020","096-UM","2019/11/12 13:43:38","新北市中和區中正路1163號","121.481538333333","25.0092716666667","6500300","中和區"
"235003","097-UM","2019/11/12 13:43:22","新北市中和區大勇街25巷11弄2號","121.516243333333","24.99342","6500300","中和區"
"235029","098-UM","2019/11/12 13:43:39","新北市中和區中山路二段2巷43號","121.502555","25.0069783333333","6500300","中和區"
"235004","150-BY","2019/11/12 13:43:22","新北市中和區宜安路116號","121.510293333333","24.9980366666667","6500300","中和區"
"235022","151-BY","2019/11/12 13:43:22","新北市中和區員山路143巷9號","121.480391666667","24.9959783333333","6500300","中和區"
"235019","183-VK","2019/11/12 13:43:34","新北市中和區民生街93-2號","121.468583333333","25.0047166666667","6500300","中和區"
"235002","185-VK","2019/11/12 13:43:23","新北市中和區立人街12-1號","121.519441666667","24.9940616666667","6500300","中和區"
"235031","255-BX","2019/11/12 13:43:23","新北市中和區新生街242巷1弄9號","121.483375","24.9974433333333","6500300","中和區"
"235008","293-VK","2019/11/12 13:43:33","新北市中和區復興路280巷43號","121.50103","24.9919366666667","6500300","中和區"
"235036","301-VK","2019/11/12 13:43:36","新北市中和區中山路二段84號","121.50344","25.00442","6500300","中和區"
"235007","352-BY","2019/11/12 13:43:38","新北市中和區景平路21號","121.522691666667","24.9904433333333","6500300","中和區"
"235006","KEA-2878","2019/11/12 13:43:24","新北市中和區秀朗路三段135巷5弄10號","121.525781666667","24.992095","6500300","中和區"
"235014","4979-A6","2019/11/12 13:43:34","新北市中和區景新街496巷32弄24號","121.512635","24.9854116666667","6500300","中和區"
"235033","4980-A6","2019/11/12 13:43:21","新北市中和區南山路111巷16號","121.5026","24.9977066666667","6500300","中和區"
"235034","558-UM","2019/11/12 13:43:41","新北市中和區安和路217號","121.505961666667","24.999435","6500300","中和區"
"235009","565-BX","2019/11/12 13:43:29","新北市中和區興南路一段92號","121.509805","24.9892","6500300","中和區"
"235024","KED-0823","2019/11/12 13:43:28","新北市中和區民治街7巷2號","121.47511","25.0047033333333","6500300","中和區"
"235054","640-BX","2019/11/12 13:43:36","新北市中和區民享街9號","121.473966666667","25.0056033333333","6500300","中和區"
"235035","647-TV","2019/11/12 13:43:26","新北市中和區立德街13-9號","121.489681666667","25.0067466666667","6500300","中和區"
"235011","732-UM","2019/11/12 13:43:27","新北市中和區興南路二段92號","121.505288333333","24.9844833333333","6500300","中和區"
"235010","733-UM","2019/11/12 13:43:37","新北市中和區仁愛街36巷20號","121.51088","24.9873033333333","6500300","中和區"
"235021","801-TS","2019/11/12 13:43:40","新北市中和區民利街24號","121.48015","24.9991583333333","6500300","中和區"
"235005","802-TS","2019/11/12 13:43:31","新北市中和區永貞路249巷8號","121.51265","25.003775","6500300","中和區"
"235016","805-TS","2019/11/12 13:43:25","新北市中和區興南路三段80號","121.492085","24.9741316666667","6500300","中和區"
"235012","896-TW","2019/11/12 13:43:35","新北市中和區南山路130號","121.50373","24.9928483333333","6500300","中和區"
"235017","900-TW","2019/11/12 13:43:37","新北市中和區華福街3號","121.465211666667","24.9970433333333","6500300","中和區"
"235026","911-UM","2019/11/12 13:43:33","新北市中和區中山路二段340巷23號","121.493425","25.0033216666667","6500300","中和區"
"235015","157-BY","2019/11/12 13:43:37","新北市中和區華新街109巷22號","121.508351666667","24.9806583333333","6500300","中和區"
"235001","AAC-213","2019/11/12 13:43:37","新北市中和區秀朗路三段128巷25弄5號","121.524066666667","24.9938433333333","6500300","中和區"
"235023","AAC-215","2019/11/12 13:43:30","新北市中和區錦和路356號","121.490558333333","24.99154","6500300","中和區"
"220013","072-UY","2019/11/12 13:43:35","新北市板橋區成都街18-1號","121.460705","25.0046583333333","6500100","板橋區"
"220034","073-UY","2019/11/12 13:43:24","新北市板橋區南雅西路一段63巷12號","121.452063333333","25.0080216666667","6500100","板橋區"
"220017","AAD-861","2019/11/12 13:43:21","新北市板橋區大華街72號","121.459125","25.0057116666667","6500100","板橋區"
"220105","120-SR","2019/11/12 13:43:28","新北市板橋區民生路二段120號","121.470615","25.0194516666667","6500100","板橋區"
"247013","056-VK","2019/11/12 13:43:32","新北市蘆洲區環堤大道365號","121.457276666667","25.0974416666667","6501400","蘆洲區"
"247021","007-UY","2019/11/12 13:43:29","新北市蘆洲區三民路263號","121.468301666667","25.0895216666667","6501400","蘆洲區"
"235013","251-BX","2019/11/12 13:43:28","新北市中和區景安路132巷6號","121.5046","24.9945083333333","6500300","中和區"
"228004","212-TW","2019/11/12 13:43:33","新北市貢寮區龍崗里嵩陽街8號","121.901883333333","25.0108166666667","6502600","貢寮區"
"228005","828-UM","2019/11/12 13:43:38","新北市貢寮區美豐里土地公嶺7-1號","121.899251666667","25.05541","6502600","貢寮區"
"207002","749-BX","2019/11/12 13:43:29","新北市萬里區崁腳里崁腳路166號","121.645051666667","25.1558166666667","6502800","萬里區"
"207001","662-BX","2019/11/12 13:43:37","新北市萬里區大鵬里萬里加投35-1號","121.645673333333","25.2111966666667","6502800","萬里區"
"252005","AAC-283","2019/11/12 13:43:29","新北市三芝區圓山里二坪頂79號","121.540195","25.2448933333333","6502100","三芝區"
"236040","KED-0685","2019/11/12 13:43:36","新北市土城區城林路6巷80號","121.438523333333","24.97973","6501300","土城區"
"220038","KED-0812","2019/11/12 13:43:39","新北市板橋區民生路二段120號","121.470321666667","25.0201383333333","6500100","板橋區"
"236074","166-UM","2019/11/12 13:43:27","新北市土城區中華路二段163號","121.438851666667","24.9755533333333","6501300","土城區"
"236013","270-VK","2019/11/12 13:43:33","新北市土城區城林路6巷80號","121.438541666667","24.9798033333333","6501300","土城區"
"236032","271-VK","2019/11/12 13:43:40","新北市土城區城林路6巷80號","121.43855","24.9797166666667","6501300","土城區"
"247011","KED-0683","2019/11/12 13:43:38","新北市五股區中興路三段163號","121.449185","25.0806716666667","6501400","蘆洲區"
"236017","401-BY","2019/11/12 13:43:35","新北市土城區城林路6巷80號","121.438643333333","24.9798283333333","6501300","土城區"
"236057","912-UM","2019/11/12 13:43:34","新北市土城區城林路6巷80號","121.438706666667","24.9796116666667","6501300","土城區"
"236045","913-UM","2019/11/12 13:43:38","新北市土城區城林路6巷80號","121.438653333333","24.9797433333333","6501300","土城區"
"236060","915-UM","2019/11/12 13:43:29","新北市土城區城林路6巷80號","121.438495","24.9797716666667","6501300","土城區"
"221002","297-VK","2019/11/12 13:43:27","新北市汐止區中正路302號","121.656433333333","25.0682033333333","6501100","汐止區"
"220027","145-BY","2019/11/12 13:43:36","新北市板橋區南雅西路二段175巷7號","121.451591666667","25.0121716666667","6500100","板橋區"
"220028","200-UY","2019/11/12 13:43:39","新北市板橋區大觀路二段265巷76弄31號","121.441335","24.9967183333333","6500100","板橋區"
"220030","610-BX","2019/11/12 13:43:22","新北市板橋區篤行路二段65號","121.431778333333","24.9922","6500100","板橋區"
"220004","276-BY","2019/11/12 13:43:37","新北市板橋區四川路一段147號","121.459958333333","25.0042466666667","6500100","板橋區"
"220020","277-BY","2019/11/12 13:43:22","新北市板橋區金門街49-1號","121.433543333333","24.993225","6500100","板橋區"
"220050","280-UM","2019/11/12 13:43:33","新北市板橋區民生路二段120號","121.470311666667","25.02002","6500100","板橋區"
"220043","283-UM","2019/11/12 13:43:24","新北市板橋區民生路二段161巷1號","121.469963333333","25.0198966666667","6500100","板橋區"
"220019","283-VK","2019/11/12 13:43:23","新北市板橋區四川路一段367號","121.458288333333","24.99969","6500100","板橋區"
"220001","285-VK","2019/11/12 13:43:28","新北市板橋區民生路二段121號","121.47084","25.018355","6500100","板橋區"
"220107","286-VK","2019/11/12 13:43:30","新北市板橋區大觀路二段23號","121.446878333333","25.0032416666667","6500100","板橋區"
"220029","287-VK","2019/11/12 13:43:27","新北市板橋區南雅西路二段69號","121.452761666667","25.010045","6500100","板橋區"
"220039","288-VK","2019/11/12 13:43:37","新北市板橋區民生路三段105號","121.466576666667","25.0251916666667","6500100","板橋區"
"220009","293-UM","2019/11/12 13:43:27","新北市板橋區太和街6巷1號","121.473713333333","25.0200283333333","6500100","板橋區"
"220032","296-UM","2019/11/12 13:43:29","新北市板橋區大觀路二段174巷102弄19號","121.441613333333","25.0012383333333","6500100","板橋區"
"220023","303-R5","2019/11/12 13:43:21","新北市板橋區南雅西路二段123巷1號","121.45172","25.0106366666667","6500100","板橋區"
"220010","305-R5","2019/11/12 13:43:33","新北市板橋區民生路二段161巷1號","121.470273333333","25.0201283333333","6500100","板橋區"
"220041","307-R5","2019/11/12 13:43:40","新北市板橋區漢生東路25號","121.465165","25.0170666666667","6500100","板橋區"
"220037","491-VK","2019/11/12 13:43:33","新北市板橋區民生路二段120號","121.470571666667","25.0200466666667","6500100","板橋區"
"220104","560-BX","2019/11/12 13:43:39","新北市板橋區南雅西路二段156巷2號","121.451751666667","25.013355","6500100","板橋區"
"220052","561-BX","2019/11/12 13:43:32","新北市板橋區縣民大道三段30巷1號","121.471581666667","25.0185233333333","6500100","板橋區"
"220011","609-BX","2019/11/12 13:43:20","新北市板橋區民生路二段17號","121.472471666667","25.0162483333333","6500100","板橋區"
"220040","637-BX","2019/11/12 13:43:38","新北市板橋區民生路二段120號","121.470585","25.019735","6500100","板橋區"
"220005","686-BX","2019/11/12 13:43:34","新北市板橋區館前東路31號","121.460755","25.007355","6500100","板橋區"
"220025","687-BX","2019/11/12 13:43:32","新北市板橋區篤行路一段33號","121.432256666667","24.99436","6500100","板橋區"
"220002","741-BX","2019/11/12 13:43:22","新北市板橋區館前東路21號","121.460243333333","25.0072966666667","6500100","板橋區"
"220051","KEA-2699","2019/11/12 13:43:32","新北市板橋區民生路二段188號","121.470181666667","25.0202633333333","6500100","板橋區"
"220003","827-TW","2019/11/12 13:43:32","新北市板橋區忠孝路131號","121.463076666667","25.0023466666667","6500100","板橋區"
"220016","830-TW","2019/11/12 13:43:29","新北市板橋區萬板路161號","121.473958333333","25.0234816666667","6500100","板橋區"
"220022","895-R6","2019/11/12 13:43:39","新北市板橋區府中路37號","121.45865","25.00895","6500100","板橋區"
"220021","985-R7","2019/11/12 13:43:35","新北市板橋區館前西路66號","121.457756666667","25.0071733333333","6500100","板橋區"
"220046","AAC-210","2019/11/12 13:43:32","新北市板橋區民生路二段120號","121.470526666667","25.0198666666667","6500100","板橋區"
"220012","AAC-253","2019/11/12 13:43:19","新北市板橋區中山路一段293-2號","121.470916666667","25.0143816666667","6500100","板橋區"
"235032","KEA-2873","2019/11/12 13:43:17","新北市中和區圓通路259號","121.496063333333","24.9933116666667","6500300","中和區"
"235025","KEA-2875","2019/11/12 13:43:38","新北市中和區民享街89巷9弄3號","121.47487","25.0020116666667","6500300","中和區"
