"lineid","car","time","location","longitude","latitude","cityid","cityname"
"234044","148-BY","2019/11/12 14:13:29","新北市永和區得和路283號","121.522425","24.9996783333333","6500400","永和區"
"234078","298-R6","2019/11/12 14:13:24","新北市永和區國中路104巷2弄1號","121.524406666667","25.0066933333333","6500400","永和區"
"234036","336-UY","2019/11/12 14:13:23","新北市永和區成功路一段93巷21弄2號","121.52835","25.002685","6500400","永和區"
"234062","337-UY","2019/11/12 14:13:38","新北市永和區得和路269號","121.52162","24.99997","6500400","永和區"
"234084","338-UY","2019/11/12 14:13:29","新北市永和區中正路631號","121.515486666667","25.009945","6500400","永和區"
"234068","552-UM","2019/11/12 14:13:34","新北市永和區永亨路31號","121.51968","25.00625","6500400","永和區"
"234028","746-BX","2019/11/12 14:13:23","新北市永和區民權路51號","121.519936666667","24.9970666666667","6500400","永和區"
"234052","KEA-2590","2019/11/12 14:13:39","新北市永和區博愛街1號","121.516536666667","25.0158233333333","6500400","永和區"
"234005","KED-0605","2019/11/12 14:13:37","新北市永和區永貞路376號","121.509786666667","25.00695","6500400","永和區"
"234012","KEA-2591","2019/11/12 14:13:33","新北市永和區保生路3號","121.506246666667","25.0074816666667","6500400","永和區"
"234060","AAD-866","2019/11/12 14:13:25","新北市永和區得和路2號","121.514863333333","25.0006833333333","6500400","永和區"
"234040","862-TW","2019/11/12 14:13:33","新北市永和區雙和街18-1號","121.509448333333","25.00201","6500400","永和區"
"234048","863-TW","2019/11/12 14:13:37","新北市永和區保安路23號","121.510285","25.01671","6500400","永和區"
"234025","9371-KE","2019/11/12 14:13:33","新北市永和區安樂路198號","121.515191666667","25.001615","6500400","永和區"
"248017","KED-0813","2019/11/12 14:13:35","新北市五股區民義路一段251號","121.42788","25.09085","6501500","五股區"
"234022","9380-KE","2019/11/12 14:13:35","新北市永和區竹林路25巷15號","121.517841666667","25.0149133333333","6500400","永和區"
"234076","969-R7","2019/11/12 14:13:23","新北市永和區民族街81巷58號","121.520045","24.9965266666667","6500400","永和區"
"234072","AAC-211","2019/11/12 14:13:20","新北市永和區福和路29號","121.523716666667","25.0081633333333","6500400","永和區"
"234066","AAC-212","2019/11/12 14:13:38","新北市永和區中山路一段281巷3號","121.50738","25.0067166666667","6500400","永和區"
"234001","AAC-295","2019/11/12 14:13:40","新北市永和區中正路577巷10號","121.516035","25.0090416666667","6500400","永和區"
"244002","248-BX","2019/11/12 14:13:32","新北市林口區南勢里34-8號","121.352453333333","25.0702616666667","6501700","林口區"
"231003","001-UM","2019/11/12 14:13:32","新北市新店區中興路一段170號","121.54283","24.964425","6500600","新店區"
"231030","002-UM","2019/11/12 14:13:24","新北市新店區安民街65巷21-2號","121.515116666667","24.96751","6500600","新店區"
"231005","046-UY","2019/11/12 14:13:25","新北市新店區中興路三段219-1號","121.54354","24.9823583333333","6500600","新店區"
"231029","106-UY","2019/11/12 14:13:23","新北市新店區安康路二段163號","121.510045","24.95922","6500600","新店區"
"231018","107-UY","2019/11/12 14:13:34","新北市新店區中央五街60號","121.527581666667","24.97553","6500600","新店區"
"231013","108-UY","2019/11/12 14:13:27","新北市新店區大豐路13號","121.54142","24.9802733333333","6500600","新店區"
"231036","110-UY","2019/11/12 14:13:40","新北市新店區安祥路109巷90弄98號","121.475956666667","24.9575066666667","6500600","新店區"
"231032","256-BX","2019/11/12 14:13:37","新北市新店區太平路25-1號","121.533945","24.9581266666667","6500600","新店區"
"231023","260-TV","2019/11/12 14:13:24","新北市新店區文中路40號","121.539698333333","24.9565616666667","6500600","新店區"
"231035","278-BY","2019/11/12 14:13:31","新北市新店區安和路二段115號","121.518671666667","24.9704183333333","6500600","新店區"
"231015","AAD-862","2019/11/12 14:13:21","新北市新店區中生路147號","121.567345","24.9497366666667","6500600","新店區"
"231006","355-BY","2019/11/12 14:13:31","新北市新店區北宜路二段82-14號","121.554766666667","24.9534583333333","6500600","新店區"
"231038","3712-VJ","2019/11/12 14:13:19","新北市新店區溪洲路59-1號","121.533518333333","24.9608166666667","6500600","新店區"
"231027","3713-VJ","2019/11/12 14:13:28","新北市新店區光明街11號","121.538441666667","24.9592466666667","6500600","新店區"
"231025","4715-K9","2019/11/12 14:13:28","新北市新店區自立街26號","121.53866","24.9783633333333","6500600","新店區"
"231020","513-UM","2019/11/12 14:13:28","新北市新店區屈尺路40號","121.548166666667","24.92261","6500600","新店區"
"231001","617-UM","2019/11/12 14:13:27","新北市新店區中華路59號","121.539955","24.96804","6500600","新店區"
"231002","619-UM","2019/11/12 14:13:20","新北市新店區中正路485號","121.533896666667","24.9820616666667","6500600","新店區"
"231034","641-BX","2019/11/12 14:13:26","新北市新店區車子路11號","121.503026666667","24.9519966666667","6500600","新店區"
"231012","KED-0819","2019/11/12 14:13:33","新北市新店區五峰路63巷8弄10號","121.546811666667","24.9687833333333","6500600","新店區"
"231028","897-TW","2019/11/12 14:13:27","新北市新店區安興路141號","121.516753333333","24.9796766666667","6500600","新店區"
"231004","899-TW","2019/11/12 14:13:26","新北市新店區北新路二段82號","121.543043333333","24.9727666666667","6500600","新店區"
"231037","AKT-0513","2019/11/12 14:13:30","新北市新店區安康路二段341巷36號","121.49666","24.9543733333333","6500600","新店區"
"235030","003-UY","2019/11/12 14:13:21","新北市中和區中和路102號","121.502646666667","24.9996716666667","6500300","中和區"
"235028","005-UY","2019/11/12 14:13:25","新北市中和區南山路81巷56號","121.503898333333","24.99814","6500300","中和區"
"235027","006-UY","2019/11/12 14:13:26","新北市中和區連城路237-1號","121.49382","24.9974866666667","6500300","中和區"
"235020","096-UM","2019/11/12 14:13:38","新北市中和區員山路460號","121.480036666667","25.0062933333333","6500300","中和區"
"235003","097-UM","2019/11/12 14:13:22","新北市中和區秀峰街103巷8弄12號","121.519751666667","24.9895833333333","6500300","中和區"
"235029","098-UM","2019/11/12 14:13:39","新北市中和區中山路二段2巷13弄28號","121.502511666667","25.00653","6500300","中和區"
"235004","150-BY","2019/11/12 14:13:22","新北市中和區安平路36巷39號","121.510945","24.9952483333333","6500300","中和區"
"235022","151-BY","2019/11/12 14:13:42","新北市中和區員山路36巷16-2號","121.485358333333","24.9914116666667","6500300","中和區"
"235019","183-VK","2019/11/12 14:13:34","新北市中和區中山路三段181巷20號","121.472956666667","25.00548","6500300","中和區"
"235002","185-VK","2019/11/12 14:13:23","新北市中和區大仁街8號","121.517856666667","24.9926083333333","6500300","中和區"
"235031","255-BX","2019/11/12 14:13:22","新北市中和區連城路284號","121.484306666667","24.996275","6500300","中和區"
"235008","293-VK","2019/11/12 14:13:33","新北市中和區中興街256號","121.49916","24.9877666666667","6500300","中和區"
"235036","301-VK","2019/11/12 14:13:36","新北市中和區永和路6號","121.499958333333","25.0028883333333","6500300","中和區"
"235007","352-BY","2019/11/12 14:13:18","新北市中和區景平路296號","121.51293","24.9928383333333","6500300","中和區"
"235006","KEA-2878","2019/11/12 14:13:36","新北市中和區大勇街60巷4號","121.518453333333","24.9946466666667","6500300","中和區"
"247015","KEA-2869","2019/11/12 14:13:40","新北市蘆洲區光華路70巷6號","121.467786666667","25.08325","6501400","蘆洲區"
"247009","KED-0682","2019/11/12 14:13:29","新北市蘆洲區信義路172號","121.47933","25.0839466666667","6501400","蘆洲區"
"235014","4979-A6","2019/11/12 14:13:34","新北市中和區復興路280巷36弄10號","121.50168","24.9922316666667","6500300","中和區"
"235033","4980-A6","2019/11/12 14:13:21","新北市中和區景平路736巷3弄7號","121.49739","25.0038283333333","6500300","中和區"
"235034","558-UM","2019/11/12 14:13:34","新北市中和區景平路628號","121.500333333333","24.99787","6500300","中和區"
"235009","565-BX","2019/11/12 14:13:29","新北市中和區景新街423巷33弄25號","121.513788333333","24.98989","6500300","中和區"
"235024","KED-0823","2019/11/12 14:13:28","新北市中和區中山路二段523巷42號","121.48206","25.0034233333333","6500300","中和區"
"235054","640-BX","2019/11/12 14:13:31","新北市中和區民德路50號","121.468801666667","25.0022333333333","6500300","中和區"
"235035","647-TV","2019/11/12 14:13:26","新北市中和區建二路113號","121.487006666667","25.003625","6500300","中和區"
"235011","732-UM","2019/11/12 14:13:25","新北市中和區興南路一段56巷28號","121.510303333333","24.9913533333333","6500300","中和區"
"235010","733-UM","2019/11/12 14:13:37","新北市中和區忠孝街2巷2-5號","121.510035","24.9824966666667","6500300","中和區"
"235021","801-TS","2019/11/12 14:13:40","新北市中和區台新街43號","121.479915","25.0048566666667","6500300","中和區"
"235005","802-TS","2019/11/12 14:13:31","新北市中和區中安街202-1號","121.511841666667","24.998975","6500300","中和區"
"235016","805-TS","2019/11/12 14:13:25","新北市中和區興南路二段242巷18號","121.502241666667","24.98322","6500300","中和區"
"235012","896-TW","2019/11/12 14:13:34","新北市中和區華新街109巷22號","121.508371666667","24.98049","6500300","中和區"
"235017","900-TW","2019/11/12 14:13:32","新北市中和區民德路206號","121.468095","24.9984216666667","6500300","中和區"
"235026","911-UM","2019/11/12 14:13:33","新北市中和區中山路二段434號","121.489531666667","25.004135","6500300","中和區"
"235015","157-BY","2019/11/12 14:13:37","新北市中和區景平路239巷33弄9號","121.509541666667","24.99171","6500300","中和區"
"235001","AAC-213","2019/11/12 14:13:37","新北市中和區自立路15巷1號","121.522433333333","24.9961033333333","6500300","中和區"
"235023","AAC-215","2019/11/12 14:13:30","新北市中和區錦和路193號","121.490768333333","24.9907533333333","6500300","中和區"
"220013","072-UY","2019/11/12 14:13:21","新北市板橋區海山路1-2號","121.469715","25.0093083333333","6500100","板橋區"
"220034","073-UY","2019/11/12 14:13:24","新北市板橋區中正路236巷61號","121.458421666667","25.0194983333333","6500100","板橋區"
"220017","AAD-861","2019/11/12 14:13:21","新北市板橋區大明街20巷29弄19號","121.457805","25.0034166666667","6500100","板橋區"
"220105","120-SR","2019/11/12 14:13:28","新北市板橋區江寧路三段119號","121.473216666667","25.03325","6500100","板橋區"
"247005","893-R6","2019/11/12 14:13:39","新北市蘆洲區永安南路二段16巷17弄37號","121.467003333333","25.078015","6501400","蘆洲區"
"247003","341-TH","2019/11/12 14:13:30","新北市蘆洲區長安街158號","121.459525","25.08288","6501400","蘆洲區"
"247023","057-VK","2019/11/12 14:13:32","新北市蘆洲區長榮路378號","121.459853333333","25.0870283333333","6501400","蘆洲區"
"247013","056-VK","2019/11/12 14:13:32","新北市蘆洲區三民路52號","121.475378333333","25.083385","6501400","蘆洲區"
"247017","053-VK","2019/11/12 14:13:28","新北市蘆洲區復興路162號","121.477595","25.0880566666667","6501400","蘆洲區"
"247021","007-UY","2019/11/12 14:13:29","新北市蘆洲區三民路242號","121.46809","25.08983","6501400","蘆洲區"
"247007","002-UY","2019/11/12 14:13:31","新北市蘆洲區中山一路257號","121.472873333333","25.0802066666667","6501400","蘆洲區"
"247001","001-UY","2019/11/12 14:13:25","新北市蘆洲區永平街12號","121.459333333333","25.0905116666667","6501400","蘆洲區"
"235013","251-BX","2019/11/12 14:13:28","新北市中和區景新街230巷3號","121.508225","24.9939833333333","6500300","中和區"
"228004","212-TW","2019/11/12 14:13:33","新北市貢寮區雙玉里下雙溪街10-3號","121.915438333333","25.0136316666667","6502600","貢寮區"
"228005","828-UM","2019/11/12 14:13:38","新北市貢寮區美豐里土地公嶺4號","121.896223333333","25.0602433333333","6502600","貢寮區"
"207002","749-BX","2019/11/12 14:13:29","新北市萬里區溪底里瑞泉路4號","121.609305","25.1460116666667","6502800","萬里區"
"207001","662-BX","2019/11/12 14:13:37","新北市萬里區磺潭里清水18號","121.637848333333","25.197575","6502800","萬里區"
"252005","AAC-283","2019/11/12 14:13:29","新北市三芝區橫山里大坑98-2號","121.5261","25.26112","6502100","三芝區"
"236040","KED-0685","2019/11/12 14:13:22","新北市土城區裕生路102巷2號","121.446921666667","24.9845966666667","6501300","土城區"
"220038","KED-0812","2019/11/12 14:13:39","新北市板橋區漢生西路50號","121.4631","25.018435","6500100","板橋區"
"236074","166-UM","2019/11/12 14:13:34","新北市土城區永寧路11號","121.430485","24.96411","6501300","土城區"
"236029","253-BX","2019/11/12 14:13:20","新北市土城區中央路二段251號","121.440003333333","24.971485","6501300","土城區"
"236024","269-VK","2019/11/12 14:13:30","新北市土城區忠承路101號","121.439165","24.9648933333333","6501300","土城區"
"236013","270-VK","2019/11/12 14:13:33","新北市土城區青雲路39巷7號","121.460333333333","24.9874933333333","6501300","土城區"
"236032","271-VK","2019/11/12 14:13:20","新北市土城區青雲路449-1號","121.458971666667","24.974705","6501300","土城區"
"247011","KED-0683","2019/11/12 14:13:38","新北市蘆洲區信義路298號","121.477586666667","25.08756","6501400","蘆洲區"
"236065","KEA-2877","2019/11/12 14:13:34","新北市土城區明德路一段193號","121.463801666667","24.9789666666667","6501300","土城區"
"236017","401-BY","2019/11/12 14:13:35","新北市土城區明德路一段385-1號","121.452825","24.9797433333333","6501300","土城區"
"236057","912-UM","2019/11/12 14:13:34","新北市土城區中央路四段207號","121.414095","24.9560383333333","6501300","土城區"
"236045","913-UM","2019/11/12 14:13:22","新北市土城區明德路一段365-1號","121.453578333333","24.97902","6501300","土城區"
"236060","915-UM","2019/11/12 14:13:29","新北市土城區金城路三段202-3號","121.46943","24.9885283333333","6501300","土城區"
"236054","AAC-216","2019/11/12 14:13:31","新北市土城區中華路二段92號","121.438316666667","24.9747366666667","6501300","土城區"
"221002","297-VK","2019/11/12 14:13:27","新北市汐止區大同路二段312巷14號","121.655833333333","25.0659433333333","6501100","汐止區"
"220027","145-BY","2019/11/12 14:13:21","新北市板橋區民權路202巷7弄22號","121.45924","25.0149866666667","6500100","板橋區"
"220028","200-UY","2019/11/12 14:13:31","新北市板橋區大觀路二段1巷28號","121.449371666667","25.0036116666667","6500100","板橋區"
"220030","610-BX","2019/11/12 14:13:36","新北市板橋區溪崑二街101號","121.426818333333","24.9889716666667","6500100","板橋區"
"220004","276-BY","2019/11/12 14:13:22","新北市板橋區信義路192號","121.459806666667","24.99118","6500100","板橋區"
"220020","277-BY","2019/11/12 14:13:22","新北市板橋區金門街363號","121.428498333333","24.9848733333333","6500100","板橋區"
"220050","280-UM","2019/11/12 14:13:33","新北市板橋區縣民大道三段121巷18號","121.476663333333","25.02328","6500100","板橋區"
"220043","283-UM","2019/11/12 14:13:24","新北市板橋區光武街110巷12號","121.466355","25.0296266666667","6500100","板橋區"
"220019","283-VK","2019/11/12 14:13:22","新北市板橋區重慶路353巷3號","121.464673333333","24.9980433333333","6500100","板橋區"
"220001","285-VK","2019/11/12 14:13:28","新北市板橋區永豐街146號","121.478125","25.0212","6500100","板橋區"
"220107","286-VK","2019/11/12 14:13:30","新北市板橋區大觀路二段174巷196弄12號","121.442915","25.0036833333333","6500100","板橋區"
"220029","287-VK","2019/11/12 14:13:27","新北市板橋區南雅東路29巷11號","121.453526666667","25.005455","6500100","板橋區"
"220039","288-VK","2019/11/12 14:13:37","新北市板橋區長江路一段106巷20弄11號","121.460196666667","25.0282133333333","6500100","板橋區"
"220009","293-UM","2019/11/12 14:13:28","新北市板橋區中山路二段211巷4號","121.476438333333","25.0173566666667","6500100","板橋區"
"220032","296-UM","2019/11/12 14:13:29","新北市板橋區溪北路73巷5號","121.428343333333","24.9898266666667","6500100","板橋區"
"220023","303-R5","2019/11/12 14:13:41","新北市板橋區南雅南路一段1巷21號","121.457038333333","25.00677","6500100","板橋區"
"220010","305-R5","2019/11/12 14:13:33","新北市板橋區三民路二段居仁巷1弄55-1號","121.481198333333","25.0136333333333","6500100","板橋區"
"220041","307-R5","2019/11/12 14:13:40","新北市板橋區光武街2巷51號","121.468613333333","25.02599","6500100","板橋區"
"220047","317-R6","2019/11/12 14:13:35","新北市板橋區四維路150號","121.46508","25.0256916666667","6500100","板橋區"
"220037","491-VK","2019/11/12 14:13:33","新北市板橋區雙十路二段231號","121.472875","25.02906","6500100","板橋區"
"220104","560-BX","2019/11/12 14:13:39","新北市板橋區中正路360巷51號","121.456226666667","25.0229133333333","6500100","板橋區"
"220052","561-BX","2019/11/12 14:13:32","新北市板橋區文化路一段270巷2號","121.467353333333","25.02058","6500100","板橋區"
"220011","609-BX","2019/11/12 14:13:20","新北市板橋區三民路二段206-1號","121.478655","25.0120766666667","6500100","板橋區"
"220040","637-BX","2019/11/12 14:13:18","新北市板橋區縣民大道三段187巷15號","121.479015","25.0252716666667","6500100","板橋區"
"220005","686-BX","2019/11/12 14:13:34","新北市中和區華順街118號","121.465215","24.9966","6500100","板橋區"
"220025","687-BX","2019/11/12 14:13:32","新北市板橋區龍興街30號","121.443025","25.0004366666667","6500100","板橋區"
"220042","689-BX","2019/11/12 14:13:23","新北市板橋區新海路150號","121.460635","25.0239366666667","6500100","板橋區"
"220002","741-BX","2019/11/12 14:13:22","新北市板橋區校前街33號","121.46051","25.003515","6500100","板橋區"
"220051","KEA-2699","2019/11/12 14:13:37","新北市板橋區松柏街1巷1號","121.473855","25.0294066666667","6500100","板橋區"
"220003","827-TW","2019/11/12 14:13:32","新北市板橋區新民街4巷20弄2號","121.46507","25.009845","6500100","板橋區"
"220016","830-TW","2019/11/12 14:13:29","新北市板橋區三民路一段1巷49號","121.480776666667","25.0248366666667","6500100","板橋區"
"220022","895-R6","2019/11/12 14:13:28","新北市板橋區民權路182號","121.459453333333","25.01339","6500100","板橋區"
"220021","985-R7","2019/11/12 14:13:35","新北市板橋區中正路191號","121.456426666667","25.016955","6500100","板橋區"
"220046","AAC-210","2019/11/12 14:13:40","新北市板橋區新海路82號","121.461763333333","25.0218933333333","6500100","板橋區"
"220012","AAC-253","2019/11/12 14:13:40","新北市板橋區中山路一段85號","121.461475","25.00997","6500100","板橋區"
"235032","KEA-2873","2019/11/12 14:13:17","新北市中和區景平路493巷3號","121.499865","24.9976566666667","6500300","中和區"
"235025","KEA-2875","2019/11/12 14:13:38","新北市中和區員山路145號","121.480898333333","24.9961833333333","6500300","中和區"
