"lineid","car","time","location","longitude","latitude","cityid","cityname"
"234026","9371-KE","2019/11/12 17:43:41","新北市永和區永和路184-1號","121.51427","25.009095","6500400","永和區"
"249005","172-UM","2019/11/12 17:43:37","新北市八里區荖阡坑路34-1號","121.402746666667","25.1297466666667","6502300","八里區"
"249001","173-UM","2019/11/12 17:43:32","新北市八里區龍米路二段153-8號","121.440118333333","25.15347","6502300","八里區"
"249004","303-UY","2019/11/12 17:43:34","新北市八里區中華路一段79巷9號","121.421","25.1564033333333","6502300","八里區"
"249002","305-UY","2019/11/12 17:43:27","新北市八里區龍形五街37巷20號","121.445853333333","25.1338483333333","6502300","八里區"
"249003","593-UM","2019/11/12 17:43:29","新北市八里區中山路二段212號","121.405421666667","25.1517883333333","6502300","八里區"
"232011","375-UM","2019/11/12 17:43:21","新北市坪林區北宜路八段97號","121.705931666667","24.9349116666667","6502000","坪林區"
"244007","080-UY","2019/11/12 17:43:31","新北市林口區佳林路1號","121.387318333333","25.0824683333333","6501700","林口區"
"244019","402-UM","2019/11/12 17:43:35","新北市林口區忠孝路542巷11弄9號","121.373788333333","25.0670733333333","6501700","林口區"
"244013","KEA-2802","2019/11/12 17:43:25","新北市林口區佳林路161號","121.385201666667","25.07902","6501700","林口區"
"244023","483-VK","2019/11/12 17:43:29","新北市林口區興林路438號","121.38901","25.0682133333333","6501700","林口區"
"244017","485-VK","2019/11/12 17:43:28","新北市林口區文化二路一段226號","121.36948","25.07238","6501700","林口區"
"244009","656-BX","2019/11/12 17:43:24","新北市林口區林口路297巷11號","121.38553","25.0844883333333","6501700","林口區"
"244011","701-TV","2019/11/12 17:43:39","新北市林口區中正路283號","121.389845","25.0776733333333","6501700","林口區"
"244025","837-TS","2019/11/12 17:43:35","新北市林口區文化三路一段175號","121.361973333333","25.0694266666667","6501700","林口區"
"244021","838-TS","2019/11/12 17:43:36","新北市林口區仁愛路一段123巷48號","121.397076666667","25.0711083333333","6501700","林口區"
"222003","436-BY","2019/11/12 17:43:27","新北市深坑區北深路二段106號","121.61685","25.0032666666667","6501800","深坑區"
"222002","659-BX","2019/11/12 17:43:32","新北市深坑區深南路1號","121.622043333333","25.00502","6501800","深坑區"
"241024","065-VK","2019/11/12 17:43:40","新北市三重區力行路二段9巷12號","121.483023333333","25.0721916666667","6500200","三重區"
"241016","266-UM","2019/11/12 17:43:29","新北市三重區重新路二段120號","121.496441666667","25.06158","6500200","三重區"
"241019","KEA-2593","2019/11/12 17:43:22","新北市三重區六張街263號","121.486935","25.0681133333333","6500200","三重區"
"241033","AAC-255","2019/11/12 17:43:37","新北市三重區光復路一段7號","121.472101666667","25.04713","6500200","三重區"
"235058","151-BY","2019/11/12 17:43:27","新北市中和區員山路36巷16-2號","121.485231666667","24.99148","6500300","中和區"
"247016","KEA-2869","2019/11/12 17:43:36","新北市蘆洲區中正路185巷31弄27號","121.466935","25.0836533333333","6501400","蘆洲區"
"247010","KED-0682","2019/11/12 17:43:40","新北市蘆洲區民族路31號","121.477338333333","25.0848266666667","6501400","蘆洲區"
"247006","893-R6","2019/11/12 17:43:30","新北市蘆洲區永安南路二段100號","121.46316","25.0781166666667","6501400","蘆洲區"
"247020","546-UM","2019/11/12 17:43:33","新北市蘆洲區民義街99號","121.473705","25.0908216666667","6501400","蘆洲區"
"247004","500-BY","2019/11/12 17:43:34","新北市蘆洲區長安街172巷10號","121.45954","25.0834983333333","6501400","蘆洲區"
"247024","057-VK","2019/11/12 17:43:26","新北市蘆洲區光榮路101巷28號","121.464006666667","25.09019","6501400","蘆洲區"
"247014","056-VK","2019/11/12 17:43:21","新北市蘆洲區中正路131號","121.46944","25.0846433333333","6501400","蘆洲區"
"247018","053-VK","2019/11/12 17:43:34","新北市蘆洲區三民路155號","121.471585","25.0868966666667","6501400","蘆洲區"
"247022","007-UY","2019/11/12 17:43:37","新北市蘆洲區中正路351號","121.465463333333","25.0896633333333","6501400","蘆洲區"
"247008","002-UY","2019/11/12 17:43:28","新北市蘆洲區和平路15號","121.472558333333","25.079235","6501400","蘆洲區"
"247002","001-UY","2019/11/12 17:43:27","新北市蘆洲區永平街32巷11弄1號","121.458755","25.0913316666667","6501400","蘆洲區"
"228001","212-TW","2019/11/12 17:43:30","新北市貢寮區真理里新港街26巷28-6號","121.92773","25.055395","6502600","貢寮區"
"228002","663-BX","2019/11/12 17:43:35","新北市貢寮區福隆里外隆林街14-1號","121.959105","25.0036133333333","6502600","貢寮區"
"228003","828-UM","2019/11/12 17:43:29","新北市貢寮區真理里延平街37號","121.924668333333","25.055355","6502600","貢寮區"
"224006","676-BX","2019/11/12 17:43:27","新北市瑞芳區瑞興新村12巷1號","121.788473333333","25.108385","6501200","瑞芳區"
"224009","275-VK","2019/11/12 17:43:35","新北市瑞芳區金光路316巷15號","121.850323333333","25.1080166666667","6501200","瑞芳區"
"224008","273-VK","2019/11/12 17:43:27","新北市瑞芳區明燈路一段18巷6號","121.821986666667","25.1075966666667","6501200","瑞芳區"
"224005","271-BY","2019/11/12 17:43:38","新北市瑞芳區海濱路38-1號","121.831098333333","25.1234483333333","6501200","瑞芳區"
"227001","642-TC","2019/11/12 17:21:40","新北市雙溪區三貂里政光路3-1號","121.850831666667","25.0633816666667","6502500","雙溪區"
"227002","400-TW","2019/11/12 17:43:22","新北市雙溪區共和里東榮街52號","121.866295","25.03363","6502500","雙溪區"
"253006","295-VK","2019/11/12 17:43:24","新北市石門區中山路33號","121.567113333333","25.2908766666667","6502200","石門區"
"251004","009-UM","2019/11/12 17:43:27","新北市淡水區民權路39號","121.459325","25.140685","6501000","淡水區"
"251005","010-UM","2019/11/12 17:43:27","新北市淡水區鄧公路35巷1號","121.451656666667","25.1713933333333","6501000","淡水區"
"251002","012-UM","2019/11/12 17:43:22","新北市淡水區中山路141號","121.440803333333","25.17173","6501000","淡水區"
"251015","KEA-2871","2019/11/12 17:43:23","新北市淡水區糞箕湖50號","121.485285","25.1709516666667","6501000","淡水區"
"251016","180-VK","2019/11/12 17:43:24","新北市淡水區埤島39-15號","121.45276","25.1958733333333","6501000","淡水區"
"251008","181-VK","2019/11/12 17:43:36","新北市淡水區八勢路一段123巷14號","121.46674","25.1577183333333","6501000","淡水區"
"251013","182-VK","2019/11/12 17:43:23","新北市淡水區演戲埔腳3-3號","121.473453333333","25.19222","6501000","淡水區"
"251010","413-VK","2019/11/12 17:43:30","新北市淡水區淡海路280巷33弄34-2號","121.4187","25.1885866666667","6501000","淡水區"
"251012","441-VK","2019/11/12 17:43:30","新北市淡水區北新路一段12號","121.454113333333","25.1810033333333","6501000","淡水區"
"251007","442-VK","2019/11/12 17:43:37","新北市淡水區民生路52巷46號","121.463176666667","25.13775","6501000","淡水區"
"251006","561-UM","2019/11/12 17:43:20","新北市淡水區大信街24巷2號","121.441928333333","25.1766733333333","6501000","淡水區"
"251009","575-R6","2019/11/12 17:43:26","新北市淡水區中正路38-1號","121.443758333333","25.1692616666667","6501000","淡水區"
"251014","577-R6","2019/11/12 17:43:28","新北市淡水區北勢子19-1號","121.479903333333","25.22754","6501000","淡水區"
"251011","650-BX","2019/11/12 17:43:36","新北市淡水區小坪頂85號","121.485208333333","25.15964","6501000","淡水區"
"251003","673-BX","2019/11/12 17:43:42","新北市淡水區中山北路一段104號","121.442701666667","25.1765516666667","6501000","淡水區"
"207003","681-TV","2019/11/12 17:43:19","新北市萬里區龜吼里漁澳路61-1號","121.687216666667","25.19522","6502800","萬里區"
"207004","291-VK","2019/11/12 17:43:24","新北市萬里區中幅里中福路8-1號","121.685675","25.1645016666667","6502800","萬里區"
"252002","178-VK","2019/11/12 17:43:38","新北市三芝區中正路二段2號","121.504885","25.2557333333333","6502100","三芝區"
"237004","KEA-2597","2019/11/12 17:43:39","新北市三峽區中山路321-2號","121.360833333333","24.938025","6500900","三峽區"
"237009","210-TH","2019/11/12 17:43:22","新北市三峽區中山路198號","121.363143333333","24.9371466666667","6500900","三峽區"
"237013","252-BX","2019/11/12 17:43:23","新北市三峽區安溪路309巷9號","121.373475","24.9333333333333","6500900","三峽區"
"237014","433-BY","2019/11/12 17:43:33","新北市三峽區中山路166號","121.364563333333","24.9365383333333","6500900","三峽區"
"237011","KEA-2596","2019/11/12 17:43:28","新北市三峽區中山路107巷10號","121.364985","24.9355016666667","6500900","三峽區"
"237010","706-TV","2019/11/12 17:43:33","新北市三峽區中山路121號","121.365503333333","24.9359483333333","6500900","三峽區"
"237005","AKY-6261","2019/11/12 17:43:39","新北市三峽區中山路459巷135號","121.348701666667","24.9329366666667","6500900","三峽區"
"236042","KED-0685","2019/11/12 17:43:21","新北市土城區城林路6巷80號","121.438515","24.97959","6501300","土城區"
"233002","762-BX","2019/11/12 17:35:33","新北市烏來區烏來街29號","121.55135","24.8652","6502900","烏來區"
"236079","166-UM","2019/11/12 17:43:27","新北市土城區中央路三段50號","121.437146666667","24.967575","6501300","土城區"
"236030","253-BX","2019/11/12 17:43:38","新北市土城區城林路6巷80號","121.438666666667","24.9796516666667","6501300","土城區"
"236026","269-VK","2019/11/12 17:43:13","新北市土城區城林路6巷80號","121.438378333333","24.9795433333333","6501300","土城區"
"236014","270-VK","2019/11/12 17:43:35","新北市土城區城林路6巷80號","121.438496666667","24.9795816666667","6501300","土城區"
"236038","271-VK","2019/11/12 17:43:25","新北市土城區城林路6巷80號","121.438475","24.9796733333333","6501300","土城區"
"247012","KED-0683","2019/11/12 17:43:21","新北市蘆洲區民權路35號","121.475738333333","25.0864216666667","6501400","蘆洲區"
"236070","KEA-2877","2019/11/12 17:43:26","新北市土城區明德路二段203號","121.446696666667","24.983625","6501300","土城區"
"252001","KED-0821","2019/11/12 17:43:33","新北市三芝區淡金路一段32號","121.500196666667","25.2592466666667","6502100","三芝區"
"236021","401-BY","2019/11/12 17:43:37","新北市土城區城林路6巷80號","121.438516666667","24.9795966666667","6501300","土城區"
"236059","912-UM","2019/11/12 17:43:33","新北市土城區城林路6巷80號","121.438516666667","24.9797516666667","6501300","土城區"
"236063","915-UM","2019/11/12 17:43:33","新北市土城區城林路6巷80號","121.438678333333","24.97962","6501300","土城區"
"236055","AAC-216","2019/11/12 17:43:29","新北市土城區城林路6巷80號","121.438503333333","24.9795866666667","6501300","土城區"
"242042","AAC-296","2019/11/12 17:43:32","新北市泰山區台麗街93-6號","121.428556666667","25.0359783333333","6500500","新莊區"
"242061","986-R7","2019/11/12 17:43:24","新北市新莊區瓊林南路131號","121.434508333333","25.0124816666667","6500500","新莊區"
"242005","751-BX","2019/11/12 17:43:25","新北市新莊區自立街216號","121.457143333333","25.0453133333333","6500500","新莊區"
"242029","615-BX","2019/11/12 17:43:30","新北市新莊區復興路一段101號","121.449038333333","25.042885","6500500","新莊區"
"242027","613-BX","2019/11/12 17:43:30","新北市新莊區福壽街126-5號","121.457745","25.0512183333333","6500500","新莊區"
"242058","612-BX","2019/11/12 17:43:38","新北市新莊區中正路674號","121.42075","25.0284","6500500","新莊區"
"242048","566-BX","2019/11/12 17:43:31","新北市新莊區萬安街135號","121.420571666667","25.0220983333333","6500500","新莊區"
"242054","497-BY","2019/11/12 17:43:20","新北市新莊區新樹路609-5號","121.433238333333","25.004355","6500500","新莊區"
"242051","442-UM","2019/11/12 17:43:29","新北市新莊區西盛街230號","121.428091666667","25.0163966666667","6500500","新莊區"
"242002","441-UM","2019/11/12 17:43:31","新北市新莊區新莊路393號","121.451276666667","25.033735","6500500","新莊區"
"242044","415-TV","2019/11/12 17:43:36","新北市新莊區中正路871巷9弄31號","121.419526666667","25.0268766666667","6500500","新莊區"
"242013","413-TV","2019/11/12 17:43:28","新北市新莊區中誠街144號","121.448738333333","25.04755","6500500","新莊區"
"242025","362-BY","2019/11/12 17:43:20","新北市新莊區思源路487號","121.460166666667","25.05601","6500500","新莊區"
"242023","353-BY","2019/11/12 17:43:21","新北市新莊區民樂街74號","121.457931666667","25.04352","6500500","新莊區"
"242015","132-UY","2019/11/12 17:43:26","新北市新莊區新泰路319號","121.44506","25.0414666666667","6500500","新莊區"
"242056","172-VK","2019/11/12 17:43:38","新北市新莊區瓊林路13-8號","121.448093333333","25.03015","6500500","新莊區"
"242017","173-VK","2019/11/12 17:43:40","新北市新莊區中和街1號","121.448396666667","25.042975","6500500","新莊區"
"242032","175-VK","2019/11/12 17:43:38","新北市新莊區新泰路349號","121.444743333333","25.04213","6500500","新莊區"
"242021","KED-0687","2019/11/12 17:43:33","新北市新莊區中華路一段226號","121.452628333333","25.04305","6500500","新莊區"
"242007","346-TH","2019/11/12 17:43:33","新北市新莊區福樂街116號","121.457298333333","25.0479066666667","6500500","新莊區"
"242039","347-TH","2019/11/12 17:43:21","新北市新莊區民安西路3號","121.426686666667","25.0219166666667","6500500","新莊區"
"242037","348-TH","2019/11/12 17:43:37","新北市新莊區後港一路138號","121.429693333333","25.0274066666667","6500500","新莊區"
"242009","349-TH","2019/11/12 17:43:32","新北市新莊區福壽街169巷13號","121.456775","25.0536233333333","6500500","新莊區"
"242034","350-TH","2019/11/12 17:43:37","新北市新莊區新莊路677號","121.444565","25.03286","6500500","新莊區"
"242019","351-TH","2019/11/12 17:43:22","新北市新莊區中港路257號","121.453866666667","25.043185","6500500","新莊區"
"238023","601-UM","2019/11/12 17:43:38","新北市樹林區福興街13巷7號","121.404255","25.016765","6500700","樹林區"
"238019","599-UM","2019/11/12 17:43:39","新北市樹林區中華路82號","121.41901","24.981345","6500700","樹林區"
"238015","571-TV","2019/11/12 17:43:36","新北市樹林區大安路249巷11號","121.419896666667","24.9940683333333","6500700","樹林區"
"238018","KEA-2217","2019/11/12 17:43:28","新北市樹林區博愛街92號","121.426881666667","24.9917683333333","6500700","樹林區"
"238022","KEA-2213","2019/11/12 17:43:27","新北市樹林區太元街54號","121.41843","24.97955","6500700","樹林區"
"238021","KEA-2539","2019/11/12 17:43:35","新北市樹林區柑園街一段56號","121.403263333333","24.9602283333333","6500700","樹林區"
"238025","303-VK","2019/11/12 17:43:38","新北市樹林區三俊街50號","121.412311666667","25.0155716666667","6500700","樹林區"
"238017","283-BY","2019/11/12 17:43:41","新北市樹林區三德街30巷3號","121.41463","25.0129516666667","6500700","樹林區"
"238014","282-BY","2019/11/12 17:43:30","新北市樹林區保安街一段211號","121.420646666667","24.9961633333333","6500700","樹林區"
"238020","268-VK","2019/11/12 17:43:34","新北市樹林區俊英街116巷2號","121.427766666667","25.0057633333333","6500700","樹林區"
"238026","172-UY","2019/11/12 17:43:24","新北市樹林區新興街19巷36弄2號","121.402343333333","24.9733333333333","6500700","樹林區"
"238016","169-UY","2019/11/12 17:43:23","新北市樹林區啟智街129-5號","121.417868333333","24.989105","6500700","樹林區"
"239007","AAC-297","2019/11/12 17:43:39","新北市鶯歌區永安街26號","121.337653333333","24.9556916666667","6500800","鶯歌區"
"239006","891-R6","2019/11/12 17:43:20","新北市鶯歌區永和街115巷66-1號","121.33354","24.969865","6500800","鶯歌區"
"239008","527-UM","2019/11/12 17:43:30","新北市鶯歌區大湖路700巷22弄3號","121.333758333333","24.9770933333333","6500800","鶯歌區"
"239005","526-UM","2019/11/12 17:43:15","新北市鶯歌區鳳吉四街16號","121.326733333333","24.972635","6500800","鶯歌區"
"239001","417-VK","2019/11/12 17:43:18","新北市鶯歌區中正三路313號","121.328861666667","24.9358816666667","6500800","鶯歌區"
"239003","360-BY","2019/11/12 17:43:20","新北市鶯歌區鶯桃路206巷50號","121.338056666667","24.9601366666667","6500800","鶯歌區"
"239002","359-BY","2019/11/12 17:43:33","新北市鶯歌區育賢街35-3號","121.343855","24.9542816666667","6500800","鶯歌區"
"239004","193-VK","2019/11/12 17:43:28","新北市鶯歌區三鶯路135-1號","121.361321666667","24.9455716666667","6500800","鶯歌區"
"221008","489-VK","2019/11/12 17:43:24","新北市汐止區康寧街901號","121.651466666667","25.0750383333333","6501100","汐止區"
"221010","269-BY","2019/11/12 17:43:27","新北市汐止區汐萬路一段418巷46號","121.651098333333","25.0791583333333","6501100","汐止區"
"233001","KEA-2870","2019/11/12 17:43:20","新北市烏來區娃娃谷55號","121.529195","24.8405716666667","6502900","烏來區"
"242046","281-VK","2019/11/12 17:43:35","新北市新莊區福營路103號","121.43388","25.03227","6500500","新莊區"
"242011","280-VK","2019/11/12 17:43:38","新北市新莊區榮華路二段2號","121.450823333333","25.055785","6500500","新莊區"
