"lineid","car","time","location","longitude","latitude","cityid","cityname"
"234046","148-BY","2019/11/12 18:43:37","新北市永和區永元路40巷46弄1號","121.5239","25.0005316666667","6500400","永和區"
"234081","298-R6","2019/11/12 18:43:23","新北市永和區林森路81號","121.523953333333","25.00379","6500400","永和區"
"234038","336-UY","2019/11/12 18:43:38","新北市永和區環河東路二段102號","121.52451","25.010505","6500400","永和區"
"234086","338-UY","2019/11/12 18:43:34","新北市中和區安樂路69-1號","121.512533333333","24.9938083333333","6500400","永和區"
"234017","745-BX","2019/11/12 18:43:26","新北市永和區光復街60巷4弄20號","121.517258333333","25.017845","6500400","永和區"
"234030","746-BX","2019/11/12 18:43:30","新北市永和區得和路328號","121.523355","24.999525","6500400","永和區"
"234007","KED-0605","2019/11/12 18:43:36","新北市永和區文化路123號","121.512155","25.0153283333333","6500400","永和區"
"234013","KEA-2591","2019/11/12 18:43:32","新北市永和區保福路二段105號","121.510243333333","25.0133216666667","6500400","永和區"
"234061","AAD-866","2019/11/12 18:43:31","新北市永和區環河東路二段92號","121.524411666667","25.010615","6500400","永和區"
"234042","862-TW","2019/11/12 18:43:25","新北市永和區永和路一段118號","121.513948333333","25.0078633333333","6500400","永和區"
"234026","9371-KE","2019/11/12 18:43:40","新北市永和區永和路一段70號","121.513161666667","25.006185","6500400","永和區"
"234011","9373-KE","2019/11/12 18:43:34","新北市永和區仁愛路31巷2弄7號","121.513773333333","25.0128383333333","6500400","永和區"
"249005","172-UM","2019/11/12 18:43:37","新北市八里區長道坑16-5號","121.394375","25.11726","6502300","八里區"
"249001","173-UM","2019/11/12 18:43:32","新北市八里區龍米路一段263-2號","121.449938333333","25.136235","6502300","八里區"
"249004","303-UY","2019/11/12 18:43:33","新北市八里區中山路一段63號","121.418473333333","25.159555","6502300","八里區"
"249002","305-UY","2019/11/12 18:43:27","新北市八里區頂寮二街138號","121.449323333333","25.1294183333333","6502300","八里區"
"249003","593-UM","2019/11/12 18:22:56","新北市八里區博物館路10-1號","121.415088333333","25.1639566666667","6502300","八里區"
"248014","025-BX","2019/11/12 18:43:28","新北市五股區成泰路二段252號","121.440533333333","25.08723","6501500","五股區"
"248016","026-BX","2019/11/12 18:43:38","新北市五股區凌雲路一段149巷13-1號","121.448615","25.1008533333333","6501500","五股區"
"248008","KED-0815","2019/11/12 18:43:23","新北市五股區中興路一段151巷9號","121.465215","25.0727033333333","6501500","五股區"
"248020","KED-0813","2019/11/12 18:43:36","新北市五股區凌雲路三段田埔巷25-2號","121.437181666667","25.1230566666667","6501500","五股區"
"248012","247-BX","2019/11/12 18:43:30","新北市五股區成泰路二段147巷22-3號","121.438286666667","25.08711","6501500","五股區"
"248004","677-BX","2019/11/12 18:43:30","新北市五股區民義路一段314號","121.42187","25.0958516666667","6501500","五股區"
"248002","678-BX","2019/11/12 18:43:38","新北市五股區西雲路245號","121.44915","25.0978116666667","6501500","五股區"
"248010","682-TV","2019/11/12 18:43:23","新北市五股區水碓九路71號","121.43019","25.0731033333333","6501500","五股區"
"234023","9380-KE","2019/11/12 18:43:36","新北市永和區豫溪街191巷3弄2號","121.523468333333","25.0104483333333","6500400","永和區"
"234077","969-R7","2019/11/12 18:43:20","新北市永和區中正路47號","121.514521666667","24.9961916666667","6500400","永和區"
"234067","AAC-212","2019/11/12 18:43:33","新北市永和區永貞路141號","121.51633","25.004165","6500400","永和區"
"234003","AAC-295","2019/11/12 18:43:41","新北市永和區豫溪街217巷29號","121.524523333333","25.0104266666667","6500400","永和區"
"232011","375-UM","2019/11/12 18:18:13","新北市坪林區坪雙路一段41號","121.711675","24.9424566666667","6502000","坪林區"
"244007","080-UY","2019/11/12 18:43:31","新北市林口區太平里2鄰10號","121.378873333333","25.11444","6501700","林口區"
"244019","402-UM","2019/11/12 18:43:35","新北市林口區麗園二街1巷1號","121.377378333333","25.069785","6501700","林口區"
"244013","KEA-2802","2019/11/12 18:43:25","新北市林口區麗園一街6巷5-3號","121.375356666667","25.0703433333333","6501700","林口區"
"244023","483-VK","2019/11/12 18:43:29","新北市林口區信義路180號","121.378926666667","25.08021","6501700","林口區"
"244017","485-VK","2019/11/12 18:43:28","新北市林口區文化二路一段269號","121.367441666667","25.070725","6501700","林口區"
"244009","656-BX","2019/11/12 18:43:24","新北市林口區竹林路446巷1弄2號","121.388535","25.0857733333333","6501700","林口區"
"244011","701-TV","2019/11/12 18:43:19","新北市林口區中正路41巷5號","121.395778333333","25.0768983333333","6501700","林口區"
"244025","837-TS","2019/11/12 18:43:35","新北市林口區南勢里53-6號","121.355095","25.07484","6501700","林口區"
"244021","838-TS","2019/11/12 18:43:30","新北市林口區工六路100號","121.401265","25.0765266666667","6501700","林口區"
"243012","AAD-798","2019/11/12 18:43:25","新北市泰山區福興三街13號","121.434461666667","25.0577883333333","6501600","泰山區"
"243016","421-VK","2019/11/12 18:43:24","新北市泰山區泰林路二段222號","121.432603333333","25.0618833333333","6501600","泰山區"
"222003","436-BY","2019/11/12 18:43:27","新北市深坑區翠谷街17巷40號","121.625371666667","25.0100516666667","6501800","深坑區"
"222002","659-BX","2019/11/12 18:43:31","新北市深坑區文山路一段64號","121.623526666667","25.00077","6501800","深坑區"
"231042","001-UM","2019/11/12 18:43:33","新北市新店區安華路28-1號","121.519458333333","24.9607983333333","6500600","新店區"
"231061","002-UM","2019/11/12 18:43:20","新北市新店區安華路28-1號","121.519838333333","24.96084","6500600","新店區"
"231055","0291-UT","2019/11/12 18:43:15","新北市新店區北新路一段271巷33號","121.53975","24.9670983333333","6500600","新店區"
"231044","046-UY","2019/11/12 18:43:38","新北市新店區安一路一段1-1號","121.51978","24.961535","6500600","新店區"
"231060","106-UY","2019/11/12 18:43:27","新北市新店區安華路28-1號","121.519593333333","24.960795","6500600","新店區"
"231051","107-UY","2019/11/12 18:43:32","新北市新店區中央路81號","121.532325","24.9765983333333","6500600","新店區"
"231049","108-UY","2019/11/12 18:43:32","新北市新店區安康路一段206號","121.524063333333","24.9634716666667","6500600","新店區"
"231065","110-UY","2019/11/12 18:43:01","新北市新店區安忠路57巷13號","121.513521666667","24.957475","6500600","新店區"
"231062","256-BX","2019/11/12 18:43:37","新北市新店區安一路一段1-1號","121.51961","24.9611","6500600","新店區"
"231054","260-TV","2019/11/12 18:43:26","新北市新店區安一路一段1-1號","121.519148333333","24.9611683333333","6500600","新店區"
"231064","278-BY","2019/11/12 18:43:24","新北市新店區安一路一段1-1號","121.519755","24.96117","6500600","新店區"
"231050","AAD-862","2019/11/12 18:43:35","新北市新店區安華路28-1號","121.519881666667","24.9610216666667","6500600","新店區"
"231045","355-BY","2019/11/12 18:43:22","新北市新店區安華路28-1號","121.519078333333","24.9608116666667","6500600","新店區"
"231058","3713-VJ","2019/11/12 18:43:28","新北市新店區北宜路一段170號","121.54052","24.9529283333333","6500600","新店區"
"231056","4715-K9","2019/11/12 18:43:26","新北市新店區大豐路71號","121.539275","24.9794916666667","6500600","新店區"
"231067","4772-VM","2019/11/12 18:43:26","新北市新店區安華路3號","121.51898","24.9605883333333","6500600","新店區"
"231053","513-UM","2019/11/12 18:43:31","新北市新店區永興路34號","121.543625","24.9387766666667","6500600","新店區"
"231040","617-UM","2019/11/12 18:43:24","新北市新店區安華路28-1號","121.519125","24.9609383333333","6500600","新店區"
"231063","641-BX","2019/11/12 18:43:33","新北市新店區安華路1-1號","121.519646666667","24.9604316666667","6500600","新店區"
"231048","KED-0819","2019/11/12 18:43:31","新北市新店區秀山路72號","121.531241666667","24.9608783333333","6500600","新店區"
"231046","719-UM","2019/11/12 18:43:30","新北市新店區直潭二街1號","121.535415","24.9431333333333","6500600","新店區"
"231057","720-UM","2019/11/12 18:43:26","新北市新店區新烏路一段65號","121.546145","24.9442","6500600","新店區"
"231043","899-TW","2019/11/12 18:43:29","新北市新店區安華路28-1號","121.519276666667","24.9608416666667","6500600","新店區"
"231066","AKT-0513","2019/11/12 18:43:38","新北市新店區安華路1-1號","121.519408333333","24.96027","6500600","新店區"
"241035","462-BY","2019/11/12 18:43:37","新北市三重區重新路四段121號","121.484871666667","25.05197","6500200","三重區"
"235066","003-UY","2019/11/12 18:43:41","新北市中和區水源路34巷6號","121.504683333333","25.0031716666667","6500300","中和區"
"235064","005-UY","2019/11/12 18:43:25","新北市中和區泰和街50號","121.498918333333","24.999535","6500300","中和區"
"235063","006-UY","2019/11/12 18:43:42","新北市中和區連城路299號","121.49","24.9962566666667","6500300","中和區"
"235056","096-UM","2019/11/12 18:43:34","新北市中和區員山路492號","121.479755","25.0070183333333","6500300","中和區"
"235039","097-UM","2019/11/12 18:43:23","新北市中和區安樂路143巷20號","121.513198333333","24.9967683333333","6500300","中和區"
"235065","098-UM","2019/11/12 18:43:39","新北市中和區中山路二段2巷49號","121.502048333333","25.0071683333333","6500300","中和區"
"235040","150-BY","2019/11/12 18:43:25","新北市中和區保健路106巷6弄19號","121.511186666667","24.9958166666667","6500300","中和區"
"235058","151-BY","2019/11/12 18:43:27","新北市中和區連城路428巷7號","121.4798","24.99532","6500300","中和區"
"235055","183-VK","2019/11/12 18:43:39","新北市中和區民生街85巷2弄1號","121.468993333333","25.0044966666667","6500300","中和區"
"235038","185-VK","2019/11/12 18:43:35","新北市中和區自強路62巷1號","121.519705","24.9944716666667","6500300","中和區"
"235067","255-BX","2019/11/12 18:43:40","新北市中和區中正路853號","121.484598333333","25.0029783333333","6500300","中和區"
"235044","293-VK","2019/11/12 18:43:38","新北市中和區復興路280巷19號","121.502223333333","24.9915916666667","6500300","中和區"
"235072","301-VK","2019/11/12 18:43:35","新北市永和區中山路一段320號","121.506738333333","25.0069766666667","6500300","中和區"
"235043","352-BY","2019/11/12 18:43:31","新北市中和區景平路63-1號","121.520058333333","24.9911266666667","6500300","中和區"
"235042","KEA-2878","2019/11/12 18:43:36","新北市中和區秀朗路三段135巷7弄6號","121.525501666667","24.991865","6500300","中和區"
"235050","4979-A6","2019/11/12 18:43:28","新北市中和區忠孝街124巷6號","121.512653333333","24.986","6500300","中和區"
"235069","4980-A6","2019/11/12 18:43:36","新北市中和區南山路75號","121.502018333333","24.99816","6500300","中和區"
"235070","558-UM","2019/11/12 18:43:36","新北市中和區安和路215號","121.505891666667","24.9990716666667","6500300","中和區"
"235045","565-BX","2019/11/12 18:43:25","新北市中和區捷運路59號","121.509148333333","24.9897116666667","6500300","中和區"
"235060","KED-0823","2019/11/12 18:43:29","新北市中和區民治街3巷1號","121.474935","25.0053483333333","6500300","中和區"
"235054","640-BX","2019/11/12 18:43:32","新北市中和區民享街29巷1-1號","121.473995","25.0045116666667","6500300","中和區"
"235047","732-UM","2019/11/12 18:43:37","新北市中和區興南路二段113巷2號","121.505653333333","24.9843866666667","6500300","中和區"
"235046","733-UM","2019/11/12 18:43:40","新北市中和區仁愛街36巷30號","121.5111","24.986925","6500300","中和區"
"235057","801-TS","2019/11/12 18:43:25","新北市中和區民利街19-3號","121.480396666667","24.999065","6500300","中和區"
"235041","802-TS","2019/11/12 18:43:37","新北市中和區中安街226號","121.512228333333","24.99873","6500300","中和區"
"235052","805-TS","2019/11/12 18:43:35","新北市中和區興南路三段25號","121.49685","24.97872","6500300","中和區"
"235048","896-TW","2019/11/12 18:43:22","新北市中和區南山路479號","121.507908333333","24.988205","6500300","中和區"
"235053","900-TW","2019/11/12 18:43:40","新北市中和區華順街103巷1號","121.465401666667","24.997385","6500300","中和區"
"235062","911-UM","2019/11/12 18:43:33","新北市中和區中山路二段356號","121.492895","25.0029733333333","6500300","中和區"
"235051","157-BY","2019/11/12 18:43:22","新北市中和區華新街143巷106弄2號","121.505766666667","24.9795416666667","6500300","中和區"
"235037","AAC-213","2019/11/12 18:43:41","新北市中和區秀朗路三段128巷25弄6號","121.524021666667","24.99392","6500300","中和區"
"235059","AAC-215","2019/11/12 18:43:28","新北市中和區錦和路408號","121.49114","24.9897183333333","6500300","中和區"
"220065","072-UY","2019/11/12 18:43:21","新北市板橋區成都街43號","121.461333333333","25.00488","6500100","板橋區"
"220106","075-UY","2019/11/12 18:43:32","新北市板橋區民生路二段120號","121.470351666667","25.01965","6500100","板橋區"
"220069","AAD-861","2019/11/12 18:43:38","新北市板橋區大華街110號","121.458921666667","25.0051566666667","6500100","板橋區"
"226004","312-R5","2019/11/12 18:43:37","新北市平溪區平溪里三坑路50號","121.73381","25.0298983333333","6502400","平溪區"
"235049","251-BX","2019/11/12 18:43:33","新北市中和區景安路132巷4弄1號","121.504771666667","24.9943333333333","6500300","中和區"
"228001","212-TW","2019/11/12 18:43:30","新北市貢寮區仁理村研海街12-1號","121.923761666667","25.0516583333333","6502600","貢寮區"
"228002","663-BX","2019/11/12 18:43:35","新北市貢寮區福隆里東興街6-11號","121.950768333333","25.0210683333333","6502600","貢寮區"
"228003","828-UM","2019/11/12 18:43:29","新北市貢寮區和美里龍洞街1-5號","121.9192","25.1124","6502600","貢寮區"
"224010","AGQ-8101","2019/11/12 18:43:41","新北市瑞芳區基山街63號","121.845185","25.1085733333333","6501200","瑞芳區"
"224006","676-BX","2019/11/12 18:43:27","新北市瑞芳區明燈路三段85-1號","121.804966666667","25.1081466666667","6501200","瑞芳區"
"224007","285-BY","2019/11/12 18:43:32","新北市瑞芳區大埔路東泰新村2號","121.761455","25.1012583333333","6501200","瑞芳區"
"224009","275-VK","2019/11/12 18:43:25","新北市瑞芳區祈堂路53-1號","121.859578333333","25.1104533333333","6501200","瑞芳區"
"224008","273-VK","2019/11/12 18:43:27","新北市瑞芳區逢甲路272號","121.804825","25.1108183333333","6501200","瑞芳區"
"224005","271-BY","2019/11/12 18:43:38","新北市瑞芳區瑞濱路32號","121.826343333333","25.1215516666667","6501200","瑞芳區"
"227001","642-TC","2019/11/12 18:43:29","新北市雙溪區牡丹里下坑11號","121.851013333333","25.0561766666667","6502500","雙溪區"
"227002","400-TW","2019/11/12 18:43:22","新北市雙溪區魚行里坤溪3-5號","121.876195","25.02081","6502500","雙溪區"
"253005","032-BX","2019/11/12 18:43:33","新北市石門區中山路28-3號","121.56582","25.2899116666667","6502200","石門區"
"253006","295-VK","2019/11/12 18:43:24","新北市石門區八甲1號","121.521271666667","25.284105","6502200","石門區"
"222001","KEA-2212","2019/11/12 18:43:37","新北市深坑區松柏街38號","121.638788333333","25.0114666666667","6501800","深坑區"
"208002","KEA-2872","2019/11/12 18:43:34","新北市金山區仁愛路33號","121.636565","25.2193583333333","6502700","金山區"
"208003","665-BX","2019/11/12 18:43:26","新北市金山區中山路393號","121.633433333333","25.2252616666667","6502700","金山區"
"251001","011-UM","2019/11/12 18:43:28","新北市淡水區自強路166號","121.465525","25.1341066666667","6501000","淡水區"
"251002","012-UM","2019/11/12 18:43:22","新北市淡水區中正東路71號","121.447328333333","25.1675083333333","6501000","淡水區"
"251015","KEA-2871","2019/11/12 18:43:23","新北市淡水區興福寮66巷109號","121.486983333333","25.1614966666667","6501000","淡水區"
"251016","180-VK","2019/11/12 18:43:24","新北市淡水區下圭柔山76-13號","121.444645","25.2054433333333","6501000","淡水區"
"251008","181-VK","2019/11/12 18:43:36","新北市淡水區北投子18號","121.453915","25.1840183333333","6501000","淡水區"
"251013","182-VK","2019/11/12 18:43:23","新北市淡水區雲廣坑5-1號","121.474273333333","25.2130333333333","6501000","淡水區"
"251010","413-VK","2019/11/12 18:43:36","新北市淡水區沙崙路133號","121.422916666667","25.1825783333333","6501000","淡水區"
"251012","441-VK","2019/11/12 18:43:30","新北市淡水區北新路117號","121.448955","25.1786","6501000","淡水區"
"251006","561-UM","2019/11/12 18:43:19","新北市淡水區崁頂36號","121.43894","25.1946366666667","6501000","淡水區"
"251014","577-R6","2019/11/12 18:43:28","新北市淡水區崙頂12-8號","121.495611666667","25.217195","6501000","淡水區"
"251011","650-BX","2019/11/12 18:43:36","新北市淡水區平遠街1-4號","121.448016666667","25.167645","6501000","淡水區"
"251003","673-BX","2019/11/12 18:43:34","新北市淡水區北新路69巷26號","121.446705","25.1801066666667","6501000","淡水區"
"207003","681-TV","2019/11/12 18:43:19","新北市萬里區野柳里港東路154號","121.689595","25.2050483333333","6502800","萬里區"
"207004","291-VK","2019/11/12 18:43:24","新北市萬里區萬里里獅頭路10-1號","121.692193333333","25.1788983333333","6502800","萬里區"
"252002","178-VK","2019/11/12 18:43:38","新北市三芝區民生街2號","121.5037","25.25735","6502100","三芝區"
"252003","249-BX","2019/11/12 18:43:37","新北市三芝區後厝里大片頭85-9號","121.458641666667","25.24371","6502100","三芝區"
"208001","170-UY","2019/11/12 18:43:41","新北市金山區文化三路66巷1號","121.634271666667","25.2256283333333","6502700","金山區"
"237004","KEA-2597","2019/11/12 18:43:39","新北市三峽區插角222號","121.415003333333","24.8676933333333","6500900","三峽區"
"237007","153-BY","2019/11/12 18:43:41","新北市三峽區柑樹路2巷21號","121.36211","24.904485","6500900","三峽區"
"237009","210-TH","2019/11/12 18:43:22","新北市三峽區弘園街26號","121.366306666667","24.9272416666667","6500900","三峽區"
"237013","252-BX","2019/11/12 18:43:23","新北市三峽區大同路48巷17弄8-1號","121.376715","24.92904","6500900","三峽區"
"237012","275-BY","2019/11/12 18:43:26","新北市三峽區三樹路340號","121.383955","24.9433383333333","6500900","三峽區"
"237008","302-VK","2019/11/12 18:43:24","新北市三峽區白雞33-48號","121.370773333333","24.9124866666667","6500900","三峽區"
"237014","433-BY","2019/11/12 18:43:33","新北市三峽區復興路480巷52-1號","121.361718333333","24.9409016666667","6500900","三峽區"
"237006","5529-G3","2019/11/12 18:43:32","新北市三峽區溪東路313號","121.410533333333","24.930615","6500900","三峽區"
"237011","KEA-2596","2019/11/12 18:43:28","新北市三峽區溪東路405號","121.412283333333","24.928795","6500900","三峽區"
"237015","649-BX","2019/11/12 18:43:36","新北市三峽區安坑12-2號","121.443138333333","24.9264116666667","6500900","三峽區"
"237010","706-TV","2019/11/12 18:43:33","新北市三峽區復興路487號","121.361296666667","24.938415","6500900","三峽區"
"237005","AKY-6261","2019/11/12 18:43:39","新北市三峽區民生街104巷3-1號","121.373516666667","24.935955","6500900","三峽區"
"236042","KED-0685","2019/11/12 18:43:21","新北市土城區裕民路92巷25弄2號","121.449595","24.98594","6501300","土城區"
"220089","KED-0812","2019/11/12 18:43:23","新北市板橋區民生路二段56-6號","121.47103","25.0191616666667","6500100","板橋區"
"236079","166-UM","2019/11/12 18:43:27","新北市土城區中央路四段185巷30弄1號","121.41576","24.9557916666667","6501300","土城區"
"236030","253-BX","2019/11/12 18:43:38","新北市土城區慶樂街31號","121.438736666667","24.9729666666667","6501300","土城區"
"236026","269-VK","2019/11/12 18:43:24","新北市土城區和平路5巷2號","121.442705","24.9744616666667","6501300","土城區"
"236014","270-VK","2019/11/12 18:43:35","新北市土城區清水路234巷15弄5號","121.462236666667","24.982285","6501300","土城區"
"236038","271-VK","2019/11/12 18:43:25","新北市土城區明德路一段247巷21號","121.463113333333","24.9773966666667","6501300","土城區"
"236070","KEA-2877","2019/11/12 18:43:26","新北市土城區延吉街311號","121.465933333333","24.984275","6501300","土城區"
"252001","KED-0821","2019/11/12 18:43:33","新北市三芝區中正路三段7號","121.502945","25.2540966666667","6502100","三芝區"
"236021","401-BY","2019/11/12 18:43:37","新北市土城區延吉街253巷27號","121.467993333333","24.9837483333333","6501300","土城區"
"236059","912-UM","2019/11/12 18:43:33","新北市土城區金城路一段72號","121.443806666667","24.9723566666667","6501300","土城區"
"236049","913-UM","2019/11/12 18:43:38","新北市土城區金城路三段10號","121.464716666667","24.9859766666667","6501300","土城區"
"236063","915-UM","2019/11/12 18:43:33","新北市土城區延和路177巷15號","121.470085","24.990825","6501300","土城區"
"236055","AAC-216","2019/11/12 18:43:29","新北市土城區裕民路137-3號","121.451616666667","24.9863183333333","6501300","土城區"
"242061","986-R7","2019/11/12 18:43:24","新北市新莊區民安路188巷4號","121.425198333333","25.023525","6500500","新莊區"
"242058","612-BX","2019/11/12 18:43:38","新北市新莊區中正路885-1號","121.416985","25.0247783333333","6500500","新莊區"
"242044","415-TV","2019/11/12 18:43:34","新北市新莊區中正路887-5號","121.416713333333","25.0245633333333","6500500","新莊區"
"242025","362-BY","2019/11/12 18:43:40","新北市新莊區新泰路255巷83號","121.44218","25.0389466666667","6500500","新莊區"
"242009","349-TH","2019/11/12 18:43:31","新北市新莊區環漢路二段630號","121.44412","25.0254016666667","6500500","新莊區"
"238023","601-UM","2019/11/12 18:43:33","新北市樹林區三福街114號","121.406381666667","25.01629","6500700","樹林區"
"238024","5061-A6","2019/11/12 18:43:37","新北市樹林區太順街79巷17號","121.417171666667","24.978115","6500700","樹林區"
"238018","KEA-2217","2019/11/12 18:43:28","新北市樹林區太平路50號","121.419065","24.982465","6500700","樹林區"
"238022","KEA-2213","2019/11/12 18:43:27","新北市樹林區中華路393號","121.411368333333","24.980455","6500700","樹林區"
"238017","283-BY","2019/11/12 18:43:20","新北市樹林區光興街50號","121.409858333333","25.0026716666667","6500700","樹林區"
"238014","282-BY","2019/11/12 18:43:30","新北市樹林區大安路111巷4號","121.423103333333","24.9975116666667","6500700","樹林區"
"238020","268-VK","2019/11/12 18:43:34","新北市樹林區三俊街125號","121.417913333333","25.0156583333333","6500700","樹林區"
"238026","172-UY","2019/11/12 18:43:24","新北市樹林區育德街78-1號","121.388118333333","24.9680283333333","6500700","樹林區"
"238016","169-UY","2019/11/12 18:43:23","新北市樹林區中山路一段412號","121.417418333333","24.9851583333333","6500700","樹林區"
"239007","AAC-297","2019/11/12 18:43:39","新北市鶯歌區中正一路建德巷38號","121.36449","24.957805","6500800","鶯歌區"
"239006","891-R6","2019/11/12 18:43:20","新北市鶯歌區鶯桃路296巷48-2號","121.33591","24.9612533333333","6500800","鶯歌區"
"239008","527-UM","2019/11/12 18:43:30","新北市鶯歌區朝陽街1號","121.336276666667","24.97657","6500800","鶯歌區"
"239005","526-UM","2019/11/12 18:43:35","新北市鶯歌區鳳吉三街15號","121.326588333333","24.9733366666667","6500800","鶯歌區"
"239001","417-VK","2019/11/12 18:43:38","新北市鶯歌區二橋街25號","121.33671","24.9394716666667","6500800","鶯歌區"
"239003","360-BY","2019/11/12 18:43:40","新北市鶯歌區福安街58號","121.335573333333","24.9651933333333","6500800","鶯歌區"
"239002","359-BY","2019/11/12 18:43:33","新北市鶯歌區中正一路63號","121.352283333333","24.95435","6500800","鶯歌區"
"239004","193-VK","2019/11/12 18:43:27","新北市鶯歌區尖山路362號","121.341583333333","24.9438466666667","6500800","鶯歌區"
"221036","130-UY","2019/11/12 18:43:09","新北市汐止區長興街一段53號","121.670146666667","25.0796566666667","6501100","汐止區"
"221015","131-UY","2019/11/12 18:43:35","新北市汐止區吉祥街20號","121.667923333333","25.0805966666667","6501100","汐止區"
"221010","269-BY","2019/11/12 18:43:27","新北市汐止區汐萬路三段268號","121.643018333333","25.1056783333333","6501100","汐止區"
"221012","278-VK","2019/11/12 18:43:38","新北市汐止區保長路147巷2號","121.677026666667","25.0766","6501100","汐止區"
"221032","280-BY","2019/11/12 18:43:39","新北市汐止區民權街二段79號","121.619145","25.0479483333333","6501100","汐止區"
"221029","298-VK","2019/11/12 18:43:37","新北市汐止區樟樹一路136號","121.64226","25.0647666666667","6501100","汐止區"
"221021","299-VK","2019/11/12 18:43:37","新北市汐止區復興路70號","121.657145","25.06218","6501100","汐止區"
"221031","353-TW","2019/11/12 18:43:39","新北市汐止區大同路一段328號","121.637523333333","25.058965","6501100","汐止區"
"221035","622-UM","2019/11/12 18:43:37","新北市汐止區大同路二段105號","121.64994","25.0632933333333","6501100","汐止區"
"221025","623-UM","2019/11/12 18:43:40","新北市汐止區仁愛路124號","121.662933333333","25.063885","6501100","汐止區"
"221002","707-TV","2019/11/12 18:43:22","新北市汐止區大同路一段215-1號","121.633896666667","25.0574433333333","6501100","汐止區"
"221018","753-BX","2019/11/12 18:43:28","新北市汐止區茄苳路250巷21號","121.671841666667","25.0676433333333","6501100","汐止區"
"220079","145-BY","2019/11/12 18:43:35","新北市板橋區館前西路166-1號","121.452438333333","25.00859","6500100","板橋區"
"220080","200-UY","2019/11/12 18:43:34","新北市板橋區大觀路二段265巷76弄29號","121.441465","24.9966016666667","6500100","板橋區"
"220082","610-BX","2019/11/12 18:43:27","新北市板橋區篤行路二段59號","121.431748333333","24.9925033333333","6500100","板橋區"
"224002","257-TC","2019/11/12 18:43:34","新北市瑞芳區傑魚坑路52號","121.793608333333","25.1105416666667","6501200","瑞芳區"
"220056","276-BY","2019/11/12 18:43:31","新北市板橋區四川路一段140號","121.459968333333","25.0037766666667","6500100","板橋區"
"220072","277-BY","2019/11/12 18:43:34","新北市板橋區金門街31巷21號","121.434271666667","24.993845","6500100","板橋區"
"220101","280-UM","2019/11/12 18:43:29","新北市板橋區民生路二段56-6號","121.47115","25.0187183333333","6500100","板橋區"
"220094","283-UM","2019/11/12 18:43:29","新北市板橋區民生路二段120號","121.470486666667","25.0197116666667","6500100","板橋區"
"220071","283-VK","2019/11/12 18:43:28","新北市板橋區四川路一段298號","121.458575","25.000585","6500100","板橋區"
"220053","285-VK","2019/11/12 18:43:24","新北市板橋區民生路二段89-4號","121.471111666667","25.01805","6500100","板橋區"
"220083","286-VK","2019/11/12 18:43:25","新北市板橋區大觀路二段91號","121.446355","25.00201","6500100","板橋區"
"220081","287-VK","2019/11/12 18:43:29","新北市板橋區館前西路162號","121.452651666667","25.0085683333333","6500100","板橋區"
"220090","288-VK","2019/11/12 18:43:25","新北市板橋區民生路三段111號","121.466553333333","25.0254416666667","6500100","板橋區"
"220061","293-UM","2019/11/12 18:43:35","新北市板橋區縣民大道三段32號","121.471466666667","25.0187366666667","6500100","板橋區"
"220084","296-UM","2019/11/12 18:43:20","新北市板橋區大觀路二段148巷7號","121.441903333333","24.999765","6500100","板橋區"
"220075","303-R5","2019/11/12 18:43:42","新北市板橋區館前西路160巷34號","121.451818333333","25.0092716666667","6500100","板橋區"
"220062","305-R5","2019/11/12 18:43:26","新北市板橋區民生路二段120號","121.470543333333","25.0194983333333","6500100","板橋區"
"220092","307-R5","2019/11/12 18:43:30","新北市板橋區漢生東路21號","121.464995","25.0172583333333","6500100","板橋區"
"220098","317-R6","2019/11/12 18:43:28","新北市板橋區民生路二段120號","121.470575","25.01947","6500100","板橋區"
"220088","491-VK","2019/11/12 18:43:38","新北市板橋區民生路二段148號","121.471383333333","25.0198833333333","6500100","板橋區"
"220035","560-BX","2019/11/12 18:43:33","新北市板橋區南雅西路二段301巷11號","121.451768333333","25.0158583333333","6500100","板橋區"
"220103","561-BX","2019/11/12 18:43:33","新北市板橋區民生路二段89-4號","121.470998333333","25.0182133333333","6500100","板橋區"
"220063","609-BX","2019/11/12 18:42:12","新北市板橋區民生路二段161巷1號","121.470238333333","25.01989","6500100","板橋區"
"220091","637-BX","2019/11/12 18:43:27","新北市板橋區民生路二段89-6號","121.47071","25.0193483333333","6500100","板橋區"
"220057","686-BX","2019/11/12 18:43:40","新北市板橋區館前東路80號","121.461705","25.007405","6500100","板橋區"
"220077","687-BX","2019/11/12 18:43:25","新北市板橋區大觀路二段309號","121.441915","24.9987283333333","6500100","板橋區"
"220093","689-BX","2019/11/12 18:43:28","新北市板橋區民生路二段171號","121.469913333333","25.0201833333333","6500100","板橋區"
"220054","741-BX","2019/11/12 18:43:22","新北市板橋區南雅南路一段1巷35號","121.45766","25.0064783333333","6500100","板橋區"
"220102","KEA-2699","2019/11/12 18:43:29","新北市板橋區民生路二段120號","121.470393333333","25.0197","6500100","板橋區"
"220055","827-TW","2019/11/12 18:43:28","新北市板橋區忠孝路114號","121.462498333333","25.0021966666667","6500100","板橋區"
"220067","831-TW","2019/11/12 18:43:22","新北市板橋區民生路一段113號","121.474028333333","25.01463","6500100","板橋區"
"220074","895-R6","2019/11/12 18:43:26","新北市板橋區南門街4號","121.457436666667","25.00926","6500100","板橋區"
"220073","985-R7","2019/11/12 18:43:32","新北市板橋區華興街49號","121.45776","25.0047516666667","6500100","板橋區"
"220097","AAC-210","2019/11/12 18:43:39","新北市板橋區民生路三段111號","121.46641","25.0253816666667","6500100","板橋區"
"220064","AAC-253","2019/11/12 18:43:29","新北市板橋區中山路一段279號","121.469456666667","25.0137366666667","6500100","板橋區"
"235068","KEA-2873","2019/11/12 18:43:14","新北市中和區中正路173號","121.497613333333","24.9934016666667","6500300","中和區"
"235061","KEA-2875","2019/11/12 18:43:39","新北市中和區民享街43號","121.474018333333","25.00292","6500300","中和區"
