"lineid","car","time","location","longitude","latitude","cityid","cityname"
"234046","148-BY","2019/11/12 19:43:37","新北市永和區永利路183號","121.526173333333","25.0033716666667","6500400","永和區"
"234081","298-R6","2019/11/12 19:43:23","新北市永和區林森路20巷1號","121.526106666667","25.0052966666667","6500400","永和區"
"234038","336-UY","2019/11/12 19:43:38","新北市永和區民樂街39巷18弄64號","121.528436666667","24.998875","6500400","永和區"
"234064","337-UY","2019/11/12 19:43:29","新北市永和區中正路412巷19號","121.518681666667","25.0021433333333","6500400","永和區"
"234086","338-UY","2019/11/12 19:43:34","新北市永和區永利路46號","121.518816666667","25.0053516666667","6500400","永和區"
"234070","552-UM","2019/11/12 19:43:40","新北市永和區永和路二段234號","121.51585","25.0145566666667","6500400","永和區"
"234017","745-BX","2019/11/12 19:43:26","新北市永和區永和路二段425巷13號","121.514886666667","25.01764","6500400","永和區"
"234030","746-BX","2019/11/12 19:43:39","新北市永和區民生路67巷53號","121.525481666667","24.9975583333333","6500400","永和區"
"234054","KEA-2590","2019/11/12 19:43:42","新北市永和區竹林路39巷20號","121.518756666667","25.0147216666667","6500400","永和區"
"234007","KED-0605","2019/11/12 19:43:36","新北市永和區中和路381號","121.508526666667","24.99993","6500400","永和區"
"234013","KEA-2591","2019/11/12 19:43:32","新北市永和區仁愛路186巷2號","121.509953333333","25.0126216666667","6500400","永和區"
"234061","AAD-866","2019/11/12 19:43:41","新北市永和區中正路336號","121.517683333333","24.9999783333333","6500400","永和區"
"234042","862-TW","2019/11/12 19:43:25","新北市永和區中和路305巷10弄1號","121.506968333333","25.0008266666667","6500400","永和區"
"234050","863-TW","2019/11/12 19:43:30","新北市永和區環河西路一段103號","121.51112","25.0176316666667","6500400","永和區"
"234026","9371-KE","2019/11/12 19:43:20","新北市永和區雙和街7巷7-1號","121.509551666667","25.00143","6500400","永和區"
"234011","9373-KE","2019/11/12 19:43:34","新北市永和區仁愛路352巷92弄9號","121.501321666667","25.008335","6500400","永和區"
"249002","305-UY","2019/11/12 19:43:27","新北市八里區頂寮二街33-1號","121.4503","25.12514","6502300","八里區"
"249003","593-UM","2019/11/12 19:43:29","新北市八里區華峰三街60號","121.399066666667","25.1457683333333","6502300","八里區"
"248014","025-BX","2019/11/12 19:43:28","新北市五股區五福路32巷21號","121.434938333333","25.0896966666667","6501500","五股區"
"248016","026-BX","2019/11/12 19:43:38","新北市五股區成泰路三段590-3號","121.452911666667","25.105735","6501500","五股區"
"248008","KED-0815","2019/11/12 19:43:38","新北市五股區國道路三段11號","121.469183333333","25.07518","6501500","五股區"
"248020","KED-0813","2019/11/12 19:43:36","新北市五股區中直路32-22號","121.422905","25.112905","6501500","五股區"
"248012","247-BX","2019/11/12 19:43:29","新北市五股區成泰路一段235-14號","121.435816666667","25.08011","6501500","五股區"
"248004","677-BX","2019/11/12 19:43:30","新北市五股區成泰路一段152-1號","121.435085","25.076335","6501500","五股區"
"248002","678-BX","2019/11/12 19:43:38","新北市五股區成泰路三段577巷13號","121.451705","25.102755","6501500","五股區"
"248010","682-TV","2019/11/12 19:43:25","新北市五股區自強路129號","121.432185","25.06994","6501500","五股區"
"234023","9380-KE","2019/11/12 19:43:36","新北市永和區仁愛路301號","121.503916666667","25.0080583333333","6500400","永和區"
"234077","969-R7","2019/11/12 19:43:40","新北市永和區民治街29號","121.519623333333","24.9977","6500400","永和區"
"234074","AAC-211","2019/11/12 19:43:38","新北市永和區竹林路213巷17號","121.521916666667","25.0089566666667","6500400","永和區"
"234067","AAC-212","2019/11/12 19:43:33","新北市永和區中山路一段213號","121.50861","25.0081266666667","6500400","永和區"
"234003","AAC-295","2019/11/12 19:43:21","新北市永和區永和路一段21號","121.512956666667","25.0056983333333","6500400","永和區"
"244023","483-VK","2019/11/12 19:43:37","新北市林口區文林四街17號","121.374565","25.0857816666667","6501700","林口區"
"243012","AAD-798","2019/11/12 19:43:25","新北市泰山區全興路298號","121.436711666667","25.0516516666667","6501600","泰山區"
"243010","297-R6","2019/11/12 19:20:04","新北市泰山區明志路一段488號","121.430466666667","25.054555","6501600","泰山區"
"243016","421-VK","2019/11/12 19:43:24","新北市泰山區明志路三段517號","121.421096666667","25.0320016666667","6501600","泰山區"
"243009","KEA-2215","2019/11/12 19:43:32","新北市泰山區美寧街69號","121.430883333333","25.0647983333333","6501600","泰山區"
"243011","KEA-2216","2019/11/12 19:43:36","新北市泰山區明志路三段204巷18號","121.421936666667","25.0382916666667","6501600","泰山區"
"243015","680-BX","2019/11/12 19:43:26","新北市泰山區文程路18巷24號","121.428146666667","25.04849","6501600","泰山區"
"222003","436-BY","2019/11/12 19:43:27","新北市深坑區深南路51-1號","121.621133333333","25.0098783333333","6501800","深坑區"
"222002","659-BX","2019/11/12 19:43:31","新北市深坑區北深路一段177號","121.632478333333","25.0108183333333","6501800","深坑區"
"231042","001-UM","2019/11/12 19:43:33","新北市新店區中興路一段202號","121.543708333333","24.9653616666667","6500600","新店區"
"231061","002-UM","2019/11/12 19:43:40","新北市新店區安民街135號","121.516451666667","24.9693583333333","6500600","新店區"
"231044","046-UY","2019/11/12 19:43:38","新北市新店區順安街13-1號","121.541011666667","24.9853683333333","6500600","新店區"
"231060","106-UY","2019/11/12 19:43:27","新北市新店區安康路二段161號","121.510186666667","24.9593533333333","6500600","新店區"
"231051","107-UY","2019/11/12 19:43:32","新北市新店區中央四街58號","121.527391666667","24.9752516666667","6500600","新店區"
"231049","108-UY","2019/11/12 19:43:32","新北市新店區建國路167號","121.538443333333","24.9793766666667","6500600","新店區"
"231065","110-UY","2019/11/12 19:43:37","新北市新店區安祥路109巷151弄1號","121.477863333333","24.9585033333333","6500600","新店區"
"231062","256-BX","2019/11/12 19:43:37","新北市新店區碧潭路23號","121.534343333333","24.9561983333333","6500600","新店區"
"231054","260-TV","2019/11/12 19:43:26","新北市新店區文中路40號","121.539688333333","24.95659","6500600","新店區"
"231064","278-BY","2019/11/12 19:43:24","新北市新店區安和路二段115號","121.518666666667","24.9704316666667","6500600","新店區"
"231050","AAD-862","2019/11/12 19:43:35","新北市新店區郵政路1號","121.557658333333","24.9525483333333","6500600","新店區"
"231045","355-BY","2019/11/12 19:43:42","新北市新店區北宜路二段106號","121.555668333333","24.9537066666667","6500600","新店區"
"231058","3713-VJ","2019/11/12 19:43:28","新北市新店區中正路102巷8弄2號","121.543321666667","24.97106","6500600","新店區"
"231056","4715-K9","2019/11/12 19:43:26","新北市新店區民權路72號","121.538121666667","24.9831583333333","6500600","新店區"
"231067","4772-VM","2019/11/12 19:43:26","新北市新店區安康路一段89號","121.52926","24.96141","6500600","新店區"
"231053","513-UM","2019/11/12 19:43:31","新北市新店區新烏路二段422號","121.551823333333","24.9090716666667","6500600","新店區"
"231040","617-UM","2019/11/12 19:43:24","新北市新店區中正路75巷71號","121.543076666667","24.9688666666667","6500600","新店區"
"231041","619-UM","2019/11/12 19:43:38","新北市新店區民權路145號","121.534401666667","24.98211","6500600","新店區"
"231063","641-BX","2019/11/12 19:43:33","新北市新店區車子路143號","121.504483333333","24.9476716666667","6500600","新店區"
"231048","KED-0819","2019/11/12 19:43:31","新北市新店區五峰路63巷8弄20號","121.54729","24.9693116666667","6500600","新店區"
"231046","719-UM","2019/11/12 19:43:30","新北市新店區三民路84巷12號","121.534883333333","24.9731583333333","6500600","新店區"
"231057","720-UM","2019/11/12 19:43:26","新北市新店區花園一路一段9號","121.55115","24.9332133333333","6500600","新店區"
"231059","897-TW","2019/11/12 19:43:23","新北市新店區安和路三段35-1號","121.517065","24.98059","6500600","新店區"
"231043","899-TW","2019/11/12 19:43:29","新北市新店區中正路215號","121.539741666667","24.9728533333333","6500600","新店區"
"231066","AKT-0513","2019/11/12 19:43:38","新北市新店區安康路三段165巷6號","121.489651666667","24.951265","6500600","新店區"
"241011","013-R5","2019/11/12 19:43:39","新北市三重區仁愛街20號","121.496756666667","25.0712966666667","6500200","三重區"
"241028","022-UY","2019/11/12 19:43:06","新北市三重區中正南路190號","121.493921666667","25.0560816666667","6500200","三重區"
"241008","059-VK","2019/11/12 19:43:25","新北市三重區永福街103號","121.479086666667","25.07757","6500200","三重區"
"241031","061-VK","2019/11/12 19:43:27","新北市三重區重新路四段101號","121.485743333333","25.0544766666667","6500200","三重區"
"241015","062-VK","2019/11/12 19:43:22","新北市三重區三和路一段42號","121.502885","25.065345","6500200","三重區"
"241017","063-VK","2019/11/12 19:43:23","新北市三重區大同北路190巷8號","121.490513333333","25.06638","6500200","三重區"
"241007","066-VK","2019/11/12 19:43:27","新北市三重區三和路四段137號","121.484438333333","25.0779483333333","6500200","三重區"
"241009","742-BX","2019/11/12 19:43:40","新北市三重區三和路四段404號","121.481098333333","25.0796083333333","6500200","三重區"
"241006","262-UM","2019/11/12 19:43:24","新北市三重區永福街218號","121.483008333333","25.0744816666667","6500200","三重區"
"241014","316-R6","2019/11/12 19:43:42","新北市三重區長元街98巷21弄54號","121.503861666667","25.0680183333333","6500200","三重區"
"241016","266-UM","2019/11/12 19:43:29","新北市三重區正義北路16巷22號","121.496888333333","25.06274","6500200","三重區"
"241032","269-UM","2019/11/12 19:43:38","新北市三重區重陽路一段60巷38號","121.48495","25.05822","6500200","三重區"
"241013","270-UM","2019/11/12 19:43:31","新北市三重區仁福街64巷23號","121.497666666667","25.0753983333333","6500200","三重區"
"241025","271-UM","2019/11/12 19:43:32","新北市三重區忠孝路三段52號","121.480668333333","25.0656383333333","6500200","三重區"
"241030","KED-0822","2019/11/12 19:43:37","新北市三重區環河南路253號","121.49117","25.0505966666667","6500200","三重區"
"241035","462-BY","2019/11/12 19:43:37","新北市三重區文化北路31-1號","121.499365","25.06409","6500200","三重區"
"241004","475-VK","2019/11/12 19:43:32","新北市三重區五華街74號","121.493365","25.08205","6500200","三重區"
"241020","478-VK","2019/11/12 19:43:25","新北市三重區三和路四段2號","121.491705","25.0738016666667","6500200","三重區"
"241026","480-VK","2019/11/12 19:43:32","新北市三重區文化南路46號","121.500415","25.060035","6500200","三重區"
"241023","545-UM","2019/11/12 19:43:26","新北市三重區頂崁街172號","121.477621666667","25.0659266666667","6500200","三重區"
"241001","547-UM","2019/11/12 19:43:20","新北市三重區仁愛街329號","121.492376666667","25.0795966666667","6500200","三重區"
"241019","KEA-2593","2019/11/12 19:43:38","新北市三重區安慶街361巷8號","121.48766","25.0676933333333","6500200","三重區"
"241012","743-BX","2019/11/12 19:43:29","新北市三重區仁福街66號","121.498061666667","25.0750266666667","6500200","三重區"
"241005","KED-0670","2019/11/12 19:43:25","新北市三重區溪尾街325巷24號","121.488608333333","25.0838033333333","6500200","三重區"
"241029","942-UM","2019/11/12 19:43:26","新北市三重區光明路117號","121.492206666667","25.0567733333333","6500200","三重區"
"235066","003-UY","2019/11/12 19:43:40","新北市中和區景新街73巷20號","121.505745","24.9987816666667","6500300","中和區"
"235063","006-UY","2019/11/12 19:43:38","新北市中和區中正路452號","121.490821666667","24.99425","6500300","中和區"
"235056","096-UM","2019/11/12 19:43:34","新北市中和區中山路三段134號","121.47396","25.0063433333333","6500300","中和區"
"235039","097-UM","2019/11/12 19:43:23","新北市中和區大勇街23號","121.517066666667","24.9927816666667","6500300","中和區"
"235065","098-UM","2019/11/12 19:43:39","新北市中和區福祥路126號","121.498898333333","25.00671","6500300","中和區"
"235040","150-BY","2019/11/12 19:43:25","新北市中和區安和路39號","121.50968","24.9949033333333","6500300","中和區"
"235058","151-BY","2019/11/12 19:43:27","新北市中和區員山路142巷20號","121.482231666667","24.9965233333333","6500300","中和區"
"235055","183-VK","2019/11/12 19:43:19","新北市中和區德光路27巷1弄2號","121.470873333333","25.0039533333333","6500300","中和區"
"235038","185-VK","2019/11/12 19:43:35","新北市中和區自強路19號","121.520423333333","24.9932633333333","6500300","中和區"
"235067","255-BX","2019/11/12 19:43:40","新北市中和區新生街220巷1弄1號","121.483393333333","24.9984683333333","6500300","中和區"
"235044","293-VK","2019/11/12 19:43:38","新北市中和區捷運路129號","121.50718","24.990725","6500300","中和區"
"235072","301-VK","2019/11/12 19:43:35","新北市中和區中正路432巷34號","121.49091","24.9958483333333","6500300","中和區"
"235043","352-BY","2019/11/12 19:43:31","新北市中和區華新街232巷8號","121.505838333333","24.9819833333333","6500300","中和區"
"235042","KEA-2878","2019/11/12 19:43:36","新北市中和區保健路2巷16號","121.507406666667","24.9978766666667","6500300","中和區"
"235070","558-UM","2019/11/12 19:43:36","新北市中和區圓通路200號","121.496165","24.99422","6500300","中和區"
"235071","647-TV","2019/11/12 19:43:23","新北市中和區立德街23號","121.48843","25.00729","6500300","中和區"
"235047","732-UM","2019/11/12 19:43:37","新北市中和區和平街3-2號","121.509761666667","24.9900333333333","6500300","中和區"
"235046","733-UM","2019/11/12 19:43:19","新北市中和區仁愛街79號","121.511566666667","24.9872683333333","6500300","中和區"
"235057","801-TS","2019/11/12 19:43:25","新北市中和區中正路860號","121.484538333333","25.005195","6500300","中和區"
"235041","802-TS","2019/11/12 19:43:37","新北市中和區新興街17巷28號","121.512738333333","25.0028466666667","6500300","中和區"
"235052","805-TS","2019/11/12 19:43:35","新北市中和區興南路二段117巷15號","121.505826666667","24.9839233333333","6500300","中和區"
"235048","896-TW","2019/11/12 19:43:22","新北市中和區興南路一段137號","121.508761666667","24.9876216666667","6500300","中和區"
"235053","900-TW","2019/11/12 19:43:20","新北市中和區國光街189巷12弄1號","121.467523333333","25.0013133333333","6500300","中和區"
"235051","157-BY","2019/11/12 19:43:22","新北市中和區中興街132巷26號","121.49886","24.9917316666667","6500300","中和區"
"235037","AAC-213","2019/11/12 19:43:41","新北市中和區自立路60號","121.523693333333","24.9915483333333","6500300","中和區"
"235059","AAC-215","2019/11/12 19:43:37","新北市中和區圓通路262號","121.493173333333","24.990925","6500300","中和區"
"220065","072-UY","2019/11/12 19:43:20","新北市板橋區國泰街23號","121.46918","25.0066833333333","6500100","板橋區"
"220086","073-UY","2019/11/12 19:43:25","新北市板橋區中正路216巷9號","121.456365","25.0184716666667","6500100","板橋區"
"220106","075-UY","2019/11/12 19:43:32","新北市板橋區文化路二段608巷64號","121.480131666667","25.0340633333333","6500100","板橋區"
"220069","AAD-861","2019/11/12 19:43:38","新北市板橋區貴興路119巷1弄1號","121.455723333333","25.0022016666667","6500100","板橋區"
"247004","500-BY","2019/11/12 19:43:22","新北市蘆洲區中華街6巷56號","121.462225","25.0827683333333","6501400","蘆洲區"
"247002","001-UY","2019/11/12 19:43:22","新北市蘆洲區長榮路675號","121.460361666667","25.092105","6501400","蘆洲區"
"226004","312-R5","2019/11/12 19:43:37","新北市平溪區十分里十分街57號","121.7756","25.0414883333333","6502400","平溪區"
"235049","251-BX","2019/11/12 19:43:33","新北市中和區中興街16號","121.501166666667","24.99503","6500300","中和區"
"228001","212-TW","2019/11/12 19:43:29","新北市貢寮區真理里新港街69號","121.92651","25.05595","6502600","貢寮區"
"228003","828-UM","2019/11/12 19:43:29","新北市貢寮區真理里美艷山街15-3號","121.923723333333","25.068","6502600","貢寮區"
"224010","AGQ-8101","2019/11/12 19:43:21","新北市瑞芳區石崁巷1號","121.83948","25.1088283333333","6501200","瑞芳區"
"227001","642-TC","2019/11/12 19:43:29","新北市雙溪區新基里中華路38號","121.865898333333","25.0373133333333","6502500","雙溪區"
"227002","400-TW","2019/11/12 19:43:22","新北市雙溪區雙溪里內挖路47號","121.863236666667","25.0367283333333","6502500","雙溪區"
"222001","KEA-2212","2019/11/12 19:43:37","新北市深坑區北深路三段16號","121.60955","25.0010433333333","6501800","深坑區"
"208002","KEA-2872","2019/11/12 19:43:34","新北市金山區中華路366-1號","121.63323","25.2245383333333","6502700","金山區"
"208003","665-BX","2019/11/12 19:43:26","新北市金山區海興路30號","121.630566666667","25.2379766666667","6502700","金山區"
"251005","010-UM","2019/11/12 19:43:37","新北市淡水區水源街一段1號","121.442535","25.1724833333333","6501000","淡水區"
"251001","011-UM","2019/11/12 19:43:28","新北市淡水區中正東路二段89號","121.459443333333","25.152555","6501000","淡水區"
"251002","012-UM","2019/11/12 19:43:22","新北市淡水區下圭柔山90-2號","121.431648333333","25.2117783333333","6501000","淡水區"
"251015","KEA-2871","2019/11/12 19:43:23","新北市淡水區山子頂24-1號","121.491411666667","25.187215","6501000","淡水區"
"251016","180-VK","2019/11/12 19:43:24","新北市淡水區下圭柔山121-2號","121.45372","25.2079033333333","6501000","淡水區"
"251008","181-VK","2019/11/12 19:43:36","新北市淡水區中正路一段26號","121.426653333333","25.176215","6501000","淡水區"
"251013","182-VK","2019/11/12 19:43:42","新北市淡水區頂田寮11-1號","121.462961666667","25.213905","6501000","淡水區"
"251007","442-VK","2019/11/12 19:43:36","新北市淡水區中正東路一段105巷1號","121.45353","25.1603216666667","6501000","淡水區"
"251006","561-UM","2019/11/12 19:43:40","新北市淡水區中山北路一段247巷118號","121.441493333333","25.17954","6501000","淡水區"
"251009","575-R6","2019/11/12 19:43:37","新北市淡水區中山北路一段168號","121.4443","25.17878","6501000","淡水區"
"251014","577-R6","2019/11/12 19:43:28","新北市淡水區番社前6-3號","121.475556666667","25.2355583333333","6501000","淡水區"
"251011","650-BX","2019/11/12 19:43:25","新北市淡水區中正東路二段143巷12弄2號","121.461995","25.14813","6501000","淡水區"
"207003","681-TV","2019/11/12 19:43:39","新北市萬里區大鵬里下社17-4號","121.648193333333","25.2177266666667","6502800","萬里區"
"207004","291-VK","2019/11/12 19:43:24","新北市萬里區萬里里瑪鋉路5-1號","121.686866666667","25.1752683333333","6502800","萬里區"
"252002","178-VK","2019/11/12 19:43:38","新北市三芝區三民街31號","121.504573333333","25.258575","6502100","三芝區"
"208001","170-UY","2019/11/12 19:43:20","新北市金山區重和里六股林口31號","121.603015","25.2190366666667","6502700","金山區"
"237004","KEA-2597","2019/11/12 19:43:39","新北市三峽區金敏5號","121.386303333333","24.8743233333333","6500900","三峽區"
"237007","153-BY","2019/11/12 19:43:21","新北市三峽區二鬮路136巷22弄31號","121.357153333333","24.9104","6500900","三峽區"
"237009","210-TH","2019/11/12 19:43:22","新北市三峽區中園街105號","121.367791666667","24.924705","6500900","三峽區"
"237013","252-BX","2019/11/12 19:43:23","新北市三峽區橫溪路96號","121.397873333333","24.935455","6500900","三峽區"
"237012","275-BY","2019/11/12 19:43:26","新北市三峽區中正路一段48號","121.375278333333","24.9303633333333","6500900","三峽區"
"237008","302-VK","2019/11/12 19:43:24","新北市三峽區中正路一段292巷10號","121.370985","24.9259416666667","6500900","三峽區"
"237014","433-BY","2019/11/12 19:43:40","新北市三峽區添福2號","121.37181","24.9063416666667","6500900","三峽區"
"237006","5529-G3","2019/11/12 19:43:32","新北市三峽區中正路一段336巷15弄2號","121.36996","24.9249383333333","6500900","三峽區"
"237011","KEA-2596","2019/11/12 19:43:27","新北市三峽區中正路一段474號","121.370416666667","24.9213216666667","6500900","三峽區"
"237015","649-BX","2019/11/12 19:43:38","新北市三峽區成福路3號","121.416821666667","24.9282116666667","6500900","三峽區"
"237005","AKY-6261","2019/11/12 19:43:39","新北市三峽區文化路102號","121.371503333333","24.9361583333333","6500900","三峽區"
"236042","KED-0685","2019/11/12 19:43:21","新北市土城區清水路87號","121.45625","24.9818033333333","6501300","土城區"
"220089","KED-0812","2019/11/12 19:43:23","新北市板橋區互助街58號","121.461323333333","25.0267983333333","6500100","板橋區"
"236079","166-UM","2019/11/12 19:43:27","新北市土城區中山路3-2號","121.412078333333","24.961355","6501300","土城區"
"236026","269-VK","2019/11/12 19:43:24","新北市土城區中央路二段61巷26號","121.443266666667","24.9786766666667","6501300","土城區"
"236070","KEA-2877","2019/11/12 19:43:26","新北市土城區和平路24號","121.443195","24.9730816666667","6501300","土城區"
"252001","KED-0821","2019/11/12 19:43:32","新北市三芝區公正街66號","121.49984","25.2574366666667","6502100","三芝區"
"236021","401-BY","2019/11/12 19:43:37","新北市土城區峰廷街31號","121.469493333333","24.9865116666667","6501300","土城區"
"236059","912-UM","2019/11/12 19:43:33","新北市土城區中央路一段245號","121.44534","24.9860116666667","6501300","土城區"
"236063","915-UM","2019/11/12 19:43:32","新北市土城區延和路105巷4弄1號","121.467501666667","24.9908","6501300","土城區"
"236055","AAC-216","2019/11/12 19:43:29","新北市土城區延和路64號","121.465808333333","24.9890683333333","6501300","土城區"
"242005","751-BX","2019/11/12 19:43:25","新北市新莊區思源路52號","121.460681666667","25.0440416666667","6500500","新莊區"
"242048","566-BX","2019/11/12 19:43:31","新北市新莊區民安路106號","121.424193333333","25.0256766666667","6500500","新莊區"
"242013","413-TV","2019/11/12 19:43:35","新北市新莊區中泰街106號","121.448878333333","25.04667","6500500","新莊區"
"242023","353-BY","2019/11/12 19:43:24","新北市新莊區復興路三段115號","121.464285","25.0445216666667","6500500","新莊區"
"242056","172-VK","2019/11/12 19:43:37","新北市新莊區瓊林路13-3號","121.448758333333","25.0309433333333","6500500","新莊區"
"242017","173-VK","2019/11/12 19:43:21","新北市新莊區新泰路357巷3弄1號","121.442313333333","25.0412683333333","6500500","新莊區"
"242032","175-VK","2019/11/12 19:43:38","新北市新莊區公園一路132號","121.446063333333","25.0381","6500500","新莊區"
"242039","347-TH","2019/11/12 19:43:21","新北市新莊區建國二路85-9號","121.43085","25.025885","6500500","新莊區"
"242037","348-TH","2019/11/12 19:43:37","新北市新莊區建安街101巷3弄1號","121.427","25.0238","6500500","新莊區"
"242009","349-TH","2019/11/12 19:43:31","新北市新莊區三和路12-21號","121.44219","25.03845","6500500","新莊區"
"242034","350-TH","2019/11/12 19:43:35","新北市新莊區仁愛街28號","121.444286666667","25.0361266666667","6500500","新莊區"
"242019","351-TH","2019/11/12 19:43:32","新北市新莊區新泰路357巷3弄23號","121.442331666667","25.0406766666667","6500500","新莊區"
"238023","601-UM","2019/11/12 19:43:33","新北市樹林區三寶街21號","121.406513333333","25.01534","6500700","樹林區"
"238019","599-UM","2019/11/12 19:43:32","新北市樹林區大同街19號","121.418268333333","24.9825966666667","6500700","樹林區"
"238015","571-TV","2019/11/12 19:43:28","新北市樹林區中興街2號","121.420771666667","24.989575","6500700","樹林區"
"238024","5061-A6","2019/11/12 19:43:34","新北市樹林區中山路三段88號","121.393385","24.9722833333333","6500700","樹林區"
"238022","KEA-2213","2019/11/12 19:43:27","新北市樹林區名園街53號","121.419885","24.978325","6500700","樹林區"
"238021","KEA-2539","2019/11/12 19:43:26","新北市樹林區佳園路三段181巷81號","121.390638333333","24.9484483333333","6500700","樹林區"
"238025","303-VK","2019/11/12 19:43:38","新北市樹林區中山路一段235號","121.420796666667","24.986895","6500700","樹林區"
"238017","283-BY","2019/11/12 19:43:41","新北市樹林區保安街二段167巷7號","121.414841666667","25.0028916666667","6500700","樹林區"
"238014","282-BY","2019/11/12 19:43:30","新北市樹林區千歲街30巷26弄10號","121.426175","24.9957483333333","6500700","樹林區"
"238020","268-VK","2019/11/12 19:43:34","新北市板橋區大觀路三段131-1號","121.435115","24.9927716666667","6500700","樹林區"
"238026","172-UY","2019/11/12 19:43:24","新北市樹林區佳園路二段91號","121.39065","24.959385","6500700","樹林區"
"239007","AAC-297","2019/11/12 19:43:39","新北市鶯歌區大湖路146號","121.342715","24.9643166666667","6500800","鶯歌區"
"239006","891-R6","2019/11/12 19:43:20","新北市鶯歌區永昌街17號","121.342871666667","24.9497633333333","6500800","鶯歌區"
"239008","527-UM","2019/11/12 19:43:30","新北市鶯歌區大湖路564號","121.336746666667","24.9731033333333","6500800","鶯歌區"
"239005","526-UM","2019/11/12 19:43:35","新北市鶯歌區中湖街315巷1號","121.346425","24.9781433333333","6500800","鶯歌區"
"239001","417-VK","2019/11/12 19:43:38","新北市鶯歌區鶯桃路21號","121.343765","24.9504","6500800","鶯歌區"
"239003","360-BY","2019/11/12 19:43:40","新北市鶯歌區重慶街7號","121.352126666667","24.9527","6500800","鶯歌區"
"239002","359-BY","2019/11/12 19:43:33","新北市鶯歌區大湖路354號","121.346325","24.9724316666667","6500800","鶯歌區"
"239004","193-VK","2019/11/12 19:43:36","新北市鶯歌區二甲路33-21號","121.339783333333","24.9384916666667","6500800","鶯歌區"
"221008","489-VK","2019/11/12 19:43:23","新北市汐止區康寧街61巷48號","121.62036","25.0678766666667","6501100","汐止區"
"221010","269-BY","2019/11/12 19:43:27","新北市汐止區連峰街1巷1號","121.646421666667","25.0760266666667","6501100","汐止區"
"221012","278-VK","2019/11/12 19:43:18","新北市汐止區大同路三段318號","121.678911666667","25.0711633333333","6501100","汐止區"
"221023","279-VK","2019/11/12 19:43:27","新北市汐止區中興路250號","121.629178333333","25.0685366666667","6501100","汐止區"
"221027","281-BY","2019/11/12 19:43:26","新北市汐止區忠孝東路9號","121.658283333333","25.0659283333333","6501100","汐止區"
"221021","299-VK","2019/11/12 19:43:37","新北市汐止區新興路83-6號","121.657926666667","25.0616783333333","6501100","汐止區"
"221025","623-UM","2019/11/12 19:43:28","新北市汐止區福安街20巷11號","121.662361666667","25.064815","6501100","汐止區"
"221038","646-BX","2019/11/12 19:43:27","新北市汐止區忠孝東路298號","121.664101666667","25.0686616666667","6501100","汐止區"
"221033","647-BX","2019/11/12 19:43:26","新北市汐止區芳園街62號","121.625538333333","25.0388366666667","6501100","汐止區"
"221002","707-TV","2019/11/12 19:43:42","新北市汐止區康寧街901號","121.651383333333","25.075025","6501100","汐止區"
"220079","145-BY","2019/11/12 19:43:36","新北市板橋區民權路202巷13弄25號","121.458521666667","25.0163383333333","6500100","板橋區"
"220080","200-UY","2019/11/12 19:43:35","新北市板橋區大觀路二段153巷46弄60號","121.449453333333","25.0003416666667","6500100","板橋區"
"220082","610-BX","2019/11/12 19:43:27","新北市板橋區大觀路三段212巷36號","121.429541666667","24.9931683333333","6500100","板橋區"
"224002","257-TC","2019/11/12 19:43:34","新北市瑞芳區三爪子坑路13巷281-19號","121.815463333333","25.1061483333333","6501200","瑞芳區"
"220056","276-BY","2019/11/12 19:43:28","新北市板橋區信義路1巷4號","121.457296666667","24.99702","6500100","板橋區"
"220072","277-BY","2019/11/12 19:43:36","新北市板橋區金門街161號","121.432915","24.9904333333333","6500100","板橋區"
"220101","280-UM","2019/11/12 19:43:29","新北市板橋區縣民大道三段79巷13號","121.475178333333","25.0220233333333","6500100","板橋區"
"220094","283-UM","2019/11/12 19:43:29","新北市板橋區陽明街283號","121.462033333333","25.026355","6500100","板橋區"
"220071","283-VK","2019/11/12 19:43:40","新北市板橋區和平路174巷1弄2號","121.464203333333","24.994985","6500100","板橋區"
"220053","285-VK","2019/11/12 19:43:31","新北市板橋區中山路二段60巷1弄7-2號","121.474535","25.01545","6500100","板橋區"
"220083","286-VK","2019/11/12 19:43:25","新北市板橋區龍興街65巷12號","121.443338333333","25.00149","6500100","板橋區"
"220081","287-VK","2019/11/12 19:43:39","新北市板橋區大觀路一段59號","121.44823","25.0048733333333","6500100","板橋區"
"220090","288-VK","2019/11/12 19:43:25","新北市板橋區英士路192號","121.458046666667","25.023605","6500100","板橋區"
"220061","293-UM","2019/11/12 19:43:35","新北市板橋區中山路一段283巷14號","121.470258333333","25.0150983333333","6500100","板橋區"
"220084","296-UM","2019/11/12 19:43:40","新北市板橋區板林路168號","121.424711666667","24.987885","6500100","板橋區"
"220075","303-R5","2019/11/12 19:43:21","新北市板橋區大勇街12巷11號","121.453123333333","25.0173083333333","6500100","板橋區"
"220062","305-R5","2019/11/12 19:43:26","新北市板橋區中山路二段416巷54弄15號","121.482275","25.0193116666667","6500100","板橋區"
"220092","307-R5","2019/11/12 19:43:30","新北市板橋區四維路259巷80號","121.459973333333","25.02646","6500100","板橋區"
"220098","317-R6","2019/11/12 19:43:28","新北市板橋區民生路三段299巷14號","121.462851666667","25.0302683333333","6500100","板橋區"
"220088","491-VK","2019/11/12 19:43:38","新北市板橋區文聖街130號","121.478196666667","25.0284316666667","6500100","板橋區"
"220035","560-BX","2019/11/12 19:43:33","新北市板橋區新生街89巷14號","121.457706666667","25.0223983333333","6500100","板橋區"
"220103","561-BX","2019/11/12 19:43:33","新北市板橋區文化路一段421巷9號","121.466896666667","25.022765","6500100","板橋區"
"220063","609-BX","2019/11/12 19:43:32","新北市板橋區中山路二段390-1號","121.482386666667","25.020665","6500100","板橋區"
"220091","637-BX","2019/11/12 19:43:18","新北市板橋區懷德街127巷6號","121.47912","25.0308683333333","6500100","板橋區"
"220057","686-BX","2019/11/12 19:43:27","新北市板橋區德興街33號","121.45356","24.9938916666667","6500100","板橋區"
"220077","687-BX","2019/11/12 19:43:25","新北市板橋區大觀路一段36號","121.445963333333","25.0077316666667","6500100","板橋區"
"220093","689-BX","2019/11/12 19:43:38","新北市板橋區長江路三段99號","121.47439","25.034285","6500100","板橋區"
"220054","741-BX","2019/11/12 19:43:27","新北市板橋區忠孝路213號","121.46544","25.002745","6500100","板橋區"
"220102","KEA-2699","2019/11/12 19:43:33","新北市板橋區仁化街64巷30號","121.475843333333","25.0308466666667","6500100","板橋區"
"220055","827-TW","2019/11/12 19:43:28","新北市板橋區國慶路149巷13弄12-4號","121.46037","24.99706","6500100","板橋區"
"220068","830-TW","2019/11/12 19:43:23","新北市板橋區中山路二段416巷37號","121.483153333333","25.0197216666667","6500100","板橋區"
"220067","831-TW","2019/11/12 19:43:22","新北市板橋區長安街259巷1-1號","121.47297","25.01035","6500100","板橋區"
"220074","895-R6","2019/11/12 19:43:39","新北市板橋區東門街15號","121.45819","25.0083683333333","6500100","板橋區"
"220073","985-R7","2019/11/12 19:43:32","新北市板橋區國光路67巷14號","121.458946666667","25.018705","6500100","板橋區"
"220097","AAC-210","2019/11/12 19:43:39","新北市板橋區光正街43號","121.46183","25.0172416666667","6500100","板橋區"
"220064","AAC-253","2019/11/12 19:43:37","新北市板橋區民族路268號","121.469636666667","25.0070466666667","6500100","板橋區"
"235068","KEA-2873","2019/11/12 19:43:14","新北市中和區中山路二段136巷70號","121.500618333333","25.0047233333333","6500300","中和區"
"235061","KEA-2875","2019/11/12 19:43:40","新北市中和區員山路174巷6號","121.481941666667","24.9998366666667","6500300","中和區"
