"lineid","car","time","location","longitude","latitude","cityid","cityname"
"234044","148-BY","2019/06/18 13:38:58","新北市永和區永元路107號","121.522623333333","25.0024266666667","6500400","永和區"
"234036","336-UY","2019/06/18 13:38:51","新北市永和區成功路二段3號","121.526948333333","25.001395","6500400","永和區"
"234062","337-UY","2019/06/18 13:39:06","新北市永和區秀朗路二段24巷28弄14號","121.519611666667","25.0019783333333","6500400","永和區"
"234084","338-UY","2019/06/18 13:39:11","新北市永和區永亨路167號","121.526063333333","25.0038883333333","6500400","永和區"
"234068","552-UM","2019/06/18 13:39:00","新北市永和區永和路二段235號","121.515571666667","25.01435","6500400","永和區"
"234015","745-BX","2019/06/18 13:38:47","新北市永和區環河西路一段3號","121.51511","25.017825","6500400","永和區"
"234028","746-BX","2019/06/18 13:39:10","新北市永和區民權路1巷16號","121.521113333333","24.9982283333333","6500400","永和區"
"234052","KEA-2590","2019/06/18 13:39:04","新北市永和區竹林路39巷22號","121.51889","25.014735","6500400","永和區"
"234005","KED-0605","2019/06/18 13:39:05","新北市永和區永和路一段116號","121.513728333333","25.0075983333333","6500400","永和區"
"234012","KEA-2591","2019/06/18 13:38:51","新北市永和區永平路246號","121.508665","25.011065","6500400","永和區"
"234060","AAD-866","2019/06/18 13:38:50","新北市永和區中正路446號","121.517486666667","25.0027183333333","6500400","永和區"
"234078","748-BX","2019/06/18 13:38:58","新北市永和區國中路104巷8弄17號","121.52525","25.0064783333333","6500400","永和區"
"234040","862-TW","2019/06/18 13:38:59","新北市中和區中和路306-1號","121.50883","25.0001133333333","6500400","永和區"
"234048","863-TW","2019/06/18 13:39:02","新北市永和區環河西路一段105號","121.511131666667","25.0175583333333","6500400","永和區"
"234025","9371-KE","2019/06/18 13:38:59","新北市永和區自由街58號","121.513776666667","25.0058933333333","6500400","永和區"
"234010","9373-KE","2019/06/18 13:38:52","新北市永和區保福路二段125號","121.509875","25.0136983333333","6500400","永和區"
"248017","KED-0813","2019/06/18 13:39:05","新北市五股區民義路二段54-3號","121.407543333333","25.106375","6501500","五股區"
"234022","9380-KE","2019/06/18 13:38:53","新北市永和區中正路702巷18號","121.51648","25.0104916666667","6500400","永和區"
"234076","969-R7","2019/06/18 13:39:08","新北市永和區得和路229號","121.519831666667","25.000165","6500400","永和區"
"234072","AAC-211","2019/06/18 13:38:59","新北市永和區竹林路213巷27號","121.522576666667","25.0090466666667","6500400","永和區"
"234066","AAC-212","2019/06/18 13:39:09","新北市永和區中山路一段188號","121.509061666667","25.008885","6500400","永和區"
"234001","AAC-295","2019/06/18 13:39:02","新北市永和區自由街3號","121.51503","25.0071716666667","6500400","永和區"
"244002","657-BX","2019/06/18 13:39:07","新北市林口區南勢街72-3號","121.355471666667","25.077645","6501700","林口區"
"231029","001-UM","2019/06/18 13:39:04","新北市新店區安康路二段237號","121.508238333333","24.9585866666667","6500600","新店區"
"231030","002-UM","2019/06/18 13:38:54","新北市新店區安康路一段355號","121.52004","24.96384","6500600","新店區"
"231028","046-UY","2019/06/18 13:39:06","新北市新店區安和路一段6-2號","121.517131666667","24.9648166666667","6500600","新店區"
"231018","107-UY","2019/06/18 13:39:05","新北市新店區中正路397號","121.534511666667","24.9774216666667","6500600","新店區"
"231013","108-UY","2019/06/18 13:39:01","新北市新店區中正路454-5號","121.534483333333","24.9790916666667","6500600","新店區"
"231036","110-UY","2019/06/18 13:39:05","新北市新店區安祥路168號","121.47737","24.955795","6500600","新店區"
"231032","256-BX","2019/06/18 13:38:56","新北市新店區安康路一段222-2號","121.522983333333","24.9636766666667","6500600","新店區"
"231023","260-TV","2019/06/18 13:39:00","新北市新店區新店路162-1號","121.537156666667","24.955595","6500600","新店區"
"231003","268-BY","2019/06/18 13:39:04","新北市新店區中正路45號","121.544845","24.9698083333333","6500600","新店區"
"231035","278-BY","2019/06/18 13:39:08","新北市新店區安忠路56巷2號","121.512871666667","24.959325","6500600","新店區"
"231015","AAD-862","2019/06/18 13:39:05","新北市新店區竹林路2巷31號","121.55037","24.9502233333333","6500600","新店區"
"231006","355-BY","2019/06/18 13:38:48","新北市新店區北新路一段53號","121.538236666667","24.959715","6500600","新店區"
"231038","3712-VJ","2019/06/18 13:39:09","新北市新店區安華路30巷3號","121.51961","24.95921","6500600","新店區"
"231027","3713-VJ","2019/06/18 13:38:56","新北市新店區新店後街22號","121.538085","24.9532766666667","6500600","新店區"
"231024","4716-K9","2019/06/18 13:38:49","新北市新店區中正路154巷6號","121.54181","24.9720233333333","6500600","新店區"
"231025","4715-K9","2019/06/18 13:39:03","新北市新店區中央五街38號","121.528531666667","24.975","6500600","新店區"
"231020","513-UM","2019/06/18 13:38:57","新北市新店區永興路88-1號","121.544045","24.933695","6500600","新店區"
"231001","617-UM","2019/06/18 13:39:09","新北市新店區中央路85號","121.53227","24.9764433333333","6500600","新店區"
"231002","618-UM","2019/06/18 13:39:03","新北市新店區中央三街127號","121.52405","24.9768466666667","6500600","新店區"
"231034","641-BX","2019/06/18 13:38:51","新北市新店區車子路109號","121.505268333333","24.9521033333333","6500600","新店區"
"231012","KED-0819","2019/06/18 13:38:56","新北市新店區德正街23巷8號","121.544386666667","24.97204","6500600","新店區"
"231010","719-UM","2019/06/18 13:38:59","新北市新店區中正路307巷20號","121.536255","24.9742166666667","6500600","新店區"
"231026","720-UM","2019/06/18 13:38:48","新北市新店區光明街77號","121.538736666667","24.9607466666667","6500600","新店區"
"231005","897-TW","2019/06/18 13:38:55","新北市新店區寶中路72號","121.547883333333","24.9805783333333","6500600","新店區"
"231004","899-TW","2019/06/18 13:39:06","新北市新店區北新路一段345號","121.541953333333","24.9689933333333","6500600","新店區"
"231037","AKT-0513","2019/06/18 13:39:00","新北市新店區薏仁坑路51號","121.493651666667","24.965","6500600","新店區"
"235030","003-UY","2019/06/18 13:38:59","新北市中和區水源路39號","121.504606666667","25.003555","6500300","中和區"
"235027","006-UY","2019/06/18 13:39:05","新北市中和區連城路389巷10弄2號","121.486313333333","24.9957216666667","6500300","中和區"
"235003","097-UM","2019/06/18 13:38:53","新北市中和區景平路240巷1弄8號","121.514991666667","24.9934366666667","6500300","中和區"
"235029","098-UM","2019/06/18 13:38:54","新北市中和區中山路二段2巷81弄1號","121.50112","25.0075616666667","6500300","中和區"
"235022","151-BY","2019/06/18 13:38:53","新北市中和區員山路59號","121.481076666667","24.9929766666667","6500300","中和區"
"235019","183-VK","2019/06/18 13:39:06","新北市中和區民德路25巷18-3號","121.46969","25.0029716666667","6500300","中和區"
"235002","185-VK","2019/06/18 13:39:01","新北市永和區民有街69號","121.517936666667","24.9956616666667","6500300","中和區"
"235013","186-VK","2019/06/18 13:38:55","新北市中和區明義街11巷12弄1號","121.503601666667","24.9945833333333","6500300","中和區"
"235031","255-BX","2019/06/18 13:39:04","新北市中和區新生街186巷5弄27號","121.482888333333","24.9986733333333","6500300","中和區"
"235008","293-VK","2019/06/18 13:39:00","新北市中和區復興路280號","121.502288333333","24.99067","6500300","中和區"
"235036","301-VK","2019/06/18 13:39:06","新北市中和區連城路171巷41弄1號","121.496173333333","24.9964666666667","6500300","中和區"
"235007","352-BY","2019/06/18 13:38:53","新北市中和區景平路125巷4弄1號","121.515075","24.9917766666667","6500300","中和區"
"235006","KEA-2878","2019/06/18 13:38:55","新北市中和區景平路64巷14弄22號","121.522878333333","24.9912433333333","6500300","中和區"
"235014","4979-A6","2019/06/18 13:38:54","新北市中和區忠孝街122-2號","121.512156666667","24.986105","6500300","中和區"
"235033","4980-A6","2019/06/18 13:39:01","新北市中和區連城路89巷1號","121.496608333333","25.00006","6500300","中和區"
"235005","551-UM","2019/06/18 13:38:57","新北市中和區中安街88號","121.512083333333","25.0016416666667","6500300","中和區"
"235034","558-UM","2019/06/18 13:39:04","新北市中和區圓通路46號","121.500713333333","24.9977216666667","6500300","中和區"
"235009","565-BX","2019/06/18 13:38:54","新北市中和區景安路214號","121.503901666667","24.99063","6500300","中和區"
"235024","KED-0823","2019/06/18 13:38:55","新北市中和區中山路三段116號","121.476021666667","25.00592","6500300","中和區"
"235018","640-BX","2019/06/18 13:39:07","新北市中和區民享街29巷1號","121.474086666667","25.0045016666667","6500300","中和區"
"235011","732-UM","2019/06/18 13:39:08","新北市中和區南山路320巷10弄11號","121.506871666667","24.9866316666667","6500300","中和區"
"235035","783-BX","2019/06/18 13:38:56","新北市中和區立德街57號","121.487771666667","25.0076616666667","6500300","中和區"
"235026","800-TS","2019/06/18 13:38:51","新北市中和區中山路二段312巷33弄22號","121.494796666667","25.004225","6500300","中和區"
"235021","801-TS","2019/06/18 13:39:06","新北市中和區員山路327巷48號","121.480248333333","25.00179","6500300","中和區"
"235016","805-TS","2019/06/18 13:39:00","新北市中和區興南路三段46號","121.495288333333","24.97635","6500300","中和區"
"235012","896-TW","2019/06/18 13:38:57","新北市中和區中正路79號","121.500796666667","24.9934166666667","6500300","中和區"
"235017","900-TW","2019/06/18 13:39:02","新北市中和區華福街71號","121.467151666667","24.9966","6500300","中和區"
"235028","911-UM","2019/06/18 13:38:57","新北市中和區連城路109巷21號","121.496783333333","24.9988383333333","6500300","中和區"
"235015","157-BY","2019/06/18 13:39:00","新北市中和區華新街143巷106弄28號","121.506068333333","24.978795","6500300","中和區"
"235001","AAC-213","2019/06/18 13:39:09","新北市中和區秀朗路三段128巷1弄2號","121.524621666667","24.992425","6500300","中和區"
"235023","AAC-215","2019/06/18 13:39:05","新北市中和區中正路571巷1弄4號","121.487043333333","24.99352","6500300","中和區"
"220019","015-TV","2019/06/18 13:39:04","新北市板橋區四川路二段14號","121.456055","24.99623","6500100","板橋區"
"220013","072-UY","2019/06/18 13:39:02","新北市板橋區南雅南路二段18號","121.454686666667","25.0035383333333","6500100","板橋區"
"220034","073-UY","2019/06/18 13:39:08","新北市板橋區南雅南路二段120-12號","121.452143333333","24.9993883333333","6500100","板橋區"
"220017","AAD-861","2019/06/18 13:38:58","新北市板橋區大華街5號","121.458916666667","25.0063016666667","6500100","板橋區"
"220039","120-SR","2019/06/18 13:38:55","新北市板橋區民生路二段120號","121.470318333333","25.0197366666667","6500100","板橋區"
"247017","546-UM","2019/06/18 13:38:55","新北市五股區凌雲路一段22巷9號","121.452756666667","25.1007583333333","6501400","蘆洲區"
"247011","056-VK","2019/06/18 13:39:05","新北市五股區中興路三段2巷10號","121.449161666667","25.0808716666667","6501400","蘆洲區"
"235020","251-BX","2019/06/18 13:39:05","新北市中和區員山路466巷21弄12號","121.48105","25.0068766666667","6500300","中和區"
"223005","677-TV","2019/06/18 13:39:01","新北市石碇區碇坪路一段101號","121.66311","24.9894633333333","6501900","石碇區"
"228004","212-TW","2019/06/18 13:37:53","新北市貢寮區龍崗里石壁坑街30號","121.90981","25.0022366666667","6502600","貢寮區"
"228005","828-UM","2019/06/18 13:39:06","新北市貢寮區美豐里文秀坑8號","121.90257","25.0503783333333","6502600","貢寮區"
"207002","749-BX","2019/06/18 13:38:51","新北市萬里區崁腳里崁腳路166號","121.645201666667","25.155825","6502800","萬里區"
"207001","662-BX","2019/06/18 13:38:37","新北市萬里區大鵬里萬里加投24號","121.649115","25.2075983333333","6502800","萬里區"
"252005","AAC-283","2019/06/18 13:39:04","新北市三芝區圓山里二坪頂47號","121.539546666667","25.244105","6502100","三芝區"
"220038","KED-0812","2019/06/18 13:39:06","新北市板橋區民生路二段161巷1號","121.470011666667","25.0199766666667","6500100","板橋區"
"236074","166-UM","2019/06/18 13:39:07","新北市土城區城林路6巷80號","121.438496666667","24.9797233333333","6501300","土城區"
"236013","270-VK","2019/06/18 13:38:58","新北市土城區城林路6巷80號","121.438583333333","24.979795","6501300","土城區"
"236032","271-VK","2019/06/18 13:38:51","新北市土城區城林路6巷80號","121.438525","24.9797383333333","6501300","土城區"
"247009","KED-0683","2019/06/18 13:39:09","新北市五股區中興路三段163號","121.449361666667","25.080515","6501400","蘆洲區"
"236065","KEA-2877","2019/06/18 13:39:00","新北市土城區城林路6巷80號","121.438748333333","24.97974","6501300","土城區"
"236057","912-UM","2019/06/18 13:38:49","新北市土城區城林路6巷80號","121.438401666667","24.9796633333333","6501300","土城區"
"236045","913-UM","2019/06/18 13:39:03","新北市土城區城林路6巷80號","121.438523333333","24.9797116666667","6501300","土城區"
"236060","915-UM","2019/06/18 13:39:05","新北市土城區城林路6巷80號","121.43862","24.9797383333333","6501300","土城區"
"220027","145-BY","2019/06/18 13:38:51","新北市板橋區大觀路一段27號","121.450113333333","25.0085016666667","6500100","板橋區"
"220028","200-UY","2019/06/18 13:39:03","新北市板橋區華東街1-8號","121.44747","24.9950566666667","6500100","板橋區"
"220030","610-BX","2019/06/18 13:38:54","新北市板橋區大觀路二段265巷9-4號","121.442751666667","24.994735","6500100","板橋區"
"220004","276-BY","2019/06/18 13:39:01","新北市板橋區南雅南路二段1-1號","121.454743333333","25.003635","6500100","板橋區"
"220020","277-BY","2019/06/18 13:38:59","新北市板橋區大觀路二段265巷9-4號","121.442526666667","24.9948216666667","6500100","板橋區"
"220043","285-UM","2019/06/18 13:39:03","新北市板橋區民生路二段161巷1號","121.47014","25.019825","6500100","板橋區"
"220001","285-VK","2019/06/18 13:38:57","新北市板橋區民生路二段120號","121.470466666667","25.0196866666667","6500100","板橋區"
"220031","286-VK","2019/06/18 13:38:58","新北市板橋區合安一路49-5號","121.447601666667","24.998995","6500100","板橋區"
"220029","287-VK","2019/06/18 13:38:57","新北市板橋區大觀路一段31號","121.4498","25.008475","6500100","板橋區"
"220009","293-UM","2019/06/18 13:38:50","新北市板橋區民生路二段161巷5號","121.47021","25.0197433333333","6500100","板橋區"
"220010","295-UM","2019/06/18 13:38:55","新北市板橋區民生路二段161巷9號","121.470301666667","25.0196483333333","6500100","板橋區"
"220032","296-UM","2019/06/18 13:39:08","新北市板橋區大觀路二段153巷44弄5號","121.446543333333","24.9994","6500100","板橋區"
"220041","307-R5","2019/06/18 13:38:57","新北市板橋區民生路二段120號","121.470415","25.01966","6500100","板橋區"
"220047","317-R6","2019/06/18 13:38:58","新北市板橋區民生路二段120號","121.470338333333","25.0197716666667","6500100","板橋區"
"220037","491-VK","2019/06/18 13:38:55","新北市板橋區民生路二段175號","121.4699","25.0202416666667","6500100","板橋區"
"220052","561-BX","2019/06/18 13:39:06","新北市板橋區民生路二段56-6號","121.470901666667","25.0188783333333","6500100","板橋區"
"220011","609-BX","2019/06/18 13:38:51","新北市板橋區民生路二段175號","121.46968","25.0201933333333","6500100","板橋區"
"220104","630-UY","2019/06/18 13:39:10","新北市板橋區南雅西路二段145巷10號","121.451596666667","25.01192","6500100","板橋區"
"220005","686-BX","2019/06/18 13:39:00","新北市板橋區館前西路48號","121.458471666667","25.0069883333333","6500100","板橋區"
"220025","687-BX","2019/06/18 13:39:05","新北市板橋區存德街12號","121.429638333333","24.9918766666667","6500100","板橋區"
"220042","689-BX","2019/06/18 13:39:07","新北市板橋區民生路二段161巷1號","121.470075","25.0201233333333","6500100","板橋區"
"220002","741-BX","2019/06/18 13:39:06","新北市板橋區南雅南路二段120-11號","121.452091666667","24.999355","6500100","板橋區"
"220003","827-TW","2019/06/18 13:39:01","新北市板橋區忠孝路23號","121.460491666667","25.0019283333333","6500100","板橋區"
"220014","829-TW","2019/06/18 13:38:51","新北市板橋區民生路二段120號","121.47045","25.0199783333333","6500100","板橋區"
"220022","895-R6","2019/06/18 13:38:57","新北市板橋區南雅東路1號","121.455476666667","25.0055583333333","6500100","板橋區"
"220021","985-R7","2019/06/18 13:39:03","新北市板橋區南雅南路二段19號","121.452745","24.998555","6500100","板橋區"
"220046","AAC-210","2019/06/18 13:38:55","新北市板橋區民生路二段120號","121.470355","25.0196416666667","6500100","板橋區"
"220012","AAC-253","2019/06/18 13:38:50","新北市板橋區縣民大道二段22號","121.464791666667","25.013885","6500100","板橋區"
"235032","KEA-2873","2019/06/18 13:38:56","新北市中和區圓通路265巷32號","121.495868333333","24.9925533333333","6500300","中和區"
"235025","KEA-2875","2019/06/18 13:39:08","新北市中和區民治街128巷1號","121.475145","25.0028883333333","6500300","中和區"
