"lineid","car","time","location","longitude","latitude","cityid","cityname"
"234044","148-BY","2019/06/18 13:49:37","新北市永和區永利路248號","121.524203333333","25.0028816666667","6500400","永和區"
"234036","336-UY","2019/06/18 13:49:30","新北市永和區環河東路四段22號","121.528593333333","24.999595","6500400","永和區"
"234062","337-UY","2019/06/18 13:49:29","新北市永和區中正路368巷10弄2號","121.517985","25.000705","6500400","永和區"
"234084","338-UY","2019/06/18 13:49:39","新北市永和區中正路560號","121.517275","25.00593","6500400","永和區"
"234068","552-UM","2019/06/18 13:49:20","新北市永和區竹林路73-1號","121.518566666667","25.01339","6500400","永和區"
"234015","745-BX","2019/06/18 13:49:27","新北市永和區文化路55號","121.51421","25.01505","6500400","永和區"
"234028","746-BX","2019/06/18 13:49:30","新北市永和區民生路67巷12號","121.52326","24.997135","6500400","永和區"
"234052","KEA-2590","2019/06/18 13:49:33","新北市永和區竹林路75巷17號","121.519973333333","25.01396","6500400","永和區"
"234005","KED-0605","2019/06/18 13:49:25","新北市中和區中和路408號","121.51141","25.0029816666667","6500400","永和區"
"234012","KEA-2591","2019/06/18 13:49:31","新北市永和區永平路298號","121.50739","25.0122366666667","6500400","永和區"
"234060","AAD-866","2019/06/18 13:49:33","新北市永和區中正路281號","121.517551666667","25.0011233333333","6500400","永和區"
"234078","748-BX","2019/06/18 13:49:35","新北市永和區林森路81號","121.523908333333","25.00391","6500400","永和區"
"234040","862-TW","2019/06/18 13:49:38","新北市永和區中和路389巷1弄1號","121.508415","25.0002183333333","6500400","永和區"
"234048","863-TW","2019/06/18 13:49:21","新北市永和區保安路214號","121.507445","25.0136616666667","6500400","永和區"
"234025","9371-KE","2019/06/18 13:49:19","新北市永和區自由街58號","121.513791666667","25.0059533333333","6500400","永和區"
"234010","9373-KE","2019/06/18 13:49:38","新北市永和區仁愛路352巷92弄6號","121.501278333333","25.0080616666667","6500400","永和區"
"248017","KED-0813","2019/06/18 13:49:25","新北市五股區民義路二段22巷22號","121.423461666667","25.0976483333333","6501500","五股區"
"234022","9380-KE","2019/06/18 13:49:33","新北市永和區中正路653號","121.515033333333","25.010145","6500400","永和區"
"234076","969-R7","2019/06/18 13:49:35","新北市永和區民權路12號","121.52028","24.9994433333333","6500400","永和區"
"234072","AAC-211","2019/06/18 13:49:39","新北市永和區豫溪街207巷18號","121.523538333333","25.0102233333333","6500400","永和區"
"234066","AAC-212","2019/06/18 13:49:30","新北市永和區永貞路355巷3號","121.508873333333","25.0073783333333","6500400","永和區"
"234001","AAC-295","2019/06/18 13:49:22","新北市永和區永和路一段125號","121.514006666667","25.008285","6500400","永和區"
"244002","657-BX","2019/06/18 13:49:27","新北市林口區南勢里34-8號","121.352266666667","25.07032","6501700","林口區"
"231029","001-UM","2019/06/18 13:49:24","新北市新店區安康路二段156號","121.51236","24.960845","6500600","新店區"
"231030","002-UM","2019/06/18 13:49:33","新北市新店區安康路一段67號","121.530298333333","24.9610316666667","6500600","新店區"
"231028","046-UY","2019/06/18 13:49:27","新北市新店區安和路二段207號","121.517781666667","24.9754583333333","6500600","新店區"
"231018","107-UY","2019/06/18 13:49:36","新北市新店區中正路400巷16號","121.535085","24.9780466666667","6500600","新店區"
"231013","108-UY","2019/06/18 13:49:21","新北市新店區二十張路25巷18弄27號","121.539295","24.9812933333333","6500600","新店區"
"231036","110-UY","2019/06/18 13:49:25","新北市新店區安祥路147巷55號","121.476118333333","24.9560166666667","6500600","新店區"
"231032","256-BX","2019/06/18 13:49:35","新北市新店區莒光路44巷21弄11-3號","121.518543333333","24.9521633333333","6500600","新店區"
"231023","260-TV","2019/06/18 13:49:29","新北市新店區文中路58號","121.540306666667","24.9565","6500600","新店區"
"231003","268-BY","2019/06/18 13:49:24","新北市新店區中興路一段203號","121.543653333333","24.9656716666667","6500600","新店區"
"231035","278-BY","2019/06/18 13:49:28","新北市新店區安忠路57巷9弄2號","121.513601666667","24.9582116666667","6500600","新店區"
"231015","AAD-862","2019/06/18 13:49:31","新北市新店區竹林路69號","121.553321666667","24.9512816666667","6500600","新店區"
"231006","355-BY","2019/06/18 13:49:28","新北市新店區北宜路一段192巷4-1號","121.541966666667","24.952825","6500600","新店區"
"231038","3712-VJ","2019/06/18 13:49:30","新北市新店區安華路30巷3號","121.519653333333","24.9591816666667","6500600","新店區"
"231027","3713-VJ","2019/06/18 13:49:17","新北市新店區北宜路一段105巷12號","121.540128333333","24.95588","6500600","新店區"
"231024","4716-K9","2019/06/18 13:49:29","新北市新店區華興街20號","121.537675","24.96937","6500600","新店區"
"231025","4715-K9","2019/06/18 13:49:23","新北市新店區中正路347號","121.535441666667","24.9759066666667","6500600","新店區"
"231020","513-UM","2019/06/18 13:49:17","新北市新店區新烏路一段159號","121.545028333333","24.9350583333333","6500600","新店區"
"231001","617-UM","2019/06/18 13:49:29","新北市新店區三民路106號","121.534121666667","24.9740133333333","6500600","新店區"
"231002","618-UM","2019/06/18 13:49:22","新北市新店區溪園路247號","121.524938333333","24.9829016666667","6500600","新店區"
"231034","641-BX","2019/06/18 13:49:31","新北市新店區達觀路14巷5號","121.503693333333","24.9424766666667","6500600","新店區"
"231012","KED-0819","2019/06/18 13:49:36","新北市新店區德正街27巷29弄145號","121.545735","24.9735333333333","6500600","新店區"
"231010","719-UM","2019/06/18 13:49:39","新北市新店區中正路307巷16號","121.536401666667","24.9744","6500600","新店區"
"231026","720-UM","2019/06/18 13:49:28","新北市新店區中正路146號","121.5418","24.9716583333333","6500600","新店區"
"231005","897-TW","2019/06/18 13:49:35","新北市新店區寶中路123號","121.549691666667","24.97941","6500600","新店區"
"231004","899-TW","2019/06/18 13:49:26","新北市新店區中興路二段252號","121.547376666667","24.97591","6500600","新店區"
"231037","AKT-0513","2019/06/18 13:49:21","新北市新店區安康路三段261號","121.486696666667","24.9518233333333","6500600","新店區"
"235030","003-UY","2019/06/18 13:49:39","新北市中和區廣福路56巷6號","121.503515","25.0024133333333","6500300","中和區"
"235027","006-UY","2019/06/18 13:49:25","新北市中和區連城路319巷11弄2號","121.489221666667","24.9950083333333","6500300","中和區"
"235003","097-UM","2019/06/18 13:49:33","新北市中和區大仁街20巷40號","121.519611666667","24.9932366666667","6500300","中和區"
"235029","098-UM","2019/06/18 13:49:34","新北市中和區勝利路35巷10-4號","121.498976666667","25.00742","6500300","中和區"
"235040","150-BY","2019/06/18 13:49:32","新北市中和區保健路48巷2號","121.50995","24.996905","6500300","中和區"
"235022","151-BY","2019/06/18 13:49:33","新北市中和區連城路508號","121.477061666667","24.9920866666667","6500300","中和區"
"235019","183-VK","2019/06/18 13:49:26","新北市中和區民生街93-2號","121.468555","25.004765","6500300","中和區"
"235002","185-VK","2019/06/18 13:49:21","新北市中和區大勇街43巷8號","121.517501666667","24.9947166666667","6500300","中和區"
"235013","186-VK","2019/06/18 13:49:35","新北市中和區景安路177巷26號","121.50657","24.99443","6500300","中和區"
"235031","255-BX","2019/06/18 13:49:24","新北市中和區連城路340巷14弄1號","121.483398333333","24.99716","6500300","中和區"
"235008","293-VK","2019/06/18 13:49:40","新北市中和區中興街204號","121.499888333333","24.9902133333333","6500300","中和區"
"235036","301-VK","2019/06/18 13:49:26","新北市中和區中山路二段135號","121.502128333333","25.0030216666667","6500300","中和區"
"235007","352-BY","2019/06/18 13:49:33","新北市中和區成功路139號","121.525833333333","24.99014","6500300","中和區"
"235006","KEA-2878","2019/06/18 13:49:35","新北市中和區成功路97巷7號","121.526523333333","24.9918483333333","6500300","中和區"
"247007","KED-0682","2019/06/18 13:49:37","新北市蘆洲區重陽街42-1號","121.481045","25.0824916666667","6501400","蘆洲區"
"235014","4979-A6","2019/06/18 13:49:33","新北市中和區忠孝街62巷9弄8號","121.513201666667","24.9839733333333","6500300","中和區"
"235033","4980-A6","2019/06/18 13:49:21","新北市中和區南山路7號","121.502221666667","24.999505","6500300","中和區"
"235005","551-UM","2019/06/18 13:49:37","新北市永和區安樂路417號","121.514526666667","25.0039233333333","6500300","中和區"
"235034","558-UM","2019/06/18 13:49:24","新北市中和區中和路194號","121.505206666667","24.9997","6500300","中和區"
"235009","565-BX","2019/06/18 13:49:34","新北市中和區景新街467巷20弄166號","121.514485","24.9876883333333","6500300","中和區"
"235024","KED-0823","2019/06/18 13:49:27","新北市中和區中山路三段107號","121.474908333333","25.0061033333333","6500300","中和區"
"235018","640-BX","2019/06/18 13:49:34","新北市中和區民德路173號","121.46861","24.99961","6500300","中和區"
"235011","732-UM","2019/06/18 13:49:28","新北市中和區興南路二段34巷57弄2號","121.504946666667","24.9857966666667","6500300","中和區"
"235010","733-UM","2019/06/18 13:49:35","新北市中和區興南路一段85巷33號","121.510378333333","24.9882033333333","6500300","中和區"
"235035","783-BX","2019/06/18 13:49:36","新北市中和區立德街26巷5弄1-1號","121.489905","25.0072333333333","6500300","中和區"
"235026","800-TS","2019/06/18 13:49:31","新北市中和區橋安街18號","121.492701666667","25.004895","6500300","中和區"
"235021","801-TS","2019/06/18 13:49:26","新北市中和區民利街14巷5弄20號","121.479745","24.9993633333333","6500300","中和區"
"235016","805-TS","2019/06/18 13:49:40","新北市中和區興南路二段399巷58號","121.499523333333","24.9788733333333","6500300","中和區"
"235012","896-TW","2019/06/18 13:49:37","新北市中和區南山路228號","121.5065","24.9901733333333","6500300","中和區"
"235017","900-TW","2019/06/18 13:49:22","新北市中和區民德路300號","121.467445","24.9953616666667","6500300","中和區"
"235028","911-UM","2019/06/18 13:49:37","新北市中和區泰和街24號","121.499448333333","25.000605","6500300","中和區"
"235015","157-BY","2019/06/18 13:49:20","新北市中和區忠孝街106巷56號","121.51381","24.9842783333333","6500300","中和區"
"235001","AAC-213","2019/06/18 13:49:29","新北市中和區秀朗路三段10巷14弄102號","121.523176666667","24.9966233333333","6500300","中和區"
"235023","AAC-215","2019/06/18 13:49:27","新北市中和區圓通路391-4號","121.48984","24.9891066666667","6500300","中和區"
"220019","015-TV","2019/06/18 13:49:24","新北市板橋區四川路一段22號","121.459465","25.0064","6500100","板橋區"
"220013","072-UY","2019/06/18 13:49:36","新北市板橋區成都街69號","121.462128333333","25.0050616666667","6500100","板橋區"
"220034","073-UY","2019/06/18 13:49:27","新北市板橋區南雅西路二段145巷3號","121.451721666667","25.011505","6500100","板橋區"
"220105","075-UY","2019/06/18 13:49:40","新北市板橋區文化路二段124巷24號","121.471141666667","25.0257066666667","6500100","板橋區"
"220017","AAD-861","2019/06/18 13:49:33","新北市板橋區縣民大道一段98號","121.456895","25.0055083333333","6500100","板橋區"
"220039","120-SR","2019/06/18 13:49:35","新北市板橋區四維路177巷1弄2號","121.46405","25.0262","6500100","板橋區"
"247003","893-R6","2019/06/18 13:49:24","新北市蘆洲區中原路3號","121.461498333333","25.0832766666667","6501400","蘆洲區"
"247017","546-UM","2019/06/18 13:49:35","新北市蘆洲區民族路327巷75號","121.475498333333","25.0897466666667","6501400","蘆洲區"
"247011","056-VK","2019/06/18 13:49:26","新北市蘆洲區中正路520巷9號","121.462355","25.0995266666667","6501400","蘆洲區"
"247019","007-UY","2019/06/18 13:49:33","新北市蘆洲區民族路422巷48弄30號","121.474745","25.0929466666667","6501400","蘆洲區"
"247005","002-UY","2019/06/18 13:49:33","新北市蘆洲區中山二路256號","121.469325","25.0789583333333","6501400","蘆洲區"
"235020","251-BX","2019/06/18 13:49:25","新北市中和區立德街329號","121.481601666667","25.0104633333333","6500300","中和區"
"223005","677-TV","2019/06/18 13:43:03","新北市石碇區石碇西街1號","121.65938","24.99094","6501900","石碇區"
"228004","212-TW","2019/06/18 13:45:33","新北市貢寮區龍崗里嵩陽街10號","121.901778333333","25.0104833333333","6502600","貢寮區"
"228005","828-UM","2019/06/18 13:49:26","新北市貢寮區美豐里土地公嶺10號","121.89091","25.056825","6502600","貢寮區"
"207002","749-BX","2019/06/18 13:49:31","新北市萬里區崁腳里崁腳路166號","121.645055","25.1558733333333","6502800","萬里區"
"207001","662-BX","2019/06/18 13:49:37","","121.636418333333","25.2148766666667","6502800","萬里區"
"252005","AAC-283","2019/06/18 13:49:25","新北市三芝區橫山里橫山56-6號","121.535355","25.24863","6502100","三芝區"
"220038","KED-0812","2019/06/18 13:49:26","新北市板橋區文化路二段419號","121.474616666667","25.032775","6500100","板橋區"
"236074","166-UM","2019/06/18 13:49:27","新北市土城區光明街3號","121.442281666667","24.9748083333333","6501300","土城區"
"236029","253-BX","2019/06/18 13:49:30","新北市土城區中央路二段195號","121.442021666667","24.9751266666667","6501300","土城區"
"236013","270-VK","2019/06/18 13:49:38","新北市土城區城林路6巷80號","121.43858","24.9798","6501300","土城區"
"236032","271-VK","2019/06/18 13:49:31","新北市土城區城林路6巷80號","121.438586666667","24.9797833333333","6501300","土城區"
"247009","KED-0683","2019/06/18 13:49:28","新北市蘆洲區中正路520巷9號","121.462306666667","25.0994633333333","6501400","蘆洲區"
"236065","KEA-2877","2019/06/18 13:49:40","新北市土城區中正路8號","121.442538333333","24.9749666666667","6501300","土城區"
"236017","401-BY","2019/06/18 13:49:26","新北市土城區城林路6巷80號","121.438513333333","24.9798","6501300","土城區"
"236057","912-UM","2019/06/18 13:49:28","新北市土城區中央路三段141-3號","121.433321666667","24.9655383333333","6501300","土城區"
"236045","913-UM","2019/06/18 13:49:23","新北市土城區城林路6巷80號","121.438486666667","24.9797083333333","6501300","土城區"
"236060","915-UM","2019/06/18 13:49:25","新北市土城區城林路6巷80號","121.438626666667","24.9797266666667","6501300","土城區"
"220027","145-BY","2019/06/18 13:49:31","新北市板橋區南雅西路二段226號","121.452235","25.015525","6500100","板橋區"
"220028","200-UY","2019/06/18 13:49:23","新北市板橋區大觀路二段265巷128號","121.442311666667","24.9962616666667","6500100","板橋區"
"220030","610-BX","2019/06/18 13:49:35","新北市板橋區篤行路三段玉平巷76弄12號","121.427883333333","24.985895","6500100","板橋區"
"220004","276-BY","2019/06/18 13:49:23","新北市板橋區四川路一段287號","121.458838333333","25.0007133333333","6500100","板橋區"
"220020","277-BY","2019/06/18 13:49:19","新北市板橋區大觀路三段59巷15號","121.43427","24.995405","6500100","板橋區"
"220043","285-UM","2019/06/18 13:49:23","新北市板橋區民生路三段12號","121.467788333333","25.0245416666667","6500100","板橋區"
"220001","285-VK","2019/06/18 13:49:36","新北市板橋區永豐街59號","121.473935","25.018535","6500100","板橋區"
"220031","286-VK","2019/06/18 13:49:38","新北市板橋區僑中二街88巷2號","121.446331666667","25.00946","6500100","板橋區"
"220029","287-VK","2019/06/18 13:49:37","新北市板橋區光華街15巷15號","121.453423333333","25.011715","6500100","板橋區"
"220009","293-UM","2019/06/18 13:49:30","新北市板橋區永豐街111號","121.474215","25.0194883333333","6500100","板橋區"
"220010","295-UM","2019/06/18 13:49:35","新北市板橋區中山路二段28號","121.472635","25.0151266666667","6500100","板橋區"
"220032","296-UM","2019/06/18 13:49:37","新北市板橋區大觀路二段156巷2-1號","121.44145","24.9991333333333","6500100","板橋區"
"220041","307-R5","2019/06/18 13:49:37","新北市板橋區文化路一段104巷1弄9號","121.465388333333","25.0180783333333","6500100","板橋區"
"220047","317-R6","2019/06/18 13:49:32","新北市板橋區民生路二段234巷37號","121.469295","25.022775","6500100","板橋區"
"220037","491-VK","2019/06/18 13:49:35","新北市板橋區文化路二段16-2號","121.468875","25.024355","6500100","板橋區"
"220052","561-BX","2019/06/18 13:49:26","新北市板橋區文化路一段188巷7弄43號","121.468363333333","25.0195016666667","6500100","板橋區"
"220011","609-BX","2019/06/18 13:49:31","新北市板橋區中山路二段60巷6號","121.474011666667","25.015215","6500100","板橋區"
"220104","630-UY","2019/06/18 13:49:30","新北市板橋區中正路275巷62弄4-3號","121.452953333333","25.0181333333333","6500100","板橋區"
"220040","637-BX","2019/06/18 13:49:40","新北市板橋區莒光路165巷46號","121.474696666667","25.0253383333333","6500100","板橋區"
"220005","686-BX","2019/06/18 13:49:20","新北市板橋區重慶路173號","121.462753333333","25.0025766666667","6500100","板橋區"
"220025","687-BX","2019/06/18 13:49:25","新北市板橋區金門街64號","121.433408333333","24.9928916666667","6500100","板橋區"
"220042","689-BX","2019/06/18 13:49:27","新北市板橋區光武街127巷11號","121.465596666667","25.0285866666667","6500100","板橋區"
"220002","741-BX","2019/06/18 13:49:37","新北市板橋區後埔街37號","121.460583333333","25.0061816666667","6500100","板橋區"
"220051","KEA-2699","2019/06/18 13:49:31","新北市板橋區懷德街235巷2-1號","121.481383333333","25.0281233333333","6500100","板橋區"
"220003","827-TW","2019/06/18 13:49:41","新北市板橋區四川路一段279號","121.45955","25.0020033333333","6500100","板橋區"
"220014","829-TW","2019/06/18 13:49:31","新北市板橋區民生路二段56-4號","121.471815","25.0170333333333","6500100","板橋區"
"220016","831-TW","2019/06/18 13:49:27","新北市板橋區大同街35巷16號","121.47744","25.0278416666667","6500100","板橋區"
"220022","895-R6","2019/06/18 13:49:37","新北市板橋區府中路30號","121.458805","25.009475","6500100","板橋區"
"220021","985-R7","2019/06/18 13:49:23","新北市板橋區府中路67號","121.458176666667","25.009525","6500100","板橋區"
"220046","AAC-210","2019/06/18 13:49:35","新北市板橋區四維路137巷17號","121.464336666667","25.024905","6500100","板橋區"
"220012","AAC-253","2019/06/18 13:49:30","新北市板橋區漢生東路166號","121.467138333333","25.0149016666667","6500100","板橋區"
"235032","KEA-2873","2019/06/18 13:49:23","新北市中和區連城路139巷66號","121.496976666667","24.9968133333333","6500300","中和區"
"235025","KEA-2875","2019/06/18 13:49:37","新北市中和區中山路三段63巷9號","121.477066666667","25.0044733333333","6500300","中和區"
