"lineid","car","time","location","longitude","latitude","cityid","cityname"
"249005","172-UM","2019/06/18 17:08:19","新北市八里區華富山8號","121.42038","25.1406333333333","6502300","八里區"
"249001","173-UM","2019/06/18 17:08:58","新北市八里區荖阡坑路2-6號","121.398161666667","25.1443333333333","6502300","八里區"
"249004","303-UY","2019/06/18 17:09:03","新北市八里區忠孝路133號","121.423961666667","25.1606683333333","6502300","八里區"
"249002","305-UY","2019/06/18 17:09:04","新北市八里區米倉18號","121.440853333333","25.149815","6502300","八里區"
"249003","593-UM","2019/06/18 17:09:00","新北市八里區中山路二段405號","121.397791666667","25.1465083333333","6502300","八里區"
"244007","080-UY","2019/06/18 17:08:53","新北市林口區菁埔21-3號","121.377676666667","25.0970183333333","6501700","林口區"
"244019","402-UM","2019/06/18 16:55:45","","121.404968333333","25.0909033333333","6501700","林口區"
"244019","403-UM","2019/06/18 17:08:57","新北市林口區文化一路一段190巷5弄1號","121.379116666667","25.0753366666667","6501700","林口區"
"244023","483-VK","2019/06/18 17:08:59","新北市林口區仁愛路一段667巷12號","121.387128333333","25.0763733333333","6501700","林口區"
"244017","485-VK","2019/06/18 17:09:05","新北市林口區粉寮69號","121.405031666667","25.0908333333333","6501700","林口區"
"244025","837-TS","2019/06/18 17:09:06","新北市林口區粉寮1號","121.397563333333","25.080055","6501700","林口區"
"244021","838-TS","2019/06/18 17:08:53","新北市林口區粉寮路60-17號","121.404283333333","25.09031","6501700","林口區"
"231046","719-UM","2019/06/18 17:09:00","新北市新店區華城路77巷6號","121.523838333333","24.9453433333333","6500600","新店區"
"241011","013-R5","2019/06/18 17:08:58","新北市三重區河邊北街124巷3號","121.503511666667","25.07168","6500200","三重區"
"241028","022-UY","2019/06/18 17:08:55","新北市三重區重新路三段110號","121.492421666667","25.0602683333333","6500200","三重區"
"241008","059-VK","2019/06/18 17:08:47","新北市三重區力行路二段134號","121.48215","25.0756533333333","6500200","三重區"
"241022","060-VK","2019/06/18 17:08:50","新北市三重區重陽路二段26號","121.486833333333","25.0626366666667","6500200","三重區"
"241031","061-VK","2019/06/18 17:08:59","新北市三重區重陽路一段113巷2弄2號","121.487555","25.0599333333333","6500200","三重區"
"241015","062-VK","2019/06/18 17:08:52","新北市三重區長生街6號","121.49908","25.0663316666667","6500200","三重區"
"241017","063-VK","2019/06/18 17:09:03","新北市三重區中正北路25巷25弄3號","121.493301666667","25.0626883333333","6500200","三重區"
"241024","065-VK","2019/06/18 17:08:52","新北市三重區大勇街82巷26弄10號","121.479095","25.0721466666667","6500200","三重區"
"241001","066-VK","2019/06/18 17:09:00","新北市三重區仁愛街255巷87號","121.49537","25.079585","6500200","三重區"
"241002","090-VK","2019/06/18 17:06:31","新北市三重區五華街37號","121.494556666667","25.0809483333333","6500200","三重區"
"241003","091-VK","2019/06/18 17:09:06","新北市三重區富福街117號","121.493736666667","25.0857233333333","6500200","三重區"
"241005","262-UM","2019/06/18 17:09:06","新北市三重區永安北路二段23號","121.482363333333","25.0815966666667","6500200","三重區"
"241016","266-UM","2019/06/18 17:09:11","新北市三重區中正北路25巷2號","121.493136666667","25.0626383333333","6500200","三重區"
"241009","267-UM","2019/06/18 17:08:50","新北市三重區三和路四段398-2號","121.481481666667","25.0796166666667","6500200","三重區"
"241018","268-UM","2019/06/18 17:08:49","新北市三重區六張街83號","121.493178333333","25.070055","6500200","三重區"
"241032","269-UM","2019/06/18 17:09:00","新北市三重區興華街57號","121.485278333333","25.0598083333333","6500200","三重區"
"241013","270-UM","2019/06/18 17:09:06","新北市三重區仁福街21號","121.496258333333","25.0743033333333","6500200","三重區"
"241025","271-UM","2019/06/18 17:09:01","新北市三重區中正北路560巷89號","121.471033333333","25.068505","6500200","三重區"
"241007","398-BY","2019/06/18 17:09:02","新北市三重區三和路四段163巷79號","121.486046666667","25.0793933333333","6500200","三重區"
"241004","475-VK","2019/06/18 17:09:06","新北市三重區五華街92巷3號","121.492571666667","25.082165","6500200","三重區"
"241020","478-VK","2019/06/18 17:08:59","新北市三重區自強路三段27號","121.487081666667","25.0724133333333","6500200","三重區"
"241026","480-VK","2019/06/18 17:08:59","新北市三重區重新路一段71號","121.501481666667","25.0636016666667","6500200","三重區"
"241014","543-UM","2019/06/18 17:09:01","新北市三重區龍濱路197號","121.502028333333","25.07141","6500200","三重區"
"241006","AAD-863","2019/06/18 17:08:52","新北市三重區車路頭街143巷1號","121.484","25.0766","6500200","三重區"
"241019","743-BX","2019/06/18 17:08:57","新北市三重區力行路一段153巷50號","121.486458333333","25.0692333333333","6500200","三重區"
"241012","941-UM","2019/06/18 17:09:01","新北市三重區河邊北街248巷3號","121.501616666667","25.0759583333333","6500200","三重區"
"241029","942-UM","2019/06/18 17:09:05","新北市三重區重新路三段204號","121.489833333333","25.0585866666667","6500200","三重區"
"241033","AAC-255","2019/06/18 17:09:03","新北市三重區中興北街234號","121.468945","25.060665","6500200","三重區"
"247014","KEA-2869","2019/06/18 17:08:59","新北市蘆洲區中央路32巷1號","121.473575","25.0831066666667","6501400","蘆洲區"
"247008","KED-0682","2019/06/18 17:08:53","新北市蘆洲區信義路30巷15號","121.474521666667","25.0786766666667","6501400","蘆洲區"
"235062","800-TS","2019/06/18 17:08:52","新北市中和區員山路36巷16-2號","121.485143333333","24.9914433333333","6500300","中和區"
"247004","893-R6","2019/06/18 17:09:03","新北市蘆洲區長安街201-1號","121.460073333333","25.0819033333333","6501400","蘆洲區"
"247018","546-UM","2019/06/18 17:09:05","新北市蘆洲區復興路132號","121.47663","25.0874766666667","6501400","蘆洲區"
"247024","337-TH","2019/06/18 17:08:49","新北市蘆洲區長興路58號","121.463363333333","25.08377","6501400","蘆洲區"
"247002","336-TH","2019/06/18 17:09:02","新北市蘆洲區永樂街83號","121.455941666667","25.08879","6501400","蘆洲區"
"247022","057-VK","2019/06/18 17:08:52","新北市蘆洲區民族路496號","121.46979","25.090485","6501400","蘆洲區"
"247012","056-VK","2019/06/18 17:08:43","新北市蘆洲區信義路294號","121.477945","25.087675","6501400","蘆洲區"
"247016","053-VK","2019/06/18 17:09:04","新北市蘆洲區光華路73巷27-1號","121.468698333333","25.0821716666667","6501400","蘆洲區"
"247020","007-UY","2019/06/18 17:08:54","新北市蘆洲區仁愛街62巷22號","121.472408333333","25.094325","6501400","蘆洲區"
"247006","002-UY","2019/06/18 17:09:05","新北市蘆洲區長安街102巷63號","121.462628333333","25.0819583333333","6501400","蘆洲區"
"228001","212-TW","2019/06/18 17:08:53","新北市貢寮區仁理村研海街45號","121.926938333333","25.0394216666667","6502600","貢寮區"
"228002","663-BX","2019/06/18 17:08:59","新北市貢寮區龍崗里嵩陽街38號","121.909125","25.016475","6502600","貢寮區"
"228003","828-UM","2019/06/18 17:09:03","新北市貢寮區福隆里東興街10-1號","121.950881666667","25.0191033333333","6502600","貢寮區"
"224006","676-BX","2019/06/18 17:08:50","新北市瑞芳區大寮路110號","121.781471666667","25.0978116666667","6501200","瑞芳區"
"224007","285-BY","2019/06/18 17:09:00","新北市瑞芳區大寮路356-1號","121.78485","25.103235","6501200","瑞芳區"
"224009","275-VK","2019/06/18 17:08:59","新北市瑞芳區輕便路136號","121.84282","25.1141","6501200","瑞芳區"
"224008","273-VK","2019/06/18 17:09:02","新北市瑞芳區侯硐路45號","121.829846666667","25.0888666666667","6501200","瑞芳區"
"224005","271-BY","2019/06/18 17:08:59","新北市瑞芳區鼻頭路115號","121.916318333333","25.12254","6501200","瑞芳區"
"227002","642-TC","2019/06/18 17:08:55","新北市雙溪區上林里內平林12號","121.837256666667","25.0299866666667","6502500","雙溪區"
"251004","009-UM","2019/06/18 17:08:52","新北市淡水區中正東路二段88巷15號","121.459055","25.150505","6501000","淡水區"
"251005","010-UM","2019/06/18 17:08:59","新北市淡水區鄧公路19-1號","121.450326666667","25.1699516666667","6501000","淡水區"
"251015","KEA-2871","2019/06/18 17:08:55","新北市淡水區忠愛街1-3號","121.45534","25.1717866666667","6501000","淡水區"
"251016","179-VK","2019/06/18 17:09:09","新北市淡水區社厝坑3-11號","121.475285","25.188925","6501000","淡水區"
"251008","181-VK","2019/06/18 17:08:57","新北市淡水區樹梅坑6-10號","121.47304","25.1460433333333","6501000","淡水區"
"251013","182-VK","2019/06/18 17:08:49","新北市淡水區大埤頭5-2號","121.484848333333","25.1957616666667","6501000","淡水區"
"251012","441-VK","2019/06/18 17:09:09","新北市淡水區北新路2號","121.444183333333","25.17777","6501000","淡水區"
"251007","442-VK","2019/06/18 17:08:52","新北市淡水區中正東路二段103號","121.45932","25.1514533333333","6501000","淡水區"
"251006","561-UM","2019/06/18 17:08:55","新北市淡水區真理街6號","121.438425","25.174465","6501000","淡水區"
"251009","575-R6","2019/06/18 17:09:07","新北市淡水區中正路一段156巷1號","121.42098","25.17991","6501000","淡水區"
"251014","577-R6","2019/06/18 17:08:53","新北市淡水區八里堆8號","121.462268333333","25.2243733333333","6501000","淡水區"
"251011","650-BX","2019/06/18 17:09:08","新北市淡水區坪頂路51巷2號","121.458055","25.1625983333333","6501000","淡水區"
"251003","673-BX","2019/06/18 17:09:09","新北市淡水區中正路二段31號","121.419441666667","25.1815733333333","6501000","淡水區"
"252002","178-VK","2019/06/18 17:08:37","新北市三芝區忠孝街1-14號","121.505493333333","25.2539416666667","6502100","三芝區"
"247010","KED-0683","2019/06/18 17:08:51","新北市蘆洲區民族路5號","121.475588333333","25.0839283333333","6501400","蘆洲區"
"252001","KED-0821","2019/06/18 17:08:54","新北市三芝區埔頭里埔頭37號","121.498405","25.260255","6502100","三芝區"
"242039","AAC-296","2019/06/18 17:08:59","新北市新莊區三和路12-21號","121.442098333333","25.038775","6500500","新莊區"
"242061","986-R7","2019/06/18 17:09:07","新北市新莊區新泰路357巷3弄57號","121.442171666667","25.03915","6500500","新莊區"
"242002","751-BX","2019/06/18 17:08:49","新北市新莊區三和路12-10號","121.442326666667","25.0367966666667","6500500","新莊區"
"242029","615-BX","2019/06/18 17:09:03","新北市新莊區三和路18-25號","121.441743333333","25.03929","6500500","新莊區"
"242058","612-BX","2019/06/18 17:09:07","新北市新莊區新泰路255巷83號","121.442343333333","25.03918","6500500","新莊區"
"242044","442-UM","2019/06/18 17:09:03","新北市新莊區中正路400號","121.441551666667","25.0338566666667","6500500","新莊區"
"242056","441-UM","2019/06/18 17:08:54","新北市新莊區三和路12-21號","121.441941666667","25.0383066666667","6500500","新莊區"
"242011","413-TV","2019/06/18 17:09:00","新北市新莊區新泰路357巷3弄57號","121.442063333333","25.03938","6500500","新莊區"
"242048","400-BY","2019/06/18 17:09:07","新北市新莊區中正路483號","121.441195","25.033655","6500500","新莊區"
"242023","353-BY","2019/06/18 17:09:02","新北市新莊區新泰路357巷3弄57號","121.441886666667","25.03914","6500500","新莊區"
"242015","173-VK","2019/06/18 17:08:49","新北市新莊區三和路12-21號","121.442","25.03868","6500500","新莊區"
"242021","175-VK","2019/06/18 17:08:53","新北市新莊區三和路12-21號","121.441998333333","25.0386316666667","6500500","新莊區"
"242019","KED-0687","2019/06/18 17:08:52","新北市新莊區新泰路255巷83號","121.44211","25.0387916666667","6500500","新莊區"
"242051","346-TH","2019/06/18 17:09:08","新北市新莊區中正路473-1號","121.441935","25.0330383333333","6500500","新莊區"
"242042","347-TH","2019/06/18 17:08:56","新北市新莊區三和路12-21號","121.44217","25.03823","6500500","新莊區"
"238023","601-UM","2019/06/18 17:09:00","新北市樹林區大安路345號","121.416581666667","24.9907816666667","6500700","樹林區"
"238019","599-UM","2019/06/18 17:08:59","新北市樹林區育德街78號","121.387575","24.9684516666667","6500700","樹林區"
"238024","5061-A6","2019/06/18 17:09:03","新北市樹林區鎮前街35號","121.42569","24.9918833333333","6500700","樹林區"
"238018","KEA-2217","2019/06/18 17:08:57","新北市樹林區博愛街215號","121.423995","24.9867266666667","6500700","樹林區"
"238021","KEA-2539","2019/06/18 17:08:59","新北市樹林區西圳街165巷20弄26號","121.395593333333","24.96011","6500700","樹林區"
"238017","283-BY","2019/06/18 17:09:00","新北市樹林區中山路二段235號","121.402378333333","24.975995","6500700","樹林區"
"238014","282-BY","2019/06/18 17:09:02","新北市樹林區中華路190-6號","121.410555","24.9807016666667","6500700","樹林區"
"238016","169-UY","2019/06/18 17:08:53","","121.417566666667","24.9848783333333","6500700","樹林區"
"239007","AAC-297","2019/06/18 17:09:08","新北市鶯歌區和平街45巷13號","121.353393333333","24.9548966666667","6500800","鶯歌區"
"239006","891-R6","2019/06/18 17:09:08","新北市鶯歌區八德路2巷37弄1號","121.33678","24.946765","6500800","鶯歌區"
"239008","527-UM","2019/06/18 17:09:02","新北市鶯歌區尖山路79-2號","121.348888333333","24.9493916666667","6500800","鶯歌區"
"239005","526-UM","2019/06/18 17:08:55","新北市鶯歌區德昌二街15號","121.333331666667","24.9592116666667","6500800","鶯歌區"
"239001","417-VK","2019/06/18 17:09:10","新北市鶯歌區尖山路86巷27號","121.347096666667","24.9495133333333","6500800","鶯歌區"
"239003","360-BY","2019/06/18 17:09:06","新北市鶯歌區德昌二街70巷32弄89號","121.329996666667","24.956975","6500800","鶯歌區"
"239002","359-BY","2019/06/18 17:09:08","新北市鶯歌區建國路268號","121.347325","24.9534466666667","6500800","鶯歌區"
"239004","193-VK","2019/06/18 17:08:57","新北市鶯歌區文化路322-1號","121.352806666667","24.945875","6500800","鶯歌區"
"233001","KEA-2870","2019/06/18 17:09:02","新北市烏來區環山路47號","121.549353333333","24.8633766666667","6502900","烏來區"
"242007","281-VK","2019/06/18 17:08:56","新北市新莊區三和路12-21號","121.442215","25.038355","6500500","新莊區"
"242009","280-VK","2019/06/18 17:08:48","新北市新莊區三和路12-21號","121.44197","25.0382316666667","6500500","新莊區"
