"lineid","car","time","location","longitude","latitude","cityid","cityname"
"234026","9371-KE","2019/06/18 17:59:37","新北市永和區永和路一段70號","121.51299","25.0062416666667","6500400","永和區"
"249005","172-UM","2019/06/18 17:59:39","新北市八里區荖阡坑路16號","121.397771666667","25.13837","6502300","八里區"
"249001","173-UM","2019/06/18 17:59:38","新北市八里區龍米路二段30號","121.448565","25.1400566666667","6502300","八里區"
"249004","303-UY","2019/06/18 17:59:23","新北市八里區大崁腳47-3號","121.424506666667","25.1590066666667","6502300","八里區"
"249002","305-UY","2019/06/18 17:59:24","新北市八里區龍形五街15號","121.450166666667","25.1335333333333","6502300","八里區"
"249003","759-BX","2019/06/18 17:59:28","新北市八里區中山路二段76號","121.4084","25.1558083333333","6502300","八里區"
"248008","KED-0815","2019/06/18 17:59:23","新北市五股區中興路二段146號","121.45883","25.078325","6501500","五股區"
"248020","KED-0813","2019/06/18 17:59:37","新北市五股區中興路二段63巷17號","121.460275","25.0752583333333","6501500","五股區"
"248012","247-BX","2019/06/18 17:59:20","新北市五股區中興路二段83巷26-6號","121.459951666667","25.0749166666667","6501500","五股區"
"248004","677-BX","2019/06/18 17:59:26","新北市五股區中興路二段157巷11-1號","121.457953333333","25.0768633333333","6501500","五股區"
"248002","678-BX","2019/06/18 17:59:27","新北市五股區中興路二段83巷26-6號","121.460011666667","25.0753233333333","6501500","五股區"
"232011","375-UM","2019/06/18 17:59:31","新北市坪林區水柳腳39號","121.70971","24.93516","6502000","坪林區"
"244007","080-UY","2019/06/18 17:59:33","新北市林口區林口路190號","121.387461666667","25.0828366666667","6501700","林口區"
"244019","403-UM","2019/06/18 17:59:37","新北市林口區文化一路一段120號","121.374336666667","25.0720133333333","6501700","林口區"
"244013","KEA-2802","2019/06/18 17:59:32","新北市林口區中山路68號","121.39366","25.0785733333333","6501700","林口區"
"244023","483-VK","2019/06/18 17:59:18","新北市林口區東湖路41巷11號","121.386291666667","25.0732533333333","6501700","林口區"
"244017","485-VK","2019/06/18 17:59:25","新北市林口區忠孝路372號","121.369251666667","25.07134","6501700","林口區"
"244009","656-BX","2019/06/18 17:59:23","新北市林口區佳林路56巷35號","121.385261666667","25.08091","6501700","林口區"
"244011","701-TV","2019/06/18 17:59:37","新北市林口區中正路114號","121.393485","25.0772683333333","6501700","林口區"
"244025","837-TS","2019/06/18 17:59:26","新北市林口區文化三路一段39巷118-1號","121.359476666667","25.0680583333333","6501700","林口區"
"244021","838-TS","2019/06/18 17:59:37","新北市林口區仁愛路一段29號","121.398333333333","25.0683616666667","6501700","林口區"
"222003","436-BY","2019/06/18 17:59:26","新北市深坑區炮子崙23號","121.607208333333","24.990975","6501800","深坑區"
"222002","659-BX","2019/06/18 17:59:28","新北市深坑區深坑街35號","121.615965","25.00181","6501800","深坑區"
"241024","065-VK","2019/06/18 17:59:32","新北市三重區車路頭街70號","121.48414","25.0731466666667","6500200","三重區"
"241005","262-UM","2019/06/18 17:58:26","新北市五股區中直路13-7號","121.4239","25.1108283333333","6500200","三重區"
"241016","266-UM","2019/06/18 17:59:31","新北市五股區成泰路三段542號","121.454551666667","25.1037683333333","6500200","三重區"
"241033","AAC-255","2019/06/18 17:59:23","新北市三重區重新路五段578號","121.469643333333","25.045505","6500200","三重區"
"235063","006-UY","2019/06/18 17:59:22","新北市中和區員山路36巷16-3號","121.485066666667","24.9912183333333","6500300","中和區"
"235065","098-UM","2019/06/18 17:59:33","新北市中和區橋和路2-1號","121.488546666667","25.00499","6500300","中和區"
"235058","151-BY","2019/06/18 17:59:29","新北市中和區圓通路367巷20弄7號","121.491971666667","24.98842","6500300","中和區"
"235019","183-VK","2019/06/18 17:59:29","新北市中和區員山路36巷16-3號","121.484988333333","24.9912983333333","6500300","中和區"
"235038","185-VK","2019/06/18 17:59:40","新北市中和區錦和路350-1號","121.490201666667","24.9935816666667","6500300","中和區"
"247014","KEA-2869","2019/06/18 17:59:19","新北市蘆洲區忠孝路45號","121.47139","25.0862033333333","6501400","蘆洲區"
"235045","565-BX","2019/06/18 17:32:24","新北市中和區員山路36巷13號","121.4842","24.9909116666667","6500300","中和區"
"235054","640-BX","2019/06/18 17:59:36","新北市中和區連城路583巷15號","121.479118333333","24.9934166666667","6500300","中和區"
"235062","800-TS","2019/06/18 17:59:23","新北市中和區連城路469巷20號","121.48354","24.9951383333333","6500300","中和區"
"235057","801-TS","2019/06/18 17:59:29","新北市中和區新生街288號","121.483648333333","24.9965716666667","6500300","中和區"
"235064","911-UM","2019/06/18 17:59:14","新北市中和區和城路一段271巷1號","121.485478333333","24.991505","6500300","中和區"
"235051","157-BY","2019/06/18 17:59:32","新北市中和區中正路637巷60弄61號","121.48561","24.9932266666667","6500300","中和區"
"235037","AAC-213","2019/06/18 17:59:27","新北市中和區景平路149號","121.513803333333","24.992055","6500300","中和區"
"247018","546-UM","2019/06/18 17:59:25","新北市蘆洲區復興路198-1號","121.478301666667","25.0889783333333","6501400","蘆洲區"
"247002","336-TH","2019/06/18 17:59:22","新北市蘆洲區永平街32巷45弄35號","121.458273333333","25.0930316666667","6501400","蘆洲區"
"247012","056-VK","2019/06/18 17:59:23","新北市蘆洲區民族路220號","121.479673333333","25.0878666666667","6501400","蘆洲區"
"247006","002-UY","2019/06/18 17:59:25","新北市蘆洲區中華街6號","121.463516666667","25.0816516666667","6501400","蘆洲區"
"226004","312-R5","2019/06/18 17:59:22","新北市平溪區石底里公園街18-3號","121.73344","25.0257066666667","6502400","平溪區"
"228001","212-TW","2019/06/18 17:59:33","新北市貢寮區真理里新港街26巷49號","121.927725","25.0532083333333","6502600","貢寮區"
"228002","663-BX","2019/06/18 17:59:19","新北市貢寮區福連里香蘭街2-1號","121.969775","25.0236666666667","6502600","貢寮區"
"228003","828-UM","2019/06/18 17:59:23","新北市貢寮區真理里美艷山街6-2號","121.928823333333","25.0607316666667","6502600","貢寮區"
"224006","676-BX","2019/06/18 17:59:30","新北市瑞芳區大寮路356-1號","121.784825","25.10324","6501200","瑞芳區"
"224007","285-BY","2019/06/18 17:59:20","新北市瑞芳區大寮路84號","121.780191666667","25.1012516666667","6501200","瑞芳區"
"224009","275-VK","2019/06/18 17:59:39","新北市瑞芳區山尖路189號","121.851151666667","25.1125416666667","6501200","瑞芳區"
"224008","273-VK","2019/06/18 17:59:32","新北市瑞芳區明燈路一段45巷109號","121.821963333333","25.103715","6501200","瑞芳區"
"224005","271-BY","2019/06/18 17:59:39","新北市瑞芳區深澳路10-4號","121.818708333333","25.1301633333333","6501200","瑞芳區"
"253006","032-BX","2019/06/18 17:59:38","新北市石門區大丘田45-2號","121.549858333333","25.2749233333333","6502200","石門區"
"253005","295-VK","2019/06/18 17:59:32","新北市石門區中山路62-11號","121.567576666667","25.28965","6502200","石門區"
"222001","KEA-2212","2019/06/18 17:59:32","新北市深坑區北深路二段187號","121.612225","25.0011266666667","6501800","深坑區"
"208002","KEA-2872","2019/06/18 17:59:28","新北市金山區三界壇路24號","121.625563333333","25.228455","6502700","金山區"
"208003","665-BX","2019/06/18 17:59:26","新北市金山區磺港里磺港路202-1號","121.645173333333","25.2274983333333","6502700","金山區"
"251004","009-UM","2019/06/18 17:59:21","新北市淡水區民權路187號","121.459535","25.133565","6501000","淡水區"
"251005","010-UM","2019/06/18 17:59:39","新北市淡水區英專路128號","121.446306666667","25.1726433333333","6501000","淡水區"
"251002","012-UM","2019/06/18 17:59:33","新北市淡水區中山路36號","121.444378333333","25.1699116666667","6501000","淡水區"
"251015","KEA-2871","2019/06/18 17:59:35","新北市淡水區興福寮31-1號","121.489501666667","25.162235","6501000","淡水區"
"251016","179-VK","2019/06/18 17:59:29","新北市淡水區埤島28號","121.447541666667","25.1984116666667","6501000","淡水區"
"251008","181-VK","2019/06/18 17:59:29","新北市淡水區八勢路20號","121.460591666667","25.1536633333333","6501000","淡水區"
"251013","182-VK","2019/06/18 17:59:29","新北市淡水區泉洲厝31號","121.479545","25.19096","6501000","淡水區"
"251010","413-VK","2019/06/18 17:59:37","新北市淡水區中正路一段87巷1-2號","121.421473333333","25.178965","6501000","淡水區"
"251012","441-VK","2019/06/18 17:59:29","新北市淡水區北新路三段38巷7號","121.484508333333","25.1869933333333","6501000","淡水區"
"251007","442-VK","2019/06/18 17:59:31","新北市淡水區中正東路二段143巷1弄7號","121.460696666667","25.148185","6501000","淡水區"
"251001","559-UM","2019/06/18 17:59:26","新北市淡水區民權路94巷1號","121.46316","25.124885","6501000","淡水區"
"251006","561-UM","2019/06/18 17:59:35","新北市淡水區新生街30巷1號","121.438985","25.173235","6501000","淡水區"
"251009","575-R6","2019/06/18 17:59:27","新北市淡水區中山路113號","121.441721666667","25.1709316666667","6501000","淡水區"
"251014","577-R6","2019/06/18 17:59:33","新北市淡水區公埔子16-6號","121.480981666667","25.2245216666667","6501000","淡水區"
"251011","650-BX","2019/06/18 17:58:29","新北市淡水區吳(仔)厝24號","121.479428333333","25.1488433333333","6501000","淡水區"
"251003","673-BX","2019/06/18 17:59:30","新北市淡水區大忠街35號","121.444205","25.1762716666667","6501000","淡水區"
"207003","550-UM","2019/06/18 17:59:32","新北市萬里區港東路野柳風景區攤販68號","121.691293333333","25.2058233333333","6502800","萬里區"
"207004","225-TW","2019/06/18 17:59:27","新北市萬里區中幅里中福路48號","121.683436666667","25.1741","6502800","萬里區"
"252002","178-VK","2019/06/18 17:59:37","新北市三芝區中山路二段45號","121.503033333333","25.254975","6502100","三芝區"
"208001","170-UY","2019/06/18 17:59:36","新北市金山區磺港里磺港路248號","121.643803333333","25.2250283333333","6502700","金山區"
"237004","KEA-2597","2019/06/18 17:59:35","新北市三峽區中正路二段124-1號","121.36631","24.9168483333333","6500900","三峽區"
"237007","153-BY","2019/06/18 17:59:25","新北市三峽區中園街108-4號","121.366735","24.9231283333333","6500900","三峽區"
"237009","210-TH","2019/06/18 17:59:25","新北市三峽區中山路106巷18號","121.366078333333","24.9365683333333","6500900","三峽區"
"237013","252-BX","2019/06/18 17:59:32","新北市三峽區介壽路一段232號","121.378466666667","24.9304466666667","6500900","三峽區"
"237012","275-BY","2019/06/18 17:59:27","新北市三峽區民生街21號","121.376193333333","24.9364633333333","6500900","三峽區"
"237008","302-VK","2019/06/18 17:59:40","新北市三峽區白雞38-7號","121.373048333333","24.9124033333333","6500900","三峽區"
"237014","433-BY","2019/06/18 17:59:36","新北市三峽區和平街36巷4號","121.37052","24.9371183333333","6500900","三峽區"
"237006","5529-G3","2019/06/18 17:59:31","新北市三峽區介壽路二段138巷1弄88號","121.397968333333","24.9321966666667","6500900","三峽區"
"237011","KEA-2596","2019/06/18 17:59:30","新北市三峽區光明路67號","121.375728333333","24.92863","6500900","三峽區"
"237015","649-BX","2019/06/18 17:59:37","新北市三峽區紫微路139號","121.407371666667","24.9114116666667","6500900","三峽區"
"237010","706-TV","2019/06/18 17:59:38","新北市三峽區仁愛街18號","121.36829","24.93248","6500900","三峽區"
"237005","AKY-6261","2019/06/18 17:59:28","新北市三峽區和平街87號","121.370001666667","24.9375066666667","6500900","三峽區"
"236042","KED-0685","2019/06/18 17:59:36","新北市土城區城林路6巷80號","121.438431666667","24.97972","6501300","土城區"
"236079","166-UM","2019/06/18 17:59:32","新北市土城區中華路二段198號","121.437575","24.970025","6501300","土城區"
"236030","253-BX","2019/06/18 17:59:32","新北市土城區城林路6巷80號","121.438576666667","24.9796033333333","6501300","土城區"
"236026","269-VK","2019/06/18 17:59:23","新北市土城區承天路20號","121.439576666667","24.9634","6501300","土城區"
"236014","270-VK","2019/06/18 17:59:41","新北市土城區中華路二段2號","121.439718333333","24.9794266666667","6501300","土城區"
"236038","271-VK","2019/06/18 17:59:33","新北市土城區中正路13-1號","121.443083333333","24.9752833333333","6501300","土城區"
"247010","KED-0683","2019/06/18 17:59:31","新北市蘆洲區信義路273號","121.478936666667","25.0850566666667","6501400","蘆洲區"
"236070","KEA-2877","2019/06/18 17:59:23","新北市土城區青雲路669-3號","121.467178333333","24.9649416666667","6501300","土城區"
"252001","KED-0821","2019/06/18 17:59:34","新北市三芝區中興街二段2號","121.498375","25.2566366666667","6502100","三芝區"
"236021","401-BY","2019/06/18 17:59:32","新北市土城區城林路6巷80號","121.438461666667","24.9796883333333","6501300","土城區"
"236059","912-UM","2019/06/18 17:59:38","新北市土城區中央路三段250號","121.42763","24.964205","6501300","土城區"
"236049","913-UM","2019/06/18 17:59:21","新北市土城區中正路19號","121.443378333333","24.9753516666667","6501300","土城區"
"236063","915-UM","2019/06/18 17:59:24","新北市土城區城林路6巷80號","121.438543333333","24.9795633333333","6501300","土城區"
"236055","AAC-216","2019/06/18 17:59:35","新北市土城區中華路二段2號","121.43914","24.9797083333333","6501300","土城區"
"242039","AAC-296","2019/06/18 17:59:39","新北市新莊區民安西路24巷16號","121.42616","25.0208033333333","6500500","新莊區"
"242061","986-R7","2019/06/18 17:59:28","新北市新莊區新樹路479號","121.432693333333","25.0126866666667","6500500","新莊區"
"242002","751-BX","2019/06/18 17:59:29","新北市新莊區大觀街42巷31號","121.454638333333","25.0365233333333","6500500","新莊區"
"242029","615-BX","2019/06/18 17:59:23","新北市新莊區中平路110巷7號","121.44551","25.0460083333333","6500500","新莊區"
"242027","613-BX","2019/06/18 17:59:30","新北市新莊區中原路1號","121.459471666667","25.0545466666667","6500500","新莊區"
"242058","612-BX","2019/06/18 17:59:27","新北市新莊區雙鳳路134巷6號","121.412973333333","25.0282066666667","6500500","新莊區"
"242046","566-BX","2019/06/18 17:59:29","新北市新莊區福營路167號","121.431818333333","25.0311116666667","6500500","新莊區"
"242044","442-UM","2019/06/18 17:59:23","新北市新莊區雙鳳路101號","121.414566666667","25.027845","6500500","新莊區"
"242056","441-UM","2019/06/18 17:59:34","新北市新莊區豐年街126號","121.446496666667","25.0297733333333","6500500","新莊區"
"242005","440-UM","2019/06/18 17:59:35","新北市新莊區福樂街80巷22號","121.458818333333","25.0466916666667","6500500","新莊區"
"242011","413-TV","2019/06/18 17:59:20","新北市新莊區中港路中慶巷22號","121.449985","25.0537716666667","6500500","新莊區"
"242048","400-BY","2019/06/18 17:59:27","新北市新莊區萬安街85號","121.421093333333","25.023505","6500500","新莊區"
"242025","362-BY","2019/06/18 17:59:22","新北市新莊區新北大道二段302號","121.464653333333","25.0610833333333","6500500","新莊區"
"242023","353-BY","2019/06/18 17:59:22","新北市新莊區福壽街54號","121.458281666667","25.0488366666667","6500500","新莊區"
"242013","132-UY","2019/06/18 17:59:30","新北市新莊區中和街122號","121.447495","25.0478266666667","6500500","新莊區"
"242037","135-UY","2019/06/18 17:59:25","新北市新莊區中正路685號","121.426035","25.02999","6500500","新莊區"
"242054","172-VK","2019/06/18 17:59:35","新北市新莊區光華街3號","121.428776666667","25.0105733333333","6500500","新莊區"
"242015","173-VK","2019/06/18 17:59:30","新北市新莊區中平路87巷8號","121.444223333333","25.0457883333333","6500500","新莊區"
"242021","175-VK","2019/06/18 17:59:33","新北市新莊區建興街32號","121.45006","25.037155","6500500","新莊區"
"242019","KED-0687","2019/06/18 17:59:33","新北市新莊區明中街53號","121.456511666667","25.0396016666667","6500500","新莊區"
"242051","346-TH","2019/06/18 17:59:27","新北市新莊區西盛街206號","121.428066666667","25.0180333333333","6500500","新莊區"
"242042","347-TH","2019/06/18 17:59:36","新北市新莊區中正路723-9號","121.423033333333","25.0291016666667","6500500","新莊區"
"242034","348-TH","2019/06/18 17:59:36","新北市新莊區中正路421巷7號","121.444695","25.03389","6500500","新莊區"
"242032","350-TH","2019/06/18 17:59:28","新北市新莊區新泰路330號","121.44499","25.04184","6500500","新莊區"
"242017","351-TH","2019/06/18 17:59:33","新北市新莊區中和街60巷7號","121.448326666667","25.0448283333333","6500500","新莊區"
"238015","755-BX","2019/06/18 17:59:35","新北市樹林區大安路320號","121.417076666667","24.9916166666667","6500700","樹林區"
"238023","601-UM","2019/06/18 17:59:40","新北市樹林區龍興街48號","121.402968333333","25.0154616666667","6500700","樹林區"
"238019","599-UM","2019/06/18 17:59:39","新北市樹林區太平路176號","121.41838","24.9767183333333","6500700","樹林區"
"238018","KEA-2217","2019/06/18 17:59:37","新北市樹林區樹新路106巷7號","121.429925","24.99817","6500700","樹林區"
"238022","KEA-2213","2019/06/18 17:59:26","新北市樹林區太元街71號","121.419081666667","24.9786633333333","6500700","樹林區"
"238021","KEA-2539","2019/06/18 17:59:39","新北市樹林區柑園街一段136號","121.399505","24.9571066666667","6500700","樹林區"
"238025","303-VK","2019/06/18 17:59:30","新北市樹林區中正路592號","121.410605","25.0152716666667","6500700","樹林區"
"238017","283-BY","2019/06/18 17:59:36","新北市樹林區俊德街15號","121.415063333333","25.0144783333333","6500700","樹林區"
"238014","282-BY","2019/06/18 17:59:39","新北市樹林區千歲街61巷40弄17號","121.426125","24.99922","6500700","樹林區"
"238020","268-VK","2019/06/18 17:59:26","新北市樹林區三俊街199巷10-14號","121.420256666667","25.016945","6500700","樹林區"
"238026","172-UY","2019/06/18 17:59:28","新北市樹林區中洲街51巷4號","121.396751666667","24.97099","6500700","樹林區"
"238016","169-UY","2019/06/18 17:59:33","新北市樹林區啟智街151巷5號","121.416531666667","24.9877183333333","6500700","樹林區"
"239007","AAC-297","2019/06/18 17:59:28","新北市鶯歌區尖山埔路165巷3弄1號","121.346318333333","24.9503966666667","6500800","鶯歌區"
"239006","891-R6","2019/06/18 17:59:28","新北市鶯歌區鳳鳴路5號","121.333276666667","24.9648616666667","6500800","鶯歌區"
"239008","527-UM","2019/06/18 17:59:22","新北市鶯歌區明圓街9號","121.33597","24.9770633333333","6500800","鶯歌區"
"239005","526-UM","2019/06/18 17:59:35","新北市鶯歌區鶯桃路658巷87號","121.331556666667","24.9706483333333","6500800","鶯歌區"
"239001","417-VK","2019/06/18 17:59:30","新北市鶯歌區中正三路191號","121.335608333333","24.9394516666667","6500800","鶯歌區"
"239003","360-BY","2019/06/18 17:59:26","新北市鶯歌區永吉街46巷41號","121.33454","24.9576183333333","6500800","鶯歌區"
"239002","359-BY","2019/06/18 17:59:27","新北市鶯歌區光明街94號","121.346398333333","24.9558766666667","6500800","鶯歌區"
"239004","193-VK","2019/06/18 17:59:37","新北市鶯歌區尖山路88號","121.34862","24.949505","6500800","鶯歌區"
"221008","489-VK","2019/06/18 17:59:35","新北市汐止區康寧街753巷2弄8號","121.639276666667","25.07392","6501100","汐止區"
"221010","269-BY","2019/06/18 17:59:34","新北市汐止區汐萬路二段275巷1弄28號","121.646168333333","25.08808","6501100","汐止區"
"221023","279-VK","2019/06/18 17:59:20","新北市汐止區明峰街31號","121.633973333333","25.0713533333333","6501100","汐止區"
"221029","298-VK","2019/06/18 17:59:40","新北市汐止區樟樹二路334號","121.641613333333","25.07039","6501100","汐止區"
"221031","353-TW","2019/06/18 17:59:22","新北市汐止區中興路96巷1-3號","121.635241666667","25.0625116666667","6501100","汐止區"
"221035","622-UM","2019/06/18 17:59:23","新北市汐止區汐萬路一段213號","121.651875","25.0720083333333","6501100","汐止區"
"221033","647-BX","2019/06/18 17:59:23","新北市汐止區合順街39巷2號","121.620763333333","25.0432166666667","6501100","汐止區"
"221002","707-TV","2019/06/18 17:59:29","新北市汐止區工建路213號","121.635633333333","25.061625","6501100","汐止區"
"233001","KEA-2870","2019/06/18 17:59:42","新北市烏來區西羅岸路22號","121.54909","24.8674783333333","6502900","烏來區"
"224002","257-TC","2019/06/18 17:59:37","新北市瑞芳區三爪子坑路32巷76號","121.81008","25.1059483333333","6501200","瑞芳區"
"242007","281-VK","2019/06/18 17:59:37","新北市新莊區自信街63號","121.455418333333","25.0482466666667","6500500","新莊區"
"242009","280-VK","2019/06/18 17:59:28","新北市新莊區中華路二段254號","121.45249","25.0531","6500500","新莊區"
"235061","KEA-2875","2019/06/18 17:59:33","新北市中和區中正路637巷52弄3號","121.485313333333","24.993675","6500300","中和區"
