"lineid","car","time","location","longitude","latitude","cityid","cityname"
"234026","9371-KE","2019/06/18 18:08:57","新北市永和區秀朗路一段10巷21號","121.513298333333","25.0063216666667","6500400","永和區"
"249005","172-UM","2019/06/18 18:08:59","新北市八里區荖阡坑路17-16號","121.401586666667","25.1383433333333","6502300","八里區"
"249001","173-UM","2019/06/18 18:08:58","新北市八里區龍米路二段30號","121.448675","25.1400716666667","6502300","八里區"
"249004","303-UY","2019/06/18 18:09:03","新北市八里區龍米路二段140巷26號","121.437991666667","25.1547833333333","6502300","八里區"
"249002","305-UY","2019/06/18 18:09:04","新北市八里區龍米路一段356巷46號","121.45213","25.13035","6502300","八里區"
"249003","759-BX","2019/06/18 18:09:07","新北市八里區中華路二段250號","121.405498333333","25.1496916666667","6502300","八里區"
"248014","025-BX","2019/06/18 18:08:50","新北市五股區成泰路一段188號","121.43543","25.0775716666667","6501500","五股區"
"248006","077-UY","2019/06/18 18:08:58","新北市五股區中興路二段53號","121.461866666667","25.07652","6501500","五股區"
"248008","KED-0815","2019/06/18 18:09:03","新北市蘆洲區永安南路二段298號","121.45721","25.08206","6501500","五股區"
"248020","KED-0813","2019/06/18 18:08:57","新北市蘆洲區環堤大道365號","121.455261666667","25.0970666666667","6501500","五股區"
"248012","247-BX","2019/06/18 18:09:00","新北市五股區新五路二段258號","121.441013333333","25.0821666666667","6501500","五股區"
"248010","272-BY","2019/06/18 18:09:00","新北市五股區新五路二段119-10號","121.43826","25.0789233333333","6501500","五股區"
"248004","677-BX","2019/06/18 18:09:06","新北市五股區工商路42號","121.439213333333","25.0839016666667","6501500","五股區"
"248002","678-BX","2019/06/18 18:09:07","新北市五股區中興路三段163號","121.448643333333","25.0800166666667","6501500","五股區"
"232011","375-UM","2019/06/18 18:08:51","新北市坪林區國中路1號","121.712663333333","24.9365316666667","6502000","坪林區"
"244007","080-UY","2019/06/18 18:08:53","新北市林口區中山路202-1號","121.387636666667","25.0791266666667","6501700","林口區"
"244019","403-UM","2019/06/18 18:08:57","新北市林口區麗園路89號","121.373123333333","25.0687066666667","6501700","林口區"
"244013","KEA-2802","2019/06/18 18:08:52","新北市林口區中山路202號","121.388478333333","25.07904","6501700","林口區"
"244023","483-VK","2019/06/18 18:08:59","新北市林口區隆林街125號","121.384183333333","25.0745233333333","6501700","林口區"
"244017","485-VK","2019/06/18 18:09:04","新北市林口區八德路18號","121.36844","25.06735","6501700","林口區"
"244009","656-BX","2019/06/18 18:09:03","新北市林口區中山路262-1號","121.384886666667","25.07989","6501700","林口區"
"244011","701-TV","2019/06/18 18:08:57","新北市林口區中正路25號","121.396313333333","25.07735","6501700","林口區"
"244025","837-TS","2019/06/18 18:09:06","新北市林口區文化北路一段293-2號","121.360248333333","25.0726233333333","6501700","林口區"
"244021","838-TS","2019/06/18 18:09:07","新北市林口區自強九街12號","121.400773333333","25.076005","6501700","林口區"
"222003","436-BY","2019/06/18 18:09:06","新北市深坑區阿柔洋47號","121.612203333333","24.9978383333333","6501800","深坑區"
"222002","659-BX","2019/06/18 18:09:08","新北市深坑區文化街52號","121.618875","25.0016533333333","6501800","深坑區"
"231058","0293-UT","2019/06/18 18:08:56","新北市新店區安華路1-1號","121.51954","24.960485","6500600","新店區"
"231059","046-UY","2019/06/18 18:08:56","新北市新店區安華路28-1號","121.519648333333","24.960785","6500600","新店區"
"231051","107-UY","2019/06/18 18:09:00","新北市新店區安一路一段1-1號","121.5195","24.961195","6500600","新店區"
"231042","268-BY","2019/06/18 18:09:03","新北市新店區安一路一段1-1號","121.519738333333","24.961315","6500600","新店區"
"231064","278-BY","2019/06/18 18:08:59","新北市新店區安一路一段1-1號","121.51962","24.9612966666667","6500600","新店區"
"231050","AAD-862","2019/06/18 18:08:58","新北市新店區安一路一段1-1號","121.519746666667","24.96116","6500600","新店區"
"231045","355-BY","2019/06/18 18:08:56","新北市新店區安華路28-1號","121.51901","24.9609116666667","6500600","新店區"
"231056","4715-K9","2019/06/18 18:09:04","新北市新店區安華路3號","121.519185","24.960235","6500600","新店區"
"231053","513-UM","2019/06/18 18:09:01","新北市新店區安一路一段1-1號","121.519641666667","24.9611616666667","6500600","新店區"
"231057","720-UM","2019/06/18 18:09:10","新北市新店區安一路一段1-1號","121.519001666667","24.9612616666667","6500600","新店區"
"231044","897-TW","2019/06/18 18:09:04","新北市新店區安華路28-1號","121.519466666667","24.9606966666667","6500600","新店區"
"231066","AKT-0513","2019/06/18 18:08:54","新北市新店區安華路1-1號","121.519293333333","24.96035","6500600","新店區"
"241024","065-VK","2019/06/18 18:08:52","新北市三重區中正北路193巷35弄17號","121.476883333333","25.0709583333333","6500200","三重區"
"241033","AAC-255","2019/06/18 18:09:03","新北市三重區中興北街141號","121.469056666667","25.0517916666667","6500200","三重區"
"235063","006-UY","2019/06/18 18:09:02","新北市中和區員山路36巷16-3號","121.485105","24.9913","6500300","中和區"
"235039","097-UM","2019/06/18 18:09:05","新北市中和區員山路36巷16-8號","121.485393333333","24.9921733333333","6500300","中和區"
"235065","098-UM","2019/06/18 18:08:53","新北市中和區莊敬路49巷18號","121.501665","25.0062","6500300","中和區"
"235040","150-BY","2019/06/18 18:08:49","新北市中和區中正路637巷52弄1號","121.485428333333","24.9933983333333","6500300","中和區"
"235058","151-BY","2019/06/18 18:08:49","新北市中和區圓通路367巷66號","121.493293333333","24.9832083333333","6500300","中和區"
"235019","183-VK","2019/06/18 18:09:09","新北市中和區員山路36巷16-3號","121.485005","24.991315","6500300","中和區"
"235038","185-VK","2019/06/18 18:09:00","新北市中和區景平路120號","121.519361666667","24.99181","6500300","中和區"
"235072","301-VK","2019/06/18 18:09:07","新北市中和區員山路36巷16號","121.484496666667","24.9912883333333","6500300","中和區"
"235043","352-BY","2019/06/18 18:09:04","新北市中和區錦和路350-1號","121.490146666667","24.9935833333333","6500300","中和區"
"235042","KEA-2878","2019/06/18 18:09:03","新北市中和區中正路161巷2號","121.498458333333","24.9936966666667","6500300","中和區"
"247014","KEA-2869","2019/06/18 18:08:59","新北市五股區中興路三段163號","121.449341666667","25.08059","6501400","蘆洲區"
"235050","4979-A6","2019/06/18 18:08:55","新北市中和區中正路395號","121.489628333333","24.9935583333333","6500300","中和區"
"235070","558-UM","2019/06/18 18:09:05","新北市中和區圓通路176-1號","121.497196666667","24.9944966666667","6500300","中和區"
"235045","565-BX","2019/06/18 18:08:59","新北市中和區板南路102號","121.503641666667","24.9924116666667","6500300","中和區"
"235060","KED-0823","2019/06/18 18:09:03","新北市中和區連城路523巷13弄12號","121.481953333333","24.9937216666667","6500300","中和區"
"235054","640-BX","2019/06/18 18:08:56","新北市中和區莒光路203號","121.472611666667","24.99898","6500300","中和區"
"235047","732-UM","2019/06/18 18:08:52","新北市中和區員山路36巷13號","121.484211666667","24.9910766666667","6500300","中和區"
"235062","800-TS","2019/06/18 18:09:03","新北市中和區橋和路95號","121.490581666667","25.005535","6500300","中和區"
"235057","801-TS","2019/06/18 18:08:49","新北市中和區民享街97巷19號","121.475353333333","24.9995816666667","6500300","中和區"
"235052","805-TS","2019/06/18 18:08:54","新北市中和區錦和路350-1號","121.490498333333","24.9935716666667","6500300","中和區"
"235053","900-TW","2019/06/18 18:08:56","新北市中和區員山路36巷16-2號","121.485235","24.9914566666667","6500300","中和區"
"235064","911-UM","2019/06/18 18:08:33","新北市中和區中正路169號","121.497956666667","24.993525","6500300","中和區"
"235051","157-BY","2019/06/18 18:08:52","新北市中和區板南路102號","121.503598333333","24.9924783333333","6500300","中和區"
"235037","AAC-213","2019/06/18 18:09:07","新北市中和區景德街45號","121.517956666667","24.99134","6500300","中和區"
"247002","336-TH","2019/06/18 18:09:02","新北市蘆洲區永平街32巷69弄31號","121.458536666667","25.0937433333333","6501400","蘆洲區"
"226004","312-R5","2019/06/18 18:09:06","新北市平溪區白石里白石腳20號","121.720611666667","25.021655","6502400","平溪區"
"228001","212-TW","2019/06/18 18:08:53","新北市貢寮區真理里新港街26巷55弄2-1號","121.927368333333","25.05283","6502600","貢寮區"
"228002","663-BX","2019/06/18 18:08:59","新北市貢寮區福連里福興街39-3號","121.992883333333","25.0122516666667","6502600","貢寮區"
"228003","828-UM","2019/06/18 18:09:03","新北市貢寮區真理里美艷山街6-2號","121.928821666667","25.0607433333333","6502600","貢寮區"
"224006","676-BX","2019/06/18 18:08:59","新北市瑞芳區中山路156號","121.802208333333","25.10656","6501200","瑞芳區"
"224007","285-BY","2019/06/18 18:09:00","新北市瑞芳區四腳亭坑路2-7號","121.777625","25.1070016666667","6501200","瑞芳區"
"224009","275-VK","2019/06/18 18:08:59","新北市瑞芳區金光路221號","121.852251666667","25.1069966666667","6501200","瑞芳區"
"224008","273-VK","2019/06/18 18:09:02","新北市瑞芳區員山子路3-3號","121.81934","25.10453","6501200","瑞芳區"
"224005","271-BY","2019/06/18 18:08:59","新北市瑞芳區深澳路11號","121.816693333333","25.12901","6501200","瑞芳區"
"227002","642-TC","2019/06/18 18:09:08","新北市雙溪區共和里東榮街42號","121.866105","25.0336783333333","6502500","雙溪區"
"253006","032-BX","2019/06/18 18:08:59","新北市石門區老梅路52巷25弄2-1號","121.546693333333","25.2873616666667","6502200","石門區"
"253005","295-VK","2019/06/18 18:08:52","新北市石門區中山路70-5號","121.568341666667","25.2916533333333","6502200","石門區"
"222001","KEA-2212","2019/06/18 18:08:52","新北市深坑區北深路二段186號","121.613958333333","25.00259","6501800","深坑區"
"208002","KEA-2872","2019/06/18 18:08:48","新北市金山區三界壇路99巷1號","121.622393333333","25.22909","6502700","金山區"
"208003","665-BX","2019/06/18 18:09:06","新北市金山區民生路5號","121.647611666667","25.22369","6502700","金山區"
"251004","009-UM","2019/06/18 18:09:01","新北市淡水區民族路110巷43弄5號","121.461458333333","25.1351016666667","6501000","淡水區"
"251005","010-UM","2019/06/18 18:08:59","新北市淡水區水源街一段116號","121.447051666667","25.1718833333333","6501000","淡水區"
"251002","012-UM","2019/06/18 18:08:53","新北市淡水區中正東路8-1號","121.447758333333","25.1669333333333","6501000","淡水區"
"251015","KEA-2871","2019/06/18 18:08:55","新北市淡水區興福寮88巷1號","121.485275","25.1648666666667","6501000","淡水區"
"251016","179-VK","2019/06/18 18:08:49","新北市淡水區下圭柔山14-1號","121.450863333333","25.2004516666667","6501000","淡水區"
"251008","181-VK","2019/06/18 18:08:49","新北市淡水區中正東路二段37號","121.459123333333","25.1563183333333","6501000","淡水區"
"251013","182-VK","2019/06/18 18:07:49","新北市淡水區竹圍子19-2號","121.476958333333","25.19158","6501000","淡水區"
"251010","413-VK","2019/06/18 18:09:08","新北市淡水區中正路二段50巷18號","121.420216666667","25.18343","6501000","淡水區"
"251012","441-VK","2019/06/18 18:08:58","新北市淡水區北新路三段112-1號","121.486126666667","25.1880816666667","6501000","淡水區"
"251001","559-UM","2019/06/18 18:09:06","新北市淡水區自立路10號","121.463048333333","25.1297066666667","6501000","淡水區"
"251006","561-UM","2019/06/18 18:08:55","新北市淡水區真理街3巷20號","121.43755","25.1760033333333","6501000","淡水區"
"251009","575-R6","2019/06/18 18:09:07","新北市淡水區大忠街34巷12-3號","121.443281666667","25.175425","6501000","淡水區"
"251014","577-R6","2019/06/18 18:08:53","新北市淡水區南平15號","121.488513333333","25.2190766666667","6501000","淡水區"
"251011","650-BX","2019/06/18 18:08:48","新北市淡水區三空泉8號","121.475773333333","25.1626666666667","6501000","淡水區"
"251003","673-BX","2019/06/18 18:08:50","新北市淡水區大忠街87號","121.446366666667","25.17754","6501000","淡水區"
"207003","550-UM","2019/06/18 18:08:52","新北市萬里區野柳里港西路65-1號","121.685146666667","25.204105","6502800","萬里區"
"207004","225-TW","2019/06/18 18:09:07","新北市萬里區中幅里中福路94號","121.675458333333","25.1701783333333","6502800","萬里區"
"252002","178-VK","2019/06/18 18:08:57","新北市三芝區中山路二段45號","121.503026666667","25.2549633333333","6502100","三芝區"
"252003","249-BX","2019/06/18 18:09:08","新北市三芝區埔頭里埔頭39-3號","121.499206666667","25.2608666666667","6502100","三芝區"
"208001","170-UY","2019/06/18 18:08:53","新北市金山區磺港里磺港路77號","121.647576666667","25.2266483333333","6502700","金山區"
"237004","KEA-2597","2019/06/18 18:08:55","新北市三峽區大埔路379號","121.37177","24.8949033333333","6500900","三峽區"
"237007","153-BY","2019/06/18 18:09:05","新北市三峽區中正路二段370巷36號","121.364536666667","24.911225","6500900","三峽區"
"237009","210-TH","2019/06/18 18:09:05","新北市三峽區大仁路52號","121.365315","24.9374966666667","6500900","三峽區"
"237013","252-BX","2019/06/18 18:08:50","新北市三峽區長泰街70-2號","121.376706666667","24.933435","6500900","三峽區"
"237012","275-BY","2019/06/18 18:09:07","新北市三峽區民生街1巷5-81號","121.378188333333","24.9346633333333","6500900","三峽區"
"237008","302-VK","2019/06/18 18:09:00","新北市三峽區白雞39-1號","121.380921666667","24.91143","6500900","三峽區"
"237014","433-BY","2019/06/18 18:08:56","新北市三峽區復興路132巷7號","121.372443333333","24.939","6500900","三峽區"
"237006","5529-G3","2019/06/18 18:09:03","新北市三峽區溪東路34巷13號","121.40049","24.9346083333333","6500900","三峽區"
"237011","KEA-2596","2019/06/18 18:09:10","新北市三峽區光明路100-6號","121.376123333333","24.9280183333333","6500900","三峽區"
"237015","649-BX","2019/06/18 18:08:57","新北市三峽區紫新路28號","121.422523333333","24.9216566666667","6500900","三峽區"
"237010","706-TV","2019/06/18 18:08:57","新北市三峽區中園街18號","121.368115","24.9271733333333","6500900","三峽區"
"237005","AKY-6261","2019/06/18 18:09:05","新北市三峽區忠孝街9號","121.37081","24.9344183333333","6500900","三峽區"
"236042","KED-0685","2019/06/18 18:08:56","新北市土城區中華路二段2號","121.439683333333","24.9794983333333","6501300","土城區"
"236079","166-UM","2019/06/18 18:08:54","新北市土城區永寧路32巷10弄49號","121.428818333333","24.96134","6501300","土城區"
"236030","253-BX","2019/06/18 18:08:53","新北市土城區城林路6巷80號","121.438576666667","24.9796033333333","6501300","土城區"
"236026","269-VK","2019/06/18 18:09:03","新北市土城區承天路67號","121.439548333333","24.9634566666667","6501300","土城區"
"236014","270-VK","2019/06/18 18:09:01","新北市土城區學成路1號","121.453421666667","24.98622","6501300","土城區"
"236038","271-VK","2019/06/18 18:08:53","新北市土城區青雲路449號","121.458798333333","24.9751533333333","6501300","土城區"
"236070","KEA-2877","2019/06/18 18:09:03","新北市土城區石門路44號","121.457625","24.9639433333333","6501300","土城區"
"252001","KED-0821","2019/06/18 18:08:54","新北市三芝區中興街二段2號","121.498355","25.2566483333333","6502100","三芝區"
"236021","401-BY","2019/06/18 18:08:52","新北市土城區城林路6巷80號","121.43833","24.97955","6501300","土城區"
"236059","912-UM","2019/06/18 18:09:07","新北市土城區中央路四段188號","121.416398333333","24.9577866666667","6501300","土城區"
"236049","913-UM","2019/06/18 18:09:02","新北市土城區明德路一段365-1號","121.453551666667","24.9790266666667","6501300","土城區"
"236063","915-UM","2019/06/18 18:09:04","新北市土城區金城路二段12號","121.449221666667","24.9773","6501300","土城區"
"236055","AAC-216","2019/06/18 18:08:55","新北市土城區中華路二段92號","121.438293333333","24.9747316666667","6501300","土城區"
"242039","AAC-296","2019/06/18 18:08:59","新北市新莊區民安東路33號","121.428658333333","25.0209766666667","6500500","新莊區"
"242061","986-R7","2019/06/18 18:09:09","新北市新莊區新樹路259-6號","121.43447","25.0212466666667","6500500","新莊區"
"242002","751-BX","2019/06/18 18:09:09","新北市新莊區新莊路48號","121.458005","25.0369266666667","6500500","新莊區"
"242029","615-BX","2019/06/18 18:09:03","新北市新莊區幸福路856號","121.44392","25.0491066666667","6500500","新莊區"
"242027","613-BX","2019/06/18 18:09:00","新北市新莊區幸福路43號","121.457933333333","25.0494283333333","6500500","新莊區"
"242058","612-BX","2019/06/18 18:09:06","新北市新莊區新北大道七段180號","121.415496666667","25.031555","6500500","新莊區"
"242046","566-BX","2019/06/18 18:09:09","新北市新莊區福營路227巷27號","121.430198333333","25.0291766666667","6500500","新莊區"
"242044","442-UM","2019/06/18 18:09:02","新北市新莊區中正路力行巷5號","121.416701666667","25.0264083333333","6500500","新莊區"
"242056","441-UM","2019/06/18 18:08:54","新北市新莊區豐年街豐1巷7號","121.446951666667","25.03117","6500500","新莊區"
"242005","440-UM","2019/06/18 18:09:04","新北市新莊區自立街117號","121.455798333333","25.0455333333333","6500500","新莊區"
"242011","413-TV","2019/06/18 18:09:03","新北市新莊區中榮街54號","121.44931","25.052765","6500500","新莊區"
"242048","400-BY","2019/06/18 18:09:09","新北市新莊區萬安街67巷8號","121.421631666667","25.0238766666667","6500500","新莊區"
"242025","362-BY","2019/06/18 18:09:01","新北市新莊區五權一路5-9號","121.458313333333","25.0664216666667","6500500","新莊區"
"242013","132-UY","2019/06/18 18:08:50","新北市新莊區三和路12-8號","121.44183","25.0364716666667","6500500","新莊區"
"242037","135-UY","2019/06/18 18:09:05","新北市新莊區後港一路65巷9弄7號","121.425811666667","25.0268133333333","6500500","新莊區"
"242054","172-VK","2019/06/18 18:08:55","新北市新莊區民安西路356號","121.427345","25.0111966666667","6500500","新莊區"
"242015","173-VK","2019/06/18 18:09:10","新北市新莊區中和街59巷10弄2號","121.446848333333","25.047085","6500500","新莊區"
"242021","175-VK","2019/06/18 18:09:00","新北市新莊區新興街96號","121.450661666667","25.038535","6500500","新莊區"
"242051","346-TH","2019/06/18 18:09:08","新北市新莊區民本街23巷17號","121.429078333333","25.0198283333333","6500500","新莊區"
"242042","347-TH","2019/06/18 18:08:59","新北市新莊區中正路857號","121.419783333333","25.028155","6500500","新莊區"
"242034","348-TH","2019/06/18 18:08:57","新北市新莊區福海街24巷5號","121.445738333333","25.03411","6500500","新莊區"
"242032","350-TH","2019/06/18 18:09:08","新北市新莊區新泰路277巷50號","121.4434","25.0401566666667","6500500","新莊區"
"242017","351-TH","2019/06/18 18:09:07","新北市新莊區中港路307號","121.452738333333","25.0445916666667","6500500","新莊區"
"238015","755-BX","2019/06/18 18:09:04","新北市樹林區啟智街84-2號","121.41877","24.9904833333333","6500700","樹林區"
"238023","601-UM","2019/06/18 18:09:03","新北市樹林區三寶街17號","121.406871666667","25.0157083333333","6500700","樹林區"
"238019","599-UM","2019/06/18 18:08:59","新北市樹林區中華路1號","121.4249","24.983665","6500700","樹林區"
"238018","KEA-2217","2019/06/18 18:08:57","新北市板橋區溪崑二街16巷11號","121.428018333333","24.9918866666667","6500700","樹林區"
"238022","KEA-2213","2019/06/18 18:09:06","新北市樹林區太平路174巷22號","121.417695","24.9766683333333","6500700","樹林區"
"238021","KEA-2539","2019/06/18 18:08:59","新北市樹林區柑園街二段109號","121.385526666667","24.954925","6500700","樹林區"
"238025","303-VK","2019/06/18 18:08:49","新北市樹林區保安街一段394號","121.417155","24.99902","6500700","樹林區"
"238017","283-BY","2019/06/18 18:09:00","新北市樹林區三俊街2號","121.410908333333","25.015065","6500700","樹林區"
"238014","282-BY","2019/06/18 18:09:02","新北市樹林區潭興街103號","121.424791666667","24.998545","6500700","樹林區"
"238020","268-VK","2019/06/18 18:09:06","新北市樹林區俊興街288號","121.418426666667","25.017185","6500700","樹林區"
"238026","172-UY","2019/06/18 18:09:08","新北市樹林區中山路三段125-10號","121.39738","24.9734483333333","6500700","樹林區"
"238016","169-UY","2019/06/18 18:08:53","新北市樹林區日新街172巷6號","121.419846666667","24.988235","6500700","樹林區"
"239007","AAC-297","2019/06/18 18:09:08","新北市鶯歌區尖山埔路38號","121.34897","24.95111","6500800","鶯歌區"
"239006","891-R6","2019/06/18 18:09:08","新北市鶯歌區鶯桃路413巷34弄28號","121.330936666667","24.96426","6500800","鶯歌區"
"239008","527-UM","2019/06/18 18:09:02","新北市鶯歌區朝陽街4號","121.336275","24.9766183333333","6500800","鶯歌區"
"239005","526-UM","2019/06/18 18:08:55","新北市鶯歌區鶯桃路668巷74-1號","121.32994","24.9717783333333","6500800","鶯歌區"
"239001","417-VK","2019/06/18 18:08:50","新北市鶯歌區國中街80-9號","121.341938333333","24.941805","6500800","鶯歌區"
"239003","360-BY","2019/06/18 18:09:06","新北市鶯歌區鶯桃路336號","121.333938333333","24.96233","6500800","鶯歌區"
"239002","359-BY","2019/06/18 18:09:08","新北市鶯歌區中正一路379號","121.358383333333","24.957065","6500800","鶯歌區"
"239004","193-VK","2019/06/18 18:08:57","新北市鶯歌區尖山路137巷6號","121.34687","24.948465","6500800","鶯歌區"
"221008","489-VK","2019/06/18 18:08:55","新北市汐止區明峰街183號","121.628463333333","25.0699316666667","6501100","汐止區"
"221036","130-UY","2019/06/18 18:08:58","新北市汐止區大同路三段116號","121.672013333333","25.0767766666667","6501100","汐止區"
"221015","131-UY","2019/06/18 18:09:02","新北市汐止區長江街283號","121.664956666667","25.0807633333333","6501100","汐止區"
"221010","269-BY","2019/06/18 18:08:54","新北市汐止區汐萬路二段246號","121.646255","25.0887966666667","6501100","汐止區"
"221012","278-VK","2019/06/18 18:09:04","新北市汐止區長興街二段50巷25號","121.674558333333","25.08118","6501100","汐止區"
"221023","279-VK","2019/06/18 18:09:00","新北市汐止區民族五街64號","121.6283","25.0706166666667","6501100","汐止區"
"221032","280-BY","2019/06/18 18:09:06","新北市汐止區橫科路73巷1號","121.619351666667","25.05065","6501100","汐止區"
"221029","298-VK","2019/06/18 18:09:00","新北市汐止區樟樹二路134號","121.639961666667","25.0656583333333","6501100","汐止區"
"221021","299-VK","2019/06/18 18:08:50","新北市汐止區新興路10號","121.656326666667","25.0648083333333","6501100","汐止區"
"221031","353-TW","2019/06/18 18:09:02","新北市汐止區中興路163號","121.631028333333","25.0662166666667","6501100","汐止區"
"221035","622-UM","2019/06/18 18:09:00","新北市汐止區汐萬路一段115巷28號","121.65371","25.0703583333333","6501100","汐止區"
"221038","646-BX","2019/06/18 18:09:05","新北市汐止區南興路82巷3號","121.65282","25.058945","6501100","汐止區"
"221033","647-BX","2019/06/18 18:09:04","新北市汐止區宜興街30巷20號","121.622296666667","25.0410316666667","6501100","汐止區"
"221002","707-TV","2019/06/18 18:09:09","新北市汐止區福德一路188-1號","121.634641666667","25.0654816666667","6501100","汐止區"
"221018","753-BX","2019/06/18 18:09:02","新北市汐止區招商街25號","121.66696","25.06814","6501100","汐止區"
"233001","KEA-2870","2019/06/18 18:09:01","新北市烏來區新烏路五段133號","121.547605","24.8709366666667","6502900","烏來區"
"224002","257-TC","2019/06/18 18:08:57","新北市瑞芳區三爪子坑路149巷22-13號","121.81161","25.1059033333333","6501200","瑞芳區"
"242007","281-VK","2019/06/18 18:08:56","新北市新莊區中華路二段62號","121.454106666667","25.04621","6500500","新莊區"
"242009","280-VK","2019/06/18 18:08:48","新北市新莊區中華路二段250號","121.452648333333","25.0529333333333","6500500","新莊區"
"220073","985-R7","2019/06/18 18:08:57","新北市板橋區華東街1-9號","121.448143333333","24.994985","6500100","板橋區"
"235061","KEA-2875","2019/06/18 18:09:03","新北市中和區民德路244號","121.468045","24.9973266666667","6500300","中和區"
