"lineid","car","time","location","longitude","latitude","cityid","cityname"
"234046","148-BY","2019/06/18 18:39:04","新北市永和區永元路68號","121.522615","25.0015416666667","6500400","永和區"
"234038","336-UY","2019/06/18 18:39:05","新北市永和區福和路1號","121.526716666667","25.0100083333333","6500400","永和區"
"234064","337-UY","2019/06/18 18:38:54","新北市永和區福和路1號","121.526541666667","25.009925","6500400","永和區"
"234086","338-UY","2019/06/18 18:38:55","新北市永和區中正路226號","121.516025","24.9978133333333","6500400","永和區"
"234070","552-UM","2019/06/18 18:38:55","新北市永和區福和路1號","121.525646666667","25.0093816666667","6500400","永和區"
"234030","746-BX","2019/06/18 18:38:55","新北市永和區成功路一段30號","121.526991666667","25.004745","6500400","永和區"
"234007","KED-0605","2019/06/18 18:39:06","新北市永和區文化路170號","121.51203","25.015385","6500400","永和區"
"234013","KEA-2591","2019/06/18 18:39:00","新北市永和區保福路二段118號","121.509843333333","25.0138733333333","6500400","永和區"
"234061","AAD-866","2019/06/18 18:39:02","新北市永和區福和路1號","121.525518333333","25.0094766666667","6500400","永和區"
"234081","748-BX","2019/06/18 18:38:54","新北市永和區林森路81號","121.52399","25.00375","6500400","永和區"
"234042","862-TW","2019/06/18 18:39:06","新北市永和區中和路625號","121.512911666667","25.0048083333333","6500400","永和區"
"234026","9371-KE","2019/06/18 18:38:57","新北市永和區永貞路393號","121.507886666667","25.0088083333333","6500400","永和區"
"234011","9373-KE","2019/06/18 18:38:52","新北市永和區永和路二段233-1號","121.515246666667","25.01424","6500400","永和區"
"249005","172-UM","2019/06/18 18:38:59","新北市八里區中華路三段190號","121.38837","25.1259266666667","6502300","八里區"
"249001","173-UM","2019/06/18 18:38:58","新北市八里區龍米路一段378號","121.451576666667","25.1317466666667","6502300","八里區"
"249004","303-UY","2019/06/18 18:39:03","新北市八里區中山路一段7號","121.422438333333","25.1589966666667","6502300","八里區"
"249002","305-UY","2019/06/18 18:39:04","新北市八里區龍形一街12巷1號","121.449785","25.1307583333333","6502300","八里區"
"248014","025-BX","2019/06/18 18:38:50","新北市五股區成泰路二段86號","121.437525","25.0825633333333","6501500","五股區"
"248016","026-BX","2019/06/18 18:38:51","新北市五股區凌雲路一段149巷7號","121.44892","25.10167","6501500","五股區"
"248008","KED-0815","2019/06/18 18:39:03","新北市五股區中興路一段150巷16號","121.464685","25.0745466666667","6501500","五股區"
"248020","KED-0813","2019/06/18 18:38:57","新北市五股區孝義路102號","121.445203333333","25.119715","6501500","五股區"
"248012","247-BX","2019/06/18 18:39:00","新北市五股區御史路80號","121.44088","25.0948433333333","6501500","五股區"
"248010","272-BY","2019/06/18 18:39:00","新北市五股區明德路12巷30號","121.432891666667","25.0722516666667","6501500","五股區"
"248004","677-BX","2019/06/18 18:39:06","新北市五股區六合街19號","121.431175","25.0886816666667","6501500","五股區"
"248002","678-BX","2019/06/18 18:39:08","新北市五股區西雲路220號","121.448176666667","25.0961166666667","6501500","五股區"
"234023","9380-KE","2019/06/18 18:39:08","新北市永和區福和路76巷5弄14號","121.522346666667","25.0083666666667","6500400","永和區"
"234003","AAC-295","2019/06/18 18:39:08","新北市永和區福和路1號","121.525818333333","25.009205","6500400","永和區"
"232011","375-UM","2019/06/18 18:16:36","新北市坪林區坪雙路一段43號","121.711703333333","24.9424266666667","6502000","坪林區"
"244007","080-UY","2019/06/18 18:38:53","新北市林口區湖北里55號","121.385001666667","25.106485","6501700","林口區"
"244019","403-UM","2019/06/18 18:38:56","新北市林口區麗園二街60巷56號","121.381161666667","25.0674633333333","6501700","林口區"
"244013","KEA-2802","2019/06/18 18:38:52","新北市林口區麗園一街6巷8-3號","121.375025","25.07115","6501700","林口區"
"244023","483-VK","2019/06/18 18:38:36","新北市林口區四維路156-2號","121.381008333333","25.075715","6501700","林口區"
"244017","485-VK","2019/06/18 18:39:04","新北市林口區文化二路一段122號","121.36787","25.0709366666667","6501700","林口區"
"244009","656-BX","2019/06/18 18:39:03","新北市林口區竹林路326巷1號","121.391143333333","25.0826933333333","6501700","林口區"
"244011","701-TV","2019/06/18 18:38:57","新北市林口區仁愛路一段272巷21號","121.391973333333","25.0767783333333","6501700","林口區"
"244025","837-TS","2019/06/18 18:39:06","新北市林口區南勢五街302-10號","121.357076666667","25.0755933333333","6501700","林口區"
"244021","838-TS","2019/06/18 18:38:57","新北市林口區工六路8號","121.397898333333","25.0791216666667","6501700","林口區"
"243011","KEA-2216","2019/06/18 18:39:02","新北市泰山區泰林路二段37號","121.435526666667","25.0574683333333","6501600","泰山區"
"222003","436-BY","2019/06/18 18:39:06","新北市深坑區翠谷街34巷10號","121.626751666667","25.009005","6501800","深坑區"
"222002","659-BX","2019/06/18 18:39:08","新北市深坑區文山路一段62巷3號","121.62286","25.000865","6501800","深坑區"
"231060","001-UM","2019/06/18 18:39:03","新北市新店區安華路28-1號","121.519383333333","24.9607366666667","6500600","新店區"
"231061","002-UM","2019/06/18 18:39:09","新北市新店區安華路28-1號","121.519586666667","24.9607966666667","6500600","新店區"
"231058","0293-UT","2019/06/18 18:38:56","新北市新店區國校路76-1號","121.538583333333","24.9531","6500600","新店區"
"231059","046-UY","2019/06/18 18:38:55","新北市新店區安華路28-1號","121.519571666667","24.9608366666667","6500600","新店區"
"231051","107-UY","2019/06/18 18:39:00","新北市新店區安康路一段168號","121.525781666667","24.963095","6500600","新店區"
"231049","108-UY","2019/06/18 18:38:50","新北市新店區安一路一段1-1號","121.519381666667","24.961055","6500600","新店區"
"231065","110-UY","2019/06/18 18:39:05","新北市新店區安一路一段1-1號","121.51937","24.961095","6500600","新店區"
"231062","256-BX","2019/06/18 18:38:58","新北市新店區安一路一段1-1號","121.51973","24.9611233333333","6500600","新店區"
"231054","260-TV","2019/06/18 18:38:57","新北市新店區安一路一段1-1號","121.519233333333","24.9611716666667","6500600","新店區"
"231042","268-BY","2019/06/18 18:39:02","新北市新店區北新路一段126巷23號","121.543176666667","24.97007","6500600","新店區"
"231064","278-BY","2019/06/18 18:38:59","新北市新店區安一路一段1-1號","121.51954","24.961105","6500600","新店區"
"231050","AAD-862","2019/06/18 18:38:59","新北市新店區安華路28-1號","121.519713333333","24.960955","6500600","新店區"
"231045","355-BY","2019/06/18 18:38:56","新北市新店區安華路28-1號","121.519356666667","24.9608933333333","6500600","新店區"
"231055","4716-K9","2019/06/18 18:39:05","新北市新店區中正路154巷2號","121.541708333333","24.9718766666667","6500600","新店區"
"231056","4715-K9","2019/06/18 18:39:04","新北市新店區建國路134號","121.539036666667","24.978955","6500600","新店區"
"231053","513-UM","2019/06/18 18:39:01","新北市新店區新烏路一段58-2號","121.54606","24.946655","6500600","新店區"
"231040","617-UM","2019/06/18 18:39:09","新北市新店區安華路28-1號","121.519366666667","24.9609183333333","6500600","新店區"
"231063","641-BX","2019/06/18 18:38:53","新北市新店區安華路1-1號","121.51951","24.9605016666667","6500600","新店區"
"231048","KED-0819","2019/06/18 18:39:07","新北市新店區安一路一段1-1號","121.519733333333","24.9611633333333","6500600","新店區"
"231046","719-UM","2019/06/18 18:39:00","新北市新店區直潭二街1號","121.53542","24.943135","6500600","新店區"
"231057","720-UM","2019/06/18 18:38:51","新北市新店區北宜路一段168號","121.540605","24.9531133333333","6500600","新店區"
"231044","897-TW","2019/06/18 18:39:04","新北市新店區安華路28-1號","121.519433333333","24.9607983333333","6500600","新店區"
"231043","899-TW","2019/06/18 18:39:10","新北市新店區安華路28-1號","121.519106666667","24.9609366666667","6500600","新店區"
"231066","AKT-0513","2019/06/18 18:38:53","新北市新店區安華路1-1號","121.519383333333","24.960505","6500600","新店區"
"235066","003-UY","2019/06/18 18:39:02","新北市中和區水源路37號","121.504456666667","25.003585","6500300","中和區"
"235063","006-UY","2019/06/18 18:39:02","新北市中和區連城路347巷4弄37號","121.486665","24.995585","6500300","中和區"
"235039","097-UM","2019/06/18 18:39:05","新北市中和區宜安路18巷8號","121.513645","24.9961633333333","6500300","中和區"
"235065","098-UM","2019/06/18 18:38:53","新北市中和區莊敬路49巷29弄22號","121.500883333333","25.0064966666667","6500300","中和區"
"235040","150-BY","2019/06/18 18:39:08","新北市中和區宜安路49號","121.511746666667","24.996605","6500300","中和區"
"235058","151-BY","2019/06/18 18:38:49","新北市中和區員山路143巷5號","121.480531666667","24.99608","6500300","中和區"
"235019","183-VK","2019/06/18 18:39:09","新北市中和區中山路三段229巷21號","121.470368333333","25.006285","6500300","中和區"
"235038","185-VK","2019/06/18 18:39:00","新北市中和區大勇街72號","121.518215","24.9948133333333","6500300","中和區"
"235049","186-VK","2019/06/18 18:39:06","新北市中和區明義街34號","121.503828333333","24.9951566666667","6500300","中和區"
"235067","255-BX","2019/06/18 18:39:07","新北市中和區新生街33-1號","121.483335","25.0035583333333","6500300","中和區"
"235044","293-VK","2019/06/18 18:38:53","新北市中和區復興路261號","121.502826666667","24.9903516666667","6500300","中和區"
"235072","301-VK","2019/06/18 18:39:07","新北市中和區中山路二段22號","121.504756666667","25.0053016666667","6500300","中和區"
"235043","352-BY","2019/06/18 18:39:04","新北市中和區景平路123號","121.515575","24.9920033333333","6500300","中和區"
"235042","KEA-2878","2019/06/18 18:39:03","新北市中和區成功路41巷1號","121.526266666667","24.9932983333333","6500300","中和區"
"235050","4979-A6","2019/06/18 18:38:55","新北市中和區信義街115號","121.512035","24.9867783333333","6500300","中和區"
"235069","4980-A6","2019/06/18 18:39:02","新北市中和區連城路89巷8號","121.497011666667","24.9994133333333","6500300","中和區"
"235041","551-UM","2019/06/18 18:38:56","新北市中和區中安街178巷18弄3號","121.510473333333","24.999185","6500300","中和區"
"235070","558-UM","2019/06/18 18:39:05","新北市中和區圓通路10號","121.501631666667","24.9980416666667","6500300","中和區"
"235045","565-BX","2019/06/18 18:38:59","新北市中和區景安路225號","121.504371666667","24.9912766666667","6500300","中和區"
"235060","KED-0823","2019/06/18 18:39:03","新北市中和區中山路三段83號","121.475731666667","25.0058833333333","6500300","中和區"
"235054","640-BX","2019/06/18 18:38:56","新北市中和區莒光路129巷2弄2號","121.473011666667","25.0019433333333","6500300","中和區"
"235047","732-UM","2019/06/18 18:38:52","新北市中和區南山路320巷10弄21號","121.506806666667","24.986675","6500300","中和區"
"235046","733-UM","2019/06/18 18:38:56","新北市中和區忠孝街101巷1號","121.511823333333","24.9860883333333","6500300","中和區"
"235062","800-TS","2019/06/18 18:39:03","新北市中和區中山路二段312巷33弄22號","121.494855","25.0043966666667","6500300","中和區"
"235057","801-TS","2019/06/18 18:39:09","新北市中和區民安街33號","121.480143333333","25.00042","6500300","中和區"
"235052","805-TS","2019/06/18 18:38:54","新北市中和區興南路三段52-1號","121.494106666667","24.975705","6500300","中和區"
"235048","896-TW","2019/06/18 18:38:35","新北市中和區南山路417號","121.507188333333","24.9895883333333","6500300","中和區"
"235053","900-TW","2019/06/18 18:38:56","新北市中和區民德路268號","121.468028333333","24.9965966666667","6500300","中和區"
"235064","911-UM","2019/06/18 18:38:54","新北市中和區連城路109巷20號","121.496711666667","24.998845","6500300","中和區"
"235051","157-BY","2019/06/18 18:38:51","新北市中和區華新街143巷106弄39號","121.50697","24.9782766666667","6500300","中和區"
"235037","AAC-213","2019/06/18 18:38:47","新北市中和區秀朗路三段128巷10號","121.524571666667","24.9926683333333","6500300","中和區"
"235059","AAC-215","2019/06/18 18:38:51","新北市中和區錦和路350-1號","121.49053","24.993515","6500300","中和區"
"220071","015-TV","2019/06/18 18:39:04","新北市板橋區四川路二段241號","121.450651666667","24.9937183333333","6500100","板橋區"
"220065","072-UY","2019/06/18 18:38:56","新北市板橋區實踐路79號","121.46391","25.0061433333333","6500100","板橋區"
"220086","073-UY","2019/06/18 18:38:52","新北市板橋區板城路421號","121.448043333333","24.99561","6500100","板橋區"
"220106","075-UY","2019/06/18 18:38:54","新北市板橋區民生路二段120號","121.470415","25.0196866666667","6500100","板橋區"
"220069","AAD-861","2019/06/18 18:39:00","新北市板橋區大華街20號","121.458926666667","25.0061466666667","6500100","板橋區"
"220090","120-SR","2019/06/18 18:39:07","新北市板橋區民生路二段120號","121.47041","25.01983","6500100","板橋區"
"226004","312-R5","2019/06/18 18:39:02","新北市平溪區石底里公園街18-3號","121.73329","25.0258","6502400","平溪區"
"235056","251-BX","2019/06/18 18:38:54","新北市中和區員山路611巷1號","121.477876666667","25.0113066666667","6500300","中和區"
"228001","212-TW","2019/06/18 18:38:52","新北市貢寮區仁理村研海街12-1號","121.923758333333","25.051665","6502600","貢寮區"
"228002","663-BX","2019/06/18 18:38:59","新北市貢寮區福隆里東興街6-11號","121.950766666667","25.0210816666667","6502600","貢寮區"
"228003","828-UM","2019/06/18 18:39:03","新北市貢寮區和美里龍洞街38-1號","121.915891666667","25.1116033333333","6502600","貢寮區"
"224006","676-BX","2019/06/18 18:38:50","新北市瑞芳區明燈路三段105號","121.803678333333","25.1087433333333","6501200","瑞芳區"
"224007","285-BY","2019/06/18 18:39:00","新北市瑞芳區大埔路115巷16號","121.762986666667","25.101245","6501200","瑞芳區"
"224009","275-VK","2019/06/18 18:38:59","新北市瑞芳區祈堂路53-1號","121.859553333333","25.11043","6501200","瑞芳區"
"224008","273-VK","2019/06/18 18:39:02","新北市瑞芳區瑞芳街48號","121.805951666667","25.109665","6501200","瑞芳區"
"224005","271-BY","2019/06/18 18:38:59","新北市瑞芳區瑞濱路93號","121.820601666667","25.1208016666667","6501200","瑞芳區"
"227002","642-TC","2019/06/18 18:39:08","新北市雙溪區魚行里坤溪3-5號","121.876195","25.0208483333333","6502500","雙溪區"
"227001","400-TW","2019/06/18 18:39:02","新北市雙溪區牡丹里下坑11號","121.851021666667","25.0561666666667","6502500","雙溪區"
"253006","032-BX","2019/06/18 18:38:59","新北市石門區崁子腳58-1號","121.529045","25.28588","6502200","石門區"
"253005","295-VK","2019/06/18 18:38:52","新北市石門區石門街22號","121.566145","25.2906216666667","6502200","石門區"
"222001","KEA-2212","2019/06/18 18:38:57","新北市深坑區北深路一段74號","121.636601666667","25.010665","6501800","深坑區"
"208002","KEA-2872","2019/06/18 18:39:08","新北市金山區忠孝一路19巷17號","121.637356666667","25.2177783333333","6502700","金山區"
"208003","665-BX","2019/06/18 18:39:06","新北市金山區中山路393號","121.633381666667","25.22528","6502700","金山區"
"251002","012-UM","2019/06/18 18:38:53","新北市淡水區中正東路一段3巷14弄1號","121.450835","25.1641516666667","6501000","淡水區"
"251015","KEA-2871","2019/06/18 18:38:55","新北市淡水區興福寮66巷303號","121.485536666667","25.1615583333333","6501000","淡水區"
"251016","179-VK","2019/06/18 18:39:09","新北市淡水區下圭柔山83號","121.437805","25.205465","6501000","淡水區"
"251008","181-VK","2019/06/18 18:39:09","新北市淡水區北投子79-6號","121.459881666667","25.1786683333333","6501000","淡水區"
"251013","182-VK","2019/06/18 18:38:09","新北市淡水區椿子林2號","121.486255","25.2038266666667","6501000","淡水區"
"251010","413-VK","2019/06/18 18:38:57","新北市淡水區沙崙路126號","121.423486666667","25.1828733333333","6501000","淡水區"
"251012","441-VK","2019/06/18 18:38:49","新北市淡水區北新路121號","121.449028333333","25.1786533333333","6501000","淡水區"
"251001","559-UM","2019/06/18 18:39:06","新北市淡水區自強路415巷2號","121.465541666667","25.1342816666667","6501000","淡水區"
"251006","561-UM","2019/06/18 18:38:55","新北市淡水區崁頂36-7號","121.439075","25.193095","6501000","淡水區"
"251014","577-R6","2019/06/18 18:35:12","新北市淡水區崙頂12-8號","121.495595","25.21723","6501000","淡水區"
"251011","650-BX","2019/06/18 18:38:48","新北市淡水區中正東路8-1號","121.4478","25.1668883333333","6501000","淡水區"
"251003","673-BX","2019/06/18 18:39:09","新北市淡水區北新路69巷26號","121.446748333333","25.1800266666667","6501000","淡水區"
"207003","550-UM","2019/06/18 18:38:52","新北市萬里區大鵬里頂社2-1號","121.660358333333","25.2072233333333","6502800","萬里區"
"207004","225-TW","2019/06/18 18:39:07","新北市萬里區萬里里獅頭路12-4號","121.693371666667","25.1794883333333","6502800","萬里區"
"252002","178-VK","2019/06/18 18:39:03","新北市三芝區中正路二段37號","121.503956666667","25.2548633333333","6502100","三芝區"
"252003","249-BX","2019/06/18 18:39:08","新北市三芝區後厝里大片頭74-6號","121.459003333333","25.2450066666667","6502100","三芝區"
"208001","170-UY","2019/06/18 18:38:53","新北市金山區文化三路7號","121.635183333333","25.2248966666667","6502700","金山區"
"237004","KEA-2597","2019/06/18 18:38:55","新北市三峽區插角82號","121.406233333333","24.8708816666667","6500900","三峽區"
"237007","153-BY","2019/06/18 18:39:05","新北市三峽區中正路三段1號","121.358118333333","24.9054883333333","6500900","三峽區"
"237009","210-TH","2019/06/18 18:39:04","新北市三峽區弘園街38號","121.366126666667","24.9270666666667","6500900","三峽區"
"237013","252-BX","2019/06/18 18:38:50","新北市三峽區大同路48巷17弄8-1號","121.376776666667","24.9290166666667","6500900","三峽區"
"237012","275-BY","2019/06/18 18:39:07","新北市三峽區三樹路340號","121.38399","24.94332","6500900","三峽區"
"237008","302-VK","2019/06/18 18:39:00","新北市三峽區白雞33-8號","121.371778333333","24.9121283333333","6500900","三峽區"
"237014","433-BY","2019/06/18 18:38:56","新北市三峽區隆恩街188號","121.361276666667","24.9424816666667","6500900","三峽區"
"237006","5529-G3","2019/06/18 18:38:51","新北市三峽區溪東路371巷4弄10號","121.412466666667","24.92975","6500900","三峽區"
"237011","KEA-2596","2019/06/18 18:38:50","新北市三峽區溪東路426-1號","121.415305","24.9276533333333","6500900","三峽區"
"237015","649-BX","2019/06/18 18:38:57","新北市三峽區成福路311號","121.429281666667","24.9236283333333","6500900","三峽區"
"237010","706-TV","2019/06/18 18:38:57","新北市三峽區復興路485號","121.361283333333","24.9384583333333","6500900","三峽區"
"237005","AKY-6261","2019/06/18 18:39:05","新北市三峽區文化路41-1號","121.372583333333","24.9360066666667","6500900","三峽區"
"236042","KED-0685","2019/06/18 18:38:56","新北市土城區學成路108巷13弄2號","121.450218333333","24.9897883333333","6501300","土城區"
"220089","KED-0812","2019/06/18 18:38:54","新北市板橋區民生路二段161巷1號","121.470025","25.0200066666667","6500100","板橋區"
"236079","166-UM","2019/06/18 18:38:52","新北市土城區中央路四段47號","121.422356666667","24.961575","6501300","土城區"
"236030","253-BX","2019/06/18 18:38:53","新北市土城區福仁街55號","121.439626666667","24.9748183333333","6501300","土城區"
"236026","269-VK","2019/06/18 18:39:05","新北市土城區忠義路51-1號","121.44051","24.968875","6501300","土城區"
"236014","270-VK","2019/06/18 18:39:01","新北市土城區清水路207巷11號","121.45985","24.982345","6501300","土城區"
"236038","271-VK","2019/06/18 18:38:53","新北市土城區明德路一段313巷3弄11號","121.460083333333","24.9765233333333","6501300","土城區"
"236070","KEA-2877","2019/06/18 18:39:03","新北市土城區永豐路177號","121.469928333333","24.978565","6501300","土城區"
"252001","KED-0821","2019/06/18 18:38:53","新北市三芝區中興街二段260號","121.50181","25.2529633333333","6502100","三芝區"
"236021","401-BY","2019/06/18 18:38:51","新北市土城區明德路一段22號","121.465115","24.98493","6501300","土城區"
"236059","912-UM","2019/06/18 18:38:58","新北市土城區中央路三段283號","121.42611","24.9631516666667","6501300","土城區"
"236049","913-UM","2019/06/18 18:39:02","新北市土城區明德路一段26號","121.46511","24.98486","6501300","土城區"
"236063","915-UM","2019/06/18 18:39:05","新北市土城區延壽路31號","121.471016666667","24.9911","6501300","土城區"
"236055","AAC-216","2019/06/18 18:39:06","新北市土城區中華路一段45號","121.445761666667","24.988395","6501300","土城區"
"242061","986-R7","2019/06/18 18:39:08","新北市新莊區民安西路38巷2號","121.427208333333","25.0211033333333","6500500","新莊區"
"242058","612-BX","2019/06/18 18:39:07","新北市新莊區中正路879-7號","121.417748333333","25.0261566666667","6500500","新莊區"
"242046","566-BX","2019/06/18 18:39:09","新北市新莊區民安路36號","121.423013333333","25.02779","6500500","新莊區"
"242056","441-UM","2019/06/18 18:38:54","新北市新莊區環河路508-1號","121.438271666667","25.0154433333333","6500500","新莊區"
"242042","347-TH","2019/06/18 18:38:56","新北市新莊區天祥街82巷13號","121.415766666667","25.03004","6500500","新莊區"
"238023","601-UM","2019/06/18 18:39:00","新北市樹林區三福街114號","121.40641","25.01638","6500700","樹林區"
"238019","599-UM","2019/06/18 18:39:00","新北市樹林區中華路190-16號","121.411683333333","24.9805266666667","6500700","樹林區"
"238024","5061-A6","2019/06/18 18:39:03","新北市樹林區中華路190-6號","121.410488333333","24.9807766666667","6500700","樹林區"
"238018","KEA-2217","2019/06/18 18:38:57","新北市樹林區鎮前街168號","121.424335","24.989975","6500700","樹林區"
"238025","303-VK","2019/06/18 18:39:09","新北市樹林區中山路三段155號","121.395558333333","24.97279","6500700","樹林區"
"238017","283-BY","2019/06/18 18:39:00","新北市樹林區光榮街79號","121.412105","25.00301","6500700","樹林區"
"238014","282-BY","2019/06/18 18:39:02","新北市樹林區大安路111巷41號","121.42334","24.9976733333333","6500700","樹林區"
"238020","268-VK","2019/06/18 18:39:06","新北市樹林區俊安街19號","121.419748333333","25.01379","6500700","樹林區"
"238026","172-UY","2019/06/18 18:38:48","新北市樹林區八德街828-16號","121.392595","24.969045","6500700","樹林區"
"238016","169-UY","2019/06/18 18:38:53","新北市樹林區八德街1號","121.41756","24.984925","6500700","樹林區"
"239007","AAC-297","2019/06/18 18:39:08","新北市鶯歌區成功街20巷11號","121.358906666667","24.957685","6500800","鶯歌區"
"239006","891-R6","2019/06/18 18:39:08","新北市鶯歌區鶯桃路296巷53號","121.33586","24.9613416666667","6500800","鶯歌區"
"239008","527-UM","2019/06/18 18:39:02","新北市鶯歌區朝陽街1號","121.336293333333","24.976585","6500800","鶯歌區"
"239005","526-UM","2019/06/18 18:38:55","新北市鶯歌區鳳吉二街62號","121.32686","24.9738633333333","6500800","鶯歌區"
"239001","417-VK","2019/06/18 18:39:10","新北市鶯歌區高職南街13號","121.337516666667","24.939285","6500800","鶯歌區"
"239003","360-BY","2019/06/18 18:39:06","新北市鶯歌區永和街116號","121.334516666667","24.969075","6500800","鶯歌區"
"239002","359-BY","2019/06/18 18:39:08","新北市鶯歌區中正一路300號","121.355691666667","24.9571016666667","6500800","鶯歌區"
"239004","193-VK","2019/06/18 18:38:57","新北市鶯歌區中正三路194巷40號","121.331006666667","24.9413083333333","6500800","鶯歌區"
"221036","130-UY","2019/06/18 18:38:58","新北市汐止區長興街一段12號","121.669648333333","25.0786866666667","6501100","汐止區"
"221015","131-UY","2019/06/18 18:39:02","新北市汐止區鄉長路二段18巷1號","121.668373333333","25.08224","6501100","汐止區"
"221010","269-BY","2019/06/18 18:38:54","新北市汐止區瑞松街49巷6號","121.64533","25.1070733333333","6501100","汐止區"
"221012","278-VK","2019/06/18 18:39:04","新北市汐止區保長路51巷5號","121.67351","25.0789083333333","6501100","汐止區"
"221023","279-VK","2019/06/18 18:38:59","新北市汐止區湖前街29號","121.632411666667","25.0694033333333","6501100","汐止區"
"221032","280-BY","2019/06/18 18:39:06","新北市汐止區民權街二段93號","121.619023333333","25.0474583333333","6501100","汐止區"
"221029","298-VK","2019/06/18 18:39:00","新北市汐止區樟樹一路131號","121.642121666667","25.0650416666667","6501100","汐止區"
"221021","299-VK","2019/06/18 18:39:10","新北市汐止區新台五路一段181號","121.655245","25.0631516666667","6501100","汐止區"
"221031","353-TW","2019/06/18 18:39:02","新北市汐止區大同路一段306-3號","121.63623","25.0583","6501100","汐止區"
"221035","622-UM","2019/06/18 18:39:00","新北市汐止區大同路二段169巷22弄1號","121.651211666667","25.0648716666667","6501100","汐止區"
"221002","707-TV","2019/06/18 18:38:49","新北市汐止區大同路一段283號","121.636836666667","25.0586066666667","6501100","汐止區"
"221018","753-BX","2019/06/18 18:39:02","新北市汐止區茄苳路224巷3弄6號","121.670858333333","25.0682833333333","6501100","汐止區"
"220079","145-BY","2019/06/18 18:38:51","新北市板橋區大觀路一段61號","121.447431666667","25.0058016666667","6500100","板橋區"
"220080","200-UY","2019/06/18 18:39:09","新北市板橋區大觀路二段265巷7-7號","121.444145","24.9946133333333","6500100","板橋區"
"220082","610-BX","2019/06/18 18:39:10","新北市板橋區大觀路二段443-2號","121.440315","24.99507","6500100","板橋區"
"224002","257-TC","2019/06/18 18:38:57","新北市瑞芳區傑魚坑路307-2號","121.793701666667","25.1092233333333","6501200","瑞芳區"
"220056","276-BY","2019/06/18 18:39:01","新北市板橋區南雅南路二段40號","121.453883333333","25.00256","6500100","板橋區"
"220072","277-BY","2019/06/18 18:39:10","新北市板橋區板城路421號","121.448026666667","24.9956066666667","6500100","板橋區"
"220094","285-UM","2019/06/18 18:38:52","新北市板橋區民生路二段161巷1號","121.470126666667","25.0199666666667","6500100","板橋區"
"220053","285-VK","2019/06/18 18:39:07","新北市板橋區民生路二段161巷3號","121.470153333333","25.01978","6500100","板橋區"
"220083","286-VK","2019/06/18 18:39:00","新北市板橋區大觀路二段153巷46弄11號","121.448905","24.9985283333333","6500100","板橋區"
"220081","287-VK","2019/06/18 18:38:56","新北市板橋區板城路421號","121.44796","24.9963383333333","6500100","板橋區"
"220061","293-UM","2019/06/18 18:39:08","新北市板橋區民生路二段120號","121.470596666667","25.01947","6500100","板橋區"
"220062","295-UM","2019/06/18 18:39:07","新北市板橋區民生路二段120號","121.47046","25.0198116666667","6500100","板橋區"
"220084","296-UM","2019/06/18 18:38:48","新北市板橋區大觀路288號","121.449625","24.9982866666667","6500100","板橋區"
"242007","281-VK","2019/06/18 18:38:56","新北市新莊區環漢路三段532號","121.435376666667","25.0008483333333","6500500","新莊區"
"220092","307-R5","2019/06/18 18:39:00","新北市板橋區民生路二段89-6號","121.47069","25.0188816666667","6500100","板橋區"
"220098","317-R6","2019/06/18 18:38:54","新北市板橋區民生路二段161巷9號","121.470333333333","25.0195716666667","6500100","板橋區"
"220088","491-VK","2019/06/18 18:38:58","新北市板橋區民生路二段188號","121.470006666667","25.0203766666667","6500100","板橋區"
"220103","561-BX","2019/06/18 18:39:09","新北市板橋區介壽街119號","121.470523333333","25.01869","6500100","板橋區"
"220063","609-BX","2019/06/18 18:39:08","新北市板橋區民生路二段161巷1號","121.470181666667","25.0200766666667","6500100","板橋區"
"220035","630-UY","2019/06/18 18:38:55","新北市板橋區南雅西路二段145巷10號","121.451556666667","25.0119166666667","6500100","板橋區"
"220057","686-BX","2019/06/18 18:38:48","新北市板橋區館前西路4-1號","121.45908","25.0071066666667","6500100","板橋區"
"220077","687-BX","2019/06/18 18:38:58","新北市板橋區華東街1-10號","121.448323333333","24.9949883333333","6500100","板橋區"
"220054","741-BX","2019/06/18 18:38:53","新北市板橋區南雅南路二段120-7號","121.45225","24.9994733333333","6500100","板橋區"
"220102","KEA-2699","2019/06/18 18:39:06","新北市板橋區民生路二段161巷1號","121.47014","25.0199383333333","6500100","板橋區"
"220055","827-TW","2019/06/18 18:38:52","新北市板橋區忠孝路40號","121.460425","25.0017966666667","6500100","板橋區"
"220068","831-TW","2019/06/18 18:39:04","新北市板橋區永豐街61號","121.473785","25.0184633333333","6500100","板橋區"
"220074","895-R6","2019/06/18 18:39:05","新北市板橋區南雅南路二段144巷24號","121.450548333333","24.9954783333333","6500100","板橋區"
"220073","985-R7","2019/06/18 18:38:57","新北市板橋區四川路二段23-2號","121.454406666667","24.9956866666667","6500100","板橋區"
"220097","AAC-210","2019/06/18 18:39:03","新北市板橋區民生路二段161巷9號","121.470275","25.019675","6500100","板橋區"
"220064","AAC-253","2019/06/18 18:39:11","新北市板橋區民生路二段36-1號","121.472183333333","25.0167333333333","6500100","板橋區"
"235068","KEA-2873","2019/06/18 18:38:39","新北市中和區中興街124-1號","121.499803333333","24.9930033333333","6500300","中和區"
"235061","KEA-2875","2019/06/18 18:39:03","新北市中和區民享街30巷2號","121.473758333333","25.003585","6500300","中和區"
