"lineid","car","time","location","longitude","latitude","cityid","cityname"
"234046","148-BY","2019/06/18 19:09:07","新北市永和區永元路18巷40弄2號","121.524175","25.000275","6500400","永和區"
"234038","336-UY","2019/06/18 19:09:05","新北市永和區民樂街75巷1號","121.527346666667","24.9969816666667","6500400","永和區"
"234064","337-UY","2019/06/18 19:09:06","新北市永和區秀朗路二段15號","121.521003333333","25.0027633333333","6500400","永和區"
"234086","338-UY","2019/06/18 19:08:55","新北市永和區永貞路75號","121.518763333333","25.0044116666667","6500400","永和區"
"234070","552-UM","2019/06/18 19:08:55","新北市永和區豫溪街95巷10弄1號","121.518013333333","25.01081","6500400","永和區"
"234017","745-BX","2019/06/18 19:08:54","新北市永和區文化路90巷15弄1號","121.513835","25.0158383333333","6500400","永和區"
"234030","746-BX","2019/06/18 19:08:57","新北市永和區四維街62號","121.524328333333","24.9982766666667","6500400","永和區"
"234054","KEA-2590","2019/06/18 19:09:08","新北市永和區中興街133巷6號","121.518738333333","25.0126216666667","6500400","永和區"
"234007","KED-0605","2019/06/18 19:09:06","新北市永和區中山路一段241號","121.507791666667","25.0076983333333","6500400","永和區"
"234013","KEA-2591","2019/06/18 19:09:00","新北市永和區保福路二段2號","121.511353333333","25.0106783333333","6500400","永和區"
"234061","AAD-866","2019/06/18 19:09:02","新北市永和區安樂路304巷7號","121.514478333333","25.0051083333333","6500400","永和區"
"234081","748-BX","2019/06/18 19:09:10","新北市永和區福和路57巷4弄3號","121.522786666667","25.0074016666667","6500400","永和區"
"234042","862-TW","2019/06/18 19:09:06","新北市永和區永貞路330號","121.511275","25.0055183333333","6500400","永和區"
"234050","863-TW","2019/06/18 19:09:02","新北市永和區仁愛路104巷7弄62號","121.510925","25.0141716666667","6500400","永和區"
"234026","9371-KE","2019/06/18 19:08:57","新北市永和區安樂路272巷11號","121.514956666667","25.0044633333333","6500400","永和區"
"234011","9373-KE","2019/06/18 19:08:52","新北市永和區仁愛路141巷23號","121.512561666667","25.0114816666667","6500400","永和區"
"249005","172-UM","2019/06/18 19:08:59","新北市八里區中華路三段77號","121.394263333333","25.1403933333333","6502300","八里區"
"249001","173-UM","2019/06/18 19:08:58","新北市八里區龍米路二段228-1號","121.432731666667","25.1584366666667","6502300","八里區"
"249002","305-UY","2019/06/18 18:54:45","新北市八里區龍形一街33巷6-1號","121.449273333333","25.129565","6502300","八里區"
"249003","759-BX","2019/06/18 19:08:56","新北市八里區博物館路67號","121.411443333333","25.1611216666667","6502300","八里區"
"248016","026-BX","2019/06/18 19:08:51","新北市五股區成泰路三段543巷50號","121.450155","25.1027316666667","6501500","五股區"
"248008","KED-0815","2019/06/18 19:09:03","新北市五股區中興路一段118巷19號","121.465931666667","25.0743783333333","6501500","五股區"
"248020","KED-0813","2019/06/18 19:08:57","新北市五股區凌雲路三段57號","121.425303333333","25.1250416666667","6501500","五股區"
"248012","247-BX","2019/06/18 19:09:00","新北市五股區中興路四段48巷16號","121.438631666667","25.083435","6501500","五股區"
"248010","272-BY","2019/06/18 19:09:00","新北市五股區自強路90巷72號","121.430686666667","25.0712016666667","6501500","五股區"
"248004","677-BX","2019/06/18 19:09:06","新北市五股區六合街19號","121.431143333333","25.0887366666667","6501500","五股區"
"248002","678-BX","2019/06/18 19:09:07","新北市五股區凌雲路一段158巷14-1號","121.447823333333","25.1034716666667","6501500","五股區"
"234023","9380-KE","2019/06/18 19:09:08","新北市永和區中興街12號","121.515788333333","25.0119666666667","6500400","永和區"
"234077","969-R7","2019/06/18 19:09:08","新北市永和區民族街25號","121.518818333333","24.9996316666667","6500400","永和區"
"234074","AAC-211","2019/06/18 19:08:49","新北市永和區福和路160號","121.521278333333","25.0078983333333","6500400","永和區"
"234067","AAC-212","2019/06/18 19:09:07","新北市永和區保平路29號","121.5124","25.007235","6500400","永和區"
"234003","AAC-295","2019/06/18 19:09:08","新北市永和區保福路一段75號","121.511923333333","25.0103733333333","6500400","永和區"
"244023","483-VK","2019/06/18 19:08:58","新北市林口區民權路12巷5號","121.371668333333","25.07984","6501700","林口區"
"244017","485-VK","2019/06/18 19:09:04","新北市林口區民族路92號","121.366181666667","25.0756833333333","6501700","林口區"
"244011","701-TV","2019/06/18 19:08:57","新北市林口區中山路185-1號","121.387943333333","25.07878","6501700","林口區"
"244025","837-TS","2019/06/18 19:09:06","新北市林口區文化北路一段409-1號","121.364443333333","25.0764366666667","6501700","林口區"
"243012","AAD-798","2019/06/18 19:08:59","新北市泰山區辭修路10-11號","121.429676666667","25.0580366666667","6501600","泰山區"
"243010","297-R6","2019/06/18 19:08:59","新北市泰山區明志路一段431號","121.43076","25.0565183333333","6501600","泰山區"
"243014","KEA-2801","2019/06/18 19:09:06","新北市泰山區泰林路二段444號","121.426371666667","25.0642433333333","6501600","泰山區"
"243016","421-VK","2019/06/18 19:09:09","新北市泰山區明志路二段325號","121.425753333333","25.0450816666667","6501600","泰山區"
"243009","KEA-2215","2019/06/18 19:09:03","新北市泰山區明志路一段122巷29號","121.432496666667","25.0636083333333","6501600","泰山區"
"243011","KEA-2216","2019/06/18 19:08:57","新北市泰山區明志路二段318號","121.426215","25.0460133333333","6501600","泰山區"
"243013","646-TV","2019/06/18 19:09:07","新北市泰山區漢口街14號","121.423553333333","25.0365383333333","6501600","泰山區"
"243015","680-BX","2019/06/18 19:09:04","新北市泰山區明志路一段350號","121.430865","25.058345","6501600","泰山區"
"222003","436-BY","2019/06/18 19:09:06","新北市深坑區深南路158號","121.625728333333","25.014345","6501800","深坑區"
"222002","659-BX","2019/06/18 19:08:48","新北市深坑區北深路一段288號","121.6283","25.0077516666667","6501800","深坑區"
"231060","001-UM","2019/06/18 19:09:02","新北市新店區安康路二段269號","121.504376666667","24.957845","6500600","新店區"
"231061","002-UM","2019/06/18 19:09:09","新北市新店區安康路一段355號","121.519843333333","24.9638533333333","6500600","新店區"
"231058","0293-UT","2019/06/18 19:08:56","新北市新店區光明街94號","121.538891666667","24.9603833333333","6500600","新店區"
"231059","046-UY","2019/06/18 19:08:56","新北市新店區安康路一段266巷4號","121.519791666667","24.96404","6500600","新店區"
"231051","107-UY","2019/06/18 19:09:00","新北市新店區中正路409巷38號","121.53357","24.9768233333333","6500600","新店區"
"231049","108-UY","2019/06/18 19:09:08","新北市新店區二十張路25巷2號","121.538588333333","24.9819333333333","6500600","新店區"
"231065","110-UY","2019/06/18 19:09:05","新北市新店區安祥路147巷33號","121.476685","24.9567183333333","6500600","新店區"
"231062","256-BX","2019/06/18 19:08:58","新北市新店區安平路35巷2-1號","121.521255","24.9678366666667","6500600","新店區"
"231054","260-TV","2019/06/18 19:08:56","新北市新店區北宜路一段123-1號","121.540443333333","24.9534816666667","6500600","新店區"
"231042","268-BY","2019/06/18 19:09:02","新北市新店區中興路一段203號","121.543555","24.96556","6500600","新店區"
"231064","278-BY","2019/06/18 19:08:59","新北市新店區安忠路90號","121.51149","24.958085","6500600","新店區"
"231050","AAD-862","2019/06/18 19:08:59","新北市新店區竹林路2巷30號","121.550023333333","24.950455","6500600","新店區"
"231045","355-BY","2019/06/18 19:08:56","新北市新店區北宜路一段97號","121.53921","24.9552833333333","6500600","新店區"
"231055","4716-K9","2019/06/18 19:09:05","新北市新店區新生街13巷20號","121.539068333333","24.9661","6500600","新店區"
"231056","4715-K9","2019/06/18 19:09:04","新北市新店區安和路三段1-1號","121.517055","24.9794716666667","6500600","新店區"
"231067","4772-VM","2019/06/18 19:08:50","新北市新店區安康路一段281巷27號","121.523825","24.9622933333333","6500600","新店區"
"231053","513-UM","2019/06/18 19:09:00","新北市新店區自強路23巷1號","121.546118333333","24.9267","6500600","新店區"
"231040","617-UM","2019/06/18 19:09:09","新北市新店區三民路157-1號","121.53388","24.9736666666667","6500600","新店區"
"231041","618-UM","2019/06/18 19:08:55","新北市新店區環河路121號","121.52978","24.97179","6500600","新店區"
"231063","641-BX","2019/06/18 19:08:53","新北市新店區車子路110號","121.505236666667","24.952075","6500600","新店區"
"231048","KED-0819","2019/06/18 19:09:08","新北市新店區德正街27巷29弄28號","121.545833333333","24.9722166666667","6500600","新店區"
"231046","719-UM","2019/06/18 19:08:40","新北市新店區華潭街31號","121.52982","24.9544183333333","6500600","新店區"
"231057","720-UM","2019/06/18 19:08:51","新北市新店區百齡一路12號","121.553036666667","24.9324833333333","6500600","新店區"
"231044","897-TW","2019/06/18 19:09:08","新北市新店區中興路三段170號","121.54429","24.9809433333333","6500600","新店區"
"231043","899-TW","2019/06/18 19:08:49","新北市新店區中興路三段1-20號","121.546665","24.9759416666667","6500600","新店區"
"231066","AKT-0513","2019/06/18 19:08:53","新北市新店區安康路二段317-1號","121.499128333333","24.9564683333333","6500600","新店區"
"241022","060-VK","2019/06/18 19:08:59","新北市三重區三民街153-1號","121.484181666667","25.064405","6500200","三重區"
"241026","480-VK","2019/06/18 19:08:59","新北市三重區泉州街61巷1號","121.494628333333","25.0546116666667","6500200","三重區"
"241029","942-UM","2019/06/18 19:09:07","新北市三重區集美街263號","121.492478333333","25.0557566666667","6500200","三重區"
"235066","003-UY","2019/06/18 19:09:02","新北市中和區廣福路20號","121.505021666667","25.0026933333333","6500300","中和區"
"235063","006-UY","2019/06/18 19:09:02","新北市中和區連城路249巷19弄1號","121.493888333333","24.9963516666667","6500300","中和區"
"235039","097-UM","2019/06/18 19:09:05","新北市中和區秀朗路三段179號","121.524415","24.9906883333333","6500300","中和區"
"235065","098-UM","2019/06/18 19:08:53","新北市中和區中山路二段136巷8號","121.50195","25.003795","6500300","中和區"
"235040","150-BY","2019/06/18 19:09:08","新北市中和區宜安路61號","121.511528333333","24.9969016666667","6500300","中和區"
"235058","151-BY","2019/06/18 19:08:49","新北市中和區連城路467-5號","121.483583333333","24.9959683333333","6500300","中和區"
"235019","183-VK","2019/06/18 19:09:04","新北市中和區德光路104號","121.468291666667","25.00335","6500300","中和區"
"235038","185-VK","2019/06/18 19:09:00","新北市中和區大仁街20巷37號","121.518925","24.9932433333333","6500300","中和區"
"235049","186-VK","2019/06/18 19:09:06","新北市中和區景安路85號","121.50605","24.996805","6500300","中和區"
"235067","255-BX","2019/06/18 19:09:07","新北市中和區民樂路17號","121.482496666667","25.0013533333333","6500300","中和區"
"235044","293-VK","2019/06/18 19:08:53","新北市中和區中興街222-5號","121.500643333333","24.989585","6500300","中和區"
"235072","301-VK","2019/06/18 19:09:07","新北市中和區連城路144巷4弄11號","121.495645","24.9987983333333","6500300","中和區"
"235043","352-BY","2019/06/18 19:09:10","新北市中和區景平路134號","121.518815","24.9920366666667","6500300","中和區"
"235042","KEA-2878","2019/06/18 19:09:03","新北市中和區立人街67號","121.519901666667","24.9941733333333","6500300","中和區"
"235050","4979-A6","2019/06/18 19:08:55","新北市中和區復興路75號","121.503468333333","24.9902033333333","6500300","中和區"
"235069","4980-A6","2019/06/18 19:09:01","新北市中和區中和路217巷20號","121.504728333333","25.0004616666667","6500300","中和區"
"235041","551-UM","2019/06/18 19:08:56","新北市中和區宜安路182號","121.508696666667","24.9995466666667","6500300","中和區"
"235070","558-UM","2019/06/18 19:09:04","新北市中和區連城路51號","121.4979","25.0015966666667","6500300","中和區"
"235045","565-BX","2019/06/18 19:09:04","新北市中和區景新街423巷41號","121.514373333333","24.9897266666667","6500300","中和區"
"235060","KED-0823","2019/06/18 19:09:03","新北市中和區中山路三段92號","121.477513333333","25.0056016666667","6500300","中和區"
"235054","640-BX","2019/06/18 19:08:58","新北市中和區國光街107巷2弄24號","121.469615","24.9994766666667","6500300","中和區"
"235047","732-UM","2019/06/18 19:08:52","新北市中和區興南路一段137號","121.508796666667","24.9875966666667","6500300","中和區"
"235046","733-UM","2019/06/18 19:08:56","新北市中和區華新街134號","121.50818","24.982675","6500300","中和區"
"235071","783-BX","2019/06/18 19:09:03","新北市中和區連城路519號","121.482061666667","24.9952866666667","6500300","中和區"
"235057","801-TS","2019/06/18 19:08:49","新北市中和區員山路263號","121.481226666667","24.9991983333333","6500300","中和區"
"235052","805-TS","2019/06/18 19:08:54","新北市中和區興南路二段142巷31弄83號","121.501615","24.9836783333333","6500300","中和區"
"235048","896-TW","2019/06/18 19:08:55","新北市中和區忠孝街2巷2-3號","121.5099","24.98263","6500300","中和區"
"235053","900-TW","2019/06/18 19:08:56","新北市中和區民德路270號","121.467973333333","24.9965066666667","6500300","中和區"
"235064","911-UM","2019/06/18 19:08:53","新北市中和區連城路47巷1號","121.498263333333","25.001575","6500300","中和區"
"235051","157-BY","2019/06/18 19:09:11","新北市中和區興南路一段104號","121.509763333333","24.988955","6500300","中和區"
"235037","AAC-213","2019/06/18 19:09:07","新北市中和區秀朗路三段10巷37弄4號","121.524065","24.9958216666667","6500300","中和區"
"235059","AAC-215","2019/06/18 19:08:51","新北市中和區圓通路294巷13號","121.488833333333","24.9900233333333","6500300","中和區"
"220071","015-TV","2019/06/18 19:09:04","新北市板橋區忠孝路154巷11號","121.464141666667","25.0019383333333","6500100","板橋區"
"220065","072-UY","2019/06/18 19:08:57","新北市板橋區民族路219巷1號","121.469416666667","25.007595","6500100","板橋區"
"220086","073-UY","2019/06/18 19:08:59","新北市板橋區中正路250巷70號","121.458183333333","25.0197533333333","6500100","板橋區"
"220106","075-UY","2019/06/18 19:08:58","新北市板橋區雙十路三段87號","121.47007","25.032595","6500100","板橋區"
"220069","AAD-861","2019/06/18 19:09:10","新北市板橋區華興街31巷3號","121.458371666667","25.004375","6500100","板橋區"
"220090","120-SR","2019/06/18 19:09:07","新北市板橋區長江路一段106巷13弄29號","121.461201666667","25.02969","6500100","板橋區"
"226004","312-R5","2019/06/18 19:09:02","新北市平溪區嶺腳里嶺腳寮13號","121.747865","25.0298633333333","6502400","平溪區"
"235056","251-BX","2019/06/18 19:08:54","新北市板橋區三民路二段243號","121.479003333333","25.012485","6500300","中和區"
"228001","212-TW","2019/06/18 19:08:52","新北市貢寮區真理里新港街10號","121.925528333333","25.05435","6502600","貢寮區"
"228002","663-BX","2019/06/18 19:08:59","新北市貢寮區福隆里福隆街32-1號","121.945093333333","25.017415","6502600","貢寮區"
"228003","828-UM","2019/06/18 19:09:03","新北市貢寮區和美里和美街36號","121.91245","25.0850366666667","6502600","貢寮區"
"224009","275-VK","2019/06/18 19:08:59","新北市瑞芳區洞頂路142號","121.859848333333","25.11856","6501200","瑞芳區"
"224008","273-VK","2019/06/18 19:09:02","新北市瑞芳區瑞芳街96號","121.80205","25.1103716666667","6501200","瑞芳區"
"224005","271-BY","2019/06/18 19:08:59","新北市瑞芳區三爪子坑路32巷126號","121.809051666667","25.1062466666667","6501200","瑞芳區"
"227002","642-TC","2019/06/18 19:09:08","新北市雙溪區平林里外平林9-3號","121.859261666667","25.0380366666667","6502500","雙溪區"
"227001","400-TW","2019/06/18 19:09:02","新北市雙溪區牡丹里中正路44號","121.86493","25.03874","6502500","雙溪區"
"253006","032-BX","2019/06/18 19:08:58","新北市石門區海灣新城10號","121.52549","25.28515","6502200","石門區"
"253005","295-VK","2019/06/18 19:09:03","新北市石門區阿里荖35-2號","121.606555","25.2807483333333","6502200","石門區"
"222001","KEA-2212","2019/06/18 19:09:12","新北市深坑區北深路一段300號","121.62428","25.0058116666667","6501800","深坑區"
"208002","KEA-2872","2019/06/18 19:09:08","新北市金山區仁愛路67巷28號","121.633986666667","25.220865","6502700","金山區"
"208003","665-BX","2019/06/18 19:09:06","新北市金山區中正路57號","121.63428","25.2219383333333","6502700","金山區"
"251005","010-UM","2019/06/18 19:09:03","新北市淡水區原德路11號","121.442106666667","25.1712683333333","6501000","淡水區"
"251002","012-UM","2019/06/18 19:08:53","新北市淡水區中正東路3號","121.445331666667","25.1687216666667","6501000","淡水區"
"251015","KEA-2871","2019/06/18 19:09:07","新北市淡水區南勢埔1號","121.484126666667","25.1802583333333","6501000","淡水區"
"251016","179-VK","2019/06/18 19:08:49","新北市淡水區淡金路三段230號","121.448976666667","25.2051933333333","6501000","淡水區"
"251013","182-VK","2019/06/18 19:09:09","新北市淡水區安子內12-1號","121.481513333333","25.2191233333333","6501000","淡水區"
"251010","413-VK","2019/06/18 19:08:57","新北市淡水區中正路一段156巷3號","121.421156666667","25.18021","6501000","淡水區"
"251007","442-VK","2019/06/18 19:08:51","新北市淡水區民生路135巷18號","121.46626","25.1390633333333","6501000","淡水區"
"251001","559-UM","2019/06/18 19:09:06","新北市淡水區自強路201巷39號","121.462133333333","25.1268016666667","6501000","淡水區"
"251014","577-R6","2019/06/18 19:08:53","新北市淡水區小中寮19-1號","121.48407","25.2292883333333","6501000","淡水區"
"251003","673-BX","2019/06/18 19:09:09","新北市淡水區中山北路一段175號","121.443401666667","25.17804","6501000","淡水區"
"207003","550-UM","2019/06/18 19:08:52","新北市萬里區大鵬里萬里加投24-2號","121.64913","25.2073533333333","6502800","萬里區"
"207004","225-TW","2019/06/18 19:09:07","新北市萬里區萬里里瑪鋉下街52號","121.691606666667","25.1795083333333","6502800","萬里區"
"252002","178-VK","2019/06/18 19:08:57","新北市三芝區埔坪里埔頭坑78號","121.509175","25.25433","6502100","三芝區"
"252003","249-BX","2019/06/18 19:09:08","新北市三芝區錫板里南勢崗6號","121.479578333333","25.2619966666667","6502100","三芝區"
"208001","170-UY","2019/06/18 19:08:53","新北市金山區金包里街51號","121.639036666667","25.22137","6502700","金山區"
"237004","KEA-2597","2019/06/18 19:08:54","新北市三峽區有木206號","121.439075","24.8515983333333","6500900","三峽區"
"237007","153-BY","2019/06/18 19:09:05","新北市三峽區中正路二段42巷12-1號","121.364146666667","24.9206666666667","6500900","三峽區"
"237013","252-BX","2019/06/18 19:08:50","新北市三峽區大同路52號","121.376926666667","24.9290216666667","6500900","三峽區"
"237012","275-BY","2019/06/18 19:09:07","新北市三峽區三樹路222巷196-40號","121.390258333333","24.942765","6500900","三峽區"
"237008","302-VK","2019/06/18 19:09:00","新北市三峽區光明路106巷2號","121.37649","24.9276583333333","6500900","三峽區"
"237014","433-BY","2019/06/18 19:08:56","新北市三峽區復興路265號","121.366645","24.93885","6500900","三峽區"
"237006","5529-G3","2019/06/18 19:08:51","新北市三峽區橫溪路99巷18-2號","121.400658333333","24.9360933333333","6500900","三峽區"
"237011","KEA-2596","2019/06/18 19:08:50","新北市三峽區介壽路三段147號","121.400236666667","24.9428316666667","6500900","三峽區"
"237015","649-BX","2019/06/18 19:08:57","新北市三峽區安坑48-1號","121.45848","24.932245","6500900","三峽區"
"237010","706-TV","2019/06/18 19:08:57","新北市三峽區國光街99號","121.373241666667","24.9389","6500900","三峽區"
"237005","AKY-6261","2019/06/18 19:09:05","新北市三峽區中山路459巷137號","121.349786666667","24.9334866666667","6500900","三峽區"
"236042","KED-0685","2019/06/18 19:08:56","新北市土城區學府路一段276號","121.45033","24.983295","6501300","土城區"
"220089","KED-0812","2019/06/18 19:08:54","新北市板橋區文化路一段279號","121.464733333333","25.0185133333333","6500100","板橋區"
"236079","166-UM","2019/06/18 19:09:04","新北市土城區龍泉路10-1號","121.409685","24.9490716666667","6501300","土城區"
"236026","269-VK","2019/06/18 19:09:09","新北市土城區中正路24號","121.443141666667","24.9752233333333","6501300","土城區"
"236014","270-VK","2019/06/18 19:09:01","新北市土城區學府路一段93號","121.456343333333","24.987965","6501300","土城區"
"236070","KEA-2877","2019/06/18 19:09:03","新北市土城區明德路二段92-3號","121.445858333333","24.9839616666667","6501300","土城區"
"252001","KED-0821","2019/06/18 19:08:53","新北市三芝區長勤街82號","121.50027","25.255085","6502100","三芝區"
"236021","401-BY","2019/06/18 19:08:52","新北市土城區延峰街34巷2號","121.469483333333","24.9849216666667","6501300","土城區"
"236059","912-UM","2019/06/18 19:08:57","新北市土城區金城路一段60號","121.442511666667","24.970945","6501300","土城區"
"236063","915-UM","2019/06/18 19:09:04","新北市土城區金城路三段93巷19號","121.466735","24.9883683333333","6501300","土城區"
"236055","AAC-216","2019/06/18 19:08:55","新北市土城區學府路一段190號","121.453273333333","24.9860483333333","6501300","土城區"
"238015","755-BX","2019/06/18 19:08:52","新北市樹林區備內街150-3號","121.407681666667","24.98935","6500700","樹林區"
"238023","601-UM","2019/06/18 19:09:09","新北市樹林區三興路51號","121.39507","25.01435","6500700","樹林區"
"238019","599-UM","2019/06/18 19:09:00","新北市樹林區東榮街91巷2弄11號","121.415693333333","24.9821166666667","6500700","樹林區"
"238018","KEA-2217","2019/06/18 18:45:28","新北市樹林區太平路50號","121.419031666667","24.9824816666667","6500700","樹林區"
"238022","KEA-2213","2019/06/18 19:08:46","新北市樹林區中山路二段151巷12號","121.406623333333","24.978165","6500700","樹林區"
"238025","303-VK","2019/06/18 19:09:09","新北市樹林區中山路三段325號","121.390876666667","24.9714166666667","6500700","樹林區"
"238017","283-BY","2019/06/18 19:09:00","新北市樹林區光興街50號","121.409816666667","25.0027566666667","6500700","樹林區"
"238014","282-BY","2019/06/18 19:09:02","新北市樹林區中正路22-1號","121.427715","24.9994816666667","6500700","樹林區"
"238020","268-VK","2019/06/18 19:09:06","新北市樹林區俊英街133巷1弄1號","121.424033333333","25.0113883333333","6500700","樹林區"
"238026","172-UY","2019/06/18 19:08:48","新北市樹林區中山路三段289號","121.391698333333","24.9720816666667","6500700","樹林區"
"238016","169-UY","2019/06/18 19:08:53","新北市樹林區文化街25巷28號","121.41795","24.986555","6500700","樹林區"
"239007","AAC-297","2019/06/18 19:09:08","新北市鶯歌區大湖路30號","121.342855","24.9612716666667","6500800","鶯歌區"
"239006","891-R6","2019/06/18 19:09:08","新北市鶯歌區永智街132號","121.33704","24.9520466666667","6500800","鶯歌區"
"239008","527-UM","2019/06/18 19:09:02","新北市鶯歌區國際二路10巷25號","121.338521666667","24.9745116666667","6500800","鶯歌區"
"239005","526-UM","2019/06/18 19:08:35","新北市鶯歌區中湖街76號","121.348076666667","24.9728033333333","6500800","鶯歌區"
"239001","417-VK","2019/06/18 19:09:10","新北市鶯歌區鶯桃路151號","121.337543333333","24.95505","6500800","鶯歌區"
"239003","360-BY","2019/06/18 19:09:06","新北市鶯歌區德昌街11號","121.333548333333","24.9602766666667","6500800","鶯歌區"
"239002","359-BY","2019/06/18 19:09:08","新北市鶯歌區大湖路283號","121.345108333333","24.9733766666667","6500800","鶯歌區"
"239004","193-VK","2019/06/18 19:08:57","新北市鶯歌區二甲路106巷2號","121.333906666667","24.93135","6500800","鶯歌區"
"221008","489-VK","2019/06/18 19:09:04","新北市汐止區康寧街434號","121.630931666667","25.0681483333333","6501100","汐止區"
"221036","130-UY","2019/06/18 19:09:01","新北市汐止區南昌街16號","121.662948333333","25.0685583333333","6501100","汐止區"
"221031","353-TW","2019/06/18 19:09:01","新北市汐止區中興路181巷16弄8號","121.629561666667","25.0665033333333","6501100","汐止區"
"221035","622-UM","2019/06/18 19:09:01","新北市汐止區禮門街7號","121.656628333333","25.06753","6501100","汐止區"
"221002","707-TV","2019/06/18 19:09:09","新北市汐止區大同路一段312號","121.63719","25.05867","6501100","汐止區"
"220079","145-BY","2019/06/18 19:08:51","新北市板橋區公館街18號","121.456846666667","25.012295","6500100","板橋區"
"220080","200-UY","2019/06/18 19:09:03","新北市板橋區大觀路二段251號","121.443246666667","24.99907","6500100","板橋區"
"220082","610-BX","2019/06/18 19:09:10","新北市板橋區溪北路45號","121.427708333333","24.9901366666667","6500100","板橋區"
"220056","276-BY","2019/06/18 19:09:02","新北市板橋區信義路74巷4弄2號","121.45696","24.9929983333333","6500100","板橋區"
"220072","277-BY","2019/06/18 19:08:50","新北市板橋區金門街369巷15號","121.428868333333","24.9847016666667","6500100","板橋區"
"220094","285-UM","2019/06/18 19:08:53","新北市板橋區光武街110巷57號","121.467461666667","25.0305716666667","6500100","板橋區"
"220053","285-VK","2019/06/18 19:09:07","新北市板橋區懷仁街33號","121.4765","25.0195466666667","6500100","板橋區"
"220083","286-VK","2019/06/18 19:09:00","新北市板橋區龍興街97巷16號","121.443526666667","25.002935","6500100","板橋區"
"220081","287-VK","2019/06/18 19:08:56","新北市板橋區光華街39巷4號","121.453538333333","25.0131383333333","6500100","板橋區"
"220061","293-UM","2019/06/18 19:09:08","新北市板橋區光復街22號","121.481555","25.0189016666667","6500100","板橋區"
"220062","295-UM","2019/06/18 19:09:07","新北市板橋區三民路二段245巷69弄2號","121.481111666667","25.0128833333333","6500100","板橋區"
"220084","296-UM","2019/06/18 19:08:48","新北市板橋區大觀路三段162號","121.431368333333","24.993105","6500100","板橋區"
"220075","303-R5","2019/06/18 19:09:09","新北市板橋區南雅南路一段5巷19號","121.45634","25.0053933333333","6500100","板橋區"
"220092","307-R5","2019/06/18 19:09:00","新北市板橋區松江街51號","121.46861","25.027525","6500100","板橋區"
"220098","317-R6","2019/06/18 19:09:08","新北市板橋區民有街49號","121.465506666667","25.0260083333333","6500100","板橋區"
"220088","491-VK","2019/06/18 19:09:00","新北市板橋區雙十路二段32號","121.47619","25.0272183333333","6500100","板橋區"
"220103","561-BX","2019/06/18 19:09:09","新北市板橋區文化路一段188巷15號","121.46656","25.0193433333333","6500100","板橋區"
"220063","609-BX","2019/06/18 19:09:08","新北市中和區員山路570號","121.478911666667","25.01118","6500100","板橋區"
"220035","630-UY","2019/06/18 19:09:09","新北市板橋區中正路379巷3弄30號","121.453155","25.0214933333333","6500100","板橋區"
"220091","637-BX","2019/06/18 19:09:07","新北市板橋區縣民大道三段185號","121.479455","25.0247516666667","6500100","板橋區"
"220057","686-BX","2019/06/18 19:09:08","新北市板橋區五權街59號","121.464778333333","24.993475","6500100","板橋區"
"220077","687-BX","2019/06/18 19:09:05","新北市板橋區大觀路二段235號","121.443788333333","24.999185","6500100","板橋區"
"220093","689-BX","2019/06/18 19:08:48","新北市板橋區文化路一段279號","121.46481","25.0185516666667","6500100","板橋區"
"220054","741-BX","2019/06/18 19:08:33","新北市板橋區四川路一段189號","121.460791666667","25.0038483333333","6500100","板橋區"
"220102","KEA-2699","2019/06/18 19:09:06","新北市板橋區文聖街207號","121.479791666667","25.0264333333333","6500100","板橋區"
"220055","827-TW","2019/06/18 19:09:08","新北市板橋區新民街13號","121.464018333333","25.0098883333333","6500100","板橋區"
"220068","831-TW","2019/06/18 19:09:10","新北市板橋區中山路二段443巷54號","121.481081666667","25.0215466666667","6500100","板橋區"
"220074","895-R6","2019/06/18 19:09:05","新北市板橋區中正路自強新村1-1號","121.455731666667","25.0139066666667","6500100","板橋區"
"220073","985-R7","2019/06/18 19:08:56","新北市板橋區中正路307號","121.455168333333","25.0196933333333","6500100","板橋區"
"220097","AAC-210","2019/06/18 19:09:03","新北市板橋區幸福路60巷11號","121.460815","25.0205333333333","6500100","板橋區"
"220064","AAC-253","2019/06/18 19:08:51","新北市板橋區縣民大道二段82號","121.465838333333","25.0149266666667","6500100","板橋區"
"235068","KEA-2873","2019/06/18 19:08:39","新北市中和區圓通路162巷35號","121.496555","24.995595","6500300","中和區"
"235061","KEA-2875","2019/06/18 19:09:03","新北市中和區員山路262號","121.481375","25.001785","6500300","中和區"
