"lineid","car","time","location","longitude","latitude","cityid","cityname"
"234038","336-UY","2019/06/18 20:19:05","新北市永和區成功路一段93巷11-1號","121.527655","25.002765","6500400","永和區"
"234064","337-UY","2019/06/18 20:18:54","新北市永和區得和路131號","121.519098333333","25.0002433333333","6500400","永和區"
"234086","338-UY","2019/06/18 20:18:55","新北市永和區永和路二段105號","121.514971666667","25.011805","6500400","永和區"
"234070","552-UM","2019/06/18 20:19:08","新北市永和區永安街14號","121.519091666667","25.00618","6500400","永和區"
"234017","745-BX","2019/06/18 20:18:54","新北市永和區仁愛路60-1號","121.513491666667","25.0133183333333","6500400","永和區"
"234030","746-BX","2019/06/18 20:18:59","新北市永和區民有街75巷10弄33號","121.519248333333","24.9960716666667","6500400","永和區"
"234054","KEA-2590","2019/06/18 20:19:08","新北市永和區光復街2巷26弄2號","121.517691666667","25.0165333333333","6500400","永和區"
"234013","KEA-2591","2019/06/18 20:19:00","新北市永和區保生路5巷3號","121.505988333333","25.007095","6500400","永和區"
"234061","AAD-866","2019/06/18 20:19:02","新北市永和區得和路3號","121.514945","25.0007216666667","6500400","永和區"
"234081","748-BX","2019/06/18 20:18:54","新北市永和區福和路7巷10弄7號","121.5249","25.0075983333333","6500400","永和區"
"234042","862-TW","2019/06/18 20:19:06","新北市中和區中安街166號","121.51082","25.0001","6500400","永和區"
"234050","863-TW","2019/06/18 20:19:02","新北市永和區環河西路二段37號","121.50732","25.0156666666667","6500400","永和區"
"249005","172-UM","2019/06/18 20:18:59","新北市八里區下罟子1-16號","121.389806666667","25.14198","6502300","八里區"
"249001","173-UM","2019/06/18 20:19:00","新北市八里區中華路二段516號","121.399295","25.1451583333333","6502300","八里區"
"249004","303-UY","2019/06/18 20:18:52","新北市八里區中山路一段153號","121.412698333333","25.15891","6502300","八里區"
"249002","305-UY","2019/06/18 20:19:04","新北市八里區龍米路一段98-1號","121.453611666667","25.124955","6502300","八里區"
"249003","759-BX","2019/06/18 20:18:56","新北市八里區中山路二段447巷23號","121.397501666667","25.1452166666667","6502300","八里區"
"248016","026-BX","2019/06/18 20:18:51","新北市五股區凌雲路一段158巷39弄16號","121.446461666667","25.104105","6501500","五股區"
"248002","678-BX","2019/06/18 20:19:07","新北市五股區成泰路三段169號","121.445206666667","25.09191","6501500","五股區"
"234023","9380-KE","2019/06/18 20:19:08","新北市永和區復興街23號","121.516193333333","25.0130383333333","6500400","永和區"
"234077","969-R7","2019/06/18 20:19:08","新北市永和區中正路31號","121.514316666667","24.9958716666667","6500400","永和區"
"234074","AAC-211","2019/06/18 20:19:09","新北市永和區豫溪街160巷4號","121.523253333333","25.00949","6500400","永和區"
"234067","AAC-212","2019/06/18 20:19:07","新北市永和區保平路266號","121.508645","25.0051833333333","6500400","永和區"
"234003","AAC-295","2019/06/18 20:19:08","新北市永和區自強街6巷1弄2號","121.514375","25.0078933333333","6500400","永和區"
"244019","402-UM","2019/06/18 20:18:49","新北市林口區粉寮69號","121.405","25.0908583333333","6501700","林口區"
"243012","AAD-798","2019/06/18 20:18:59","新北市泰山區楓江路162號","121.440775","25.0656466666667","6501600","泰山區"
"243010","297-R6","2019/06/18 20:18:39","新北市泰山區明志路二段214巷16弄19號","121.426635","25.0497366666667","6501600","泰山區"
"243014","KEA-2801","2019/06/18 20:19:06","新北市泰山區明志路一段181號","121.433038333333","25.062065","6501600","泰山區"
"243016","421-VK","2019/06/18 20:18:49","新北市泰山區明志路二段420號","121.424935","25.0438066666667","6501600","泰山區"
"243009","KEA-2215","2019/06/18 20:19:03","新北市泰山區泰林路二段119號","121.434215","25.059505","6501600","泰山區"
"243011","KEA-2216","2019/06/18 20:18:57","新北市新莊區壽山路160巷21號","121.41748","25.031905","6501600","泰山區"
"243013","646-TV","2019/06/18 20:18:54","新北市泰山區民國街21號","121.425711666667","25.0434016666667","6501600","泰山區"
"243015","680-BX","2019/06/18 20:19:04","新北市泰山區明志路一段264號","121.43204","25.060365","6501600","泰山區"
"222003","436-BY","2019/06/18 20:19:06","新北市深坑區文化街78號","121.618061666667","25.0019366666667","6501800","深坑區"
"222002","659-BX","2019/06/18 20:18:48","新北市深坑區萬福路69號","121.601998333333","25.0086483333333","6501800","深坑區"
"231060","001-UM","2019/06/18 20:19:02","新北市新店區安康路三段578-1號","121.481078333333","24.94868","6500600","新店區"
"231061","002-UM","2019/06/18 20:19:09","新北市新店區安興路32號","121.51573","24.9703566666667","6500600","新店區"
"231058","0293-UT","2019/06/18 20:18:56","新北市新店區安興路117號","121.515405","24.9788883333333","6500600","新店區"
"231059","046-UY","2019/06/18 20:18:55","新北市新店區安德街60巷35號","121.511151666667","24.963515","6500600","新店區"
"231051","107-UY","2019/06/18 20:19:08","新北市新店區中央六街34號","121.528936666667","24.97524","6500600","新店區"
"231049","108-UY","2019/06/18 20:19:10","新北市新店區北新路二段63號","121.54258","24.9733683333333","6500600","新店區"
"231065","110-UY","2019/06/18 20:19:05","新北市新店區安祥路106巷36號","121.477368333333","24.9618683333333","6500600","新店區"
"231068","187-VK","2019/06/18 20:19:04","新北市新店區寶安街36號","121.542073333333","24.982445","6500600","新店區"
"231062","256-BX","2019/06/18 20:18:58","新北市新店區安康路二段418號","121.496321666667","24.95509","6500600","新店區"
"231054","260-TV","2019/06/18 20:18:57","新北市新店區檳榔路111號","121.544475","24.9615016666667","6500600","新店區"
"231042","268-BY","2019/06/18 20:19:02","新北市新店區中興路二段231-2號","121.547893333333","24.975005","6500600","新店區"
"231064","278-BY","2019/06/18 20:18:59","新北市新店區安和路二段155號","121.519291666667","24.9744283333333","6500600","新店區"
"231045","355-BY","2019/06/18 20:18:56","新北市新店區北宜路一段51號","121.538358333333","24.9568516666667","6500600","新店區"
"231055","4716-K9","2019/06/18 20:19:06","新北市新店區中華路42巷14號","121.540548333333","24.9686066666667","6500600","新店區"
"231056","4715-K9","2019/06/18 20:19:04","新北市新店區中正路302巷12號","121.537995","24.9751616666667","6500600","新店區"
"231067","4772-VM","2019/06/18 20:19:10","新北市新店區安康路一段116號","121.52718","24.9625333333333","6500600","新店區"
"231053","513-UM","2019/06/18 20:19:00","新北市新店區新烏路二段430號","121.551678333333","24.9085583333333","6500600","新店區"
"231040","617-UM","2019/06/18 20:18:49","新北市新店區中正路108號","121.543053333333","24.9706233333333","6500600","新店區"
"231041","618-UM","2019/06/18 20:18:55","新北市新店區民權路85號","121.538093333333","24.9829316666667","6500600","新店區"
"231063","641-BX","2019/06/18 20:18:53","新北市新店區車子路12號","121.504791666667","24.9542516666667","6500600","新店區"
"231048","KED-0819","2019/06/18 20:19:07","新北市新店區寶橋路132號","121.547313333333","24.9760766666667","6500600","新店區"
"231057","720-UM","2019/06/18 20:18:51","新北市新店區花園十路二段7-6號","121.554103333333","24.9343333333333","6500600","新店區"
"231044","897-TW","2019/06/18 20:19:04","新北市新店區北新路三段158號","121.541445","24.9827133333333","6500600","新店區"
"231043","899-TW","2019/06/18 20:19:09","新北市新店區建國路131號","121.539335","24.9781266666667","6500600","新店區"
"231066","AKT-0513","2019/06/18 20:18:53","新北市新店區柴埕路34號","121.513646666667","24.965255","6500600","新店區"
"241011","013-R5","2019/06/18 20:19:09","新北市三重區龍門路203號","121.499883333333","25.0733466666667","6500200","三重區"
"241028","022-UY","2019/06/18 20:19:09","新北市三重區大同南路127-2號","121.496448333333","25.0579516666667","6500200","三重區"
"241008","059-VK","2019/06/18 20:19:05","新北市三重區永福街211巷2弄2號","121.479935","25.074205","6500200","三重區"
"241022","060-VK","2019/06/18 20:18:59","新北市三重區新北大道一段26號","121.488351666667","25.061415","6500200","三重區"
"241031","061-VK","2019/06/18 20:18:59","新北市三重區三寧街15號","121.489513333333","25.05977","6500200","三重區"
"241015","062-VK","2019/06/18 20:19:03","新北市三重區重新路一段118號","121.50053","25.0630383333333","6500200","三重區"
"241017","063-VK","2019/06/18 20:19:03","新北市三重區自強路一段290號","121.491525","25.0683083333333","6500200","三重區"
"241024","065-VK","2019/06/18 20:18:52","新北市三重區中正北路248號","121.481541666667","25.06807","6500200","三重區"
"241001","066-VK","2019/06/18 20:18:51","新北市三重區溪尾街42-3號","121.490713333333","25.0771183333333","6500200","三重區"
"241002","090-VK","2019/06/18 20:19:11","新北市三重區仁義街101巷2號","121.497568333333","25.0801366666667","6500200","三重區"
"241003","091-VK","2019/06/18 20:19:01","新北市三重區富華街88號","121.49109","25.0834916666667","6500200","三重區"
"241005","262-UM","2019/06/18 20:19:06","新北市三重區分子尾街45號","121.489275","25.0822516666667","6500200","三重區"
"241016","266-UM","2019/06/18 20:18:50","新北市三重區大同北路97-2號","121.494438333333","25.063555","6500200","三重區"
"241009","267-UM","2019/06/18 20:18:50","新北市三重區三和路四段376號","121.482585","25.07887","6500200","三重區"
"241018","268-UM","2019/06/18 20:19:03","新北市三重區自強路一段155-1號","121.49374","25.0671783333333","6500200","三重區"
"241032","269-UM","2019/06/18 20:18:53","新北市三重區捷運路19巷8弄15號","121.48435","25.05725","6500200","三重區"
"241013","270-UM","2019/06/18 20:19:07","新北市三重區三和路三段163號","121.491983333333","25.0740783333333","6500200","三重區"
"241025","271-UM","2019/06/18 20:19:00","新北市三重區三民街272巷6-1號","121.478753333333","25.06775","6500200","三重區"
"241007","398-BY","2019/06/18 20:19:05","新北市三重區溪尾街108巷54號","121.48737","25.078025","6500200","三重區"
"241035","KEA-2210","2019/06/18 20:19:02","新北市三重區正義北路32-1號","121.497423333333","25.063465","6500200","三重區"
"241004","475-VK","2019/06/18 20:19:06","新北市三重區自強路四段108號","121.491461666667","25.0798733333333","6500200","三重區"
"241020","478-VK","2019/06/18 20:18:50","新北市三重區三和路三段170巷14號","121.49224","25.0729516666667","6500200","三重區"
"241026","480-VK","2019/06/18 20:18:59","新北市三重區中央南路86號","121.501668333333","25.0608416666667","6500200","三重區"
"241014","543-UM","2019/06/18 20:18:54","新北市三重區龍濱路217號","121.50175","25.07192","6500200","三重區"
"241006","AAD-863","2019/06/18 20:18:53","新北市三重區車路頭街135-1號","121.484238333333","25.0761516666667","6500200","三重區"
"241019","743-BX","2019/06/18 20:19:06","新北市三重區三張街109號","121.489068333333","25.07039","6500200","三重區"
"241012","941-UM","2019/06/18 20:18:51","新北市三重區河邊北街379-1號","121.501758333333","25.0764883333333","6500200","三重區"
"241029","942-UM","2019/06/18 20:19:07","新北市三重區集美街225號","121.491911666667","25.0551733333333","6500200","三重區"
"241033","AAC-255","2019/06/18 20:18:52","新北市三重區五谷王北街77號","121.475773333333","25.049995","6500200","三重區"
"235066","003-UY","2019/06/18 20:19:02","新北市中和區保平路289號","121.506561666667","25.003645","6500300","中和區"
"235039","097-UM","2019/06/18 20:19:05","新北市中和區大勇街27巷10號","121.517021666667","24.993885","6500300","中和區"
"235065","098-UM","2019/06/18 20:18:53","新北市中和區永和路128巷9號","121.49766","25.006925","6500300","中和區"
"235040","150-BY","2019/06/18 20:19:08","新北市中和區中正路166號","121.498408333333","24.9939","6500300","中和區"
"235019","183-VK","2019/06/18 20:19:09","新北市五股區凌雲路三段24巷10號","121.435931666667","25.10699","6500300","中和區"
"235067","255-BX","2019/06/18 20:17:27","新北市五股區中直路17-4號","121.422463333333","25.1114566666667","6500300","中和區"
"247014","KEA-2869","2019/06/18 20:18:49","新北市蘆洲區中山二路179號","121.47091","25.0809883333333","6501400","蘆洲區"
"247008","KED-0682","2019/06/18 20:18:50","新北市蘆洲區集賢路300號","121.481491666667","25.0851016666667","6501400","蘆洲區"
"235050","4979-A6","2019/06/18 20:18:59","新北市中和區景平路466號","121.505718333333","24.9937733333333","6500300","中和區"
"235069","4980-A6","2019/06/18 20:18:53","新北市中和區圓通路172號","121.49739","24.9947016666667","6500300","中和區"
"235026","800-TS","2019/06/18 20:14:56","新北市中和區員山路36巷16-3號","121.485068333333","24.991425","6500300","中和區"
"235059","AAC-215","2019/06/18 20:18:51","新北市中和區圓通路316號","121.486445","24.9877166666667","6500300","中和區"
"220086","073-UY","2019/06/18 20:18:51","新北市樹林區八德街272號","121.41183","24.9702916666667","6500100","板橋區"
"247004","893-R6","2019/06/18 20:18:52","新北市蘆洲區永康街116號","121.458176666667","25.0853083333333","6501400","蘆洲區"
"247018","546-UM","2019/06/18 20:19:08","新北市蘆洲區民族路257巷2號","121.476521666667","25.090545","6501400","蘆洲區"
"247002","500-BY","2019/06/18 20:19:07","新北市蘆洲區長安街331巷15號","121.455901666667","25.0865416666667","6501400","蘆洲區"
"247022","057-VK","2019/06/18 20:18:59","新北市蘆洲區民族路538號","121.468025","25.0892216666667","6501400","蘆洲區"
"247012","056-VK","2019/06/18 20:19:05","新北市蘆洲區中興街46號","121.481421666667","25.0871466666667","6501400","蘆洲區"
"247016","053-VK","2019/06/18 20:19:10","新北市蘆洲區光華路132巷39號","121.465793333333","25.083795","6501400","蘆洲區"
"247006","002-UY","2019/06/18 20:19:05","新北市蘆洲區九芎街153巷22號","121.46585","25.0785333333333","6501400","蘆洲區"
"222001","KEA-2212","2019/06/18 20:19:07","新北市深坑區北深路三段253號","121.599238333333","25.004335","6501800","深坑區"
"251002","012-UM","2019/06/18 20:18:53","新北市淡水區中正路177號","121.438621666667","25.1712816666667","6501000","淡水區"
"251015","KEA-2871","2019/06/18 20:18:55","新北市淡水區商工路177號","121.448398333333","25.18836","6501000","淡水區"
"251016","179-VK","2019/06/18 20:19:09","新北市淡水區淡金路五段14-8號","121.45346","25.2323816666667","6501000","淡水區"
"251008","181-VK","2019/06/18 20:18:49","新北市淡水區淡海路180巷20號","121.42145","25.1845933333333","6501000","淡水區"
"251013","182-VK","2019/06/18 20:19:09","新北市淡水區相公山1-3號","121.47418","25.2066866666667","6501000","淡水區"
"251010","413-VK","2019/06/18 20:18:57","新北市淡水區新民街一段155號","121.427423333333","25.1889166666667","6501000","淡水區"
"251012","441-VK","2019/06/18 20:18:49","新北市淡水區下圭柔山431-1號","121.449831666667","25.2102283333333","6501000","淡水區"
"251001","559-UM","2019/06/18 20:19:06","新北市淡水區淡金路二段15號","121.44631","25.1891933333333","6501000","淡水區"
"251006","561-UM","2019/06/18 20:18:54","新北市淡水區北新路141巷80弄26號","121.448101666667","25.18028","6501000","淡水區"
"251014","577-R6","2019/06/18 20:18:52","新北市淡水區石頭厝2-1號","121.45812","25.2356883333333","6501000","淡水區"
"251003","673-BX","2019/06/18 20:19:09","新北市淡水區中山北路一段229號","121.444421666667","25.1796016666667","6501000","淡水區"
"207003","550-UM","2019/06/18 20:18:52","新北市萬里區大鵬里頂社24-5號","121.664783333333","25.205425","6502800","萬里區"
"207004","225-TW","2019/06/18 20:18:47","新北市萬里區北基里仁六街2-1號","121.68157","25.1750883333333","6502800","萬里區"
"252002","178-VK","2019/06/18 20:18:57","新北市三芝區中正路一段16-1號","121.502985","25.258635","6502100","三芝區"
"237006","5529-G3","2019/06/18 20:19:11","新北市三峽區中正路二段66號","121.366603333333","24.9183483333333","6500900","三峽區"
"236079","166-UM","2019/06/18 20:18:51","新北市土城區金安街20巷6號","121.42094","24.9646616666667","6501300","土城區"
"236030","253-BX","2019/06/18 20:19:09","新北市土城區學成路128巷13弄2號","121.449595","24.99014","6501300","土城區"
"236026","269-VK","2019/06/18 20:19:03","新北市土城區中央路一段249巷10弄20-1號","121.445981666667","24.9852183333333","6501300","土城區"
"236014","270-VK","2019/06/18 20:19:01","新北市土城區四川路29巷37號","121.455315","24.9951933333333","6501300","土城區"
"247010","KED-0683","2019/06/18 20:18:52","新北市蘆洲區信義路204號","121.478986666667","25.0848016666667","6501400","蘆洲區"
"236070","KEA-2877","2019/06/18 20:19:03","新北市土城區亞洲路59號","121.433336666667","24.97091","6501300","土城區"
"252001","KED-0821","2019/06/18 20:18:53","新北市三芝區中山路一段14號","121.50066","25.25811","6502100","三芝區"
"236059","912-UM","2019/06/18 20:18:57","新北市土城區中央路三段70號","121.436671666667","24.9672933333333","6501300","土城區"
"242039","AAC-296","2019/06/18 20:19:05","新北市新莊區成功街52-1號","121.424758333333","25.0203016666667","6500500","新莊區"
"242061","986-R7","2019/06/18 20:18:49","新北市新莊區民安東路137號","121.431426666667","25.0207516666667","6500500","新莊區"
"242002","751-BX","2019/06/18 20:19:00","新北市新莊區中正路1號","121.465308333333","25.0418483333333","6500500","新莊區"
"242029","615-BX","2019/06/18 20:18:55","新北市新莊區中華路二段185號","121.452631666667","25.0523233333333","6500500","新莊區"
"242027","613-BX","2019/06/18 19:56:10","新北市新莊區立信三街25號","121.443031666667","25.0504733333333","6500500","新莊區"
"242058","612-BX","2019/06/18 20:19:08","新北市新莊區龍安路278巷17號","121.422","25.0185833333333","6500500","新莊區"
"242046","566-BX","2019/06/18 20:19:08","新北市新莊區中正路新生巷67號","121.417245","25.0224283333333","6500500","新莊區"
"242044","442-UM","2019/06/18 20:19:02","新北市新莊區中正路893巷6-1號","121.41368","25.0209","6500500","新莊區"
"242056","441-UM","2019/06/18 20:18:54","新北市新莊區新莊路649巷40號","121.444855","25.0316216666667","6500500","新莊區"
"242005","440-UM","2019/06/18 20:19:10","新北市新莊區頭前路2巷12號","121.468501666667","25.0530266666667","6500500","新莊區"
"242011","413-TV","2019/06/18 20:19:00","新北市新莊區中信街37巷1弄1號","121.450346666667","25.0505733333333","6500500","新莊區"
"242048","400-BY","2019/06/18 20:19:06","新北市新莊區萬安街165巷34號","121.421211666667","25.0206966666667","6500500","新莊區"
"242025","362-BY","2019/06/18 20:19:01","新北市新莊區五工一路80巷8號","121.46143","25.067045","6500500","新莊區"
"242023","353-BY","2019/06/18 20:19:03","新北市新莊區化成路752-1號","121.465488333333","25.05796","6500500","新莊區"
"242013","132-UY","2019/06/18 20:18:51","新北市新莊區幸福路710巷5弄16號","121.449223333333","25.049765","6500500","新莊區"
"242037","135-UY","2019/06/18 20:19:05","新北市新莊區建安街62巷3弄7號","121.426425","25.0248983333333","6500500","新莊區"
"242054","172-VK","2019/06/18 20:18:54","新北市新莊區民安西路261巷14號","121.426751666667","25.01296","6500500","新莊區"
"242015","173-VK","2019/06/18 20:18:49","新北市新莊區中和街31巷22號","121.447171666667","25.0438616666667","6500500","新莊區"
"242021","175-VK","2019/06/18 20:19:02","新北市新莊區和興街45號","121.446633333333","25.0405933333333","6500500","新莊區"
"242019","KED-0687","2019/06/18 20:18:50","新北市新莊區博愛路7巷2號","121.45608","25.04391","6500500","新莊區"
"242051","346-TH","2019/06/18 20:19:07","新北市新莊區民安西路214號","121.425966666667","25.0148383333333","6500500","新莊區"
"242042","347-TH","2019/06/18 20:19:07","新北市新莊區壽山路73號","121.409488333333","25.03274","6500500","新莊區"
"242034","348-TH","2019/06/18 20:18:56","新北市新莊區仁愛街54巷12號","121.445066666667","25.03707","6500500","新莊區"
"242032","350-TH","2019/06/18 20:19:06","新北市新莊區義豐街35-1號","121.441136666667","25.0353983333333","6500500","新莊區"
"242017","351-TH","2019/06/18 20:19:03","新北市新莊區中港一街91號","121.449401666667","25.0452383333333","6500500","新莊區"
"221008","489-VK","2019/06/18 20:19:04","新北市汐止區忠三街9巷32號","121.624528333333","25.0802166666667","6501100","汐止區"
"221036","130-UY","2019/06/18 20:18:58","新北市汐止區福安街59巷2號","121.664135","25.0636133333333","6501100","汐止區"
"221015","131-UY","2019/06/18 20:19:02","新北市汐止區建成路160巷16號","121.661913333333","25.0740333333333","6501100","汐止區"
"221010","269-BY","2019/06/18 20:18:53","新北市汐止區八連路一段203號","121.641098333333","25.0809033333333","6501100","汐止區"
"221012","278-VK","2019/06/18 20:19:04","新北市汐止區汐平路一段39號","121.68184","25.070675","6501100","汐止區"
"221023","279-VK","2019/06/18 20:19:06","新北市汐止區明峰街298巷10弄2號","121.625026666667","25.0686483333333","6501100","汐止區"
"221027","281-BY","2019/06/18 20:18:58","新北市汐止區大同路二段435號","121.659185","25.06739","6501100","汐止區"
"221029","298-VK","2019/06/18 20:18:59","新北市汐止區樟樹一路123巷17號","121.64132","25.064565","6501100","汐止區"
"221021","299-VK","2019/06/18 20:18:50","新北市汐止區水源路一段284號","121.65425","25.05832","6501100","汐止區"
"221031","353-TW","2019/06/18 20:19:01","新北市汐止區福德二路104號","121.632255","25.0660966666667","6501100","汐止區"
"221035","622-UM","2019/06/18 20:19:02","新北市汐止區長江街57巷22號","121.655968333333","25.0723816666667","6501100","汐止區"
"221038","646-BX","2019/06/18 20:18:48","新北市汐止區忠孝東路456號","121.666186666667","25.072895","6501100","汐止區"
"221033","647-BX","2019/06/18 20:19:03","新北市汐止區東勢街201巷37號","121.634805","25.0432783333333","6501100","汐止區"
"221002","707-TV","2019/06/18 20:19:09","新北市汐止區福德三路26號","121.636896666667","25.06947","6501100","汐止區"
"221018","753-BX","2019/06/18 20:19:02","新北市汐止區茄安路25號","121.673103333333","25.0679666666667","6501100","汐止區"
"220080","200-UY","2019/06/18 20:19:07","新北市板橋區大觀路二段187巷1號","121.444988333333","24.9997516666667","6500100","板橋區"
"220083","286-VK","2019/06/18 20:19:00","新北市板橋區僑中二街92巷1號","121.446123333333","25.0089116666667","6500100","板橋區"
"220081","287-VK","2019/06/18 20:18:56","新北市板橋區僑中一街124巷18弄45號","121.448001666667","25.013675","6500100","板橋區"
"242007","281-VK","2019/06/18 20:19:11","新北市新莊區福壽街124巷37號","121.459251666667","25.05136","6500500","新莊區"
"242009","280-VK","2019/06/18 20:19:11","新北市新莊區昌平街9號","121.45494","25.051675","6500500","新莊區"
"220103","561-BX","2019/06/18 20:18:49","新北市板橋區漢生東路83巷27號","121.46747","25.0168566666667","6500100","板橋區"
"220055","827-TW","2019/06/18 20:18:52","新北市板橋區忠孝路48巷11弄16號","121.462063333333","24.9998333333333","6500100","板橋區"
"220074","895-R6","2019/06/18 20:19:05","新北市板橋區南雅南路一段7巷20號","121.456213333333","25.0049933333333","6500100","板橋區"
"235068","KEA-2873","2019/06/18 20:18:39","新北市中和區莊敬路33巷9號","121.500111666667","25.0066866666667","6500300","中和區"
