"lineid","car","time","location","longitude","latitude","cityid","cityname"
"234074","AAC-211","2019/06/18 20:48:49","新北市永和區環河東路二段10號","121.522155","25.0133516666667","6500400","永和區"
"244019","402-UM","2019/06/18 20:49:09","新北市林口區粉寮69號","121.404896666667","25.09077","6501700","林口區"
"222003","436-BY","2019/06/18 20:49:06","新北市深坑區文山路三段48-1號","121.609946666667","24.998515","6501800","深坑區"
"222002","659-BX","2019/06/18 20:49:08","新北市深坑區北深路三段93巷73號","121.603228333333","25.0011833333333","6501800","深坑區"
"231060","001-UM","2019/06/18 20:49:02","新北市新店區安康路三段738號","121.473835","24.9420883333333","6500600","新店區"
"231061","002-UM","2019/06/18 20:49:09","新北市新店區新和街93巷6弄2號","121.521086666667","24.9866633333333","6500600","新店區"
"231058","0293-UT","2019/06/18 20:48:56","新北市新店區三民路60巷11號","121.535505","24.9727266666667","6500600","新店區"
"231059","046-UY","2019/06/18 20:48:55","新北市新店區僑愛六路2號","121.50037","24.944","6500600","新店區"
"231051","107-UY","2019/06/18 20:49:00","新北市新店區溪園路365-8號","121.523205","24.9805666666667","6500600","新店區"
"231049","108-UY","2019/06/18 20:48:50","新北市新店區永業路81巷11弄11號","121.53157","24.9506466666667","6500600","新店區"
"231065","110-UY","2019/06/18 20:49:05","新北市新店區安祥路104巷59號","121.483141666667","24.9638366666667","6500600","新店區"
"231068","187-VK","2019/06/18 20:49:04","新北市新店區寶元路一段84巷1號","121.5445","24.98371","6500600","新店區"
"231062","256-BX","2019/06/18 20:48:58","新北市新店區和成街17巷2號","121.487653333333","24.9465533333333","6500600","新店區"
"231054","260-TV","2019/06/18 20:48:57","新北市新店區北新路一段126巷26號","121.543588333333","24.9690783333333","6500600","新店區"
"231042","268-BY","2019/06/18 20:49:02","新北市新店區寶高路120巷1號","121.554596666667","24.976085","6500600","新店區"
"231064","278-BY","2019/06/18 20:48:59","新北市新店區安民街365巷8號","121.51619","24.97571","6500600","新店區"
"231050","AAD-862","2019/06/18 20:49:01","新北市新店區三民路103號","121.535211666667","24.9720233333333","6500600","新店區"
"231045","355-BY","2019/06/18 20:48:56","新北市新店區中興路一段222號","121.544306666667","24.96571","6500600","新店區"
"231067","4772-VM","2019/06/18 20:48:50","新北市新店區安德街55號","121.510835","24.9620833333333","6500600","新店區"
"231053","513-UM","2019/06/18 20:49:00","新北市新店區新烏路二段300號","121.548601666667","24.9129866666667","6500600","新店區"
"231040","617-UM","2019/06/18 20:49:09","新北市新店區中正路268號","121.539026666667","24.9735733333333","6500600","新店區"
"231041","618-UM","2019/06/18 20:48:55","新北市新店區中正路707號","121.53377","24.9911016666667","6500600","新店區"
"231063","641-BX","2019/06/18 20:48:53","新北市新店區如意街8號","121.494845","24.948205","6500600","新店區"
"231048","KED-0819","2019/06/18 20:49:07","新北市新店區文化路88號","121.544973333333","24.98244","6500600","新店區"
"231057","720-UM","2019/06/18 20:48:51","新北市新店區新烏路一段73-1號","121.546485","24.9421983333333","6500600","新店區"
"231044","897-TW","2019/06/18 20:49:04","新北市新店區自由街2-1號","121.535711666667","24.97556","6500600","新店區"
"231043","899-TW","2019/06/18 20:49:09","新北市新店區建國路95號","121.540493333333","24.9767916666667","6500600","新店區"
"241011","013-R5","2019/06/18 20:49:09","新北市三重區秀江街121號","121.499448333333","25.0720783333333","6500200","三重區"
"241028","022-UY","2019/06/18 20:48:49","新北市三重區中正南路50號","121.493958333333","25.0598883333333","6500200","三重區"
"241008","059-VK","2019/06/18 20:49:05","新北市三重區永福街72巷11號","121.479398333333","25.076755","6500200","三重區"
"241022","060-VK","2019/06/18 20:48:59","新北市三重區中正北路20巷12號","121.487986666667","25.0624416666667","6500200","三重區"
"241031","061-VK","2019/06/18 20:48:59","新北市三重區重陽路一段113巷2弄2號","121.487498333333","25.0599033333333","6500200","三重區"
"241015","062-VK","2019/06/18 20:49:03","新北市三重區自強路一段4號","121.498941666667","25.06849","6500200","三重區"
"241017","063-VK","2019/06/18 20:49:03","新北市三重區自強路一段266號","121.492425","25.06748","6500200","三重區"
"241024","065-VK","2019/06/18 20:48:52","新北市三重區中正北路189號","121.477296666667","25.06956","6500200","三重區"
"241001","066-VK","2019/06/18 20:48:51","新北市三重區三和路四段124號","121.489233333333","25.0751866666667","6500200","三重區"
"241002","090-VK","2019/06/18 20:49:10","新北市三重區仁義街157巷16號","121.497551666667","25.0812916666667","6500200","三重區"
"241003","091-VK","2019/06/18 20:49:01","新北市三重區集賢路87-1號","121.49361","25.0868116666667","6500200","三重區"
"241005","262-UM","2019/06/18 20:49:06","新北市三重區五華街141巷31號","121.492313333333","25.0855816666667","6500200","三重區"
"241016","266-UM","2019/06/18 20:48:50","新北市三重區長壽西街143-3號","121.494293333333","25.0666216666667","6500200","三重區"
"241009","267-UM","2019/06/18 20:49:10","新北市三重區三和路四段388-2號","121.482055","25.0791433333333","6500200","三重區"
"241018","268-UM","2019/06/18 20:48:59","新北市三重區正義北路275-1號","121.49515","25.0701466666667","6500200","三重區"
"241032","269-UM","2019/06/18 20:48:53","新北市三重區興華街73號","121.484935","25.0602","6500200","三重區"
"241013","270-UM","2019/06/18 20:48:55","新北市三重區仁愛街131號","121.495563333333","25.0748933333333","6500200","三重區"
"241025","271-UM","2019/06/18 20:49:00","新北市三重區貴陽街21號","121.484376666667","25.06194","6500200","三重區"
"241007","398-BY","2019/06/18 20:49:02","新北市三重區慈愛街10號","121.484533333333","25.0784066666667","6500200","三重區"
"241035","KEA-2210","2019/06/18 20:49:02","新北市三重區三和路三段44-1號","121.495833333333","25.0709766666667","6500200","三重區"
"241004","475-VK","2019/06/18 20:49:06","新北市三重區分子尾街21號","121.489496666667","25.081045","6500200","三重區"
"241020","478-VK","2019/06/18 20:48:50","新北市三重區忠孝路一段101號","121.48944","25.072205","6500200","三重區"
"241026","480-VK","2019/06/18 20:48:59","新北市三重區和平街1號","121.500063333333","25.062235","6500200","三重區"
"241014","543-UM","2019/06/18 20:48:54","新北市三重區萬全街65號","121.501303333333","25.0702433333333","6500200","三重區"
"241006","AAD-863","2019/06/18 20:48:53","新北市三重區車路頭街139巷14號","121.484285","25.0762866666667","6500200","三重區"
"241019","743-BX","2019/06/18 20:49:06","新北市三重區三張街43號","121.491393333333","25.07111","6500200","三重區"
"241012","941-UM","2019/06/18 20:48:51","新北市三重區仁信街29號","121.501246666667","25.0755566666667","6500200","三重區"
"241029","942-UM","2019/06/18 20:49:07","新北市三重區重安街34號","121.490718333333","25.0577366666667","6500200","三重區"
"241033","AAC-255","2019/06/18 20:48:52","新北市三重區光復路二段2號","121.472165","25.0532266666667","6500200","三重區"
"235019","183-VK","2019/06/18 20:49:09","新北市五股區中直路17-4號","121.42233","25.1113216666667","6500300","中和區"
"235067","255-BX","2019/06/18 20:49:07","新北市三重區重光街105-2號","121.467203333333","25.0646983333333","6500300","中和區"
"247014","KEA-2869","2019/06/18 20:49:09","新北市蘆洲區復興路50號","121.472795","25.08547","6501400","蘆洲區"
"247008","KED-0682","2019/06/18 20:48:50","新北市蘆洲區永安北路二段10號","121.480943333333","25.0804783333333","6501400","蘆洲區"
"235069","4980-A6","2019/06/18 20:48:53","新北市中和區員山路381巷1弄18號","121.480916666667","25.0022733333333","6500300","中和區"
"247004","893-R6","2019/06/18 20:48:52","新北市蘆洲區長安街100號","121.461686666667","25.0808316666667","6501400","蘆洲區"
"247018","546-UM","2019/06/18 20:49:08","新北市蘆洲區民權路70號","121.474973333333","25.0873316666667","6501400","蘆洲區"
"247002","500-BY","2019/06/18 20:49:07","新北市蘆洲區永康街116號","121.458075","25.08533","6501400","蘆洲區"
"247024","337-TH","2019/06/18 20:49:04","新北市蘆洲區長樂路140號","121.462153333333","25.0901783333333","6501400","蘆洲區"
"247022","057-VK","2019/06/18 20:48:59","新北市蘆洲區水湳街52號","121.47119","25.0898833333333","6501400","蘆洲區"
"247012","056-VK","2019/06/18 20:49:05","新北市蘆洲區集賢路204號","121.483461666667","25.087395","6501400","蘆洲區"
"247016","053-VK","2019/06/18 20:49:10","新北市蘆洲區中正路69號","121.470333333333","25.0826883333333","6501400","蘆洲區"
"247006","002-UY","2019/06/18 20:49:04","新北市蘆洲區永安南路二段14號","121.467595","25.0768216666667","6501400","蘆洲區"
"222001","KEA-2212","2019/06/18 20:48:52","新北市深坑區北深路三段137號","121.603828333333","25.0025233333333","6501800","深坑區"
"251002","012-UM","2019/06/18 20:48:53","新北市淡水區鼻頭街18-1號","121.446846666667","25.1666883333333","6501000","淡水區"
"251015","KEA-2871","2019/06/18 20:49:05","新北市淡水區淡金路三段446號","121.45083","25.2144183333333","6501000","淡水區"
"251016","179-VK","2019/06/18 20:49:09","新北市淡水區興仁路160號","121.45147","25.2203266666667","6501000","淡水區"
"251013","182-VK","2019/06/18 20:48:49","新北市淡水區行忠路98號","121.452181666667","25.1987233333333","6501000","淡水區"
"251010","413-VK","2019/06/18 20:48:56","新北市淡水區沙崙路141-1號","121.423311666667","25.183055","6501000","淡水區"
"251012","441-VK","2019/06/18 20:48:49","新北市淡水區淡金路四段478號","121.452006666667","25.2242933333333","6501000","淡水區"
"251007","442-VK","2019/06/18 20:48:51","新北市淡水區鄧公路29巷23號","121.452303333333","25.170225","6501000","淡水區"
"251001","559-UM","2019/06/18 20:49:06","新北市淡水區淡金路57號","121.456161666667","25.1613616666667","6501000","淡水區"
"251014","577-R6","2019/06/18 20:44:12","新北市淡水區公埔子32-8號","121.461716666667","25.2323633333333","6501000","淡水區"
"251011","650-BX","2019/06/18 20:48:50","新北市淡水區新民街一段23號","121.432768333333","25.1854233333333","6501000","淡水區"
"251003","673-BX","2019/06/18 20:48:59","新北市淡水區中山北路一段207巷74號","121.441405","25.179525","6501000","淡水區"
"247010","KED-0683","2019/06/18 20:48:52","新北市蘆洲區鷺江街76號","121.476938333333","25.08381","6501400","蘆洲區"
"242039","AAC-296","2019/06/18 20:49:10","新北市新莊區中環路一段30號","121.442563333333","25.0271116666667","6500500","新莊區"
"242061","986-R7","2019/06/18 20:49:09","新北市新莊區新莊路666號","121.44176","25.0329083333333","6500500","新莊區"
"242002","751-BX","2019/06/18 20:49:08","新北市新莊區中港路五守新村1巷3號","121.455313333333","25.03838","6500500","新莊區"
"242058","612-BX","2019/06/18 20:49:06","新北市新莊區後港一路201號","121.434376666667","25.0282816666667","6500500","新莊區"
"242046","566-BX","2019/06/18 20:48:48","新北市新莊區中正路723-5號","121.423258333333","25.029085","6500500","新莊區"
"242044","442-UM","2019/06/18 20:49:02","新北市新莊區龍安路108號","121.418511666667","25.0205816666667","6500500","新莊區"
"242056","441-UM","2019/06/18 20:48:54","新北市新莊區中正路457巷15號","121.442338333333","25.0333433333333","6500500","新莊區"
"242005","440-UM","2019/06/18 20:48:49","新北市三重區新北大道二段41號","121.470253333333","25.06129","6500500","新莊區"
"242011","413-TV","2019/06/18 20:49:00","新北市泰山區新五路一段131-2號","121.439696666667","25.0633733333333","6500500","新莊區"
"242025","362-BY","2019/06/18 20:49:01","新北市八里區商港路88號","121.395223333333","25.1465783333333","6500500","新莊區"
"242023","353-BY","2019/06/18 20:48:51","新北市新莊區復興路三段46號","121.461571666667","25.0444266666667","6500500","新莊區"
"242013","132-UY","2019/06/18 20:49:11","新北市新莊區中和街202號","121.447695","25.0503966666667","6500500","新莊區"
"242037","135-UY","2019/06/18 20:49:07","新北市新莊區中正路481號","121.441341666667","25.03374","6500500","新莊區"
"242021","175-VK","2019/06/18 20:48:53","新北市新莊區中環路三段2-1號","121.442408333333","25.055285","6500500","新莊區"
"242051","346-TH","2019/06/18 20:49:07","新北市新莊區民安東路44號","121.429113333333","25.0207516666667","6500500","新莊區"
"242034","348-TH","2019/06/18 20:48:56","新北市新莊區中正路246號","121.448068333333","25.0352833333333","6500500","新莊區"
"242017","351-TH","2019/06/18 20:48:53","新北市新莊區中平路439號","121.442646666667","25.056575","6500500","新莊區"
"221036","130-UY","2019/06/18 20:48:58","新北市汐止區新昌路79號","121.663886666667","25.06923","6501100","汐止區"
"221015","131-UY","2019/06/18 20:49:02","新北市汐止區大同路二段605號","121.66406","25.0707083333333","6501100","汐止區"
"221012","278-VK","2019/06/18 20:49:04","新北市汐止區保新街27號","121.684406666667","25.0729466666667","6501100","汐止區"
"221023","279-VK","2019/06/18 20:49:06","新北市汐止區民族二街30巷9號","121.63461","25.0717716666667","6501100","汐止區"
"221027","281-BY","2019/06/18 20:48:58","新北市汐止區大同路二段375號","121.657405","25.0672816666667","6501100","汐止區"
"221021","299-VK","2019/06/18 20:48:50","新北市汐止區莊敬街126號","121.655061666667","25.0611233333333","6501100","汐止區"
"221035","622-UM","2019/06/18 20:49:02","新北市汐止區長江街101-5號","121.658713333333","25.073175","6501100","汐止區"
"221038","646-BX","2019/06/18 20:49:08","新北市汐止區汐萬路一段158號","121.652713333333","25.0713666666667","6501100","汐止區"
"221033","647-BX","2019/06/18 20:49:03","新北市汐止區合順街18巷8弄5號","121.620343333333","25.041945","6501100","汐止區"
"221018","753-BX","2019/06/18 20:49:02","新北市汐止區中華街88巷3號","121.668533333333","25.0706166666667","6501100","汐止區"
"242007","281-VK","2019/06/18 20:48:56","新北市新莊區思源路55號","121.459955","25.04021","6500500","新莊區"
"242009","280-VK","2019/06/18 20:49:07","新北市新莊區思源路107號","121.459833333333","25.0418683333333","6500500","新莊區"
"220055","827-TW","2019/06/18 20:48:52","新北市樹林區中山路三段210-2號","121.381238333333","24.9657983333333","6500100","板橋區"
