"lineid","car","time","location","longitude","latitude","cityid","cityname"
"251004","009-UM","2019/06/18 21:58:50","新北市淡水區民族路31-13號","121.461383333333","25.136425","6501000","淡水區"
"251005","010-UM","2019/06/18 21:59:03","新北市淡水區鄧公路30巷1弄67號","121.45443","25.1695516666667","6501000","淡水區"
"251008","181-VK","2019/06/18 21:59:09","新北市淡水區學府路104號","121.449813333333","25.1717266666667","6501000","淡水區"
"251010","413-VK","2019/06/18 21:58:56","新北市淡水區中正路二段211號","121.426186666667","25.1890933333333","6501000","淡水區"
"251007","442-VK","2019/06/18 21:59:01","新北市淡水區北新路184巷19號","121.450278333333","25.178055","6501000","淡水區"
"251006","561-UM","2019/06/18 21:41:28","新北市淡水區中正路11巷3號","121.437791666667","25.1707816666667","6501000","淡水區"
"251011","650-BX","2019/06/18 21:59:10","新北市淡水區中山北路一段171號","121.443598333333","25.17774","6501000","淡水區"
"251003","673-BX","2019/06/18 21:58:49","新北市淡水區新春街81號","121.43874","25.1823716666667","6501000","淡水區"
