"lineid","car","time","location","longitude","latitude","cityid","cityname"
"222005","016-RS","2019/06/21 09:29:35","新北市深坑區土庫尖路27-1號","121.636323333333","25.01688","6501800","深坑區"
"231009","512-UM","2019/06/21 09:29:23","新北市新店區廣興路167號","121.537103333333","24.908265","6500600","新店區"
"223003","205-TH","2019/06/21 09:29:38","新北市石碇區北宜路四段30號","121.62377","24.9566183333333","6501900","石碇區"
"223008","406-TH","2019/06/21 09:05:16","新北市石碇區光明路32號","121.695121666667","25.02261","6501900","石碇區"
"223001","592-UM","2019/06/21 09:29:37","新北市石碇區北宜路四段30號","121.623695","24.956725","6501900","石碇區"
"223004","660-BX","2019/06/21 09:29:29","新北市石碇區碇坪路二段41號","121.686046666667","24.9753966666667","6501900","石碇區"
"223007","661-BX","2019/06/21 09:29:28","新北市石碇區光明路28號","121.695298333333","25.0237683333333","6501900","石碇區"
"223005","677-TV","2019/06/21 09:29:34","新北市石碇區大崙2號","121.687098333333","24.9768133333333","6501900","石碇區"
"227003","282-VK","2019/06/21 09:29:33","新北市雙溪區泰平里料角坑25號","121.814575","24.9722283333333","6502500","雙溪區"
