"lineid","car","time","location","longitude","latitude","cityid","cityname"
"234044","148-BY","2019/06/21 13:29:08","新北市永和區秀朗路二段181巷6號","121.526468333333","25.0012766666667","6500400","永和區"
"234036","336-UY","2019/06/21 13:28:55","新北市永和區民樂街32號","121.527553333333","25.0009916666667","6500400","永和區"
"234062","337-UY","2019/06/21 13:29:00","新北市永和區得和路243巷21號","121.520511666667","25.00089","6500400","永和區"
"234084","338-UY","2019/06/21 13:28:53","新北市永和區永亨路165巷1-4號","121.5262","25.0042116666667","6500400","永和區"
"234068","552-UM","2019/06/21 13:28:56","新北市永和區竹林路198號","121.520226666667","25.0096016666667","6500400","永和區"
"234015","745-BX","2019/06/21 13:28:58","新北市永和區環河西路一段51巷1號","121.514195","25.01812","6500400","永和區"
"234028","746-BX","2019/06/21 13:29:08","新北市永和區民生路61號","121.522703333333","24.9974116666667","6500400","永和區"
"234052","KEA-2590","2019/06/21 13:28:58","新北市永和區復興街17號","121.516036666667","25.0130383333333","6500400","永和區"
"234005","KED-0605","2019/06/21 13:29:06","新北市永和區中山路一段72號","121.512468333333","25.010705","6500400","永和區"
"234012","KEA-2591","2019/06/21 13:29:00","新北市永和區中山路一段184巷9弄19號","121.508275","25.0090416666667","6500400","永和區"
"234060","AAD-866","2019/06/21 13:29:08","新北市永和區中正路548-1號","121.517215","25.00533","6500400","永和區"
"234078","748-BX","2019/06/21 13:29:02","新北市永和區福和路5-1號","121.524985","25.0086433333333","6500400","永和區"
"234040","862-TW","2019/06/21 13:28:52","新北市永和區中和路545號","121.511566666667","25.0032766666667","6500400","永和區"
"234048","863-TW","2019/06/21 13:29:05","新北市永和區保福路二段163巷2號","121.509315","25.0148283333333","6500400","永和區"
"234025","9371-KE","2019/06/21 13:29:07","新北市永和區中山路一段17巷4弄14號","121.513203333333","25.010185","6500400","永和區"
"234010","9373-KE","2019/06/21 13:29:07","新北市永和區仁愛路141巷30弄5號","121.512005","25.0115283333333","6500400","永和區"
"248019","KED-0813","2019/06/21 13:29:00","新北市五股區孝義路55巷3-2號","121.451321666667","25.1119533333333","6501500","五股區"
"234022","9380-KE","2019/06/21 13:29:07","新北市永和區竹林路91巷51弄2號","121.521705","25.0133033333333","6500400","永和區"
"234076","969-R7","2019/06/21 13:29:05","新北市永和區中正路286巷7號","121.517713333333","24.9986633333333","6500400","永和區"
"234072","AAC-211","2019/06/21 13:29:07","新北市永和區光復街8號","121.516458333333","25.01693","6500400","永和區"
"234066","AAC-212","2019/06/21 13:29:01","新北市永和區保平路176號","121.510783333333","25.00676","6500400","永和區"
"234001","AAC-295","2019/06/21 13:29:01","新北市永和區永和路一段122號","121.51382","25.0076783333333","6500400","永和區"
"244004","248-BX","2019/06/21 13:28:39","新北市林口區頂福27號","121.351733333333","25.0848983333333","6501700","林口區"
"231029","001-UM","2019/06/21 13:28:57","新北市新店區安華路1-1號","121.519556666667","24.9601866666667","6500600","新店區"
"231030","002-UM","2019/06/21 13:28:54","新北市新店區安華路28-1號","121.519693333333","24.9608366666667","6500600","新店區"
"231028","046-UY","2019/06/21 13:29:00","新北市新店區安華路28-1號","121.519578333333","24.9608466666667","6500600","新店區"
"231002","047-UY","2019/06/21 13:29:01","新北市新店區安康路一段52巷2號","121.530063333333","24.9611633333333","6500600","新店區"
"231018","107-UY","2019/06/21 13:28:55","新北市新店區環河路120號","121.536663333333","24.9681716666667","6500600","新店區"
"231013","108-UY","2019/06/21 13:28:54","新北市新店區環河路80巷1號","121.536981666667","24.963415","6500600","新店區"
"231036","110-UY","2019/06/21 13:29:09","新北市新店區建業路20號","121.481528333333","24.9540216666667","6500600","新店區"
"231032","256-BX","2019/06/21 13:29:02","新北市新店區安豐路60-1號","121.497985","24.9536933333333","6500600","新店區"
"231023","260-TV","2019/06/21 13:29:07","新北市新店區北宜路一段121號","121.540331666667","24.9539133333333","6500600","新店區"
"231003","268-BY","2019/06/21 13:28:50","新北市新店區中興路一段282號","121.54583","24.9684283333333","6500600","新店區"
"231035","278-BY","2019/06/21 13:28:55","新北市新店區安一路一段1-1號","121.519528333333","24.9611233333333","6500600","新店區"
"231016","AAD-862","2019/06/21 13:29:07","新北市新店區北宜路一段152-2號","121.540231666667","24.9537633333333","6500600","新店區"
"231006","355-BY","2019/06/21 13:29:04","新北市新店區安華路28-1號","121.519201666667","24.9609316666667","6500600","新店區"
"231038","3712-VJ","2019/06/21 13:29:04","新北市新店區安華路28-1號","121.519338333333","24.960595","6500600","新店區"
"231027","3713-VJ","2019/06/21 13:28:56","新北市新店區環河路19巷15號","121.537573333333","24.9601233333333","6500600","新店區"
"231024","4716-K9","2019/06/21 13:28:58","新北市新店區北新路一段309號","121.541548333333","24.9677883333333","6500600","新店區"
"231025","4715-K9","2019/06/21 13:28:57","新北市新店區中央五街37號","121.528535","24.9750233333333","6500600","新店區"
"231022","513-UM","2019/06/21 13:28:53","新北市新店區新烏路一段130號","121.544608333333","24.9344016666667","6500600","新店區"
"231001","617-UM","2019/06/21 13:28:57","新北市新店區安康路一段110巷2號","121.527238333333","24.9625516666667","6500600","新店區"
"231034","641-BX","2019/06/21 13:29:02","新北市新店區安華路1-1號","121.519535","24.9604466666667","6500600","新店區"
"231012","KED-0819","2019/06/21 13:28:54","新北市新店區北新路一段91號","121.538786666667","24.9617816666667","6500600","新店區"
"231010","719-UM","2019/06/21 13:29:04","新北市新店區中央路19號","121.533251666667","24.9781916666667","6500600","新店區"
"231026","720-UM","2019/06/21 13:28:58","新北市新店區安一路一段1-1號","121.519278333333","24.9612366666667","6500600","新店區"
"231005","897-TW","2019/06/21 13:29:02","新北市新店區北新路一段91號","121.538818333333","24.9617866666667","6500600","新店區"
"231004","899-TW","2019/06/21 13:28:56","新北市新店區安華路28-1號","121.518945","24.9608416666667","6500600","新店區"
"231037","AKT-0513","2019/06/21 13:29:00","新北市新店區安豐路49號","121.50013","24.9540583333333","6500600","新店區"
"235030","003-UY","2019/06/21 13:29:04","新北市中和區中山路二段120號","121.502731666667","25.0036933333333","6500300","中和區"
"235027","006-UY","2019/06/21 13:28:57","新北市中和區連城路347巷4弄1-3號","121.4883","24.99548","6500300","中和區"
"235020","096-UM","2019/06/21 13:29:02","新北市中和區新民街98號","121.480985","25.0083783333333","6500300","中和區"
"235003","097-UM","2019/06/21 13:29:08","新北市中和區景平路166號","121.517173333333","24.9922433333333","6500300","中和區"
"235029","098-UM","2019/06/21 13:28:52","新北市中和區莊敬路49巷15弄12號","121.500798333333","25.0058483333333","6500300","中和區"
"235004","150-BY","2019/06/21 13:29:00","新北市中和區安平路59號","121.5095","24.99513","6500300","中和區"
"235022","151-BY","2019/06/21 13:29:06","新北市中和區圓通路369巷39號","121.48978","24.9860316666667","6500300","中和區"
"235019","183-VK","2019/06/21 13:29:06","新北市中和區國光街102巷33號","121.471546666667","25.0007283333333","6500300","中和區"
"235002","185-VK","2019/06/21 13:29:01","新北市中和區立人街29號","121.521143333333","24.994265","6500300","中和區"
"235013","186-VK","2019/06/21 13:29:03","新北市中和區景安路142號","121.504955","24.9940866666667","6500300","中和區"
"235031","255-BX","2019/06/21 13:29:03","新北市中和區新生街220巷15弄9號","121.482926666667","24.9979983333333","6500300","中和區"
"235008","293-VK","2019/06/21 13:29:00","新北市中和區中興街204號","121.500066666667","24.990095","6500300","中和區"
"235036","301-VK","2019/06/21 13:29:01","新北市中和區連城路243號","121.493665","24.9971983333333","6500300","中和區"
"235007","352-BY","2019/06/21 13:28:51","新北市中和區景平路259巷28號","121.507238333333","24.9928033333333","6500300","中和區"
"235006","KEA-2878","2019/06/21 13:28:57","新北市中和區自立路56巷21號","121.52243","24.99159","6500300","中和區"
"235014","4979-A6","2019/06/21 13:29:10","新北市中和區景新街372號","121.512066666667","24.99019","6500300","中和區"
"235033","4980-A6","2019/06/21 13:28:56","新北市中和區連城路127巷35號","121.497343333333","24.9972116666667","6500300","中和區"
"235005","551-UM","2019/06/21 13:28:40","新北市永和區中和路477號","121.510306666667","25.0018383333333","6500300","中和區"
"235034","558-UM","2019/06/21 13:29:07","新北市中和區南華路52號","121.50434","24.9968983333333","6500300","中和區"
"235009","565-BX","2019/06/21 13:29:12","新北市中和區南山路236巷11號","121.50579","24.9887733333333","6500300","中和區"
"235024","KED-0823","2019/06/21 13:28:52","新北市中和區中山路二段483號","121.482855","25.0049533333333","6500300","中和區"
"235011","732-UM","2019/06/21 13:28:52","新北市中和區南山路493號","121.507971666667","24.9878133333333","6500300","中和區"
"235035","783-BX","2019/06/21 13:29:03","新北市中和區環中路120號","121.482071666667","25.0122183333333","6500300","中和區"
"235026","800-TS","2019/06/21 13:28:58","新北市中和區景平路728號","121.496626666667","25.0037416666667","6500300","中和區"
"235021","801-TS","2019/06/21 13:28:53","新北市中和區民享街97巷11號","121.475316666667","24.9995416666667","6500300","中和區"
"235052","805-TS","2019/06/21 13:29:01","新北市中和區興南路二段96號","121.50521","24.984195","6500300","中和區"
"235012","896-TW","2019/06/21 13:28:50","新北市中和區員山路36巷16-8號","121.485473333333","24.992295","6500300","中和區"
"235017","900-TW","2019/06/21 13:28:58","新北市中和區連城路607號","121.47819","24.9931466666667","6500300","中和區"
"235028","911-UM","2019/06/21 13:29:10","新北市中和區連城路89巷1-1號","121.496866666667","24.999925","6500300","中和區"
"235015","157-BY","2019/06/21 13:29:09","新北市中和區興南路二段114巷10弄38號","121.50402","24.985035","6500300","中和區"
"235001","AAC-213","2019/06/21 13:29:05","新北市中和區景德街58號","121.517381666667","24.9914816666667","6500300","中和區"
"235023","AAC-215","2019/06/21 13:29:11","新北市中和區員山路36巷16-3號","121.48496","24.9914383333333","6500300","中和區"
"220013","072-UY","2019/06/21 13:28:49","新北市板橋區南雅南路二段19號","121.452706666667","24.9987566666667","6500100","板橋區"
"220017","AAD-861","2019/06/21 13:28:51","新北市板橋區華東街1-10號","121.448603333333","24.9950366666667","6500100","板橋區"
"247023","337-TH","2019/06/21 13:29:11","新北市五股區中興路三段2巷10號","121.449415","25.0807466666667","6501400","蘆洲區"
"247011","056-VK","2019/06/21 13:29:04","新北市五股區中興路三段2巷10號","121.448956666667","25.0811766666667","6501400","蘆洲區"
"235018","251-BX","2019/06/21 13:29:00","新北市中和區莒光路72號","121.472251666667","25.0030916666667","6500300","中和區"
"208001","AAC-292","2019/06/21 13:28:16","新北市萬里區龜吼里新墾丁路122號","121.67837","25.2002583333333","6502700","金山區"
"207002","749-BX","2019/06/21 13:29:04","新北市萬里區崁腳里崁腳路166號","121.64507","25.1558466666667","6502800","萬里區"
"207001","662-BX","2019/06/21 13:27:52","新北市萬里區龜吼里石角路43號","121.684348333333","25.1921983333333","6502800","萬里區"
"247009","KED-0683","2019/06/21 13:28:55","新北市五股區中興路三段2巷10號","121.44912","25.0810066666667","6501400","蘆洲區"
"221021","277-VK","2019/06/21 13:29:10","新北市汐止區國興街25號","121.622435","25.04633","6501100","汐止區"
"221029","298-VK","2019/06/21 13:28:54","新北市汐止區南陽街6-1號","121.624561666667","25.0662683333333","6501100","汐止區"
"220027","145-BY","2019/06/21 13:29:09","新北市板橋區華東街1-10號","121.448371666667","24.9950033333333","6500100","板橋區"
"220030","610-BX","2019/06/21 13:28:54","新北市板橋區華東街1-9號","121.448263333333","24.9949116666667","6500100","板橋區"
"220004","276-BY","2019/06/21 13:28:55","新北市板橋區華東街1-9號","121.44813","24.994935","6500100","板橋區"
"220043","285-UM","2019/06/21 13:28:53","新北市板橋區民生路二段161巷1號","121.469955","25.0199083333333","6500100","板橋區"
"220031","286-VK","2019/06/21 13:29:01","新北市板橋區華東街1-10號","121.448401666667","24.9950366666667","6500100","板橋區"
"220029","287-VK","2019/06/21 13:29:00","新北市板橋區華東街1-10號","121.44823","24.9950383333333","6500100","板橋區"
"220032","296-UM","2019/06/21 13:28:58","新北市板橋區華東街1-9號","121.448193333333","24.9949433333333","6500100","板橋區"
"220011","609-BX","2019/06/21 13:28:56","新北市板橋區民生路二段161巷1號","121.470006666667","25.0200283333333","6500100","板橋區"
"220104","630-UY","2019/06/21 13:29:03","新北市板橋區南雅南路二段1-1號","121.454703333333","25.0036333333333","6500100","板橋區"
"220005","686-BX","2019/06/21 13:28:53","新北市板橋區華東街1-9號","121.448225","24.99494","6500100","板橋區"
"220025","687-BX","2019/06/21 13:28:55","新北市板橋區板城路421號","121.448046666667","24.99628","6500100","板橋區"
"220003","827-TW","2019/06/21 13:29:05","新北市板橋區華東街1-9號","121.448196666667","24.9949166666667","6500100","板橋區"
"220022","895-R6","2019/06/21 13:29:08","新北市板橋區華東街1-10號","121.448616666667","24.9948583333333","6500100","板橋區"
"220021","985-R7","2019/06/21 13:28:53","新北市板橋區華東街1-10號","121.448556666667","24.9949433333333","6500100","板橋區"
"220046","AAC-210","2019/06/21 13:29:04","新北市板橋區民生路二段120號","121.470361666667","25.0196483333333","6500100","板橋區"
"235032","KEA-2873","2019/06/21 13:28:46","新北市中和區圓通路267號","121.495898333333","24.99322","6500300","中和區"
"235025","KEA-2875","2019/06/21 13:29:03","新北市中和區民享街90巷27號","121.473656666667","25","6500300","中和區"
