"lineid","car","time","location","longitude","latitude","cityid","cityname"
"234044","148-BY","2019/06/21 13:39:08","新北市永和區秀朗路二段66巷1號","121.522686666667","25.0015066666667","6500400","永和區"
"234036","336-UY","2019/06/21 13:39:06","新北市永和區民樂街31巷8弄1號","121.528078333333","25.0011316666667","6500400","永和區"
"234062","337-UY","2019/06/21 13:39:00","新北市永和區秀朗路二段24巷41號","121.520101666667","25.0018666666667","6500400","永和區"
"234084","338-UY","2019/06/21 13:38:53","新北市永和區永亨路70號","121.520986666667","25.0059933333333","6500400","永和區"
"234068","552-UM","2019/06/21 13:38:56","新北市永和區永和路二段235號","121.515588333333","25.0143066666667","6500400","永和區"
"234015","745-BX","2019/06/21 13:38:58","新北市永和區永和路二段405巷8號","121.51524","25.0174683333333","6500400","永和區"
"234028","746-BX","2019/06/21 13:39:01","新北市永和區民權路1巷18號","121.521283333333","24.9982433333333","6500400","永和區"
"234052","KEA-2590","2019/06/21 13:39:00","新北市永和區竹林路39巷22號","121.518883333333","25.0147433333333","6500400","永和區"
"234005","KED-0605","2019/06/21 13:38:52","新北市永和區永和路一段112-1號","121.513445","25.0073633333333","6500400","永和區"
"234012","KEA-2591","2019/06/21 13:38:59","新北市永和區永平路236號","121.50879","25.011025","6500400","永和區"
"234060","AAD-866","2019/06/21 13:39:08","新北市永和區中正路446號","121.517416666667","25.0028516666667","6500400","永和區"
"234078","748-BX","2019/06/21 13:38:52","新北市永和區林森路20巷7號","121.525865","25.00566","6500400","永和區"
"234040","862-TW","2019/06/21 13:38:52","新北市永和區中和路423號","121.509306666667","25.0007533333333","6500400","永和區"
"234048","863-TW","2019/06/21 13:39:05","新北市永和區環河西路一段109號","121.510998333333","25.0174283333333","6500400","永和區"
"234025","9371-KE","2019/06/21 13:38:47","新北市永和區和平街109巷5-1號","121.510646666667","25.009575","6500400","永和區"
"234010","9373-KE","2019/06/21 13:38:55","新北市永和區保福路二段9巷9號","121.51053","25.0108433333333","6500400","永和區"
"248019","KED-0813","2019/06/21 13:38:59","新北市五股區天乙路169號","121.446485","25.117505","6501500","五股區"
"234022","9380-KE","2019/06/21 13:39:12","新北市永和區中正路702巷18號","121.516483333333","25.0105316666667","6500400","永和區"
"234076","969-R7","2019/06/21 13:39:05","新北市永和區民權路3號","121.520183333333","24.998455","6500400","永和區"
"234072","AAC-211","2019/06/21 13:39:07","新北市永和區竹林路211號","121.520985","25.00886","6500400","永和區"
"234066","AAC-212","2019/06/21 13:39:01","新北市永和區永貞路406巷28號","121.509728333333","25.0079816666667","6500400","永和區"
"234001","AAC-295","2019/06/21 13:39:01","新北市永和區秀朗路一段6號","121.51379","25.0071516666667","6500400","永和區"
"244004","248-BX","2019/06/21 13:38:59","新北市林口區頂福里5-4號","121.360718333333","25.0829033333333","6501700","林口區"
"231029","001-UM","2019/06/21 13:38:57","新北市新店區車子路1-1號","121.504538333333","24.957905","6500600","新店區"
"231030","002-UM","2019/06/21 13:38:54","新北市新店區安康路一段355-10號","121.520403333333","24.963785","6500600","新店區"
"231028","046-UY","2019/06/21 13:39:00","新北市新店區安康路一段355號","121.519875","24.9637433333333","6500600","新店區"
"231002","047-UY","2019/06/21 13:39:01","新北市新店區中央三街127號","121.52407","24.9768516666667","6500600","新店區"
"231018","107-UY","2019/06/21 13:38:55","新北市新店區中央路7號","121.533468333333","24.9785966666667","6500600","新店區"
"231013","108-UY","2019/06/21 13:38:54","新北市新店區中正路454-5號","121.534463333333","24.979045","6500600","新店區"
"231036","110-UY","2019/06/21 13:38:49","新北市新店區安祥路152巷2號","121.473875","24.9536666666667","6500600","新店區"
"231032","256-BX","2019/06/21 13:39:02","新北市新店區車子路10-4號","121.504365","24.9543166666667","6500600","新店區"
"231023","260-TV","2019/06/21 13:39:07","新北市新店區新店路201號","121.537091666667","24.956345","6500600","新店區"
"231003","268-BY","2019/06/21 13:38:50","新北市新店區五峰路60號","121.545773333333","24.968255","6500600","新店區"
"231035","278-BY","2019/06/21 13:38:55","新北市新店區安忠路56巷6號","121.512955","24.959435","6500600","新店區"
"231016","AAD-862","2019/06/21 13:39:07","新北市新店區竹林路2巷15號","121.550451666667","24.95147","6500600","新店區"
"231006","355-BY","2019/06/21 13:39:04","新北市新店區光明街97號","121.538761666667","24.961195","6500600","新店區"
"231038","3712-VJ","2019/06/21 13:39:04","新北市新店區安華路28-1號","121.51932","24.9606216666667","6500600","新店區"
"231027","3713-VJ","2019/06/21 13:38:56","新北市新店區國校路76-1號","121.5385","24.9530716666667","6500600","新店區"
"231024","4716-K9","2019/06/21 13:38:57","新北市新店區中正路154巷6號","121.54183","24.972015","6500600","新店區"
"231025","4715-K9","2019/06/21 13:38:57","新北市新店區中央五街38號","121.528508333333","24.974955","6500600","新店區"
"231022","513-UM","2019/06/21 13:38:53","新北市新店區永興路88-1號","121.544031666667","24.9336966666667","6500600","新店區"
"231001","617-UM","2019/06/21 13:38:57","新北市新店區中央路81號","121.532325","24.9766216666667","6500600","新店區"
"231034","641-BX","2019/06/21 13:39:02","新北市新店區車子路109號","121.505278333333","24.9521116666667","6500600","新店區"
"231012","KED-0819","2019/06/21 13:38:54","新北市新店區德正街23巷3號","121.544233333333","24.9719816666667","6500600","新店區"
"231010","719-UM","2019/06/21 13:39:04","新北市新店區中正路307巷16號","121.536348333333","24.9743716666667","6500600","新店區"
"231026","720-UM","2019/06/21 13:38:58","新北市新店區北宜路一段121-1號","121.540318333333","24.953815","6500600","新店區"
"231005","897-TW","2019/06/21 13:39:02","新北市新店區寶中路72號","121.547851666667","24.980615","6500600","新店區"
"231004","899-TW","2019/06/21 13:38:56","新北市新店區北新路一段319號","121.54161","24.968065","6500600","新店區"
"231037","AKT-0513","2019/06/21 13:39:00","新北市新店區薏仁坑路6號","121.500245","24.9580116666667","6500600","新店區"
"235030","003-UY","2019/06/21 13:39:04","新北市中和區水源路34巷2號","121.504686666667","25.0035333333333","6500300","中和區"
"235027","006-UY","2019/06/21 13:39:10","新北市中和區連城路403巷2弄2號","121.486131666667","24.9959183333333","6500300","中和區"
"235020","096-UM","2019/06/21 13:39:00","新北市中和區員山路466巷17弄31號","121.480471666667","25.007455","6500300","中和區"
"235003","097-UM","2019/06/21 13:39:01","新北市中和區大勇街25巷15弄21-3號","121.515008333333","24.9934483333333","6500300","中和區"
"235029","098-UM","2019/06/21 13:38:53","新北市中和區中山路二段2巷45弄2號","121.502186666667","25.0071516666667","6500300","中和區"
"235004","150-BY","2019/06/21 13:39:00","新北市中和區安平路59號","121.50954","24.99522","6500300","中和區"
"235022","151-BY","2019/06/21 13:39:06","新北市中和區連城路428巷7-3號","121.479953333333","24.995375","6500300","中和區"
"235019","183-VK","2019/06/21 13:39:06","新北市中和區德光路77巷6弄2號","121.469775","25.003435","6500300","中和區"
"235002","185-VK","2019/06/21 13:39:01","新北市永和區民有街65號","121.517796666667","24.9957466666667","6500300","中和區"
"235013","186-VK","2019/06/21 13:39:03","新北市中和區明義街11巷10弄1號","121.503783333333","24.9947433333333","6500300","中和區"
"235031","255-BX","2019/06/21 13:39:03","新北市中和區新生街242巷1弄1號","121.483341666667","24.9978083333333","6500300","中和區"
"235008","293-VK","2019/06/21 13:39:00","新北市中和區復興路276號","121.502831666667","24.9904216666667","6500300","中和區"
"235036","301-VK","2019/06/21 13:39:01","新北市中和區景平路595-1號","121.496986666667","25.0004966666667","6500300","中和區"
"235007","352-BY","2019/06/21 13:39:11","新北市中和區景平路87號","121.517726666667","24.9915166666667","6500300","中和區"
"235006","KEA-2878","2019/06/21 13:38:57","新北市中和區成功路97巷5弄23號","121.5265","24.992525","6500300","中和區"
"247013","KEA-2869","2019/06/21 13:39:02","新北市五股區成泰路三段320號","121.450616666667","25.0968083333333","6501400","蘆洲區"
"235014","4979-A6","2019/06/21 13:38:56","新北市中和區四維街37巷2號","121.512396666667","24.9868683333333","6500300","中和區"
"235033","4980-A6","2019/06/21 13:38:56","新北市中和區連城路97號","121.49658","24.9997766666667","6500300","中和區"
"235005","551-UM","2019/06/21 13:39:00","新北市中和區中和路390號","121.51122","25.00251","6500300","中和區"
"235034","558-UM","2019/06/21 13:39:07","新北市中和區南山路75號","121.502055","24.99807","6500300","中和區"
"235009","565-BX","2019/06/21 13:38:59","新北市中和區復興路65號","121.504083333333","24.9900533333333","6500300","中和區"
"235024","KED-0823","2019/06/21 13:38:52","新北市中和區中山路三段118號","121.475833333333","25.0059633333333","6500300","中和區"
"235011","732-UM","2019/06/21 13:39:11","新北市中和區南山路320巷10弄3號","121.506858333333","24.9863766666667","6500300","中和區"
"235010","733-UM","2019/06/21 13:39:08","新北市中和區忠孝街99-3號","121.512028333333","24.9861516666667","6500300","中和區"
"235035","783-BX","2019/06/21 13:39:03","新北市中和區中原街92號","121.488111666667","25.01016","6500300","中和區"
"235026","800-TS","2019/06/21 13:38:58","新北市中和區中山路二段312巷33弄10號","121.494935","25.00389","6500300","中和區"
"235021","801-TS","2019/06/21 13:39:05","新北市中和區民安街2巷14號","121.480326666667","25.0016583333333","6500300","中和區"
"235052","805-TS","2019/06/21 13:39:01","新北市中和區興南路三段35號","121.496906666667","24.9784983333333","6500300","中和區"
"235012","896-TW","2019/06/21 13:39:10","新北市中和區中正路81號","121.500731666667","24.9934083333333","6500300","中和區"
"235017","900-TW","2019/06/21 13:38:58","新北市中和區華福街71號","121.467098333333","24.996575","6500300","中和區"
"235028","911-UM","2019/06/21 13:38:51","新北市中和區連城路75巷7號","121.498363333333","24.9986116666667","6500300","中和區"
"235015","157-BY","2019/06/21 13:39:09","新北市中和區華新街143巷71弄15號","121.50833","24.9789166666667","6500300","中和區"
"235001","AAC-213","2019/06/21 13:39:05","新北市中和區秀朗路三段128巷7弄1號","121.524536666667","24.992785","6500300","中和區"
"235023","AAC-215","2019/06/21 13:38:51","新北市中和區中正路571巷2弄11號","121.486185","24.99368","6500300","中和區"
"220013","072-UY","2019/06/21 13:39:09","新北市板橋區實踐路75號","121.463851666667","25.0062083333333","6500100","板橋區"
"220034","073-UY","2019/06/21 13:38:56","新北市板橋區南雅南路二段120-16號","121.45187","24.9990316666667","6500100","板橋區"
"220105","075-UY","2019/06/21 13:38:55","新北市板橋區民生路二段161巷9號","121.470268333333","25.0197","6500100","板橋區"
"220017","AAD-861","2019/06/21 13:39:11","新北市板橋區南雅南路二段4巷4號","121.454115","25.0037266666667","6500100","板橋區"
"220039","120-SR","2019/06/21 13:39:01","新北市板橋區民生路二段120號","121.470435","25.0196366666667","6500100","板橋區"
"247023","337-TH","2019/06/21 13:39:11","新北市蘆洲區長興路318號","121.461708333333","25.0923183333333","6501400","蘆洲區"
"247011","056-VK","2019/06/21 13:39:04","新北市五股區中興路三段2巷10號","121.448931666667","25.081205","6501400","蘆洲區"
"235018","251-BX","2019/06/21 13:39:00","新北市中和區民享街35巷15號","121.47492","25.0040483333333","6500300","中和區"
"208001","AAC-292","2019/06/21 13:38:56","基隆市安樂區武訓街90號","121.697566666667","25.1520083333333","6502700","金山區"
"207002","749-BX","2019/06/21 13:39:04","新北市萬里區崁腳里崁腳路166號","121.64509","25.155855","6502800","萬里區"
"207001","662-BX","2019/06/21 13:38:52","新北市萬里區大鵬里萬里加投35-1號","121.645801666667","25.2112883333333","6502800","萬里區"
"236077","166-UM","2019/06/21 13:38:57","新北市土城區城林路6巷80號","121.43825","24.9794183333333","6501300","土城區"
"236013","270-VK","2019/06/21 13:39:09","新北市土城區城林路6巷80號","121.438528333333","24.9798183333333","6501300","土城區"
"236032","271-VK","2019/06/21 13:38:59","新北市土城區城林路6巷80號","121.43845","24.979765","6501300","土城區"
"247009","KED-0683","2019/06/21 13:38:55","新北市五股區中興路三段163號","121.449326666667","25.080535","6501400","蘆洲區"
"236067","KEA-2877","2019/06/21 13:38:53","新北市土城區城林路6巷80號","121.438681666667","24.979775","6501300","土城區"
"236016","401-BY","2019/06/21 13:39:00","新北市土城區城林路6巷80號","121.438451666667","24.9797716666667","6501300","土城區"
"236057","912-UM","2019/06/21 13:39:04","新北市土城區城林路6巷80號","121.438493333333","24.9796883333333","6501300","土城區"
"221021","277-VK","2019/06/21 13:38:50","新北市汐止區國興街25號","121.622473333333","25.0463333333333","6501100","汐止區"
"221029","298-VK","2019/06/21 13:38:54","新北市汐止區福德二路189號","121.630015","25.0649566666667","6501100","汐止區"
"220027","145-BY","2019/06/21 13:38:49","新北市板橋區大觀路一段41巷2號","121.448425","25.0080983333333","6500100","板橋區"
"220028","200-UY","2019/06/21 13:38:51","新北市板橋區華東街1-9號","121.448071666667","24.9948766666667","6500100","板橋區"
"220030","610-BX","2019/06/21 13:38:53","新北市板橋區大觀路二段265巷7-7號","121.443778333333","24.9945666666667","6500100","板橋區"
"220050","245-BX","2019/06/21 13:39:03","新北市板橋區民生路二段161巷1號","121.470018333333","25.0198166666667","6500100","板橋區"
"220004","276-BY","2019/06/21 13:38:55","新北市板橋區縣民大道一段92-1號","121.45608","25.0047116666667","6500100","板橋區"
"220020","277-BY","2019/06/21 13:38:59","新北市板橋區大觀路二段265巷7-7號","121.443626666667","24.9946283333333","6500100","板橋區"
"220019","283-VK","2019/06/21 13:39:02","新北市板橋區四川路二段橋頭6號","121.448315","24.9939116666667","6500100","板橋區"
"220043","285-UM","2019/06/21 13:38:53","新北市板橋區民生路二段161巷1號","121.470011666667","25.0199416666667","6500100","板橋區"
"220001","285-VK","2019/06/21 13:38:54","新北市板橋區民生路二段120號","121.470335","25.0199266666667","6500100","板橋區"
"220031","286-VK","2019/06/21 13:39:01","新北市板橋區合安一路49-5號","121.447458333333","24.9990566666667","6500100","板橋區"
"220029","287-VK","2019/06/21 13:39:00","新北市板橋區大觀路二段107號","121.446316666667","25.00154","6500100","板橋區"
"220009","293-UM","2019/06/21 13:38:54","新北市板橋區民生路二段161巷5號","121.470198333333","25.0197433333333","6500100","板橋區"
"220032","296-UM","2019/06/21 13:38:58","新北市板橋區大觀路二段153巷44弄11號","121.44695","24.99924","6500100","板橋區"
"220041","307-R5","2019/06/21 13:39:02","新北市板橋區民生路二段120號","121.470335","25.0196566666667","6500100","板橋區"
"220047","317-R6","2019/06/21 13:38:54","新北市板橋區民生路二段120號","121.470368333333","25.0197416666667","6500100","板橋區"
"220038","487-VK","2019/06/21 13:39:08","新北市板橋區民生路二段161巷1號","121.469936666667","25.0200083333333","6500100","板橋區"
"220037","491-VK","2019/06/21 13:39:02","新北市板橋區民生路二段161巷1號","121.470001666667","25.0201783333333","6500100","板橋區"
"220052","561-BX","2019/06/21 13:39:01","新北市板橋區民生路二段161巷5號","121.470258333333","25.0198183333333","6500100","板橋區"
"220011","609-BX","2019/06/21 13:38:56","新北市板橋區民生路二段161巷1號","121.469848333333","25.0199983333333","6500100","板橋區"
"220104","630-UY","2019/06/21 13:39:03","新北市板橋區南雅西路二段145巷10號","121.451571666667","25.0119533333333","6500100","板橋區"
"220005","686-BX","2019/06/21 13:38:53","新北市板橋區館前西路52號","121.45845","25.0069316666667","6500100","板橋區"
"220025","687-BX","2019/06/21 13:38:55","新北市板橋區存德街24號","121.429846666667","24.99181","6500100","板橋區"
"220042","689-BX","2019/06/21 13:39:05","新北市板橋區民生路二段161巷1號","121.470298333333","25.02016","6500100","板橋區"
"220002","741-BX","2019/06/21 13:38:52","新北市板橋區南雅南路二段120-11號","121.452091666667","24.9993483333333","6500100","板橋區"
"220003","827-TW","2019/06/21 13:39:05","新北市板橋區忠孝路22號","121.460048333333","25.0018516666667","6500100","板橋區"
"220014","829-TW","2019/06/21 13:39:01","新北市板橋區民生路二段161巷1號","121.470165","25.019895","6500100","板橋區"
"220016","831-TW","2019/06/21 13:38:59","新北市板橋區民生路二段161巷9號","121.470266666667","25.01966","6500100","板橋區"
"220022","895-R6","2019/06/21 13:39:08","新北市板橋區南雅南路一段42號","121.45583","25.0061366666667","6500100","板橋區"
"220021","985-R7","2019/06/21 13:38:53","新北市板橋區四川路二段23-3號","121.454735","24.99579","6500100","板橋區"
"220046","AAC-210","2019/06/21 13:39:04","新北市板橋區民生路二段120號","121.470351666667","25.01971","6500100","板橋區"
"220012","AAC-253","2019/06/21 13:39:05","新北市板橋區民生路二段36-1號","121.472021666667","25.0169133333333","6500100","板橋區"
"235032","KEA-2873","2019/06/21 13:38:46","新北市中和區圓通路265巷60號","121.496253333333","24.9924633333333","6500300","中和區"
"235025","KEA-2875","2019/06/21 13:39:03","新北市中和區民享街34號","121.473968333333","25.00319","6500300","中和區"
