"lineid","car","time","location","longitude","latitude","cityid","cityname"
"234044","148-BY","2019/06/21 13:59:08","新北市永和區成功路一段26號","121.52703","25.0047633333333","6500400","永和區"
"234036","336-UY","2019/06/21 13:59:12","新北市永和區成功路二段98號","121.526558333333","24.9984066666667","6500400","永和區"
"234062","337-UY","2019/06/21 13:59:04","新北市永和區中正路368巷1弄29號","121.51867","25.0011816666667","6500400","永和區"
"234084","338-UY","2019/06/21 13:59:06","新北市永和區福和路99號","121.521943333333","25.00763","6500400","永和區"
"234068","552-UM","2019/06/21 13:58:56","新北市永和區國光路51號","121.518975","25.0081033333333","6500400","永和區"
"234015","745-BX","2019/06/21 13:58:58","新北市永和區文化路70號","121.514256666667","25.0151183333333","6500400","永和區"
"234028","746-BX","2019/06/21 13:58:54","新北市永和區民生路67巷57號","121.525698333333","24.99768","6500400","永和區"
"234052","KEA-2590","2019/06/21 13:58:58","新北市永和區竹林路39巷42弄1號","121.520196666667","25.015125","6500400","永和區"
"234005","KED-0605","2019/06/21 13:58:52","新北市中和區中和路250號","121.507358333333","24.9994183333333","6500400","永和區"
"234012","KEA-2591","2019/06/21 13:59:00","新北市永和區保生路55號","121.504706666667","25.01061","6500400","永和區"
"234060","AAD-866","2019/06/21 13:59:05","新北市永和區中正路283巷57號","121.515633333333","24.9989983333333","6500400","永和區"
"234078","748-BX","2019/06/21 13:59:12","新北市永和區林森路112巷12弄10號","121.52274","25.0045516666667","6500400","永和區"
"234040","862-TW","2019/06/21 13:58:52","新北市永和區中和路335巷18弄2號","121.507605","25.0002316666667","6500400","永和區"
"234048","863-TW","2019/06/21 13:59:05","新北市永和區新生路216號","121.505388333333","25.0130133333333","6500400","永和區"
"234025","9371-KE","2019/06/21 13:59:07","新北市永和區自由街58號","121.513765","25.0059216666667","6500400","永和區"
"234010","9373-KE","2019/06/21 13:58:55","新北市永和區仁愛路352巷112弄12號","121.50118","25.0085866666667","6500400","永和區"
"248019","KED-0813","2019/06/21 13:58:59","新北市五股區凌雲路三段57號","121.425325","25.1250016666667","6501500","五股區"
"234022","9380-KE","2019/06/21 13:59:12","新北市永和區永和路二段282號","121.515978333333","25.015415","6500400","永和區"
"234076","969-R7","2019/06/21 13:59:05","新北市永和區民族街45號","121.518626666667","24.9984016666667","6500400","永和區"
"234072","AAC-211","2019/06/21 13:59:07","新北市永和區豫溪街150巷2號","121.52184","25.0103433333333","6500400","永和區"
"234066","AAC-212","2019/06/21 13:59:01","新北市永和區保平路135號","121.510405","25.0062866666667","6500400","永和區"
"234001","AAC-295","2019/06/21 13:59:04","新北市永和區福和路316-1號","121.516021666667","25.00741","6500400","永和區"
"244004","248-BX","2019/06/21 13:58:59","新北市林口區南勢里31號","121.352195","25.070325","6501700","林口區"
"231029","001-UM","2019/06/21 13:58:57","新北市新店區安和路一段7號","121.516771666667","24.9639566666667","6500600","新店區"
"231030","002-UM","2019/06/21 13:59:06","新北市新店區安康路一段258號","121.520585","24.96396","6500600","新店區"
"231028","046-UY","2019/06/21 13:59:00","新北市新店區安和路三段29號","121.517918333333","24.9812516666667","6500600","新店區"
"231002","047-UY","2019/06/21 13:59:02","新北市新店區中正路616號","121.533931666667","24.9887","6500600","新店區"
"231018","107-UY","2019/06/21 13:58:54","新北市新店區中央路107號","121.53099","24.9748033333333","6500600","新店區"
"231013","108-UY","2019/06/21 13:58:54","新北市新店區明德路66號","121.541625","24.9795283333333","6500600","新店區"
"231036","110-UY","2019/06/21 13:58:49","新北市新店區安祥路110巷49號","121.473373333333","24.95694","6500600","新店區"
"231032","256-BX","2019/06/21 13:59:02","新北市新店區莒光路44巷21弄11-3號","121.518445","24.95222","6500600","新店區"
"231023","260-TV","2019/06/21 13:59:07","新北市新店區文中路40號","121.53966","24.9566066666667","6500600","新店區"
"231003","268-BY","2019/06/21 13:59:10","新北市新店區中興路一段38號","121.538821666667","24.9590766666667","6500600","新店區"
"231035","278-BY","2019/06/21 13:58:55","新北市新店區安康路二段87號","121.51342","24.96291","6500600","新店區"
"231016","AAD-862","2019/06/21 13:59:07","新北市新店區北宜路二段82巷3-1號","121.553605","24.9529333333333","6500600","新店區"
"231006","355-BY","2019/06/21 13:59:04","新北市新店區北宜路二段52-1號","121.549093333333","24.9513866666667","6500600","新店區"
"231038","3712-VJ","2019/06/21 13:59:02","新北市新店區安康路一段321巷5-1號","121.52208","24.962595","6500600","新店區"
"231027","3713-VJ","2019/06/21 13:58:56","新北市新店區北宜路一段39巷20號","121.538891666667","24.9583783333333","6500600","新店區"
"231024","4716-K9","2019/06/21 13:58:57","新北市新店區新生街16號","121.540031666667","24.9662216666667","6500600","新店區"
"231025","4715-K9","2019/06/21 13:57:57","新北市新店區中正路328巷42弄8號","121.538405","24.9761016666667","6500600","新店區"
"231022","513-UM","2019/06/21 13:58:53","新北市新店區自強路36號","121.546098333333","24.9262616666667","6500600","新店區"
"231001","617-UM","2019/06/21 13:58:57","新北市新店區三民路49號","121.536958333333","24.9708883333333","6500600","新店區"
"231034","641-BX","2019/06/21 13:59:09","新北市新店區達觀路43號","121.503255","24.938525","6500600","新店區"
"231012","KED-0819","2019/06/21 13:58:54","新北市新店區中興路一段280號","121.545581666667","24.968305","6500600","新店區"
"231010","719-UM","2019/06/21 13:58:44","新北市新店區安康路一段130號","121.526743333333","24.9628216666667","6500600","新店區"
"231026","720-UM","2019/06/21 13:58:58","新北市新店區福園街3號","121.533603333333","24.9730016666667","6500600","新店區"
"231005","897-TW","2019/06/21 13:59:02","新北市新店區中興路三段182號","121.54409","24.9813583333333","6500600","新店區"
"231004","899-TW","2019/06/21 13:58:56","新北市新店區北新路二段107號","121.54295","24.9745083333333","6500600","新店區"
"231037","AKT-0513","2019/06/21 13:59:00","新北市新店區安康路三段355巷6號","121.484765","24.9504883333333","6500600","新店區"
"235030","003-UY","2019/06/21 13:59:04","新北市中和區中山路二段131巷5弄28號","121.50349","25.0033333333333","6500300","中和區"
"235027","006-UY","2019/06/21 13:58:57","新北市中和區連城路246-1號","121.488515","24.996225","6500300","中和區"
"235020","096-UM","2019/06/21 13:59:00","新北市板橋區三民路二段228號","121.478781666667","25.011415","6500300","中和區"
"235003","097-UM","2019/06/21 13:59:01","新北市中和區秀朗路三段177號","121.524298333333","24.99095","6500300","中和區"
"235029","098-UM","2019/06/21 13:58:52","新北市中和區中山路二段136巷40號","121.501176666667","25.0044316666667","6500300","中和區"
"235004","150-BY","2019/06/21 13:59:00","新北市中和區保健路46巷39弄1號","121.508635","24.9955483333333","6500300","中和區"
"235022","151-BY","2019/06/21 13:59:07","新北市中和區連城路477巷6弄3號","121.483003333333","24.9950716666667","6500300","中和區"
"235019","183-VK","2019/06/21 13:59:06","新北市中和區德光路113號","121.468086666667","25.003205","6500300","中和區"
"235002","185-VK","2019/06/21 13:59:01","新北市中和區立人街24-5號","121.518941666667","24.9941416666667","6500300","中和區"
"235013","186-VK","2019/06/21 13:59:03","新北市中和區明仁街8號","121.506015","24.9954116666667","6500300","中和區"
"235031","255-BX","2019/06/21 13:59:03","新北市中和區中正路695號","121.485325","24.99815","6500300","中和區"
"235008","293-VK","2019/06/21 13:59:00","新北市中和區中興街161巷4弄3號","121.500538333333","24.990825","6500300","中和區"
"235036","301-VK","2019/06/21 13:59:01","新北市中和區中山路二段146-3號","121.501693333333","25.00295","6500300","中和區"
"235007","352-BY","2019/06/21 13:59:11","新北市中和區成功路67號","121.526133333333","24.9924383333333","6500300","中和區"
"235006","KEA-2878","2019/06/21 13:58:57","新北市中和區秀朗路三段128巷1弄1號","121.524588333333","24.992195","6500300","中和區"
"247013","KEA-2869","2019/06/21 13:59:02","新北市蘆洲區中正路168號","121.468675","25.0860266666667","6501400","蘆洲區"
"247007","KED-0682","2019/06/21 13:59:08","新北市三重區永安北路二段5巷1號","121.481571666667","25.0808166666667","6501400","蘆洲區"
"235014","4979-A6","2019/06/21 13:59:03","新北市中和區華新街71號","121.508133333333","24.9839466666667","6500300","中和區"
"235033","4980-A6","2019/06/21 13:58:56","新北市中和區泰和街45號","121.498975","24.9993283333333","6500300","中和區"
"235005","551-UM","2019/06/21 13:59:00","新北市中和區中安街104-1號","121.511711666667","25.0011333333333","6500300","中和區"
"235034","558-UM","2019/06/21 13:59:07","新北市中和區中和路106號","121.502863333333","24.99971","6500300","中和區"
"235009","565-BX","2019/06/21 13:58:59","新北市中和區景新街467巷35弄1號","121.51461","24.9890483333333","6500300","中和區"
"235024","KED-0823","2019/06/21 13:59:12","新北市中和區中山路三段119號","121.474551666667","25.0061616666667","6500300","中和區"
"235011","732-UM","2019/06/21 13:59:11","新北市中和區興南路二段90號","121.505313333333","24.9845883333333","6500300","中和區"
"235010","733-UM","2019/06/21 13:59:08","新北市中和區興南路二段29號","121.50783","24.98585","6500300","中和區"
"235035","783-BX","2019/06/21 13:59:03","新北市中和區立德街98巷103號","121.488765","25.0083266666667","6500300","中和區"
"235026","800-TS","2019/06/21 13:58:58","新北市中和區中山路二段366巷13-1號","121.491748333333","25.0044783333333","6500300","中和區"
"235021","801-TS","2019/06/21 13:58:53","新北市中和區民利街70號","121.478475","24.9985066666667","6500300","中和區"
"235052","805-TS","2019/06/21 13:59:01","新北市中和區興南路二段131-6號","121.503883333333","24.9812916666667","6500300","中和區"
"235012","896-TW","2019/06/21 13:58:50","新北市中和區華新街47號","121.50779","24.9845433333333","6500300","中和區"
"235017","900-TW","2019/06/21 13:58:58","新北市板橋區和平路165號","121.463795","24.9961583333333","6500300","中和區"
"235028","911-UM","2019/06/21 13:59:13","新北市中和區中和路26巷8號","121.499433333333","25.0016066666667","6500300","中和區"
"235015","157-BY","2019/06/21 13:59:09","新北市中和區仁愛街69號","121.511455","24.9874866666667","6500300","中和區"
"235001","AAC-213","2019/06/21 13:59:05","新北市中和區秀朗路三段60巷3號","121.526053333333","24.9950933333333","6500300","中和區"
"235023","AAC-215","2019/06/21 13:58:51","新北市中和區圓通路367巷20弄23號","121.49146","24.9882883333333","6500300","中和區"
"220013","072-UY","2019/06/21 13:59:12","新北市板橋區漢生東路348號","121.471858333333","25.0072983333333","6500100","板橋區"
"220034","073-UY","2019/06/21 13:59:02","新北市板橋區中正路80巷25號","121.457825","25.0147416666667","6500100","板橋區"
"220105","075-UY","2019/06/21 13:58:55","新北市板橋區雙十路三段10巷10號","121.47207","25.0307233333333","6500100","板橋區"
"220017","AAD-861","2019/06/21 13:59:11","新北市板橋區四川路一段104號","121.459531666667","25.0045483333333","6500100","板橋區"
"220039","120-SR","2019/06/21 13:59:00","新北市板橋區四維路300號","121.462711666667","25.0295216666667","6500100","板橋區"
"247003","893-R6","2019/06/21 13:58:57","新北市蘆洲區長安街106號","121.461825","25.081365","6501400","蘆洲區"
"247017","546-UM","2019/06/21 13:58:54","新北市蘆洲區民族路327巷13弄1號","121.474805","25.0905933333333","6501400","蘆洲區"
"247023","337-TH","2019/06/21 13:59:11","新北市蘆洲區光榮路120巷9號","121.465258333333","25.0887683333333","6501400","蘆洲區"
"247021","057-VK","2019/06/21 13:59:03","新北市蘆洲區中正路263巷2號","121.467291666667","25.0874233333333","6501400","蘆洲區"
"247011","056-VK","2019/06/21 13:59:04","新北市蘆洲區中興街16號","121.480505","25.0868116666667","6501400","蘆洲區"
"247015","053-VK","2019/06/21 13:59:07","新北市蘆洲區光華路43號","121.468875","25.0829816666667","6501400","蘆洲區"
"247019","007-UY","2019/06/21 13:59:07","新北市蘆洲區民族路422巷22-7號","121.473973333333","25.0926466666667","6501400","蘆洲區"
"247005","002-UY","2019/06/21 13:59:07","新北市蘆洲區永安南路二段2號","121.467811666667","25.0766066666667","6501400","蘆洲區"
"235018","251-BX","2019/06/21 13:59:00","新北市中和區國光街107巷2弄9號","121.470011666667","24.99967","6500300","中和區"
"208001","AAC-292","2019/06/21 13:57:36","台北市南港區研究院路四段299號","121.604468333333","25.02606","6502700","金山區"
"207002","749-BX","2019/06/21 13:59:04","新北市萬里區溪底里富士坪路19號","121.62412","25.1484733333333","6502800","萬里區"
"207001","662-BX","2019/06/21 13:58:32","新北市萬里區磺潭里公館崙42號","121.630705","25.2081916666667","6502800","萬里區"
"236040","KED-0685","2019/06/21 13:58:52","新北市土城區城林路6巷80號","121.438616666667","24.9796666666667","6501300","土城區"
"236077","166-UM","2019/06/21 13:58:57","新北市土城區永寧路51號","121.429728333333","24.9613883333333","6501300","土城區"
"236024","269-VK","2019/06/21 13:59:01","新北市土城區中華路二段257號","121.437511666667","24.9709683333333","6501300","土城區"
"236013","270-VK","2019/06/21 13:59:09","新北市土城區學府路二段83號","121.44842","24.9806933333333","6501300","土城區"
"236032","271-VK","2019/06/21 13:58:59","新北市土城區城林路6巷80號","121.438315","24.9798316666667","6501300","土城區"
"247009","KED-0683","2019/06/21 13:59:07","新北市蘆洲區集賢路222-5號","121.482655","25.0866366666667","6501400","蘆洲區"
"236067","KEA-2877","2019/06/21 13:58:52","新北市土城區和平路48號","121.445341666667","24.9695016666667","6501300","土城區"
"236016","401-BY","2019/06/21 13:59:00","新北市土城區城林路6巷80號","121.438515","24.9797933333333","6501300","土城區"
"236060","752-BX","2019/06/21 13:58:52","新北市土城區城林路6巷80號","121.438458333333","24.9796483333333","6501300","土城區"
"236057","912-UM","2019/06/21 13:59:04","新北市土城區中央路三段256號","121.427358333333","24.9640716666667","6501300","土城區"
"236045","913-UM","2019/06/21 13:59:03","新北市土城區城林路6巷80號","121.438488333333","24.97971","6501300","土城區"
"236054","AAC-216","2019/06/21 13:59:06","新北市土城區中華路二段92號","121.438256666667","24.97474","6501300","土城區"
"221021","277-VK","2019/06/21 13:58:50","新北市汐止區康寧街901號","121.651225","25.07509","6501100","汐止區"
"221029","298-VK","2019/06/21 13:58:54","新北市汐止區中興路130-1號","121.633033333333","25.0640516666667","6501100","汐止區"
"220027","145-BY","2019/06/21 13:59:09","新北市板橋區中正路183巷31號","121.454838333333","25.015895","6500100","板橋區"
"220028","200-UY","2019/06/21 13:58:51","新北市板橋區大觀路二段265巷1弄38號","121.444546666667","24.9981483333333","6500100","板橋區"
"220030","610-BX","2019/06/21 13:59:09","新北市板橋區篤行路三段20-1號","121.428788333333","24.9870783333333","6500100","板橋區"
"220050","245-BX","2019/06/21 13:59:04","新北市板橋區莊敬路220巷52號","121.471686666667","25.020475","6500100","板橋區"
"220040","267-BY","2019/06/21 13:59:11","新北市板橋區大同街8巷53號","121.47771","25.026525","6500100","板橋區"
"220004","276-BY","2019/06/21 13:58:56","新北市板橋區信義路85號","121.45728","24.9939966666667","6500100","板橋區"
"220020","277-BY","2019/06/21 13:58:59","新北市板橋區大觀路三段50巷79號","121.431458333333","24.9963233333333","6500100","板橋區"
"220019","283-VK","2019/06/21 13:59:02","新北市板橋區忠孝路176巷30號","121.46488","25.00166","6500100","板橋區"
"220043","285-UM","2019/06/21 13:59:08","新北市板橋區光武街151號","121.465515","25.02945","6500100","板橋區"
"220001","285-VK","2019/06/21 13:58:54","新北市板橋區懷仁街10巷32-2號","121.474835","25.019375","6500100","板橋區"
"220031","286-VK","2019/06/21 13:59:01","新北市板橋區大觀路一段38巷158號","121.44228","25.0044666666667","6500100","板橋區"
"220029","287-VK","2019/06/21 13:58:59","新北市板橋區光華街39巷23號","121.453115","25.0129833333333","6500100","板橋區"
"220009","293-UM","2019/06/21 13:59:02","新北市板橋區懷仁街85巷8號","121.477783333333","25.018665","6500100","板橋區"
"220010","295-UM","2019/06/21 13:59:11","新北市中和區員山路568號","121.478705","25.0108","6500100","板橋區"
"220032","296-UM","2019/06/21 13:58:58","新北市板橋區篤行路一段16號","121.431343333333","24.995455","6500100","板橋區"
"220023","303-R5","2019/06/21 13:59:12","新北市板橋區南興路45號","121.454576666667","25.0074016666667","6500100","板橋區"
"220041","307-R5","2019/06/21 13:59:02","新北市板橋區文化路二段225巷60弄18號","121.469198333333","25.0289033333333","6500100","板橋區"
"220047","317-R6","2019/06/21 13:58:54","新北市板橋區民生路二段234巷24弄1號","121.470405","25.0223916666667","6500100","板橋區"
"220038","487-VK","2019/06/21 13:59:09","新北市板橋區文化路二段260號","121.471175","25.02854","6500100","板橋區"
"220037","491-VK","2019/06/21 13:59:02","新北市板橋區莊敬路38號","121.472763333333","25.02704","6500100","板橋區"
"220052","561-BX","2019/06/21 13:59:02","新北市板橋區介壽街84巷2號","121.470021666667","25.01885","6500100","板橋區"
"220011","609-BX","2019/06/21 13:58:58","新北市板橋區三民路二段37-2號","121.479436666667","25.0172233333333","6500100","板橋區"
"220104","630-UY","2019/06/21 13:59:03","新北市板橋區中正路273-1號","121.455511666667","25.018865","6500100","板橋區"
"220005","686-BX","2019/06/21 13:58:53","新北市板橋區國慶路280號","121.463376666667","24.9990216666667","6500100","板橋區"
"220025","687-BX","2019/06/21 13:58:55","新北市板橋區大觀路二段174巷138-2號","121.44152","25.00258","6500100","板橋區"
"220042","689-BX","2019/06/21 13:59:05","新北市板橋區民生路三段159號","121.465738333333","25.0268283333333","6500100","板橋區"
"220002","741-BX","2019/06/21 13:59:06","新北市板橋區重慶路95號","121.462085","25.0057266666667","6500100","板橋區"
"220051","KEA-2699","2019/06/21 13:59:05","新北市板橋區萬板路710號","121.481853333333","25.0272966666667","6500100","板橋區"
"220003","827-TW","2019/06/21 13:59:05","新北市板橋區民安街18號","121.466768333333","25.0115883333333","6500100","板橋區"
"220014","829-TW","2019/06/21 13:59:00","新北市板橋區三民路二段正隆巷56號","121.476701666667","25.014235","6500100","板橋區"
"220016","831-TW","2019/06/21 13:58:59","新北市板橋區中山路二段443巷82號","121.481098333333","25.02251","6500100","板橋區"
"220022","895-R6","2019/06/21 13:59:07","新北市板橋區南雅南路一段8-5號","121.456021666667","25.0064316666667","6500100","板橋區"
"220021","985-R7","2019/06/21 13:58:53","新北市板橋區林園街1號","121.453793333333","25.0091083333333","6500100","板橋區"
"220046","AAC-210","2019/06/21 13:59:04","新北市板橋區新海路135巷2號","121.460008333333","25.0229016666667","6500100","板橋區"
"220012","AAC-253","2019/06/21 13:59:11","新北市板橋區板新路93巷3號","121.47296","25.0137483333333","6500100","板橋區"
"235032","KEA-2873","2019/06/21 13:58:46","新北市中和區連勝街55號","121.497808333333","24.9972433333333","6500300","中和區"
"235025","KEA-2875","2019/06/21 13:59:03","新北市中和區員山路314巷12號","121.482096666667","25.0026666666667","6500300","中和區"
