"lineid","car","time","location","longitude","latitude","cityid","cityname"
"234044","148-BY","2019/06/21 14:19:08","新北市永和區永利路131號","121.524111666667","25.00317","6500400","永和區"
"234036","336-UY","2019/06/21 14:19:04","新北市永和區成功路一段95號","121.52696","25.0027016666667","6500400","永和區"
"234062","337-UY","2019/06/21 14:19:00","新北市永和區得和路166號","121.519476666667","24.999925","6500400","永和區"
"234084","338-UY","2019/06/21 14:18:53","新北市永和區永和路二段183號","121.515331666667","25.01343","6500400","永和區"
"234068","552-UM","2019/06/21 14:18:56","新北市永和區福和路263巷24號","121.517931666667","25.00633","6500400","永和區"
"234028","746-BX","2019/06/21 14:18:54","新北市永和區民權路49巷6號","121.52054","24.99704","6500400","永和區"
"234052","KEA-2590","2019/06/21 14:18:58","新北市永和區光復街2巷24號","121.517568333333","25.01654","6500400","永和區"
"234005","KED-0605","2019/06/21 14:18:52","新北市永和區中正路652號","121.516911666667","25.0085166666667","6500400","永和區"
"234012","KEA-2591","2019/06/21 14:19:00","新北市永和區保生路62號","121.505215","25.008765","6500400","永和區"
"234060","AAD-866","2019/06/21 14:19:08","新北市永和區得和路6號","121.514938333333","25.0005666666667","6500400","永和區"
"234078","748-BX","2019/06/21 14:18:52","新北市永和區福和路7巷10弄22號","121.524631666667","25.007475","6500400","永和區"
"234040","862-TW","2019/06/21 14:18:52","新北市中和區中安街168號","121.510873333333","24.9998766666667","6500400","永和區"
"234048","863-TW","2019/06/21 14:19:05","新北市永和區新生路81號","121.508553333333","25.015965","6500400","永和區"
"234025","9371-KE","2019/06/21 14:19:07","新北市永和區安樂路144巷24號","121.51506","24.9995966666667","6500400","永和區"
"234010","9373-KE","2019/06/21 14:18:55","新北市永和區保生路55號","121.504538333333","25.01086","6500400","永和區"
"248019","KED-0813","2019/06/21 14:02:42","新北市五股區凌雲路三段57號","121.425323333333","25.125005","6501500","五股區"
"234022","9380-KE","2019/06/21 14:19:12","新北市永和區保安路92號","121.509586666667","25.016075","6500400","永和區"
"234072","AAC-211","2019/06/21 14:19:07","新北市永和區竹林路119巷22弄9號","121.521996666667","25.0114883333333","6500400","永和區"
"234066","AAC-212","2019/06/21 14:19:01","新北市永和區保平路268巷27號","121.507858333333","25.0058333333333","6500400","永和區"
"234001","AAC-295","2019/06/21 14:19:01","新北市永和區中正路614-2號","121.517045","25.0076133333333","6500400","永和區"
"244004","248-BX","2019/06/21 14:18:59","新北市林口區南勢里34-8號","121.352493333333","25.070245","6501700","林口區"
"231029","001-UM","2019/06/21 14:18:56","新北市新店區安康路二段159巷1號","121.510451666667","24.95928","6500600","新店區"
"231030","002-UM","2019/06/21 14:18:54","新北市新店區安民街65巷21-2號","121.515191666667","24.9674633333333","6500600","新店區"
"231028","046-UY","2019/06/21 14:19:00","新北市新店區安業街16號","121.516486666667","24.97807","6500600","新店區"
"231002","047-UY","2019/06/21 14:19:01","新北市新店區中央路139巷2弄1號","121.530641666667","24.97325","6500600","新店區"
"231018","107-UY","2019/06/21 14:19:08","新北市新店區中央四街96號","121.525493333333","24.9760816666667","6500600","新店區"
"231013","108-UY","2019/06/21 14:18:54","新北市新店區建國路128巷1-1號","121.539088333333","24.97937","6500600","新店區"
"231036","110-UY","2019/06/21 14:19:09","新北市新店區安祥路109巷85弄19號","121.478268333333","24.9602033333333","6500600","新店區"
"231032","256-BX","2019/06/21 14:19:02","新北市新店區永業路46號","121.531815","24.953915","6500600","新店區"
"231023","260-TV","2019/06/21 14:19:07","新北市新店區光明街13號","121.53846","24.959315","6500600","新店區"
"231003","268-BY","2019/06/21 14:19:10","新北市新店區中興路一段202號","121.543611666667","24.9652866666667","6500600","新店區"
"231035","278-BY","2019/06/21 14:18:55","新北市新店區光華街8巷26號","121.518213333333","24.9697","6500600","新店區"
"231016","AAD-862","2019/06/21 14:19:07","新北市新店區中生路22巷10號","121.561856666667","24.9526283333333","6500600","新店區"
"231006","355-BY","2019/06/21 14:19:04","新北市新店區北宜路二段236號","121.559985","24.9543533333333","6500600","新店區"
"231038","3712-VJ","2019/06/21 14:19:04","新北市新店區溪洲路101-1號","121.53223","24.9623333333333","6500600","新店區"
"231027","3713-VJ","2019/06/21 14:18:56","新北市新店區檳榔路22巷15號","121.540831666667","24.9636866666667","6500600","新店區"
"231022","513-UM","2019/06/21 14:18:53","新北市新店區新烏路二段126號","121.549423333333","24.9203833333333","6500600","新店區"
"231001","617-UM","2019/06/21 14:18:57","新北市新店區北新路一段283號","121.541211666667","24.9669033333333","6500600","新店區"
"231034","641-BX","2019/06/21 14:19:02","新北市新店區車子路11號","121.503043333333","24.9520433333333","6500600","新店區"
"231012","KED-0819","2019/06/21 14:18:54","新北市新店區寶興路63巷2號","121.550886666667","24.9717533333333","6500600","新店區"
"231005","897-TW","2019/06/21 14:19:02","新北市新店區中興路三段137號","121.544595","24.9797233333333","6500600","新店區"
"231004","899-TW","2019/06/21 14:19:06","新北市新店區中正路223號","121.539561666667","24.9729766666667","6500600","新店區"
"231037","AKT-0513","2019/06/21 14:19:00","新北市新店區安康路二段341巷16號","121.496965","24.9547583333333","6500600","新店區"
"235030","003-UY","2019/06/21 14:19:04","新北市中和區中和路102號","121.502746666667","24.999655","6500300","中和區"
"235027","006-UY","2019/06/21 14:19:05","新北市中和區連城路219巷19號","121.495216666667","24.996225","6500300","中和區"
"235020","096-UM","2019/06/21 14:19:00","新北市中和區員山路458號","121.479988333333","25.0062516666667","6500300","中和區"
"235003","097-UM","2019/06/21 14:19:01","新北市中和區秀峰街127巷8號","121.519191666667","24.9908416666667","6500300","中和區"
"235029","098-UM","2019/06/21 14:18:52","新北市中和區莊敬路33巷3弄1號","121.500025","25.0060883333333","6500300","中和區"
"235004","150-BY","2019/06/21 14:19:00","新北市中和區保健路106巷6弄2號","121.512048333333","24.9954733333333","6500300","中和區"
"235022","151-BY","2019/06/21 14:19:06","新北市中和區員山路124巷17號","121.482103333333","24.9959683333333","6500300","中和區"
"235019","183-VK","2019/06/21 14:19:06","新北市中和區中山路三段181巷18弄37號","121.472643333333","25.0049633333333","6500300","中和區"
"235002","185-VK","2019/06/21 14:19:01","新北市中和區大仁街10巷48-5號","121.520106666667","24.9924583333333","6500300","中和區"
"235013","186-VK","2019/06/21 14:19:03","新北市中和區景新街230巷3號","121.508185","24.9940516666667","6500300","中和區"
"235031","255-BX","2019/06/21 14:19:06","新北市中和區新生街186巷5弄7號","121.482911666667","24.9993966666667","6500300","中和區"
"235008","293-VK","2019/06/21 14:19:00","新北市中和區復興路302號","121.501368333333","24.9903616666667","6500300","中和區"
"235036","301-VK","2019/06/21 14:19:01","新北市中和區莊敬路33巷6號","121.500516666667","25.0051233333333","6500300","中和區"
"235007","352-BY","2019/06/21 14:19:11","新北市中和區安樂路60巷6號","121.512421666667","24.9929766666667","6500300","中和區"
"235006","KEA-2878","2019/06/21 14:18:57","新北市中和區中和路350巷12號","121.510905","25.00024","6500300","中和區"
"247013","KEA-2869","2019/06/21 14:19:02","新北市蘆洲區成功路77-1號","121.473121666667","25.081015","6501400","蘆洲區"
"247007","KED-0682","2019/06/21 14:19:08","新北市蘆洲區中山一路197巷6弄21號","121.474165","25.0801483333333","6501400","蘆洲區"
"235014","4979-A6","2019/06/21 14:18:56","新北市中和區中興街178號","121.499818333333","24.991015","6500300","中和區"
"235033","4980-A6","2019/06/21 14:18:56","新北市中和區中山路二段181號","121.500875","25.00274","6500300","中和區"
"235005","551-UM","2019/06/21 14:19:00","新北市中和區宜安路129號","121.5097","24.99815","6500300","中和區"
"235034","558-UM","2019/06/21 14:19:07","新北市中和區中和路139號","121.502068333333","24.9997316666667","6500300","中和區"
"235009","565-BX","2019/06/21 14:18:59","新北市中和區景新街401號","121.51259","24.989745","6500300","中和區"
"235024","KED-0823","2019/06/21 14:19:12","新北市中和區新生街112巷20號","121.482418333333","25.0029633333333","6500300","中和區"
"235011","732-UM","2019/06/21 14:18:52","新北市中和區和平街82號","121.507645","24.9911516666667","6500300","中和區"
"235010","733-UM","2019/06/21 14:19:07","新北市中和區忠孝街20巷10號","121.510653333333","24.982445","6500300","中和區"
"235035","783-BX","2019/06/21 14:19:03","新北市中和區連城路467-1號","121.484","24.99615","6500300","中和區"
"235026","800-TS","2019/06/21 14:18:58","新北市中和區中山路二段434號","121.489511666667","25.004125","6500300","中和區"
"235021","801-TS","2019/06/21 14:18:53","新北市中和區中山路三段37巷27號","121.479403333333","25.0048483333333","6500300","中和區"
"235052","805-TS","2019/06/21 14:19:02","新北市中和區興南路二段128巷1號","121.50401","24.9837116666667","6500300","中和區"
"235012","896-TW","2019/06/21 14:18:50","新北市中和區華新街109巷5號","121.509176666667","24.98193","6500300","中和區"
"235017","900-TW","2019/06/21 14:19:03","新北市中和區民德路198號","121.468198333333","24.9988866666667","6500300","中和區"
"235028","911-UM","2019/06/21 14:18:51","新北市中和區南華路17-2號","121.502651666667","24.99564","6500300","中和區"
"235015","157-BY","2019/06/21 14:19:09","新北市中和區中興街132巷11號","121.498836666667","24.9915916666667","6500300","中和區"
"235001","AAC-213","2019/06/21 14:19:05","新北市中和區秀朗路三段10巷14弄16號","121.52496","24.996605","6500300","中和區"
"235023","AAC-215","2019/06/21 14:18:56","新北市中和區圓通路286巷24號","121.491945","24.99141","6500300","中和區"
"220013","072-UY","2019/06/21 14:18:09","新北市板橋區國泰街76巷19號","121.467135","25.0069666666667","6500100","板橋區"
"220034","073-UY","2019/06/21 14:18:55","新北市板橋區中正路216巷9號","121.456356666667","25.018475","6500100","板橋區"
"220105","075-UY","2019/06/21 14:18:57","新北市板橋區江寧路三段117號","121.473198333333","25.03299","6500100","板橋區"
"220017","AAD-861","2019/06/21 14:19:11","新北市板橋區稚暉街18號","121.455966666667","25.0044833333333","6500100","板橋區"
"220039","120-SR","2019/06/21 14:19:00","新北市板橋區長江路一段48巷1弄2號","121.459038333333","25.0287733333333","6500100","板橋區"
"247003","893-R6","2019/06/21 14:18:57","新北市蘆洲區長安街198號","121.458666666667","25.0841033333333","6501400","蘆洲區"
"247017","546-UM","2019/06/21 14:18:54","新北市蘆洲區民族路372號","121.475723333333","25.090995","6501400","蘆洲區"
"247023","337-TH","2019/06/21 14:18:51","新北市蘆洲區長榮路711號","121.46116","25.0929433333333","6501400","蘆洲區"
"247001","336-TH","2019/06/21 14:19:00","新北市蘆洲區永樂街63號","121.456558333333","25.08842","6501400","蘆洲區"
"247021","057-VK","2019/06/21 14:19:03","新北市蘆洲區三民路296號","121.466748333333","25.090545","6501400","蘆洲區"
"247011","056-VK","2019/06/21 14:19:04","新北市蘆洲區民權路38巷12號","121.476613333333","25.0865783333333","6501400","蘆洲區"
"247015","053-VK","2019/06/21 14:19:07","新北市蘆洲區中正路185巷31弄12號","121.466508333333","25.0839366666667","6501400","蘆洲區"
"247019","007-UY","2019/06/21 14:19:07","新北市蘆洲區仁愛街35巷14弄1號","121.471401666667","25.0926783333333","6501400","蘆洲區"
"247005","002-UY","2019/06/21 14:19:07","新北市蘆洲區長安街23巷1號","121.463888333333","25.0789216666667","6501400","蘆洲區"
"235018","251-BX","2019/06/21 14:19:00","新北市中和區莒光路222-7號","121.46918","24.9949383333333","6500300","中和區"
"208001","AAC-292","2019/06/21 14:18:56","新北市樹林區佳園路三段99巷39-2號","121.392761666667","24.9519316666667","6502700","金山區"
"207002","749-BX","2019/06/21 14:19:04","新北市萬里區溪底里溪底路13號","121.614831666667","25.14924","6502800","萬里區"
"207001","662-BX","2019/06/21 14:18:52","新北市萬里區磺潭里清水18號","121.638083333333","25.1980016666667","6502800","萬里區"
"236040","KED-0685","2019/06/21 14:18:52","新北市土城區裕生路21巷6弄2-1號","121.448655","24.9870666666667","6501300","土城區"
"236077","166-UM","2019/06/21 14:18:57","新北市土城區永平街2巷1號","121.427586666667","24.9633183333333","6501300","土城區"
"236029","253-BX","2019/06/21 14:19:11","新北市土城區順風路30號","121.440083333333","24.9770433333333","6501300","土城區"
"236024","269-VK","2019/06/21 14:19:01","新北市土城區承天路20號","121.439545","24.9634316666667","6501300","土城區"
"236013","270-VK","2019/06/21 14:19:09","新北市土城區青雲路39巷7號","121.460358333333","24.9875183333333","6501300","土城區"
"236032","271-VK","2019/06/21 14:19:06","新北市土城區青雲路483巷10弄28號","121.45942","24.9727033333333","6501300","土城區"
"247009","KED-0683","2019/06/21 14:18:55","新北市蘆洲區三民路26巷26弄3號","121.47776","25.082915","6501400","蘆洲區"
"236067","KEA-2877","2019/06/21 14:18:52","新北市土城區明德路一段128巷9號","121.463253333333","24.978985","6501300","土城區"
"236016","401-BY","2019/06/21 14:19:00","新北市土城區金城路二段208號","121.455206666667","24.9820433333333","6501300","土城區"
"236060","752-BX","2019/06/21 14:18:52","新北市土城區金城路三段202-3號","121.469485","24.988555","6501300","土城區"
"236057","912-UM","2019/06/21 14:19:04","新北市土城區中央路四段307-1號","121.410975","24.951825","6501300","土城區"
"236045","913-UM","2019/06/21 14:19:03","新北市土城區明德路一段375-1號","121.454926666667","24.9781083333333","6501300","土城區"
"236054","AAC-216","2019/06/21 14:19:06","新北市土城區中華路二段92號","121.438225","24.9746883333333","6501300","土城區"
"221021","277-VK","2019/06/21 14:19:10","新北市汐止區康寧街901號","121.651098333333","25.0751616666667","6501100","汐止區"
"221032","280-BY","2019/06/21 14:19:05","新北市汐止區汐萬路一段418巷45號","121.650846666667","25.0792083333333","6501100","汐止區"
"220027","145-BY","2019/06/21 14:18:49","新北市板橋區民權路202巷7弄37號","121.458495","25.01502","6500100","板橋區"
"220028","200-UY","2019/06/21 14:19:03","新北市板橋區大觀路二段19巷98號","121.44946","25.0027633333333","6500100","板橋區"
"220030","610-BX","2019/06/21 14:19:04","新北市板橋區滿平街84巷80號","121.426156666667","24.98723","6500100","板橋區"
"220050","245-BX","2019/06/21 14:19:03","新北市板橋區莊敬路240號","121.473451666667","25.0214483333333","6500100","板橋區"
"220040","267-BY","2019/06/21 14:19:04","新北市板橋區縣民大道三段247巷6號","121.48167","25.0262333333333","6500100","板橋區"
"220004","276-BY","2019/06/21 14:18:55","新北市板橋區信義路279巷21號","121.464323333333","24.9902033333333","6500100","板橋區"
"220020","277-BY","2019/06/21 14:19:07","新北市板橋區金門街260巷23號","121.429331666667","24.9866233333333","6500100","板橋區"
"220019","283-VK","2019/06/21 14:19:02","新北市板橋區大豐街19號","121.46225","25.0013983333333","6500100","板橋區"
"220043","285-UM","2019/06/21 14:18:53","新北市板橋區吳鳳路38號","121.468458333333","25.030305","6500100","板橋區"
"220001","285-VK","2019/06/21 14:18:54","新北市板橋區富山街81號","121.476826666667","25.0217483333333","6500100","板橋區"
"220031","286-VK","2019/06/21 14:19:01","新北市板橋區龍興街73巷3號","121.443648333333","25.0022033333333","6500100","板橋區"
"220029","287-VK","2019/06/21 14:19:06","新北市板橋區南雅西路一段10巷7弄9號","121.454305","25.0043783333333","6500100","板橋區"
"220009","293-UM","2019/06/21 14:18:54","新北市板橋區成功路6巷6號","121.475796666667","25.0169533333333","6500100","板橋區"
"220010","295-UM","2019/06/21 14:18:56","新北市板橋區三民路二段居仁巷24號","121.479913333333","25.01311","6500100","板橋區"
"220032","296-UM","2019/06/21 14:18:58","新北市板橋區滿平街123號","121.428685","24.9883516666667","6500100","板橋區"
"220023","303-R5","2019/06/21 14:18:52","新北市板橋區南雅南路一段3巷48號","121.45664","25.0059216666667","6500100","板橋區"
"220041","307-R5","2019/06/21 14:19:04","新北市板橋區光武街2巷28號","121.468791666667","25.0253966666667","6500100","板橋區"
"220047","317-R6","2019/06/21 14:18:54","新北市板橋區自由路51巷9-3號","121.465053333333","25.0234666666667","6500100","板橋區"
"220038","487-VK","2019/06/21 14:18:49","新北市板橋區英士路199號","121.458686666667","25.0232533333333","6500100","板橋區"
"220037","491-VK","2019/06/21 14:19:02","新北市板橋區雙十路二段37-1號","121.476751666667","25.02577","6500100","板橋區"
"220052","561-BX","2019/06/21 14:19:01","新北市板橋區文化路一段280-3號","121.467278333333","25.021485","6500100","板橋區"
"220011","609-BX","2019/06/21 14:18:56","新北市板橋區三民路二段140-3號","121.478966666667","25.0158383333333","6500100","板橋區"
"220104","630-UY","2019/06/21 14:19:03","新北市板橋區中正路360巷13號","121.455","25.023675","6500100","板橋區"
"220005","686-BX","2019/06/21 14:18:58","新北市中和區和平路244號","121.464543333333","24.9968133333333","6500100","板橋區"
"220025","687-BX","2019/06/21 14:19:05","新北市板橋區大觀路二段235號","121.443791666667","24.9992233333333","6500100","板橋區"
"220042","689-BX","2019/06/21 14:19:05","新北市板橋區雨農路32號","121.461261666667","25.0243483333333","6500100","板橋區"
"220002","741-BX","2019/06/21 14:18:52","新北市板橋區光明街52號","121.460791666667","25.0026266666667","6500100","板橋區"
"220051","KEA-2699","2019/06/21 14:19:04","新北市板橋區松柏街19號","121.474653333333","25.0299083333333","6500100","板橋區"
"220003","827-TW","2019/06/21 14:19:05","新北市板橋區館前東路156巷10號","121.464341666667","25.00721","6500100","板橋區"
"220014","829-TW","2019/06/21 14:19:00","新北市板橋區長安街138巷1弄67號","121.474518333333","25.01072","6500100","板橋區"
"220016","831-TW","2019/06/21 14:18:59","新北市板橋區林森街1巷26號","121.482673333333","25.024245","6500100","板橋區"
"220022","895-R6","2019/06/21 14:19:07","新北市板橋區民權路101巷2號","121.45892","25.01336","6500100","板橋區"
"220021","985-R7","2019/06/21 14:18:54","新北市板橋區中正路328號","121.454463333333","25.02138","6500100","板橋區"
"220046","AAC-210","2019/06/21 14:19:04","新北市板橋區漢生西路89巷2弄12-2號","121.461783333333","25.0195866666667","6500100","板橋區"
"220012","AAC-253","2019/06/21 14:19:06","新北市板橋區中山路一段37-3號","121.460676666667","25.00901","6500100","板橋區"
"235032","KEA-2873","2019/06/21 14:18:46","新北市中和區中山路二段136巷3弄8號","121.50116","25.0039683333333","6500300","中和區"
"235025","KEA-2875","2019/06/21 14:19:03","新北市中和區民安街2巷17號","121.480293333333","25.0014483333333","6500300","中和區"
