"lineid","car","time","location","longitude","latitude","cityid","cityname"
"234062","337-UY","2019/06/21 14:39:00","新北市永和區中正路437號","121.517103333333","25.005175","6500400","永和區"
"234028","746-BX","2019/06/21 14:38:54","新北市中和區成功路137號","121.526741666667","24.9898533333333","6500400","永和區"
"234052","KEA-2590","2019/06/21 14:38:58","新北市永和區環河東路一段80號","121.519443333333","25.016395","6500400","永和區"
"234078","748-BX","2019/06/21 14:38:52","新北市永和區永貞路72號","121.520501666667","25.00505","6500400","永和區"
"234025","9371-KE","2019/06/21 14:39:07","新北市永和區中和路505號","121.510718333333","25.0023816666667","6500400","永和區"
"248019","KED-0813","2019/06/21 14:38:57","新北市五股區凌雲路三段98-1號","121.428076666667","25.1220683333333","6501500","五股區"
"234072","AAC-211","2019/06/21 14:39:07","新北市永和區環河東路二段54-1號","121.523343333333","25.01148","6500400","永和區"
"234066","AAC-212","2019/06/21 14:39:01","新北市永和區保平路290號","121.508093333333","25.0044516666667","6500400","永和區"
"234001","AAC-295","2019/06/21 14:39:01","新北市永和區中正路618-1號","121.516976666667","25.0077566666667","6500400","永和區"
"244004","248-BX","2019/06/21 14:38:59","新北市林口區南勢里34-8號","121.352356666667","25.0702433333333","6501700","林口區"
"231029","001-UM","2019/06/21 14:38:56","新北市新店區安康路三段244號","121.487756666667","24.951785","6500600","新店區"
"231030","002-UM","2019/06/21 14:38:51","新北市新店區碧安街9巷22號","121.516306666667","24.9684633333333","6500600","新店區"
"231028","046-UY","2019/06/21 14:39:00","新北市新店區安成街2巷1號","121.510943333333","24.9602066666667","6500600","新店區"
"231002","047-UY","2019/06/21 14:39:01","新北市新店區中正路468號","121.533966666667","24.979445","6500600","新店區"
"231018","107-UY","2019/06/21 14:38:55","新北市新店區中央三街27號","121.528625","24.9740716666667","6500600","新店區"
"231013","108-UY","2019/06/21 14:38:54","新北市新店區明德路38號","121.541453333333","24.9778666666667","6500600","新店區"
"231036","110-UY","2019/06/21 14:39:09","新北市新店區安祥路106巷173號","121.47362","24.95963","6500600","新店區"
"231032","256-BX","2019/06/21 14:39:02","新北市新店區安業街8巷1號","121.515356666667","24.977445","6500600","新店區"
"231023","260-TV","2019/06/21 14:39:07","新北市新店區檳榔路55號","121.543231666667","24.96278","6500600","新店區"
"231003","268-BY","2019/06/21 14:38:50","新北市新店區中興路二段188號","121.548245","24.9729333333333","6500600","新店區"
"231035","278-BY","2019/06/21 14:38:55","新北市新店區安德街2號","121.512408333333","24.9629183333333","6500600","新店區"
"231016","AAD-862","2019/06/21 14:39:07","新北市新店區北宜路三段174號","121.586645","24.9524216666667","6500600","新店區"
"231006","355-BY","2019/06/21 14:39:04","新北市新店區北宜路二段141號","121.55119","24.95312","6500600","新店區"
"231038","3712-VJ","2019/06/21 14:39:04","新北市新店區安華路28-1號","121.519676666667","24.9609416666667","6500600","新店區"
"231027","3713-VJ","2019/06/21 14:38:56","新北市新店區寶橋路6巷4號","121.54336","24.9735383333333","6500600","新店區"
"231022","513-UM","2019/06/21 14:39:05","新北市新店區桂山路61巷2號","121.565861666667","24.900965","6500600","新店區"
"231001","617-UM","2019/06/21 14:38:57","新北市新店區中正路57號","121.544308333333","24.9699833333333","6500600","新店區"
"231034","641-BX","2019/06/21 14:39:02","新北市新店區黎明路55巷1號","121.502436666667","24.9483316666667","6500600","新店區"
"231012","KED-0819","2019/06/21 14:38:54","新北市新店區寶橋路48號","121.545845","24.975135","6500600","新店區"
"231005","897-TW","2019/06/21 14:39:02","新北市新店區復興路86號","121.533798333333","24.98811","6500600","新店區"
"231004","899-TW","2019/06/21 14:38:56","新北市新店區中正路269號","121.537806666667","24.9742216666667","6500600","新店區"
"231037","AKT-0513","2019/06/21 14:38:59","新北市新店區安興路20號","121.515061666667","24.9660016666667","6500600","新店區"
"235030","003-UY","2019/06/21 14:39:04","新北市中和區中和路196巷12號","121.504993333333","24.9989083333333","6500300","中和區"
"235027","006-UY","2019/06/21 14:38:57","新北市中和區連城路263巷7弄1號","121.492158333333","24.9959716666667","6500300","中和區"
"235020","096-UM","2019/06/21 14:39:00","新北市中和區員山路581巷2弄1號","121.477781666667","25.009325","6500300","中和區"
"235003","097-UM","2019/06/21 14:39:01","新北市中和區安平路138號","121.512215","24.9980533333333","6500300","中和區"
"235029","098-UM","2019/06/21 14:38:52","新北市中和區福美路261號","121.498478333333","25.0050533333333","6500300","中和區"
"235004","150-BY","2019/06/21 14:39:00","新北市中和區安平路31號","121.50946","24.9949316666667","6500300","中和區"
"235022","151-BY","2019/06/21 14:39:06","新北市中和區員山路104號","121.481048333333","24.9954733333333","6500300","中和區"
"235019","183-VK","2019/06/21 14:39:06","新北市中和區民生街51號","121.469678333333","25.0051933333333","6500300","中和區"
"235002","185-VK","2019/06/21 14:39:01","新北市中和區自強路27巷22號","121.521615","24.9932283333333","6500300","中和區"
"235013","186-VK","2019/06/21 14:39:03","新北市中和區中正路2號","121.503258333333","24.9939033333333","6500300","中和區"
"235031","255-BX","2019/06/21 14:39:03","新北市中和區中正路751巷3弄6號","121.484331666667","24.999535","6500300","中和區"
"235008","293-VK","2019/06/21 14:39:00","新北市中和區南山路479號","121.507868333333","24.9881966666667","6500300","中和區"
"235036","301-VK","2019/06/21 14:39:01","新北市中和區中山路二段3巷22弄24號","121.50589","25.0045","6500300","中和區"
"235007","352-BY","2019/06/21 14:38:51","新北市中和區南華路32號","121.503453333333","24.99622","6500300","中和區"
"247013","KEA-2869","2019/06/21 14:39:02","新北市蘆洲區成功路132號","121.47204","25.0828","6501400","蘆洲區"
"247007","KED-0682","2019/06/21 14:39:08","新北市蘆洲區成功路40號","121.473276666667","25.0794833333333","6501400","蘆洲區"
"235014","4979-A6","2019/06/21 14:38:56","新北市中和區中正路358號","121.493618333333","24.9939116666667","6500300","中和區"
"235033","4980-A6","2019/06/21 14:38:56","新北市中和區連城路134巷11號","121.495268333333","25.00002","6500300","中和區"
"235005","551-UM","2019/06/21 14:39:00","新北市中和區宜安路135號","121.509563333333","24.9983333333333","6500300","中和區"
"235034","558-UM","2019/06/21 14:39:07","新北市中和區連勝街50號","121.497853333333","24.9973516666667","6500300","中和區"
"235011","732-UM","2019/06/21 14:39:11","新北市中和區景安路170號","121.504571666667","24.99262","6500300","中和區"
"235010","733-UM","2019/06/21 14:39:07","新北市中和區景新街496巷31號","121.51351","24.9862033333333","6500300","中和區"
"235035","783-BX","2019/06/21 14:39:03","新北市中和區錦和路34號","121.487293333333","25.0009533333333","6500300","中和區"
"235026","800-TS","2019/06/21 14:38:58","新北市中和區中山路二段365號","121.48768","25.0047633333333","6500300","中和區"
"235021","801-TS","2019/06/21 14:39:01","新北市中和區員山路150號","121.48131","24.99723","6500300","中和區"
"235052","805-TS","2019/06/21 14:39:01","新北市中和區華新街192巷28號","121.506318333333","24.9832966666667","6500300","中和區"
"235012","896-TW","2019/06/21 14:39:10","新北市中和區景新街487號","121.513605","24.98733","6500300","中和區"
"235017","900-TW","2019/06/21 14:39:04","新北市中和區國光街215巷11弄1號","121.466693333333","25.001355","6500300","中和區"
"235015","157-BY","2019/06/21 14:39:09","新北市中和區復興路56號","121.503798333333","24.9903316666667","6500300","中和區"
"235001","AAC-213","2019/06/21 14:39:05","新北市中和區秀朗路三段173-2號","121.524435","24.9915566666667","6500300","中和區"
"235023","AAC-215","2019/06/21 14:39:10","新北市中和區圓通路311-5號","121.493206666667","24.9908966666667","6500300","中和區"
"220013","072-UY","2019/06/21 14:39:09","新北市板橋區國泰街111巷15號","121.466191666667","25.0059716666667","6500100","板橋區"
"220034","073-UY","2019/06/21 14:39:05","新北市板橋區中正路250巷102號","121.459358333333","25.0199183333333","6500100","板橋區"
"220105","075-UY","2019/06/21 14:38:54","新北市板橋區民治街71巷27號","121.480571666667","25.03291","6500100","板橋區"
"220017","AAD-861","2019/06/21 14:38:51","新北市板橋區大明街25巷2弄37號","121.457026666667","25.00282","6500100","板橋區"
"220039","120-SR","2019/06/21 14:39:00","新北市板橋區新海路135巷29號","121.46006","25.0230733333333","6500100","板橋區"
"247023","337-TH","2019/06/21 14:39:11","新北市蘆洲區正和街63巷22號","121.469301666667","25.0804283333333","6501400","蘆洲區"
"247001","336-TH","2019/06/21 14:39:00","新北市蘆洲區長安街268號","121.457418333333","25.08683","6501400","蘆洲區"
"247011","056-VK","2019/06/21 14:39:04","新北市蘆洲區集賢路224巷37弄1號","121.48069","25.08801","6501400","蘆洲區"
"247015","053-VK","2019/06/21 14:39:07","新北市蘆洲區正和街30號","121.469713333333","25.0820116666667","6501400","蘆洲區"
"247019","007-UY","2019/06/21 14:39:07","新北市蘆洲區民義街86巷14號","121.473826666667","25.0901183333333","6501400","蘆洲區"
"247005","002-UY","2019/06/21 14:39:07","新北市蘆洲區中華街65號","121.462338333333","25.080805","6501400","蘆洲區"
"235018","251-BX","2019/06/21 14:39:00","新北市中和區民享街35巷8弄15號","121.474621666667","25.0034883333333","6500300","中和區"
"208001","AAC-292","2019/06/21 14:38:56","新北市樹林區中山路三段210-2號","121.380676666667","24.96738","6502700","金山區"
"207002","749-BX","2019/06/21 14:39:04","新北市萬里區崁腳里崁腳路73號","121.64762","25.1596016666667","6502800","萬里區"
"207001","662-BX","2019/06/21 14:38:52","新北市萬里區雙興里豐稟路26號","121.641108333333","25.1882183333333","6502800","萬里區"
"236040","KED-0685","2019/06/21 14:38:58","新北市土城區裕民路55巷10號","121.44929","24.9882916666667","6501300","土城區"
"236077","166-UM","2019/06/21 14:38:57","新北市土城區頂埔街48-1號","121.417583333333","24.9594666666667","6501300","土城區"
"236029","253-BX","2019/06/21 14:39:11","新北市土城區中央路二段328號","121.44011","24.9724333333333","6501300","土城區"
"236024","269-VK","2019/06/21 14:39:01","新北市土城區忠義路49-1號","121.440453333333","24.9690833333333","6501300","土城區"
"236013","270-VK","2019/06/21 14:39:09","新北市土城區清水路240號","121.461173333333","24.9824216666667","6501300","土城區"
"236032","271-VK","2019/06/21 14:38:59","新北市土城區明德路一段293號","121.460181666667","24.9772533333333","6501300","土城區"
"247009","KED-0683","2019/06/21 14:38:55","新北市蘆洲區信義路222巷57號","121.481135","25.0854483333333","6501400","蘆洲區"
"236067","KEA-2877","2019/06/21 14:39:13","新北市土城區永豐路282號","121.470746666667","24.9779283333333","6501300","土城區"
"236016","401-BY","2019/06/21 14:39:00","新北市土城區明德路一段38號","121.465216666667","24.9845216666667","6501300","土城區"
"236060","752-BX","2019/06/21 14:38:52","新北市土城區延和路125巷63號","121.469373333333","24.9916333333333","6501300","土城區"
"236057","912-UM","2019/06/21 14:39:04","新北市土城區中央路三段155號","121.432055","24.9652783333333","6501300","土城區"
"236045","913-UM","2019/06/21 14:39:03","新北市土城區明德路一段109號","121.46557","24.9817766666667","6501300","土城區"
"236054","AAC-216","2019/06/21 14:39:06","新北市土城區裕民路2號","121.446528333333","24.9890983333333","6501300","土城區"
"221021","277-VK","2019/06/21 14:39:10","新北市汐止區原興路72號","121.632358333333","25.06594","6501100","汐止區"
"221032","280-BY","2019/06/21 14:39:05","新北市汐止區汐萬路二段275巷3弄2號","121.645311666667","25.0884583333333","6501100","汐止區"
"220027","145-BY","2019/06/21 14:39:09","新北市板橋區民權路302巷2號","121.45726","25.0164216666667","6500100","板橋區"
"220028","200-UY","2019/06/21 14:38:51","新北市板橋區大觀路二段153巷46弄20號","121.449151666667","24.9999483333333","6500100","板橋區"
"220030","610-BX","2019/06/21 14:38:54","新北市板橋區金門街98-2號","121.433056666667","24.99237","6500100","板橋區"
"220050","245-BX","2019/06/21 14:39:08","新北市板橋區縣民大道三段93巷18-1號","121.475175","25.0222466666667","6500100","板橋區"
"220040","267-BY","2019/06/21 14:39:11","新北市板橋區懷德街209巷16號","121.482053333333","25.0296966666667","6500100","板橋區"
"220004","276-BY","2019/06/21 14:38:55","新北市板橋區干城路20巷6號","121.459168333333","24.9935433333333","6500100","板橋區"
"220020","277-BY","2019/06/21 14:38:59","新北市板橋區金門街253巷17弄1號","121.433155","24.9886783333333","6500100","板橋區"
"220019","283-VK","2019/06/21 14:39:02","新北市板橋區信義路52-2號","121.45709","24.9942683333333","6500100","板橋區"
"220043","285-UM","2019/06/21 14:38:56","新北市板橋區宏國路15號","121.467493333333","25.0316066666667","6500100","板橋區"
"220001","285-VK","2019/06/21 14:38:54","新北市板橋區民享街63號","121.476381666667","25.01535","6500100","板橋區"
"220031","286-VK","2019/06/21 14:39:06","新北市板橋區龍興街61號","121.443031666667","25.001285","6500100","板橋區"
"220029","287-VK","2019/06/21 14:38:59","新北市板橋區大觀路一段28巷88號","121.449775","25.0109766666667","6500100","板橋區"
"220009","293-UM","2019/06/21 14:39:02","新北市板橋區觀光街2-5號","121.472118333333","25.0156033333333","6500100","板橋區"
"220010","295-UM","2019/06/21 14:38:56","新北市板橋區三民路二段40-1號","121.47923","25.0175833333333","6500100","板橋區"
"220032","296-UM","2019/06/21 14:38:58","新北市板橋區滿平二街2巷1弄24號","121.424911666667","24.98698","6500100","板橋區"
"220023","303-R5","2019/06/21 14:39:12","新北市板橋區中正路253巷24號","121.454593333333","25.0179283333333","6500100","板橋區"
"220041","307-R5","2019/06/21 14:39:02","新北市板橋區四維路259巷80號","121.45995","25.0264333333333","6500100","板橋區"
"220047","317-R6","2019/06/21 14:38:54","新北市板橋區民生路三段299巷14號","121.462833333333","25.030285","6500100","板橋區"
"220038","487-VK","2019/06/21 14:39:09","新北市板橋區龍泉街108巷2號","121.456468333333","25.0245616666667","6500100","板橋區"
"220037","491-VK","2019/06/21 14:39:02","新北市板橋區民治街10號","121.477423333333","25.034365","6500100","板橋區"
"220052","561-BX","2019/06/21 14:39:01","新北市板橋區文化路一段435巷31弄14號","121.466721666667","25.0230483333333","6500100","板橋區"
"220011","609-BX","2019/06/21 14:38:56","新北市板橋區中山路二段553巷4弄4號","121.483518333333","25.0225566666667","6500100","板橋區"
"220104","630-UY","2019/06/21 14:39:03","新北市板橋區金華街85巷42號","121.459221666667","25.021335","6500100","板橋區"
"220005","686-BX","2019/06/21 14:38:33","新北市板橋區廣和街63號","121.462778333333","24.99301","6500100","板橋區"
"220025","687-BX","2019/06/21 14:39:05","新北市板橋區僑中二街106巷1號","121.445878333333","25.0075566666667","6500100","板橋區"
"220042","689-BX","2019/06/21 14:39:05","新北市板橋區長江路二段59號","121.464661666667","25.0314166666667","6500100","板橋區"
"220002","741-BX","2019/06/21 14:38:52","新北市板橋區忠孝路忠義巷15弄2號","121.466018333333","25.003795","6500100","板橋區"
"220051","KEA-2699","2019/06/21 14:39:04","新北市板橋區仁化街8號","121.474358333333","25.031575","6500100","板橋區"
"220003","827-TW","2019/06/21 14:39:11","新北市板橋區重慶路290巷20號","121.46232","24.99893","6500100","板橋區"
"220014","829-TW","2019/06/21 14:39:00","新北市板橋區漢生東路193巷53號","121.47161","25.0116566666667","6500100","板橋區"
"220016","831-TW","2019/06/21 14:38:59","新北市板橋區中山路二段412巷16-1號","121.483423333333","25.02022","6500100","板橋區"
"220022","895-R6","2019/06/21 14:38:48","新北市板橋區大東街17號","121.456673333333","25.0091266666667","6500100","板橋區"
"220021","985-R7","2019/06/21 14:38:53","新北市板橋區中正路429號","121.454256666667","25.0228716666667","6500100","板橋區"
"220046","AAC-210","2019/06/21 14:39:07","新北市板橋區文化路一段49號","121.460545","25.0133316666667","6500100","板橋區"
"220012","AAC-253","2019/06/21 14:39:05","新北市板橋區民族路72號","121.462803333333","25.009455","6500100","板橋區"
"235032","KEA-2873","2019/06/21 14:38:46","新北市中和區景平路746號","121.496541666667","25.0043166666667","6500300","中和區"
