"lineid","car","time","location","longitude","latitude","cityid","cityname"
"234025","9371-KE","2019/06/21 14:59:07","新北市永和區水源街21巷1號","121.511435","25.0044716666667","6500400","永和區"
"248019","KED-0813","2019/06/21 14:58:57","新北市五股區中直路53號","121.419421666667","25.1171566666667","6501500","五股區"
"244004","248-BX","2019/06/21 14:58:59","新北市林口區林口路76號","121.389725","25.0806933333333","6501700","林口區"
"231029","001-UM","2019/06/21 14:58:56","新北市新店區錦秀路11巷96弄2號","121.4801","24.94212","6500600","新店區"
"231030","002-UM","2019/06/21 14:58:54","新北市新店區安興路87號","121.515125","24.975745","6500600","新店區"
"231028","046-UY","2019/06/21 14:59:00","新北市新店區安康路二段266號","121.508571666667","24.9588833333333","6500600","新店區"
"231002","047-UY","2019/06/21 14:59:01","新北市新店區民權路105號","121.536411666667","24.9828","6500600","新店區"
"231018","107-UY","2019/06/21 14:58:55","新北市新店區中央六街8號","121.530195","24.9745033333333","6500600","新店區"
"231013","108-UY","2019/06/21 14:58:54","新北市新店區環河路18號","121.537246666667","24.96147","6500600","新店區"
"231036","110-UY","2019/06/21 14:58:49","新北市新店區安祥路102巷46弄14號","121.485355","24.9636333333333","6500600","新店區"
"231039","187-VK","2019/06/21 14:59:00","新北市新店區寶高路102巷9號","121.554976666667","24.9724016666667","6500600","新店區"
"231032","256-BX","2019/06/21 14:59:02","新北市新店區安泰路18-1號","121.485563333333","24.9486583333333","6500600","新店區"
"231023","260-TV","2019/06/21 14:59:07","新北市新店區檳榔路109號","121.544396666667","24.9617466666667","6500600","新店區"
"231003","268-BY","2019/06/21 14:59:10","新北市新店區中興路二段100巷2號","121.547306666667","24.9711283333333","6500600","新店區"
"231035","278-BY","2019/06/21 14:58:55","新北市新店區安業街17號","121.516706666667","24.9778433333333","6500600","新店區"
"231016","AAD-862","2019/06/21 14:59:07","新北市石碇區北宜路1-8號","121.609885","24.958035","6500600","新店區"
"231006","355-BY","2019/06/21 14:59:04","新北市新店區中興路一段162號","121.542591666667","24.964015","6500600","新店區"
"231038","3712-VJ","2019/06/21 14:59:04","新北市新店區安華路28-1號","121.519518333333","24.9609016666667","6500600","新店區"
"231027","3713-VJ","2019/06/21 14:58:56","新北市新店區溪園路365-8號","121.520961666667","24.9808216666667","6500600","新店區"
"231024","4716-K9","2019/06/21 14:58:57","新北市新店區力行路14巷8號","121.53935","24.9650483333333","6500600","新店區"
"231025","4715-K9","2019/06/21 14:58:57","新北市新店區大同街8巷9號","121.539385","24.9804616666667","6500600","新店區"
"231022","513-UM","2019/06/21 14:58:53","新北市新店區桂山路81巷12號","121.569086666667","24.8981533333333","6500600","新店區"
"231001","617-UM","2019/06/21 14:58:57","新北市新店區中正路263-1號","121.538578333333","24.9736766666667","6500600","新店區"
"231034","641-BX","2019/06/21 14:59:02","新北市新店區玫瑰路4-1號","121.493611666667","24.9513533333333","6500600","新店區"
"231012","KED-0819","2019/06/21 14:58:59","新北市新店區中興路三段205巷2號","121.543401666667","24.9816833333333","6500600","新店區"
"231026","720-UM","2019/06/21 14:59:07","新北市新店區北新路一段140號","121.542508333333","24.970415","6500600","新店區"
"231005","897-TW","2019/06/21 14:59:06","新北市新店區順安街69號","121.540691666667","24.9866733333333","6500600","新店區"
"231004","899-TW","2019/06/21 14:58:56","新北市新店區民族路11號","121.541598333333","24.978845","6500600","新店區"
"231037","AKT-0513","2019/06/21 14:58:59","新北市新店區安民街309號","121.517571666667","24.9739766666667","6500600","新店區"
"235030","003-UY","2019/06/21 14:59:04","新北市中和區中山路二段22號","121.504751666667","25.0053416666667","6500300","中和區"
"235020","096-UM","2019/06/21 14:59:00","新北市中和區漢民路411號","121.472305","25.006975","6500300","中和區"
"235003","097-UM","2019/06/21 14:59:01","新北市中和區宜安路57號","121.511613333333","24.99682","6500300","中和區"
"235029","098-UM","2019/06/21 14:58:52","新北市中和區永和路128巷47號","121.49767","25.0068233333333","6500300","中和區"
"235004","150-BY","2019/06/21 14:59:00","新北市中和區宜安路176號","121.50858","24.99928","6500300","中和區"
"235031","255-BX","2019/06/21 14:59:03","新北市新莊區化成路579巷1號","121.464723333333","25.0661416666667","6500300","中和區"
"235036","301-VK","2019/06/21 14:59:01","新北市中和區連城路164-1號","121.493765","24.9985633333333","6500300","中和區"
"235007","352-BY","2019/06/21 14:58:51","新北市中和區華新街230號","121.506005","24.98169","6500300","中和區"
"247013","KEA-2869","2019/06/21 14:59:02","新北市五股區成洲一路25號","121.449755","25.0952633333333","6501400","蘆洲區"
"235014","4979-A6","2019/06/21 14:58:55","新北市中和區景平路239巷3號","121.50993","24.9927266666667","6500300","中和區"
"235033","4980-A6","2019/06/21 14:58:56","新北市中和區錦和路216號","121.490211666667","24.9940033333333","6500300","中和區"
"235034","558-UM","2019/06/21 14:59:07","新北市中和區中正路226號","121.496216666667","24.9940683333333","6500300","中和區"
"235010","733-UM","2019/06/21 14:59:07","新北市中和區興南路一段105巷20弄4號","121.510278333333","24.98567","6500300","中和區"
"235035","783-BX","2019/06/21 14:59:03","新北市中和區中正路814號","121.484956666667","25.0032466666667","6500300","中和區"
"235012","896-TW","2019/06/21 14:59:10","新北市中和區忠孝街1巷2-1號","121.509178333333","24.9830683333333","6500300","中和區"
"235015","157-BY","2019/06/21 14:58:49","新北市中和區中正路406號","121.492583333333","24.994155","6500300","中和區"
"235001","AAC-213","2019/06/21 14:59:05","新北市中和區立人街45號","121.520625","24.994165","6500300","中和區"
"235023","AAC-215","2019/06/21 14:59:10","新北市中和區圓通路365號","121.491306666667","24.98994","6500300","中和區"
"220013","072-UY","2019/06/21 14:58:49","新北市板橋區民族路278號","121.470005","25.0068016666667","6500100","板橋區"
"220034","073-UY","2019/06/21 14:58:56","新北市板橋區光華街1巷1號","121.454093333333","25.01101","6500100","板橋區"
"220105","075-UY","2019/06/21 14:59:11","新北市板橋區文聖街73號","121.477426666667","25.0306866666667","6500100","板橋區"
"220017","AAD-861","2019/06/21 14:59:04","新北市板橋區貴興路57號","121.457383333333","25.0031366666667","6500100","板橋區"
"220039","120-SR","2019/06/21 14:56:12","新北市板橋區新海路137號","121.460296666667","25.0234933333333","6500100","板橋區"
"208001","AAC-292","2019/06/21 14:58:56","新北市土城區延吉街111巷12弄15-5號","121.473936666667","24.9843516666667","6502700","金山區"
"207002","749-BX","2019/06/21 14:59:04","新北市萬里區崁腳里崁腳路60-1號","121.648375","25.1601133333333","6502800","萬里區"
"207001","662-BX","2019/06/21 14:58:52","新北市萬里區雙興里二坪路9號","121.646155","25.1749966666667","6502800","萬里區"
"236040","KED-0685","2019/06/21 14:58:52","新北市土城區學府路一段189巷13號","121.452533333333","24.9845966666667","6501300","土城區"
"236077","166-UM","2019/06/21 14:58:57","新北市土城區中州路3巷31弄1號","121.413896666667","24.956775","6501300","土城區"
"236029","253-BX","2019/06/21 14:58:51","新北市土城區慶利街17號","121.439173333333","24.9740016666667","6501300","土城區"
"236024","269-VK","2019/06/21 14:59:01","新北市土城區金城路一段129巷33號","121.444881666667","24.97465","6501300","土城區"
"236013","270-VK","2019/06/21 14:59:09","新北市土城區立德路13巷22號","121.461643333333","24.9887266666667","6501300","土城區"
"236032","271-VK","2019/06/21 14:58:59","新北市土城區仁愛路4號","121.459801666667","24.9811783333333","6501300","土城區"
"236067","KEA-2877","2019/06/21 14:58:52","新北市土城區中央路一段291巷14號","121.445015","24.9837166666667","6501300","土城區"
"236016","401-BY","2019/06/21 14:59:00","新北市土城區延吉街217巷3弄1號","121.468671666667","24.9849083333333","6501300","土城區"
"236060","752-BX","2019/06/21 14:57:52","新北市土城區金城路三段93巷25號","121.466705","24.9886433333333","6501300","土城區"
"236057","912-UM","2019/06/21 14:59:04","新北市土城區金城路二段208號","121.455236666667","24.9819966666667","6501300","土城區"
"236045","913-UM","2019/06/21 14:59:03","新北市土城區青雲路232號","121.459003333333","24.9807783333333","6501300","土城區"
"236054","AAC-216","2019/06/21 14:59:06","新北市土城區學成路67號","121.451583333333","24.9879566666667","6501300","土城區"
"221021","277-VK","2019/06/21 14:59:10","新北市汐止區福德一路91號","121.638156666667","25.068365","6501100","汐止區"
"221032","280-BY","2019/06/21 14:59:05","新北市汐止區汐萬路二段275巷3弄2號","121.645306666667","25.0884233333333","6501100","汐止區"
"220027","145-BY","2019/06/21 14:59:09","新北市板橋區復興街50號","121.458611666667","25.0173816666667","6500100","板橋區"
"220028","200-UY","2019/06/21 14:58:51","新北市板橋區大觀路二段169巷2號","121.445351666667","25.0001433333333","6500100","板橋區"
"220030","610-BX","2019/06/21 14:58:53","新北市板橋區存德街9號","121.43002","24.9919416666667","6500100","板橋區"
"220050","245-BX","2019/06/21 14:59:03","新北市板橋區莒光路165巷26號","121.474366666667","25.02459","6500100","板橋區"
"220040","267-BY","2019/06/21 14:58:50","新北市板橋區文聖街131號","121.478103333333","25.0285616666667","6500100","板橋區"
"220004","276-BY","2019/06/21 14:58:55","新北市板橋區德興街37巷12號","121.453883333333","24.9938416666667","6500100","板橋區"
"220020","277-BY","2019/06/21 14:59:10","新北市板橋區篤行路二段77巷12弄2號","121.432248333333","24.9917766666667","6500100","板橋區"
"220019","283-VK","2019/06/21 14:59:02","新北市板橋區五權街30巷24弄33號","121.463646666667","24.9939733333333","6500100","板橋區"
"220043","285-UM","2019/06/21 14:58:53","新北市板橋區文化路一段371號","121.4669","25.0214983333333","6500100","板橋區"
"220001","285-VK","2019/06/21 14:58:51","新北市板橋區懷仁街61號","121.477088333333","25.018745","6500100","板橋區"
"220031","286-VK","2019/06/21 14:59:01","新北市板橋區僑中二街88巷21號","121.445233333333","25.009495","6500100","板橋區"
"220029","287-VK","2019/06/21 14:58:59","新北市板橋區僑中一街80巷5弄19號","121.446918333333","25.012575","6500100","板橋區"
"220009","293-UM","2019/06/21 14:58:54","新北市板橋區四川路一段200號","121.459661666667","25.0024166666667","6500100","板橋區"
"220010","295-UM","2019/06/21 14:58:55","新北市板橋區中山路二段318巷4號","121.480223333333","25.01914","6500100","板橋區"
"220023","303-R5","2019/06/21 14:59:08","新北市板橋區金華街10巷48弄48號","121.45864","25.0200766666667","6500100","板橋區"
"220041","307-R5","2019/06/21 14:59:02","新北市板橋區光正街23巷46號","121.461775","25.015645","6500100","板橋區"
"220047","317-R6","2019/06/21 14:58:54","新北市板橋區新海路385巷26號","121.457896666667","25.0254066666667","6500100","板橋區"
"220038","487-VK","2019/06/21 14:59:09","新北市板橋區四維路253號","121.463516666667","25.02788","6500100","板橋區"
"220037","491-VK","2019/06/21 14:59:02","新北市板橋區懷德街56號","121.47742","25.0324283333333","6500100","板橋區"
"220052","561-BX","2019/06/21 14:59:01","新北市板橋區漢生東路23巷48號","121.465993333333","25.0180183333333","6500100","板橋區"
"220011","609-BX","2019/06/21 14:59:08","新北市板橋區三民路一段3巷1號","121.478903333333","25.023555","6500100","板橋區"
"220104","630-UY","2019/06/21 14:59:03","新北市板橋區新生街87巷15號","121.457135","25.021925","6500100","板橋區"
"220005","686-BX","2019/06/21 14:58:53","新北市板橋區四川路二段245巷71號","121.452666666667","24.9919983333333","6500100","板橋區"
"220025","687-BX","2019/06/21 14:58:55","新北市板橋區僑中一街102巷7弄19號","121.446035","25.0129016666667","6500100","板橋區"
"220042","689-BX","2019/06/21 14:59:05","新北市板橋區長江路二段323號","121.471345","25.0334216666667","6500100","板橋區"
"220051","KEA-2699","2019/06/21 14:59:04","新北市板橋區文化路一段370號","121.469945","25.0235716666667","6500100","板橋區"
"220003","827-TW","2019/06/21 14:59:05","新北市板橋區仁愛路62巷15弄2號","121.45999","24.9984516666667","6500100","板橋區"
"220014","829-TW","2019/06/21 14:59:00","新北市板橋區板新路97號","121.47291","25.0139633333333","6500100","板橋區"
"220016","831-TW","2019/06/21 14:58:59","新北市板橋區中山路二段380號","121.482013333333","25.02043","6500100","板橋區"
"220022","895-R6","2019/06/21 14:59:07","新北市板橋區文化路一段38號","121.4595","25.0118066666667","6500100","板橋區"
"220021","985-R7","2019/06/21 14:59:09","新北市板橋區南雅西路二段2-1號","121.453171666667","25.0089116666667","6500100","板橋區"
"220046","AAC-210","2019/06/21 14:59:04","新北市板橋區光正街45巷2弄4號","121.461733333333","25.01751","6500100","板橋區"
"220012","AAC-253","2019/06/21 14:59:05","新北市板橋區民族路290號","121.470295","25.00681","6500100","板橋區"
"235032","KEA-2873","2019/06/21 14:58:46","新北市中和區景平路668號","121.49726","25.0010166666667","6500300","中和區"
