"lineid","car","time","location","longitude","latitude","cityid","cityname"
"231018","107-UY","2019/06/21 16:18:54","新北市新店區中正路700巷82號","121.536215","24.993255","6500600","新店區"
"231046","719-UM","2019/06/21 16:19:10","新北市新店區灣潭路3-5號","121.538071666667","24.9508083333333","6500600","新店區"
"241011","013-R5","2019/06/21 16:19:02","新北市三重區龍濱路196號","121.501035","25.0732866666667","6500200","三重區"
"241028","022-UY","2019/06/21 16:18:52","新北市三重區正義南路171號","121.499033333333","25.0573066666667","6500200","三重區"
"241008","059-VK","2019/06/21 16:19:08","新北市三重區下竹圍街30號","121.481046666667","25.0752816666667","6500200","三重區"
"241012","060-VK","2019/06/21 16:18:55","新北市三重區河邊北街313號","121.502465","25.0748816666667","6500200","三重區"
"241031","061-VK","2019/06/21 16:19:06","新北市三重區捷運路19巷1號","121.485396666667","25.0560366666667","6500200","三重區"
"241015","062-VK","2019/06/21 16:19:07","新北市三重區福德北路85號","121.502065","25.0660333333333","6500200","三重區"
"241017","063-VK","2019/06/21 16:19:05","新北市三重區大同北路85號","121.494828333333","25.0636716666667","6500200","三重區"
"241024","065-VK","2019/06/21 16:19:05","新北市三重區中正北路145巷4弄1號","121.48351","25.0677083333333","6500200","三重區"
"241001","066-VK","2019/06/21 16:19:12","新北市三重區自強路四段87號","121.490956666667","25.0793166666667","6500200","三重區"
"241002","090-VK","2019/06/21 16:18:56","新北市三重區仁義街91號","121.499771666667","25.07966","6500200","三重區"
"241003","091-VK","2019/06/21 16:18:57","新北市三重區五華街57巷20號","121.49355","25.0829533333333","6500200","三重區"
"241005","262-UM","2019/06/21 16:19:07","新北市三重區溪尾街327號","121.488303333333","25.0848916666667","6500200","三重區"
"241016","266-UM","2019/06/21 16:18:50","新北市三重區大仁街86號","121.492845","25.065375","6500200","三重區"
"241009","267-UM","2019/06/21 16:18:52","新北市三重區溪尾街192號","121.488228333333","25.08099","6500200","三重區"
"241018","268-UM","2019/06/21 16:18:53","新北市三重區重陽路三段132號","121.489215","25.06696","6500200","三重區"
"241032","269-UM","2019/06/21 16:18:56","新北市三重區三陽路100巷3弄13號","121.482953333333","25.0580766666667","6500200","三重區"
"241013","270-UM","2019/06/21 16:19:08","新北市三重區龍門路60號","121.496595","25.0727383333333","6500200","三重區"
"241025","271-UM","2019/06/21 16:18:58","新北市三重區中正北路560巷100弄2號","121.472631666667","25.06826","6500200","三重區"
"241007","398-BY","2019/06/21 16:19:05","新北市三重區三和路四段163巷115號","121.487115","25.0797433333333","6500200","三重區"
"241004","475-VK","2019/06/21 16:19:10","新北市三重區自強路五段67號","121.494868333333","25.0820233333333","6500200","三重區"
"241020","478-VK","2019/06/21 16:19:13","新北市三重區忠孝路二段61號","121.485005","25.07053","6500200","三重區"
"241026","480-VK","2019/06/21 16:18:57","新北市三重區正義南路54號","121.498398333333","25.0607216666667","6500200","三重區"
"241014","543-UM","2019/06/21 16:19:03","新北市三重區河邊北街96-1號","121.504035","25.0699216666667","6500200","三重區"
"241006","AAD-863","2019/06/21 16:19:02","新北市三重區永福街48巷5號","121.4817","25.077815","6500200","三重區"
"241022","KED-0820","2019/06/21 16:19:03","新北市三重區過圳街31巷2號","121.489133333333","25.0606433333333","6500200","三重區"
"241029","942-UM","2019/06/21 16:18:59","新北市三重區中正南路252巷5號","121.493395","25.052585","6500200","三重區"
"241033","AAC-255","2019/06/21 16:19:05","新北市三重區重新路五段442號","121.474876666667","25.0471916666667","6500200","三重區"
"235031","255-BX","2019/06/21 16:06:23","新北市中和區員山路36巷13號","121.48438","24.99128","6500300","中和區"
"224007","285-BY","2019/06/21 16:19:10","新北市瑞芳區大埔路230-1號","121.760791666667","25.1022033333333","6501200","瑞芳區"
"224009","275-VK","2019/06/21 16:18:51","新北市瑞芳區中山路251號","121.798303333333","25.109235","6501200","瑞芳區"
"224005","271-BY","2019/06/21 16:12:50","新北市瑞芳區明燈路二段66號","121.809338333333","25.1073383333333","6501200","瑞芳區"
"227002","642-TC","2019/06/21 16:18:50","新北市雙溪區上林里內平林131-1號","121.821843333333","25.0250816666667","6502500","雙溪區"
"247010","KED-0683","2019/06/21 16:03:07","新北市五股區中興路三段163號","121.449125","25.0807","6501400","蘆洲區"
"252001","KED-0821","2019/06/21 16:18:52","新北市三芝區埔坪里埔頭坑41號","121.504633333333","25.264685","6502100","三芝區"
