"lineid","car","time","location","longitude","latitude","cityid","cityname"
"234046","148-BY","2019/06/21 18:29:01","新北市永和區福和路1號","121.52644","25.0098633333333","6500400","永和區"
"234070","552-UM","2019/06/21 18:29:10","新北市永和區福和路1號","121.525543333333","25.0094616666667","6500400","永和區"
"234007","KED-0605","2019/06/21 18:28:59","新北市永和區環河西路二段17號","121.507851666667","25.01609","6500400","永和區"
"234026","9371-KE","2019/06/21 18:29:11","新北市永和區中正路651號","121.515108333333","25.0102016666667","6500400","永和區"
"234011","9373-KE","2019/06/21 18:28:53","新北市永和區環河西路一段87號","121.512366666667","25.0180816666667","6500400","永和區"
"249005","172-UM","2019/06/21 18:29:07","新北市八里區中華路三段98-1號","121.392761666667","25.13728","6502300","八里區"
"249001","173-UM","2019/06/21 18:29:11","新北市八里區龍米路一段140號","121.452961666667","25.1256366666667","6502300","八里區"
"249004","303-UY","2019/06/21 18:29:04","新北市八里區忠孝路70號","121.426376666667","25.1603633333333","6502300","八里區"
"249002","305-UY","2019/06/21 18:28:56","新北市八里區龍形五街29號","121.449921666667","25.1333216666667","6502300","八里區"
"248014","025-BX","2019/06/21 18:29:03","新北市五股區明德路14號","121.433213333333","25.0713716666667","6501500","五股區"
"248016","026-BX","2019/06/21 18:29:06","新北市五股區凌雲路一段109巷7號","121.450138333333","25.1012466666667","6501500","五股區"
"248006","077-UY","2019/06/21 18:29:06","新北市五股區中興路二段37巷29號","121.460805","25.074025","6501500","五股區"
"248008","KED-0815","2019/06/21 18:28:53","新北市五股區更洲路32巷8弄14號","121.45922","25.0795816666667","6501500","五股區"
"248018","KED-0813","2019/06/21 18:28:53","新北市五股區御史路269號","121.421878333333","25.1061366666667","6501500","五股區"
"248012","247-BX","2019/06/21 18:29:11","新北市五股區御史路31號","121.442023333333","25.0915433333333","6501500","五股區"
"248010","272-BY","2019/06/21 18:28:53","新北市五股區成泰路一段110-7號","121.43563","25.0723566666667","6501500","五股區"
"248004","677-BX","2019/06/21 18:28:56","新北市五股區成泰路二段151號","121.439278333333","25.08569","6501500","五股區"
"248002","678-BX","2019/06/21 18:29:11","新北市五股區西雲路116-6號","121.444573333333","25.0937733333333","6501500","五股區"
"232011","375-UM","2019/06/21 18:29:05","新北市坪林區坪雙路一段43號","121.711703333333","24.942465","6502000","坪林區"
"244007","080-UY","2019/06/21 18:29:10","新北市林口區中湖62號","121.384651666667","25.100835","6501700","林口區"
"244019","403-UM","2019/06/21 18:28:53","新北市林口區忠孝路696號","121.37946","25.0685466666667","6501700","林口區"
"244013","KEA-2802","2019/06/21 18:29:09","新北市林口區中正路502號","121.382131666667","25.0772716666667","6501700","林口區"
"244023","483-VK","2019/06/21 18:29:09","新北市林口區仁愛路二段32號","121.385326666667","25.07593","6501700","林口區"
"244017","485-VK","2019/06/21 18:29:01","新北市林口區文化二路一段1-1號","121.364383333333","25.06581","6501700","林口區"
"244009","656-BX","2019/06/21 18:29:08","新北市林口區民生路164號","121.379628333333","25.0878933333333","6501700","林口區"
"244011","701-TV","2019/06/21 18:29:07","新北市林口區中正路224號","121.390406666667","25.077685","6501700","林口區"
"244025","837-TS","2019/06/21 18:29:11","新北市林口區南勢四街228號","121.356513333333","25.0741","6501700","林口區"
"244021","838-TS","2019/06/21 18:29:09","新北市林口區自強二街28號","121.398188333333","25.0778433333333","6501700","林口區"
"222003","436-BY","2019/06/21 18:29:13","新北市深坑區北深路一段288號","121.62813","25.0076616666667","6501800","深坑區"
"222002","659-BX","2019/06/21 18:29:05","新北市深坑區雲鄉路154號","121.622961666667","24.9980166666667","6501800","深坑區"
"231060","001-UM","2019/06/21 18:28:55","新北市新店區安華路28-1號","121.519455","24.9608316666667","6500600","新店區"
"231061","002-UM","2019/06/21 18:29:06","新北市新店區安華路28-1號","121.51957","24.9607533333333","6500600","新店區"
"231058","0293-UT","2019/06/21 18:29:10","新北市新店區環河路19巷36號","121.537565","24.9600716666667","6500600","新店區"
"231051","107-UY","2019/06/21 18:29:10","新北市新店區安一路一段1-1號","121.519366666667","24.9610783333333","6500600","新店區"
"231049","108-UY","2019/06/21 18:29:11","新北市新店區安一路一段1-1號","121.51939","24.9610383333333","6500600","新店區"
"231062","256-BX","2019/06/21 18:29:07","新北市新店區安一路一段1-1號","121.519638333333","24.96112","6500600","新店區"
"231054","260-TV","2019/06/21 18:28:54","新北市新店區安一路一段1-1號","121.519256666667","24.961345","6500600","新店區"
"231042","268-BY","2019/06/21 18:28:58","新北市新店區北新路一段146號","121.54317","24.970295","6500600","新店區"
"231064","278-BY","2019/06/21 18:29:01","新北市新店區安一路一段1-1號","121.51946","24.9611233333333","6500600","新店區"
"231050","AAD-862","2019/06/21 18:29:10","新北市新店區安一路一段1-1號","121.519671666667","24.9611116666667","6500600","新店區"
"231045","355-BY","2019/06/21 18:28:54","新北市新店區安華路28-1號","121.519328333333","24.9608716666667","6500600","新店區"
"231055","4716-K9","2019/06/21 18:29:03","新北市新店區中正路126號","121.542095","24.971225","6500600","新店區"
"231056","4715-K9","2019/06/21 18:29:12","新北市新店區自立街45巷2-1號","121.537071666667","24.979975","6500600","新店區"
"231053","513-UM","2019/06/21 18:29:00","新北市新店區北宜路一段250號","121.545283333333","24.9528766666667","6500600","新店區"
"231040","617-UM","2019/06/21 18:28:54","新北市新店區安華路28-1號","121.51938","24.9607333333333","6500600","新店區"
"231063","641-BX","2019/06/21 18:29:05","新北市新店區安華路28-1號","121.519461666667","24.960565","6500600","新店區"
"231048","KED-0819","2019/06/21 18:28:58","新北市新店區安華路3號","121.519125","24.959575","6500600","新店區"
"231057","720-UM","2019/06/21 18:28:56","新北市新店區安一路一段1-1號","121.519355","24.9612566666667","6500600","新店區"
"231044","897-TW","2019/06/21 18:29:05","新北市新店區安華路28-1號","121.519431666667","24.9607383333333","6500600","新店區"
"231043","899-TW","2019/06/21 18:29:02","新北市新店區安華路28-1號","121.519288333333","24.9608666666667","6500600","新店區"
"231066","AKT-0513","2019/06/21 18:29:04","新北市新店區安華路28-1號","121.51937","24.9605316666667","6500600","新店區"
"241025","271-UM","2019/06/21 18:19:25","新北市三重區中正北路335號","121.473278333333","25.0715416666667","6500200","三重區"
"235063","006-UY","2019/06/21 18:28:57","新北市中和區連城路389巷20號","121.486566666667","24.9951166666667","6500300","中和區"
"235056","096-UM","2019/06/21 18:29:06","新北市中和區員山路611巷1號","121.477868333333","25.01136","6500300","中和區"
"235065","098-UM","2019/06/21 18:28:59","新北市中和區莊敬路49巷20弄32號","121.50335","25.0050983333333","6500300","中和區"
"235040","150-BY","2019/06/21 18:29:05","新北市中和區安平路59號","121.509608333333","24.9950666666667","6500300","中和區"
"235058","151-BY","2019/06/21 18:28:54","新北市中和區圓通路369巷30弄6號","121.488873333333","24.984505","6500300","中和區"
"235055","183-VK","2019/06/21 18:28:56","新北市土城區延壽路77巷4弄11號","121.469126666667","24.9930166666667","6500300","中和區"
"235038","185-VK","2019/06/21 18:28:58","新北市中和區秀朗路三段128巷17弄41號","121.522903333333","24.9932416666667","6500300","中和區"
"235049","186-VK","2019/06/21 18:29:06","新北市中和區景平路373號","121.504228333333","24.993265","6500300","中和區"
"235067","255-BX","2019/06/21 18:29:12","新北市中和區中山路二段449號","121.483955","25.0049116666667","6500300","中和區"
"235072","301-VK","2019/06/21 18:29:10","新北市中和區連城路47-3號","121.497908333333","25.0017233333333","6500300","中和區"
"235043","352-BY","2019/06/21 18:29:07","新北市中和區景平路299號","121.506748333333","24.9932033333333","6500300","中和區"
"235042","KEA-2878","2019/06/21 18:28:53","新北市中和區景平路38號","121.523156666667","24.9906533333333","6500300","中和區"
"235050","4979-A6","2019/06/21 18:28:58","新北市中和區興南路一段20-1號","121.51134","24.9911066666667","6500300","中和區"
"235069","4980-A6","2019/06/21 18:28:56","新北市中和區連城路127巷36號","121.496971666667","24.9976866666667","6500300","中和區"
"235041","551-UM","2019/06/21 18:29:12","新北市中和區景安路34號","121.507165","24.9983183333333","6500300","中和區"
"235070","558-UM","2019/06/21 18:29:13","新北市中和區景新街129號","121.50585","24.9973133333333","6500300","中和區"
"235045","565-BX","2019/06/21 18:29:04","新北市中和區南山路236巷51號","121.50497","24.98836","6500300","中和區"
"235060","KED-0823","2019/06/21 18:29:07","新北市中和區中山路二段579號","121.480323333333","25.0057033333333","6500300","中和區"
"235047","732-UM","2019/06/21 18:28:54","新北市中和區中興街189號","121.50037","24.9900716666667","6500300","中和區"
"235062","800-TS","2019/06/21 18:29:11","新北市中和區景平路722-6號","121.496726666667","25.00323","6500300","中和區"
"235057","801-TS","2019/06/21 18:29:01","新北市中和區員山路327巷41號","121.479723333333","25.0020583333333","6500300","中和區"
"235052","805-TS","2019/06/21 18:29:11","新北市中和區興南路二段133號","121.505186666667","24.9841366666667","6500300","中和區"
"235048","896-TW","2019/06/21 18:29:06","新北市中和區中正路76號","121.50068","24.9935866666667","6500300","中和區"
"235053","900-TW","2019/06/21 18:28:57","新北市中和區連城路518巷1號","121.476663333333","24.9918683333333","6500300","中和區"
"235064","911-UM","2019/06/21 18:29:02","新北市中和區連城路109巷91號","121.497561666667","24.9974083333333","6500300","中和區"
"235051","157-BY","2019/06/21 18:29:04","新北市中和區興南路二段114巷10弄38號","121.504068333333","24.985105","6500300","中和區"
"235037","AAC-213","2019/06/21 18:28:53","新北市中和區景德街60號","121.51724","24.9915416666667","6500300","中和區"
"235059","AAC-215","2019/06/21 18:28:55","新北市中和區員山路36巷16-3號","121.484991666667","24.9912633333333","6500300","中和區"
"220086","073-UY","2019/06/21 18:29:10","新北市板橋區華東街1-10號","121.44827","24.9950366666667","6500100","板橋區"
"220069","AAD-861","2019/06/21 18:28:57","新北市板橋區華東街1-10號","121.448378333333","24.9950966666667","6500100","板橋區"
"226004","312-R5","2019/06/21 18:29:10","新北市平溪區靜安路二段271號","121.726845","25.0219866666667","6502400","平溪區"
"235054","251-BX","2019/06/21 18:29:05","新北市中和區民享街93號","121.474703333333","25.0005733333333","6500300","中和區"
"228001","212-TW","2019/06/21 18:29:00","新北市貢寮區仁理村仁和路102號","121.922906666667","25.050755","6502600","貢寮區"
"228002","663-BX","2019/06/21 18:29:07","新北市貢寮區福連里香蘭街24號","121.984555","25.0213533333333","6502600","貢寮區"
"228003","828-UM","2019/06/21 18:28:59","新北市貢寮區和美里和美街43-1號","121.914361666667","25.091355","6502600","貢寮區"
"224010","AGQ-8101","2019/06/21 18:29:00","新北市瑞芳區街頂巷43號","121.844608333333","25.1073716666667","6501200","瑞芳區"
"224006","676-BX","2019/06/21 18:29:04","新北市瑞芳區明燈路二段40-1號","121.80999","25.1076966666667","6501200","瑞芳區"
"224007","285-BY","2019/06/21 18:29:11","新北市瑞芳區大埔路吉慶公園城34號","121.764346666667","25.099655","6501200","瑞芳區"
"224009","275-VK","2019/06/21 18:29:14","新北市瑞芳區五號路308號","121.856848333333","25.1114483333333","6501200","瑞芳區"
"224008","273-VK","2019/06/21 18:29:05","新北市瑞芳區岳王路10-2號","121.80731","25.1107866666667","6501200","瑞芳區"
"224005","271-BY","2019/06/21 18:29:01","新北市瑞芳區台電新村1號","121.818955","25.1251683333333","6501200","瑞芳區"
"227002","642-TC","2019/06/21 18:29:04","新北市雙溪區魚行里坤溪35號","121.870486666667","25.030495","6502500","雙溪區"
"227001","400-TW","2019/06/21 18:29:11","新北市雙溪區牡丹里牡丹135號","121.851063333333","25.0590116666667","6502500","雙溪區"
"253006","032-BX","2019/06/21 18:29:03","新北市石門區公地20-1號","121.545776666667","25.2901666666667","6502200","石門區"
"253005","295-VK","2019/06/21 18:29:15","新北市石門區老崩山11-1號","121.552478333333","25.2909133333333","6502200","石門區"
"222001","KEA-2212","2019/06/21 18:29:09","新北市深坑區北深路一段185號","121.631198333333","25.00994","6501800","深坑區"
"208002","KEA-2872","2019/06/21 18:29:04","新北市金山區民生路151-2號","121.644336666667","25.2229416666667","6502700","金山區"
"208003","665-BX","2019/06/21 18:28:56","新北市金山區中山路373號","121.63438","25.2246416666667","6502700","金山區"
"251004","009-UM","2019/06/21 18:29:07","新北市淡水區民族路31巷2號","121.462463333333","25.1364133333333","6501000","淡水區"
"251001","011-UM","2019/06/21 18:28:52","新北市淡水區自強路367號","121.464211666667","25.1330666666667","6501000","淡水區"
"251008","181-VK","2019/06/21 18:28:54","新北市淡水區水源街二段346巷1弄1號","121.464388333333","25.1754783333333","6501000","淡水區"
"251010","413-VK","2019/06/21 18:28:55","新北市淡水區沙崙路181巷1號","121.42417","25.1841833333333","6501000","淡水區"
"251012","441-VK","2019/06/21 18:29:09","新北市淡水區北新路一段175號","121.459528333333","25.1822733333333","6501000","淡水區"
"251007","442-VK","2019/06/21 18:29:00","新北市淡水區中正東路二段143巷2弄1號","121.460808333333","25.147355","6501000","淡水區"
"251006","561-UM","2019/06/21 18:28:55","新北市淡水區新生街51巷14號","121.440645","25.1752616666667","6501000","淡水區"
"251011","650-BX","2019/06/21 18:29:05","新北市淡水區坪頂路52巷2號","121.458128333333","25.162505","6501000","淡水區"
"251002","672-BX","2019/06/21 18:28:53","新北市淡水區中正東路一段61-5號","121.453181666667","25.1626816666667","6501000","淡水區"
"251003","766-UM","2019/06/21 18:29:09","新北市淡水區北新路169巷19號","121.449653333333","25.1799716666667","6501000","淡水區"
"207003","550-UM","2019/06/21 18:29:00","新北市萬里區野柳里港東路74-5號","121.688915","25.205075","6502800","萬里區"
"207004","225-TW","2019/06/21 18:29:06","新北市萬里區萬里里瑪鋉路21號","121.687473333333","25.1754483333333","6502800","萬里區"
"252002","178-VK","2019/06/21 18:29:09","新北市三芝區中山路二段39號","121.50288","25.2550866666667","6502100","三芝區"
"252003","249-BX","2019/06/21 18:29:06","新北市三芝區後厝里北勢子44-3號","121.470823333333","25.2517583333333","6502100","三芝區"
"208001","170-UY","2019/06/21 18:28:56","新北市金山區文化一路8號","121.637268333333","25.2239166666667","6502700","金山區"
"237004","KEA-2597","2019/06/21 18:29:10","新北市三峽區五寮48號","121.369646666667","24.8660866666667","6500900","三峽區"
"237007","153-BY","2019/06/21 18:28:40","新北市三峽區中正路三段170巷19號","121.35259","24.9042766666667","6500900","三峽區"
"237009","210-TH","2019/06/21 18:29:05","新北市三峽區大同路228號","121.366576666667","24.9259666666667","6500900","三峽區"
"237013","252-BX","2019/06/21 18:29:07","新北市三峽區大同路48巷17弄8-1號","121.376736666667","24.9290866666667","6500900","三峽區"
"237012","275-BY","2019/06/21 18:29:07","新北市三峽區三樹路236-1號","121.37925","24.942965","6500900","三峽區"
"237008","302-VK","2019/06/21 18:29:10","新北市三峽區白雞68-159號","121.390206666667","24.908735","6500900","三峽區"
"237014","433-BY","2019/06/21 18:29:05","新北市三峽區民生街108號","121.373575","24.935315","6500900","三峽區"
"237006","5529-G3","2019/06/21 18:29:15","新北市三峽區溪東路315巷110號","121.412095","24.931575","6500900","三峽區"
"237011","KEA-2596","2019/06/21 18:29:09","新北市三峽區溪東路218巷24弄2號","121.406868333333","24.93043","6500900","三峽區"
"237015","649-BX","2019/06/21 18:29:08","新北市三峽區竹崙路147號","121.434746666667","24.9097016666667","6500900","三峽區"
"237010","706-TV","2019/06/21 18:29:12","新北市三峽區復興路485號","121.361296666667","24.9384416666667","6500900","三峽區"
"237005","AKY-6261","2019/06/21 18:28:59","新北市三峽區民生街104巷2-9號","121.373616666667","24.9360583333333","6500900","三峽區"
"236042","KED-0685","2019/06/21 18:29:07","新北市土城區裕民路61巷4號","121.449346666667","24.987985","6501300","土城區"
"233002","762-BX","2019/06/21 18:29:14","新北市烏來區新烏路五段45號","121.542575","24.8806616666667","6502900","烏來區"
"236079","166-UM","2019/06/21 18:29:03","新北市土城區中央路四段27巷10弄2號","121.424715","24.96179","6501300","土城區"
"236030","253-BX","2019/06/21 18:29:14","新北市土城區水源街81巷6號","121.439488333333","24.9762966666667","6501300","土城區"
"236026","269-VK","2019/06/21 18:28:56","新北市土城區南天母路18-3號","121.448206666667","24.9530766666667","6501300","土城區"
"236014","270-VK","2019/06/21 18:29:02","新北市土城區青雲路39巷7號","121.460338333333","24.987585","6501300","土城區"
"236039","271-VK","2019/06/21 18:28:56","新北市土城區明德路一段287巷12號","121.460913333333","24.9769","6501300","土城區"
"236069","KEA-2877","2019/06/21 18:29:05","新北市土城區永豐路211號","121.474661666667","24.97555","6501300","土城區"
"252001","KED-0821","2019/06/21 18:29:03","新北市三芝區中興街二段2號","121.498403333333","25.2566333333333","6502100","三芝區"
"236020","401-BY","2019/06/21 18:28:59","新北市土城區永豐路202巷14號","121.46638","24.9834666666667","6501300","土城區"
"236063","752-BX","2019/06/21 18:29:02","新北市土城區延壽路115巷1號","121.469113333333","24.99408","6501300","土城區"
"236059","912-UM","2019/06/21 18:29:13","新北市土城區中央路四段139-2號","121.41574","24.9572433333333","6501300","土城區"
"236048","913-UM","2019/06/21 18:29:09","新北市土城區青雲路449-1號","121.458811666667","24.9746933333333","6501300","土城區"
"236055","AAC-216","2019/06/21 18:29:02","新北市土城區中華路二段61號","121.439505","24.9787483333333","6501300","土城區"
"242060","986-R7","2019/06/21 18:29:10","新北市新莊區建國二路108號","121.430826666667","25.027345","6500500","新莊區"
"242058","612-BX","2019/06/21 18:29:12","桃園市龜山區萬壽路一段8號","121.409731666667","25.0205233333333","6500500","新莊區"
"242046","566-BX","2019/06/21 18:29:05","新北市新莊區中正路823號","121.420805","25.0282333333333","6500500","新莊區"
"242056","441-UM","2019/06/21 18:29:09","新北市新莊區中環路一段36號","121.442648333333","25.0274366666667","6500500","新莊區"
"242041","415-TV","2019/06/21 18:29:10","新北市新莊區雙鳳路90巷4弄1號","121.415178333333","25.028465","6500500","新莊區"
"242011","413-TV","2019/06/21 18:29:03","新北市新莊區中平路295號","121.44475","25.051","6500500","新莊區"
"242025","362-BY","2019/06/21 18:29:03","新北市新莊區五工路95號","121.457628333333","25.0636133333333","6500500","新莊區"
"242054","172-VK","2019/06/21 18:29:03","新北市樹林區樹新路98號","121.429485","24.9976683333333","6500500","新莊區"
"242007","175-VK","2019/06/21 18:29:14","新北市新莊區利濟街4號","121.453043333333","25.03386","6500500","新莊區"
"242032","347-TH","2019/06/21 18:29:09","新北市新莊區新泰路289巷29號","121.444281666667","25.0405","6500500","新莊區"
"242017","351-TH","2019/06/21 18:28:55","新北市新莊區新泰路357巷3弄57號","121.442095","25.03952","6500500","新莊區"
"238015","755-BX","2019/06/21 18:28:57","新北市樹林區備內街79號","121.40914","24.9894866666667","6500700","樹林區"
"238023","601-UM","2019/06/21 18:28:58","新北市樹林區三福街114號","121.40645","25.016345","6500700","樹林區"
"238019","599-UM","2019/06/21 18:28:57","新北市樹林區八德街117號","121.420801666667","24.98046","6500700","樹林區"
"238024","5061-A6","2019/06/21 18:29:06","新北市樹林區育英街2巷34號","121.423345","24.9900266666667","6500700","樹林區"
"238018","KEA-2217","2019/06/21 18:29:00","新北市樹林區樹新路50巷5弄7號","121.42959","24.997","6500700","樹林區"
"238025","303-VK","2019/06/21 18:29:00","新北市樹林區中山路二段230號","121.408925","24.9801983333333","6500700","樹林區"
"238017","283-BY","2019/06/21 18:29:06","新北市樹林區光榮街18-3號","121.412235","25.0039516666667","6500700","樹林區"
"238014","282-BY","2019/06/21 18:28:57","新北市樹林區大安路111巷23號","121.42328","24.9976816666667","6500700","樹林區"
"238020","268-VK","2019/06/21 18:29:05","新北市樹林區中正路815號","121.409446666667","25.0171083333333","6500700","樹林區"
"238026","172-UY","2019/06/21 18:29:16","新北市樹林區八德街624號","121.397048333333","24.9697166666667","6500700","樹林區"
"238016","169-UY","2019/06/21 18:28:52","新北市樹林區中山路一段412號","121.417441666667","24.985155","6500700","樹林區"
"239007","AAC-297","2019/06/21 18:29:14","新北市鶯歌區中正一路阿四巷7-1號","121.368703333333","24.9577133333333","6500800","鶯歌區"
"239006","891-R6","2019/06/21 18:28:56","新北市鶯歌區鶯桃路296巷53號","121.335883333333","24.9613066666667","6500800","鶯歌區"
"239008","527-UM","2019/06/21 18:28:59","新北市鶯歌區朝陽街1號","121.336376666667","24.9766433333333","6500800","鶯歌區"
"239005","526-UM","2019/06/21 18:28:37","新北市鶯歌區鳳吉三街31巷11號","121.327783333333","24.974155","6500800","鶯歌區"
"239001","417-VK","2019/06/21 18:28:54","新北市鶯歌區二橋街76號","121.337051666667","24.938445","6500800","鶯歌區"
"239003","360-BY","2019/06/21 18:28:56","新北市鶯歌區福安街58號","121.335583333333","24.9651683333333","6500800","鶯歌區"
"239002","359-BY","2019/06/21 18:29:10","新北市鶯歌區中山路231號","121.346206666667","24.9569666666667","6500800","鶯歌區"
"239004","193-VK","2019/06/21 18:28:56","新北市鶯歌區尖山路281號","121.341358333333","24.9438383333333","6500800","鶯歌區"
"221036","130-UY","2019/06/21 18:28:59","新北市汐止區大同路三段143號","121.669351666667","25.0776866666667","6501100","汐止區"
"221015","131-UY","2019/06/21 18:24:49","新北市汐止區鄉長路二段99號","121.665026666667","25.0859433333333","6501100","汐止區"
"221010","269-BY","2019/06/21 18:29:03","新北市汐止區汐萬路35號","121.644256666667","25.09123","6501100","汐止區"
"221012","278-VK","2019/06/21 18:29:14","新北市汐止區保長路35巷13號","121.673181666667","25.0799583333333","6501100","汐止區"
"221023","279-VK","2019/06/21 18:29:02","新北市汐止區康寧街474巷7-2號","121.632285","25.067895","6501100","汐止區"
"221032","280-BY","2019/06/21 18:28:56","新北市汐止區民權街二段102號","121.618635","25.0468466666667","6501100","汐止區"
"221027","281-BY","2019/06/21 18:29:11","新北市汐止區和平街53號","121.661936666667","25.070725","6501100","汐止區"
"221021","299-VK","2019/06/21 18:29:00","新北市汐止區連興街120號","121.653776666667","25.06255","6501100","汐止區"
"221031","353-TW","2019/06/21 18:29:06","新北市汐止區光復街8巷1-4號","121.639081666667","25.0584866666667","6501100","汐止區"
"221035","622-UM","2019/06/21 18:28:57","新北市汐止區大同路二段318號","121.655866666667","25.0669016666667","6501100","汐止區"
"221038","646-BX","2019/06/21 18:29:12","新北市汐止區新昌路90號","121.66398","25.06898","6501100","汐止區"
"221033","647-BX","2019/06/21 18:29:13","新北市汐止區宜興街21號","121.621596666667","25.041785","6501100","汐止區"
"221002","707-TV","2019/06/21 18:28:59","新北市汐止區福德一路148號","121.636596666667","25.066895","6501100","汐止區"
"221018","753-BX","2019/06/21 18:29:09","新北市汐止區茄苳路130-5號","121.668498333333","25.07016","6501100","汐止區"
"220082","610-BX","2019/06/21 18:29:14","新北市板橋區華東街1-9號","121.448246666667","24.99492","6500100","板橋區"
"224002","257-TC","2019/06/21 18:29:09","新北市瑞芳區三爪子坑路29巷57號","121.81383","25.1064816666667","6501200","瑞芳區"
"220056","276-BY","2019/06/21 18:29:10","新北市板橋區華東街1-9號","121.448173333333","24.9949183333333","6500100","板橋區"
"220071","283-VK","2019/06/21 18:29:05","新北市板橋區華東街1-9號","121.448098333333","24.9949066666667","6500100","板橋區"
"220094","285-UM","2019/06/21 18:29:12","新北市板橋區民生路二段161巷1號","121.470103333333","25.019855","6500100","板橋區"
"220084","296-UM","2019/06/21 18:29:04","新北市板橋區華東街1-9號","121.448123333333","24.9949533333333","6500100","板橋區"
"242044","281-VK","2019/06/21 18:28:56","新北市新莊區新北大道七段441號","121.413926666667","25.0235283333333","6500500","新莊區"
"220035","630-UY","2019/06/21 18:28:56","新北市板橋區南雅南路二段114號","121.453345","25.0007116666667","6500100","板橋區"
"220064","AAC-253","2019/06/21 18:29:15","新北市板橋區南雅南路二段120-16號","121.45196","24.999155","6500100","板橋區"
"235068","KEA-2873","2019/06/21 18:28:47","新北市中和區圓通路282號","121.49153","24.990565","6500300","中和區"
"235061","KEA-2875","2019/06/21 18:29:12","新北市中和區民享街88巷1號","121.474455","25.0005966666667","6500300","中和區"
"235039","KEA-2876","2019/06/21 18:28:50","新北市中和區安平路161號","121.512505","24.9985","6500300","中和區"
