"lineid","car","time","location","longitude","latitude","cityid","cityname"
"234046","148-BY","2019/06/21 19:19:01","新北市永和區得和路373巷27號","121.524988333333","25.0002266666667","6500400","永和區"
"234038","336-UY","2019/06/21 19:19:11","新北市永和區民樂街59巷7號","121.527981666667","24.9983083333333","6500400","永和區"
"234064","337-UY","2019/06/21 19:18:55","新北市永和區永元路17巷6弄4號","121.521338333333","25.000635","6500400","永和區"
"234086","338-UY","2019/06/21 19:19:13","新北市永和區永利路39號","121.518833333333","25.0056216666667","6500400","永和區"
"234070","552-UM","2019/06/21 19:19:10","新北市永和區豫溪街55號","121.517156666667","25.00987","6500400","永和區"
"234017","745-BX","2019/06/21 19:19:11","新北市永和區文化路144巷31弄12號","121.512245","25.016835","6500400","永和區"
"234030","746-BX","2019/06/21 19:18:58","新北市永和區民生路23號","121.522823333333","24.9987866666667","6500400","永和區"
"234054","KEA-2590","2019/06/21 19:19:15","新北市永和區中興街37號","121.516291666667","25.0118466666667","6500400","永和區"
"234007","KED-0605","2019/06/21 19:18:59","新北市永和區中山路一段215-1號","121.508261666667","25.0080466666667","6500400","永和區"
"234013","KEA-2591","2019/06/21 19:19:03","新北市永和區仁愛路128號","121.511448333333","25.0130966666667","6500400","永和區"
"234061","AAD-866","2019/06/21 19:19:08","新北市永和區秀朗路一段175號","121.517083333333","25.0036533333333","6500400","永和區"
"234081","748-BX","2019/06/21 19:19:12","新北市永和區福和路50號","121.523476666667","25.008285","6500400","永和區"
"234042","862-TW","2019/06/21 19:19:12","新北市永和區保平路151巷17號","121.51071","25.0051116666667","6500400","永和區"
"234050","863-TW","2019/06/21 19:19:06","新北市永和區仁愛路104巷10號","121.512043333333","25.0136716666667","6500400","永和區"
"234026","9371-KE","2019/06/21 19:19:11","新北市永和區安樂路144巷31號","121.515186666667","24.9997433333333","6500400","永和區"
"234011","9373-KE","2019/06/21 19:19:14","新北市永和區保福路二段23巷19號","121.510096666667","25.0111533333333","6500400","永和區"
"249001","173-UM","2019/06/21 19:19:11","新北市八里區中華路一段333-1號","121.413123333333","25.1538966666667","6502300","八里區"
"248014","025-BX","2019/06/21 19:18:59","新北市五股區工商路207號","121.433203333333","25.0872216666667","6501500","五股區"
"248008","KED-0815","2019/06/21 19:19:12","新北市五股區中興路二段83巷26-3號","121.460011666667","25.0753983333333","6501500","五股區"
"248018","KED-0813","2019/06/21 19:19:13","新北市五股區壟路1-6號","121.418896666667","25.0954833333333","6501500","五股區"
"248012","247-BX","2019/06/21 19:19:03","新北市五股區中興路四段48巷16號","121.438635","25.0833966666667","6501500","五股區"
"248010","272-BY","2019/06/21 19:19:13","新北市五股區水碓一路23號","121.430536666667","25.0712633333333","6501500","五股區"
"248004","677-BX","2019/06/21 19:18:56","新北市五股區五福路149號","121.432071666667","25.091465","6501500","五股區"
"248002","678-BX","2019/06/21 19:19:11","新北市五股區凌雲路一段158巷14-1號","121.447815","25.1034683333333","6501500","五股區"
"234023","9380-KE","2019/06/21 19:19:09","新北市永和區竹林路115號","121.51986","25.0116416666667","6500400","永和區"
"234077","969-R7","2019/06/21 19:19:02","新北市永和區民族街35-1號","121.518816666667","24.999095","6500400","永和區"
"234074","AAC-211","2019/06/21 19:19:06","新北市永和區竹林路46號","121.51767","25.01423","6500400","永和區"
"234067","AAC-212","2019/06/21 19:18:56","新北市永和區保平路30巷7號","121.511601666667","25.007525","6500400","永和區"
"234003","AAC-295","2019/06/21 19:19:00","新北市永和區中山路一段117巷2號","121.510836666667","25.01023","6500400","永和區"
"244023","483-VK","2019/06/21 19:19:09","新北市林口區文林六街27巷11號","121.37088","25.0810983333333","6501700","林口區"
"244025","837-TS","2019/06/21 19:19:11","新北市林口區文化三路一段555巷50號","121.369743333333","25.07691","6501700","林口區"
"243012","AAD-798","2019/06/21 19:19:06","新北市泰山區同義街22號","121.431628333333","25.056325","6501600","泰山區"
"243010","297-R6","2019/06/21 19:19:08","新北市泰山區明志路一段492巷5號","121.430123333333","25.054705","6501600","泰山區"
"243014","KEA-2801","2019/06/21 19:19:10","新北市泰山區泰林路二段155號","121.433815","25.0604933333333","6501600","泰山區"
"243016","421-VK","2019/06/21 19:18:56","新北市泰山區工專路6號","121.424011666667","25.0395083333333","6501600","泰山區"
"243009","KEA-2215","2019/06/21 19:19:01","新北市泰山區文化街1巷1號","121.433808333333","25.06401","6501600","泰山區"
"243011","KEA-2216","2019/06/21 19:18:59","新北市泰山區中央路11巷1號","121.426218333333","25.0428383333333","6501600","泰山區"
"243013","646-TV","2019/06/21 19:19:05","新北市泰山區明志路三段145巷2弄15號","121.425058333333","25.039355","6501600","泰山區"
"243015","680-BX","2019/06/21 19:18:55","新北市泰山區公園路71號","121.426331666667","25.0554433333333","6501600","泰山區"
"222003","436-BY","2019/06/21 19:19:13","新北市深坑區深南路91號","121.626406666667","25.0160166666667","6501800","深坑區"
"222002","659-BX","2019/06/21 19:19:05","新北市深坑區北深路一段177號","121.632536666667","25.0108816666667","6501800","深坑區"
"231060","001-UM","2019/06/21 19:18:55","新北市新店區安康路二段156號","121.51232","24.9608433333333","6500600","新店區"
"231061","002-UM","2019/06/21 19:19:05","新北市新店區安康路一段50號","121.530271666667","24.9611333333333","6500600","新店區"
"231058","0293-UT","2019/06/21 19:19:10","新北市新店區光明街286巷2號","121.54057","24.96386","6500600","新店區"
"231059","046-UY","2019/06/21 19:19:01","新北市新店區安和路二段232號","121.516775","24.97728","6500600","新店區"
"231041","047-UY","2019/06/21 19:18:58","新北市新店區溪園路247號","121.525651666667","24.9836066666667","6500600","新店區"
"231051","107-UY","2019/06/21 19:19:10","","121.530925","24.9748283333333","6500600","新店區"
"231049","108-UY","2019/06/21 19:19:11","新北市新店區明德路111號","121.541541666667","24.9794216666667","6500600","新店區"
"231065","110-UY","2019/06/21 19:18:58","新北市新店區安祥路110巷25號","121.473596666667","24.9563333333333","6500600","新店區"
"231062","256-BX","2019/06/21 19:19:08","新北市新店區莒光路85巷14號","121.523551666667","24.9559416666667","6500600","新店區"
"231054","260-TV","2019/06/21 19:19:14","新北市新店區國校路16號","121.537846666667","24.9553766666667","6500600","新店區"
"231042","268-BY","2019/06/21 19:18:58","新北市新店區北宜路一段3號","121.538493333333","24.9585666666667","6500600","新店區"
"231064","278-BY","2019/06/21 19:19:01","新北市新店區安忠路57巷26弄2號","121.512918333333","24.9587666666667","6500600","新店區"
"231050","AAD-862","2019/06/21 19:19:10","新北市新店區竹林路25巷10號","121.552321666667","24.9513466666667","6500600","新店區"
"231045","355-BY","2019/06/21 19:19:14","新北市新店區北宜路一段260號","121.545688333333","24.952765","6500600","新店區"
"231055","4716-K9","2019/06/21 19:19:12","新北市新店區力行路30號","121.539176666667","24.964685","6500600","新店區"
"231067","4772-VM","2019/06/21 19:19:12","新北市新店區安康路一段195巷8弄1號","121.526373333333","24.9623816666667","6500600","新店區"
"231053","513-UM","2019/06/21 19:19:00","新北市新店區自強路219號","121.546913333333","24.91944","6500600","新店區"
"231040","617-UM","2019/06/21 19:19:14","新北市新店區三民路137號","121.53437","24.97257","6500600","新店區"
"231063","641-BX","2019/06/21 19:19:05","新北市新店區達觀路10號","121.50367","24.9439733333333","6500600","新店區"
"231048","KED-0819","2019/06/21 19:19:13","新北市新店區中興路二段61號","121.546633333333","24.9705683333333","6500600","新店區"
"231046","719-UM","2019/06/21 19:19:10","新北市新店區華城路12-1號","121.52926","24.95785","6500600","新店區"
"231057","720-UM","2019/06/21 19:18:56","新北市新店區百齡一路12號","121.55302","24.93248","6500600","新店區"
"231044","897-TW","2019/06/21 19:19:05","新北市新店區中興路三段326號","121.542046666667","24.9862816666667","6500600","新店區"
"231043","899-TW","2019/06/21 19:19:02","新北市新店區北新路二段107號","121.542923333333","24.9744183333333","6500600","新店區"
"231066","AKT-0513","2019/06/21 19:19:04","新北市新店區安祥路35-2號","121.490743333333","24.95675","6500600","新店區"
"241028","022-UY","2019/06/21 19:19:10","新北市三重區重新路三段148號","121.491225","25.0595433333333","6500200","三重區"
"241031","061-VK","2019/06/21 19:19:06","新北市三重區重新路四段101-8號","121.485643333333","25.0540066666667","6500200","三重區"
"241017","063-VK","2019/06/21 19:19:05","新北市三重區大同北路211-3號","121.492028333333","25.0656933333333","6500200","三重區"
"241009","267-UM","2019/06/21 19:19:11","新北市三重區溪尾街230巷44號","121.48605","25.0811016666667","6500200","三重區"
"241032","269-UM","2019/06/21 19:19:00","新北市三重區新生街83號","121.484076666667","25.05939","6500200","三重區"
"241025","271-UM","2019/06/21 19:19:06","新北市三重區中正北路406號","121.475385","25.0704666666667","6500200","三重區"
"241007","398-BY","2019/06/21 19:19:02","新北市三重區慈愛街52號","121.486271666667","25.0792483333333","6500200","三重區"
"241035","KEA-2210","2019/06/21 19:18:57","新北市三重區新北大道一段6號","121.489171666667","25.0615383333333","6500200","三重區"
"241020","478-VK","2019/06/21 19:19:03","新北市三重區忠孝路一段87號","121.489901666667","25.0722116666667","6500200","三重區"
"241026","480-VK","2019/06/21 19:19:13","新北市三重區文化南路65巷46弄9號","121.498665","25.0603283333333","6500200","三重區"
"241006","AAD-863","2019/06/21 19:19:01","新北市三重區車路頭街153號","121.483766666667","25.0769566666667","6500200","三重區"
"241022","KED-0820","2019/06/21 19:19:03","新北市三重區重陽路二段72號","121.487431666667","25.06385","6500200","三重區"
"241029","942-UM","2019/06/21 19:19:12","新北市三重區重安街23號","121.49094","25.0573266666667","6500200","三重區"
"235066","003-UY","2019/06/21 19:19:03","新北市中和區中和路161號","121.502808333333","24.9999766666667","6500300","中和區"
"235063","006-UY","2019/06/21 19:18:56","新北市中和區連勝街135號","121.494855","24.9954266666667","6500300","中和區"
"235056","096-UM","2019/06/21 19:19:06","新北市中和區員山路521號","121.479775","25.0068166666667","6500300","中和區"
"235065","098-UM","2019/06/21 19:18:59","新北市中和區中山路二段64巷16弄16號","121.503743333333","25.0061033333333","6500300","中和區"
"235040","150-BY","2019/06/21 19:19:05","新北市中和區保健路46巷10號","121.509408333333","24.9966333333333","6500300","中和區"
"235058","151-BY","2019/06/21 19:19:14","新北市中和區員山路36巷16-3號","121.48457","24.9911416666667","6500300","中和區"
"235055","183-VK","2019/06/21 19:18:56","新北市中和區德光路71號","121.469581666667","25.0037233333333","6500300","中和區"
"235038","185-VK","2019/06/21 19:18:57","新北市中和區大仁街108號","121.520565","24.9927966666667","6500300","中和區"
"235049","186-VK","2019/06/21 19:19:13","新北市中和區景新街265號","121.50895","24.9940383333333","6500300","中和區"
"235067","255-BX","2019/06/21 19:19:12","新北市中和區員山路124巷44號","121.482696666667","24.996175","6500300","中和區"
"235044","293-VK","2019/06/21 19:19:04","新北市中和區復興路275號","121.502548333333","24.99037","6500300","中和區"
"235072","301-VK","2019/06/21 19:19:10","新北市中和區連城路263巷4弄2號","121.491535","24.9959466666667","6500300","中和區"
"235043","352-BY","2019/06/21 19:19:07","新北市中和區景平路402號","121.509246666667","24.9931266666667","6500300","中和區"
"235042","KEA-2878","2019/06/21 19:19:13","新北市中和區安平路154號","121.512463333333","24.9983416666667","6500300","中和區"
"235050","4979-A6","2019/06/21 19:18:58","新北市中和區景安路208巷28號","121.502863333333","24.99164","6500300","中和區"
"235069","4980-A6","2019/06/21 19:18:56","新北市中和區莊敬路31巷32-1號","121.499928333333","25.0057383333333","6500300","中和區"
"235041","551-UM","2019/06/21 19:18:52","新北市中和區中和路294號","121.508571666667","24.9997933333333","6500300","中和區"
"235070","558-UM","2019/06/21 19:19:13","新北市中和區中和路86號","121.501181666667","25.0005933333333","6500300","中和區"
"235045","565-BX","2019/06/21 19:19:04","新北市中和區景新街399巷9號","121.512905","24.9899016666667","6500300","中和區"
"235060","KED-0823","2019/06/21 19:19:00","新北市中和區員山路294巷19號","121.48236","25.00235","6500300","中和區"
"235047","732-UM","2019/06/21 19:19:14","新北市中和區景平路239巷59弄19號","121.508926666667","24.9916983333333","6500300","中和區"
"235046","733-UM","2019/06/21 19:18:56","新北市中和區忠孝街2巷10-8號","121.509796666667","24.9813416666667","6500300","中和區"
"235071","783-BX","2019/06/21 19:19:01","新北市中和區連城路469巷46號","121.48343","24.9945133333333","6500300","中和區"
"235057","801-TS","2019/06/21 19:19:01","新北市中和區員山路453號","121.480516666667","25.0042333333333","6500300","中和區"
"235052","805-TS","2019/06/21 19:19:11","新北市中和區華新街143巷8-1號","121.506525","24.9809583333333","6500300","中和區"
"235048","896-TW","2019/06/21 19:19:06","新北市中和區仁愛街130號","121.511863333333","24.98649","6500300","中和區"
"235053","900-TW","2019/06/21 19:18:57","新北市中和區華安街17巷20號","121.467473333333","24.9982633333333","6500300","中和區"
"235064","911-UM","2019/06/21 19:19:02","新北市中和區南山路72號","121.50238","24.9959083333333","6500300","中和區"
"235051","157-BY","2019/06/21 19:19:04","新北市中和區景平路239巷33弄9號","121.509516666667","24.9918233333333","6500300","中和區"
"235037","AAC-213","2019/06/21 19:18:53","新北市中和區秀朗路三段10巷14弄19號","121.524656666667","24.99646","6500300","中和區"
"235059","AAC-215","2019/06/21 19:18:55","新北市中和區圓通路286巷1號","121.49131","24.9911016666667","6500300","中和區"
"220065","072-UY","2019/06/21 19:18:56","新北市板橋區民族路129巷10號","121.46764","25.0084383333333","6500100","板橋區"
"220086","073-UY","2019/06/21 19:19:11","新北市板橋區國光路171號","121.460498333333","25.0184916666667","6500100","板橋區"
"220106","075-UY","2019/06/21 19:19:00","新北市板橋區文化路二段417巷3號","121.473765","25.0336216666667","6500100","板橋區"
"220069","AAD-861","2019/06/21 19:19:08","新北市板橋區稚暉街23號","121.456645","25.0042533333333","6500100","板橋區"
"226004","312-R5","2019/06/21 19:19:10","新北市平溪區靜安路三段226號","121.775708333333","25.0395916666667","6502400","平溪區"
"235054","251-BX","2019/06/21 19:19:16","新北市中和區國光街102巷10號","121.470435","25.0004783333333","6500300","中和區"
"228001","212-TW","2019/06/21 19:19:00","新北市貢寮區真理里新港街10號","121.925538333333","25.0543616666667","6502600","貢寮區"
"228002","663-BX","2019/06/21 19:19:06","新北市貢寮區雙玉里田寮洋街21號","121.927548333333","25.0238033333333","6502600","貢寮區"
"228003","828-UM","2019/06/21 19:18:59","新北市貢寮區和美里和美街19-2號","121.912791666667","25.082605","6502600","貢寮區"
"224010","AGQ-8101","2019/06/21 19:19:00","新北市瑞芳區基山街157號","121.843641666667","25.10812","6501200","瑞芳區"
"224008","273-VK","2019/06/21 19:19:02","新北市瑞芳區一坑路189-2號","121.801645","25.1091233333333","6501200","瑞芳區"
"227002","642-TC","2019/06/21 19:19:04","新北市雙溪區平林里梅竹蹊43號","121.860163333333","25.0357916666667","6502500","雙溪區"
"227001","400-TW","2019/06/21 19:19:11","新北市雙溪區新基里新基北街40號","121.868521666667","25.03801","6502500","雙溪區"
"253006","032-BX","2019/06/21 19:19:03","新北市石門區崁子腳18-10號","121.534433333333","25.2902783333333","6502200","石門區"
"253005","295-VK","2019/06/21 19:19:15","新北市石門區阿里荖10-1號","121.608635","25.280155","6502200","石門區"
"222001","KEA-2212","2019/06/21 19:19:09","新北市深坑區北深路二段82號","121.61756","25.0035283333333","6501800","深坑區"
"208002","KEA-2872","2019/06/21 19:19:04","新北市金山區中華路138號","121.633063333333","25.22107","6502700","金山區"
"208003","665-BX","2019/06/21 19:19:16","新北市金山區忠孝一路74號","121.637206666667","25.220715","6502700","金山區"
"251005","010-UM","2019/06/21 19:19:03","新北市淡水區水源街一段29號","121.443315","25.172325","6501000","淡水區"
"251001","011-UM","2019/06/21 19:19:11","新北市淡水區自強路201巷43號","121.462143333333","25.12684","6501000","淡水區"
"251010","413-VK","2019/06/21 19:18:55","新北市淡水區沙崙路26號","121.421365","25.1813883333333","6501000","淡水區"
"251007","442-VK","2019/06/21 19:19:00","新北市淡水區民生路145巷54號","121.46793","25.1387716666667","6501000","淡水區"
"251006","561-UM","2019/06/21 19:18:55","新北市淡水區大信街33號","121.442058333333","25.177315","6501000","淡水區"
"251009","575-R6","2019/06/21 19:18:57","新北市淡水區清水街152號","121.441191666667","25.1704066666667","6501000","淡水區"
"251002","672-BX","2019/06/21 19:18:53","新北市淡水區真理街2-1號","121.438668333333","25.1730433333333","6501000","淡水區"
"251003","766-UM","2019/06/21 19:19:08","新北市淡水區中山路151號","121.44054","25.1725583333333","6501000","淡水區"
"207003","550-UM","2019/06/21 19:19:00","新北市萬里區大鵬里萬里加投79-1號","121.64728","25.21231","6502800","萬里區"
"207004","225-TW","2019/06/21 19:19:06","新北市萬里區萬里里成功新村65號","121.688316666667","25.1745733333333","6502800","萬里區"
"252002","178-VK","2019/06/21 19:19:09","新北市三芝區淡金路二段18-1號","121.502588333333","25.25948","6502100","三芝區"
"208001","170-UY","2019/06/21 19:19:16","新北市金山區民生路69號","121.640118333333","25.219645","6502700","金山區"
"237004","KEA-2597","2019/06/21 19:19:10","新北市三峽區有木205-1號","121.439073333333","24.8515866666667","6500900","三峽區"
"237007","153-BY","2019/06/21 19:18:59","新北市三峽區二鬮路148號","121.359668333333","24.9075966666667","6500900","三峽區"
"237009","210-TH","2019/06/21 19:19:05","新北市三峽區民生街213號","121.37157","24.93482","6500900","三峽區"
"237013","252-BX","2019/06/21 19:19:07","新北市三峽區大同路39巷21號","121.377856666667","24.9275466666667","6500900","三峽區"
"237012","275-BY","2019/06/21 19:19:07","新北市三峽區三樹路222巷236弄23號","121.391475","24.9430583333333","6500900","三峽區"
"237008","302-VK","2019/06/21 19:19:10","新北市三峽區大同路154號","121.373101666667","24.9267866666667","6500900","三峽區"
"237014","433-BY","2019/06/21 19:19:05","新北市三峽區中山路257巷39號","121.362055","24.9364383333333","6500900","三峽區"
"237006","5529-G3","2019/06/21 19:19:15","新北市三峽區中正路一段336巷15弄2號","121.36991","24.924935","6500900","三峽區"
"237011","KEA-2596","2019/06/21 19:19:09","新北市三峽區介壽路三段107號","121.395493333333","24.9392733333333","6500900","三峽區"
"237015","649-BX","2019/06/21 19:19:08","新北市三峽區安坑48-1號","121.459441666667","24.9322683333333","6500900","三峽區"
"237010","706-TV","2019/06/21 19:19:12","新北市三峽區民生街58號","121.375271666667","24.93632","6500900","三峽區"
"237005","AKY-6261","2019/06/21 19:18:59","新北市鶯歌區三鶯路5號","121.35682","24.94067","6500900","三峽區"
"236079","166-UM","2019/06/21 19:19:03","新北市土城區中央路四段324號","121.413675","24.9556","6501300","土城區"
"236026","269-VK","2019/06/21 19:19:11","新北市土城區中正路67巷27號","121.44412","24.9766216666667","6501300","土城區"
"236014","270-VK","2019/06/21 19:19:02","新北市土城區學府路一段34號","121.458198333333","24.9884866666667","6501300","土城區"
"236069","KEA-2877","2019/06/21 19:19:05","新北市土城區中央路一段56號","121.447518333333","24.98971","6501300","土城區"
"252001","KED-0821","2019/06/21 19:19:03","新北市三芝區長勤街37巷18號","121.50114","25.2551316666667","6502100","三芝區"
"236020","401-BY","2019/06/21 19:18:59","新北市土城區峰廷街18號","121.468985","24.9873166666667","6501300","土城區"
"236059","912-UM","2019/06/21 19:19:13","新北市土城區中央路二段340號","121.440143333333","24.9720316666667","6501300","土城區"
"236048","913-UM","2019/06/21 19:19:04","新北市土城區明德路一段365-1號","121.453683333333","24.9791116666667","6501300","土城區"
"242032","347-TH","2019/06/21 19:19:09","新北市新莊區三和路12-21號","121.442266666667","25.03833","6500500","新莊區"
"238015","755-BX","2019/06/21 19:18:53","新北市樹林區大安路592號","121.411556666667","24.9831816666667","6500700","樹林區"
"238023","601-UM","2019/06/21 19:18:58","新北市樹林區中正路865號","121.408786666667","25.018115","6500700","樹林區"
"238019","599-UM","2019/06/21 19:18:57","新北市樹林區東榮街91巷2弄2號","121.415936666667","24.9825066666667","6500700","樹林區"
"238018","KEA-2217","2019/06/21 19:19:01","新北市樹林區中華路118巷8號","121.417755","24.9808333333333","6500700","樹林區"
"238022","KEA-2213","2019/06/21 19:19:13","新北市樹林區東興街4巷2號","121.408646666667","24.9800533333333","6500700","樹林區"
"238021","KEA-2539","2019/06/21 19:19:13","新北市樹林區學府路210號","121.377651666667","24.9500883333333","6500700","樹林區"
"238025","303-VK","2019/06/21 19:19:00","新北市樹林區中山路二段84號","121.414721666667","24.983645","6500700","樹林區"
"238017","283-BY","2019/06/21 19:19:06","新北市樹林區光興街88號","121.407718333333","25.0026333333333","6500700","樹林區"
"238014","282-BY","2019/06/21 19:18:57","新北市樹林區保安二街40巷23號","121.425705","24.9940866666667","6500700","樹林區"
"238020","268-VK","2019/06/21 19:19:05","新北市樹林區俊英街121巷29號","121.42337","25.0100433333333","6500700","樹林區"
"238026","172-UY","2019/06/21 19:18:56","新北市樹林區佳園路一段153號","121.393885","24.9681533333333","6500700","樹林區"
"238016","169-UY","2019/06/21 19:19:12","新北市樹林區備前街26-2號","121.417505","24.9858366666667","6500700","樹林區"
"239007","AAC-297","2019/06/21 19:19:14","新北市鶯歌區大湖路326巷30號","121.346265","24.9696816666667","6500800","鶯歌區"
"239006","891-R6","2019/06/21 19:18:56","新北市鶯歌區尖山埔路144號","121.343485","24.949845","6500800","鶯歌區"
"239008","527-UM","2019/06/21 19:18:59","新北市鶯歌區國際二路4巷9號","121.338913333333","24.9734033333333","6500800","鶯歌區"
"239005","526-UM","2019/06/21 19:18:57","新北市鶯歌區中湖街57-2號","121.349126666667","24.9738983333333","6500800","鶯歌區"
"239001","417-VK","2019/06/21 19:19:14","新北市鶯歌區建國路443號","121.338593333333","24.9515683333333","6500800","鶯歌區"
"239003","360-BY","2019/06/21 19:18:56","新北市鶯歌區中正二路157號","121.345743333333","24.9499316666667","6500800","鶯歌區"
"239004","193-VK","2019/06/21 19:18:56","新北市鶯歌區二甲路50-4號","121.337461666667","24.9346816666667","6500800","鶯歌區"
"221008","489-VK","2019/06/21 19:19:03","新北市汐止區康寧街310號","121.626798333333","25.06727","6501100","汐止區"
"221031","353-TW","2019/06/21 19:19:07","新北市汐止區汐萬路一段333巷23號","121.648358333333","25.0761083333333","6501100","汐止區"
"221035","622-UM","2019/06/21 19:18:57","新北市汐止區汐萬路一段267號","121.650683333333","25.0742983333333","6501100","汐止區"
"221002","707-TV","2019/06/21 19:18:59","新北市汐止區大同路一段343號","121.638728333333","25.0594633333333","6501100","汐止區"
"220079","145-BY","2019/06/21 19:19:12","新北市板橋區民權路256號","121.458071666667","25.0148983333333","6500100","板橋區"
"220080","200-UY","2019/06/21 19:19:02","新北市板橋區大觀路二段1巷60號","121.450608333333","25.0035433333333","6500100","板橋區"
"220082","610-BX","2019/06/21 19:19:14","新北市板橋區篤行路三段玉平巷68弄13號","121.427265","24.9862066666667","6500100","板橋區"
"220101","245-BX","2019/06/21 19:19:15","新北市板橋區縣民大道三段133巷9號","121.477388333333","25.0235583333333","6500100","板橋區"
"220091","267-BY","2019/06/21 19:18:58","新北市板橋區縣民大道三段229號","121.480846666667","25.0256483333333","6500100","板橋區"
"220056","276-BY","2019/06/21 19:19:09","新北市土城區永豐路13巷5弄11號","121.461601666667","24.989385","6500100","板橋區"
"220072","277-BY","2019/06/21 19:18:53","新北市板橋區金門街260巷23號","121.42938","24.9866433333333","6500100","板橋區"
"220071","283-VK","2019/06/21 19:19:11","新北市板橋區重慶路269巷31-3號","121.464275","24.9991983333333","6500100","板橋區"
"220094","285-UM","2019/06/21 19:19:11","新北市板橋區吳鳳路38號","121.468481666667","25.030365","6500100","板橋區"
"220053","285-VK","2019/06/21 19:19:16","新北市板橋區縣民大道三段204號","121.476678333333","25.02226","6500100","板橋區"
"220083","286-VK","2019/06/21 19:18:59","新北市板橋區大觀路二段174巷196弄3-2號","121.442626666667","25.0038616666667","6500100","板橋區"
"220081","287-VK","2019/06/21 19:19:04","新北市板橋區南雅西路一段40號","121.45386","25.0046433333333","6500100","板橋區"
"220090","288-VK","2019/06/21 19:19:09","新北市板橋區長江路一段110號","121.45973","25.0296883333333","6500100","板橋區"
"220061","293-UM","2019/06/21 19:18:59","新北市板橋區中山路二段291-14號","121.478491666667","25.0182283333333","6500100","板橋區"
"220062","295-UM","2019/06/21 19:19:13","新北市板橋區三民路二段153巷36弄2號","121.481111666667","25.0141466666667","6500100","板橋區"
"220084","296-UM","2019/06/21 19:19:04","新北市板橋區溪北路73巷5號","121.428321666667","24.98987","6500100","板橋區"
"220075","303-R5","2019/06/21 19:19:15","新北市板橋區南雅南路一段60-1號","121.455398333333","25.0054683333333","6500100","板橋區"
"220092","307-R5","2019/06/21 19:19:13","新北市板橋區光武街2巷2號","121.468311666667","25.0247516666667","6500100","板橋區"
"220098","317-R6","2019/06/21 19:19:06","新北市板橋區四維路103巷26號","121.464668333333","25.0240833333333","6500100","板橋區"
"220089","487-VK","2019/06/21 19:19:13","新北市板橋區英士路199號","121.458765","25.023535","6500100","板橋區"
"220088","491-VK","2019/06/21 19:19:01","新北市板橋區雙十路二段76巷2號","121.475066666667","25.0279316666667","6500100","板橋區"
"220103","561-BX","2019/06/21 19:19:03","新北市板橋區文化路一段270巷3弄2號","121.467535","25.0208866666667","6500100","板橋區"
"220063","609-BX","2019/06/21 19:19:07","新北市板橋區三民路一段120號","121.479266666667","25.0209966666667","6500100","板橋區"
"220035","630-UY","2019/06/21 19:19:05","新北市板橋區瑞安街49號","121.455323333333","25.022335","6500100","板橋區"
"220057","686-BX","2019/06/21 19:19:06","新北市板橋區和平路69號","121.461235","24.994635","6500100","板橋區"
"220077","687-BX","2019/06/21 19:19:10","新北市板橋區大觀路二段29號","121.446718333333","25.0031533333333","6500100","板橋區"
"220093","689-BX","2019/06/21 19:19:03","新北市板橋區英士路49號","121.46105","25.0246216666667","6500100","板橋區"
"220054","741-BX","2019/06/21 19:19:15","新北市板橋區重慶路196號","121.462593333333","25.002925","6500100","板橋區"
"220102","KEA-2699","2019/06/21 19:19:08","新北市板橋區雙十路二段130巷2弄21號","121.474641666667","25.02884","6500100","板橋區"
"220055","827-TW","2019/06/21 19:19:12","新北市板橋區四川路一段46號","121.459486666667","25.0059283333333","6500100","板橋區"
"220067","829-TW","2019/06/21 19:18:57","新北市板橋區長安街138巷1弄56號","121.47408","25.0101533333333","6500100","板橋區"
"220068","831-TW","2019/06/21 19:18:59","新北市板橋區萬安街134號","121.483301666667","25.02604","6500100","板橋區"
"220074","895-R6","2019/06/21 19:19:01","新北市板橋區中正路自強新村91-1號","121.454913333333","25.01317","6500100","板橋區"
"220073","985-R7","2019/06/21 19:19:12","新北市板橋區中正路362號","121.454336666667","25.0239883333333","6500100","板橋區"
"220097","AAC-210","2019/06/21 19:19:09","新北市板橋區漢生西路89巷2弄23號","121.461641666667","25.0198883333333","6500100","板橋區"
"220064","AAC-253","2019/06/21 19:19:15","新北市板橋區民族路40號","121.462028333333","25.0096366666667","6500100","板橋區"
"235068","KEA-2873","2019/06/21 19:18:46","新北市中和區連勝街66號","121.497238333333","24.9969283333333","6500300","中和區"
"235061","KEA-2875","2019/06/21 19:19:12","新北市中和區連城路456巷9號","121.478635","24.99515","6500300","中和區"
"235039","KEA-2876","2019/06/21 19:18:50","新北市中和區秀峰街103巷2弄13號","121.519935","24.99041","6500300","中和區"
