"lineid","car","time","location","longitude","latitude","cityid","cityname"
"234046","148-BY","2019/06/21 19:49:07","新北市永和區秀朗路二段173巷8弄5號","121.525838333333","25.0024616666667","6500400","永和區"
"234038","336-UY","2019/06/21 19:48:59","新北市永和區民樂街55巷10號","121.52789","24.9985166666667","6500400","永和區"
"234064","337-UY","2019/06/21 19:48:55","新北市永和區中正路402號","121.517556666667","25.001795","6500400","永和區"
"234086","338-UY","2019/06/21 19:49:13","新北市永和區永利路2號","121.51741","25.005945","6500400","永和區"
"234070","552-UM","2019/06/21 19:49:10","新北市永和區竹林路229號","121.520798333333","25.008325","6500400","永和區"
"234017","745-BX","2019/06/21 19:49:05","新北市永和區永和路二段297號","121.516006666667","25.016055","6500400","永和區"
"234030","746-BX","2019/06/21 19:49:02","新北市永和區民生路67巷42號","121.524873333333","24.9973583333333","6500400","永和區"
"234054","KEA-2590","2019/06/21 19:49:15","新北市永和區竹林路72巷2號","121.518945","25.0130766666667","6500400","永和區"
"234007","KED-0605","2019/06/21 19:49:14","新北市中和區中和路236號","121.507156666667","24.999595","6500400","永和區"
"234013","KEA-2591","2019/06/21 19:49:03","新北市永和區仁愛路219號","121.509291666667","25.0121916666667","6500400","永和區"
"234061","AAD-866","2019/06/21 19:49:08","新北市永和區中正路39-1號","121.514398333333","24.99613","6500400","永和區"
"234081","748-BX","2019/06/21 19:49:06","新北市永和區永亨路98號","121.523035","25.0049","6500400","永和區"
"234042","862-TW","2019/06/21 19:49:12","新北市永和區中和路389巷13號","121.50805","25.0009866666667","6500400","永和區"
"234050","863-TW","2019/06/21 19:49:06","新北市永和區保安路144號","121.508606666667","25.014935","6500400","永和區"
"234026","9371-KE","2019/06/21 19:49:11","新北市永和區雙和街25巷7號","121.508893333333","25.00184","6500400","永和區"
"234011","9373-KE","2019/06/21 19:49:13","新北市永和區仁愛路352巷92弄2號","121.50125","25.00804","6500400","永和區"
"249005","172-UM","2019/06/21 19:49:07","新北市八里區中華路三段169-1號","121.392238333333","25.1295583333333","6502300","八里區"
"249001","173-UM","2019/06/21 19:49:08","新北市八里區中華路二段165巷2-3號","121.407208333333","25.1510483333333","6502300","八里區"
"249004","303-UY","2019/06/21 19:49:10","新北市八里區仁愛路15號","121.41364","25.1611066666667","6502300","八里區"
"249002","305-UY","2019/06/21 19:49:16","新北市八里區頂寮五街15號","121.451616666667","25.1260966666667","6502300","八里區"
"249003","759-BX","2019/06/21 19:48:58","新北市八里區華峰三街37號","121.398591666667","25.14542","6502300","八里區"
"248014","025-BX","2019/06/21 19:48:59","新北市五股區五福路22巷6號","121.434665","25.0889316666667","6501500","五股區"
"248016","026-BX","2019/06/21 19:49:11","新北市五股區成泰路四段22巷25號","121.454998333333","25.1078183333333","6501500","五股區"
"248008","KED-0815","2019/06/21 19:49:13","新北市五股區四維路173號","121.467928333333","25.075065","6501500","五股區"
"248018","KED-0813","2019/06/21 19:49:13","新北市五股區外寮路1-5號","121.425893333333","25.0768266666667","6501500","五股區"
"248012","247-BX","2019/06/21 19:49:03","新北市五股區蓬萊路4號","121.435545","25.079445","6501500","五股區"
"248010","272-BY","2019/06/21 19:49:13","新北市五股區登林路貿商巷3弄15號","121.429708333333","25.0699466666667","6501500","五股區"
"248004","677-BX","2019/06/21 19:48:56","新北市五股區成泰路一段82號","121.43574","25.0708033333333","6501500","五股區"
"248002","678-BX","2019/06/21 19:49:11","新北市五股區成泰路四段12-1號","121.453236666667","25.106625","6501500","五股區"
"234023","9380-KE","2019/06/21 19:49:14","新北市永和區豫溪街57巷4弄18號","121.517981666667","25.010225","6500400","永和區"
"234077","969-R7","2019/06/21 19:49:02","新北市永和區中正路264號","121.516875","24.9986583333333","6500400","永和區"
"234074","AAC-211","2019/06/21 19:49:06","新北市永和區竹林路179巷40號","121.52219","25.010235","6500400","永和區"
"234067","AAC-212","2019/06/21 19:48:56","新北市永和區永貞路414號","121.508973333333","25.0079983333333","6500400","永和區"
"234003","AAC-295","2019/06/21 19:49:00","新北市永和區福和路308號","121.516336666667","25.00742","6500400","永和區"
"244023","483-VK","2019/06/21 19:49:09","新北市林口區民權路165-1號","121.374305","25.0847516666667","6501700","林口區"
"243012","AAD-798","2019/06/21 19:49:13","新北市泰山區全興路111號","121.433806666667","25.0565216666667","6501600","泰山區"
"243016","421-VK","2019/06/21 19:48:56","新北市泰山區新北大道六段401號","121.421868333333","25.031965","6501600","泰山區"
"243009","KEA-2215","2019/06/21 19:49:01","新北市泰山區美寧街60號","121.430948333333","25.0646766666667","6501600","泰山區"
"243011","KEA-2216","2019/06/21 19:49:15","新北市泰山區明志路三段196巷21弄26號","121.422555","25.03852","6501600","泰山區"
"222003","436-BY","2019/06/21 19:49:13","新北市深坑區深南路51-1號","121.62127","25.0097933333333","6501800","深坑區"
"222002","659-BX","2019/06/21 19:49:05","新北市深坑區北深路一段288號","121.628421666667","25.0078516666667","6501800","深坑區"
"231060","001-UM","2019/06/21 19:48:55","新北市新店區安康路二段161號","121.510193333333","24.95931","6500600","新店區"
"231061","002-UM","2019/06/21 19:49:05","新北市新店區安民街143號","121.516526666667","24.96958","6500600","新店區"
"231059","046-UY","2019/06/21 19:49:01","新北市新店區安和路二段185號","121.518326666667","24.9748366666667","6500600","新店區"
"231041","047-UY","2019/06/21 19:48:58","新北市新店區中央路155號","121.529613333333","24.9726566666667","6500600","新店區"
"231051","107-UY","2019/06/21 19:49:10","新北市新店區中央二街43號","121.527515","24.9741266666667","6500600","新店區"
"231049","108-UY","2019/06/21 19:49:11","新北市新店區民權路88-1號","121.536781666667","24.983165","6500600","新店區"
"231065","110-UY","2019/06/21 19:48:59","新北市新店區安祥路109巷151弄10號","121.478228333333","24.9589016666667","6500600","新店區"
"231062","256-BX","2019/06/21 19:49:08","新北市新店區永業路91號","121.529295","24.949135","6500600","新店區"
"231054","260-TV","2019/06/21 19:49:14","新北市新店區中興路一段24-2號","121.538598333333","24.9582366666667","6500600","新店區"
"231042","268-BY","2019/06/21 19:49:00","新北市新店區中興路一段270-1號","121.545223333333","24.9680533333333","6500600","新店區"
"231064","278-BY","2019/06/21 19:49:01","新北市新店區光華街8巷10號","121.51803","24.9693183333333","6500600","新店區"
"231050","AAD-862","2019/06/21 19:49:10","新北市新店區北宜路二段148號","121.55763","24.9539166666667","6500600","新店區"
"231045","355-BY","2019/06/21 19:48:54","新北市新店區北宜路二段322號","121.561995","24.953955","6500600","新店區"
"231056","4715-K9","2019/06/21 19:49:12","新北市新店區民權路74號","121.538108333333","24.9832566666667","6500600","新店區"
"231067","4772-VM","2019/06/21 19:49:12","新北市新店區精忠路10-1號","121.532535","24.9591033333333","6500600","新店區"
"231053","513-UM","2019/06/21 19:49:00","新北市新店區新烏路二段396號","121.551601666667","24.90917","6500600","新店區"
"231040","617-UM","2019/06/21 19:48:54","新北市新店區中正路75巷71號","121.543225","24.9688333333333","6500600","新店區"
"231063","641-BX","2019/06/21 19:49:05","新北市新店區車子路11號","121.503053333333","24.95203","6500600","新店區"
"231048","KED-0819","2019/06/21 19:48:58","新北市新店區中興路二段100巷1號","121.547621666667","24.9715333333333","6500600","新店區"
"231046","719-UM","2019/06/21 19:45:30","新北市新店區福園街9號","121.533311666667","24.972955","6500600","新店區"
"231057","720-UM","2019/06/21 19:48:56","新北市新店區梅崗三路1號","121.558441666667","24.931235","6500600","新店區"
"231044","897-TW","2019/06/21 19:49:06","新北市新店區復興路29巷2號","121.539011666667","24.9864","6500600","新店區"
"231043","899-TW","2019/06/21 19:49:02","新北市新店區中正路263-1號","121.538611666667","24.9737433333333","6500600","新店區"
"231066","AKT-0513","2019/06/21 19:49:04","新北市新店區安康路三段165巷2弄3號","121.489315","24.9513383333333","6500600","新店區"
"241011","013-R5","2019/06/21 19:49:02","新北市三重區介壽路41號","121.498605","25.0700616666667","6500200","三重區"
"241028","022-UY","2019/06/21 19:49:10","新北市三重區中正南路192號","121.493875","25.0560583333333","6500200","三重區"
"241008","059-VK","2019/06/21 19:49:10","新北市三重區永福街90號","121.478756666667","25.076215","6500200","三重區"
"241012","060-VK","2019/06/21 19:49:08","新北市三重區仁興街56巷26號","121.498475","25.0755766666667","6500200","三重區"
"241031","061-VK","2019/06/21 19:49:06","新北市三重區重新路四段206-5號","121.48595","25.0544233333333","6500200","三重區"
"241015","062-VK","2019/06/21 19:49:08","新北市三重區三和路一段2號","121.503853333333","25.0642533333333","6500200","三重區"
"241017","063-VK","2019/06/21 19:49:05","新北市三重區重陽路三段5巷8弄27號","121.48953","25.0665966666667","6500200","三重區"
"241001","066-VK","2019/06/21 19:49:00","新北市三重區仁愛街283巷4號","121.493225","25.0792583333333","6500200","三重區"
"241003","091-VK","2019/06/21 19:49:02","新北市三重區仁愛街445巷65號","121.491608333333","25.083355","6500200","三重區"
"241016","266-UM","2019/06/21 19:49:10","新北市三重區正義北路28巷50號","121.496158333333","25.0629466666667","6500200","三重區"
"241009","267-UM","2019/06/21 19:49:11","新北市三重區三和路四段396巷2-1號","121.481338333333","25.0791433333333","6500200","三重區"
"241018","268-UM","2019/06/21 19:49:11","新北市三重區雙園街57巷34弄22號","121.493991666667","25.0682516666667","6500200","三重區"
"241032","269-UM","2019/06/21 19:49:00","新北市三重區重陽路一段44巷37號","121.485136666667","25.057855","6500200","三重區"
"241013","270-UM","2019/06/21 19:49:02","新北市三重區仁愛街92巷13號","121.494753333333","25.0738166666667","6500200","三重區"
"241025","271-UM","2019/06/21 19:49:06","新北市三重區頂崁街210巷3號","121.476821666667","25.0676766666667","6500200","三重區"
"241007","398-BY","2019/06/21 19:49:02","新北市三重區三和路四段145巷7號","121.48456","25.0782616666667","6500200","三重區"
"241035","KEA-2210","2019/06/21 19:49:01","新北市三重區文化北路6-3號","121.499471666667","25.0635283333333","6500200","三重區"
"241020","478-VK","2019/06/21 19:49:11","新北市三重區三和路四段7號","121.491366666667","25.0740333333333","6500200","三重區"
"241026","480-VK","2019/06/21 19:49:13","新北市三重區光興街1號","121.500273333333","25.0604316666667","6500200","三重區"
"241014","543-UM","2019/06/21 19:49:03","新北市三重區長元街98巷18弄31號","121.501733333333","25.0674783333333","6500200","三重區"
"241006","AAD-863","2019/06/21 19:49:01","新北市三重區力行路二段76巷29號","121.48055","25.073625","6500200","三重區"
"241019","743-BX","2019/06/21 19:49:03","新北市三重區自強路二段67巷17號","121.489401666667","25.070225","6500200","三重區"
"241022","KED-0820","2019/06/21 19:48:56","新北市三重區重安街1號","121.489603333333","25.0584416666667","6500200","三重區"
"241029","942-UM","2019/06/21 19:49:13","新北市三重區重安街16號","121.490578333333","25.0584466666667","6500200","三重區"
"241033","AAC-255","2019/06/21 19:49:11","新北市三重區中興南街64號","121.47064","25.0440733333333","6500200","三重區"
"235066","003-UY","2019/06/21 19:49:03","新北市中和區南工路20號","121.50543","25.00049","6500300","中和區"
"235056","096-UM","2019/06/21 19:49:08","新北市中和區漢民路406號","121.472168333333","25.00699","6500300","中和區"
"235065","098-UM","2019/06/21 19:48:59","新北市中和區福祥路72號","121.49932","25.0054716666667","6500300","中和區"
"235040","150-BY","2019/06/21 19:49:05","新北市中和區景安路85號","121.506298333333","24.9968933333333","6500300","中和區"
"235058","151-BY","2019/06/21 19:49:14","新北市中和區員山路150巷2弄1號","121.481691666667","24.9982666666667","6500300","中和區"
"235055","183-VK","2019/06/21 19:48:56","新北市中和區中山路三段181巷2號","121.47284","25.0059633333333","6500300","中和區"
"235038","185-VK","2019/06/21 19:49:17","新北市中和區自立路6號","121.5224","24.9965566666667","6500300","中和區"
"235049","186-VK","2019/06/21 19:49:06","新北市中和區中興街41號","121.500833333333","24.9942966666667","6500300","中和區"
"235067","255-BX","2019/06/21 19:49:12","新北市中和區新生街196號","121.48377","24.99935","6500300","中和區"
"235044","293-VK","2019/06/21 19:49:04","新北市中和區南山路267號","121.504026666667","24.99265","6500300","中和區"
"235072","301-VK","2019/06/21 19:49:10","新北市中和區橋和路281巷1號","121.495558333333","25.0074783333333","6500300","中和區"
"235043","352-BY","2019/06/21 19:49:07","新北市中和區華新街232巷3號","121.50597","24.9816533333333","6500300","中和區"
"235042","KEA-2878","2019/06/21 19:49:13","新北市中和區宜安路92巷23號","121.511426666667","24.9983783333333","6500300","中和區"
"247014","KEA-2869","2019/06/21 19:49:04","新北市蘆洲區中央路153號","121.472425","25.084485","6501400","蘆洲區"
"247008","KED-0682","2019/06/21 19:49:08","新北市蘆洲區信義路131號","121.478915","25.08028","6501400","蘆洲區"
"235050","4979-A6","2019/06/21 19:48:58","新北市中和區和平街164巷4號","121.50602","24.9923633333333","6500300","中和區"
"235041","551-UM","2019/06/21 19:49:12","新北市中和區中安街108號","121.511463333333","25.0008583333333","6500300","中和區"
"235070","558-UM","2019/06/21 19:49:13","新北市中和區圓通路157號","121.49815","24.99563","6500300","中和區"
"235060","KED-0823","2019/06/21 19:49:00","新北市中和區新生街32號","121.483146666667","25.0037833333333","6500300","中和區"
"235047","732-UM","2019/06/21 19:49:14","新北市中和區和平街17-2號","121.508633333333","24.990505","6500300","中和區"
"235046","733-UM","2019/06/21 19:49:16","新北市中和區仁愛街12號","121.51064","24.9890716666667","6500300","中和區"
"235052","805-TS","2019/06/21 19:49:11","新北市中和區華新街76號","121.508286666667","24.98355","6500300","中和區"
"235048","896-TW","2019/06/21 19:49:12","新北市中和區興南路一段137號","121.508723333333","24.9876116666667","6500300","中和區"
"235053","900-TW","2019/06/21 19:49:06","新北市中和區民德路204號","121.46831","24.9984966666667","6500300","中和區"
"235051","157-BY","2019/06/21 19:49:04","新北市中和區中興街180巷52弄3號","121.49843","24.98828","6500300","中和區"
"235037","AAC-213","2019/06/21 19:49:13","新北市中和區自立路36-22號","121.522721666667","24.99258","6500300","中和區"
"235059","AAC-215","2019/06/21 19:49:15","新北市中和區圓通路305巷27弄1號","121.495033333333","24.989165","6500300","中和區"
"220065","072-UY","2019/06/21 19:48:56","新北市板橋區國泰街39巷2弄1號","121.468421666667","25.0063266666667","6500100","板橋區"
"220086","073-UY","2019/06/21 19:49:10","新北市板橋區中正路236巷120號","121.459485","25.0196666666667","6500100","板橋區"
"220106","075-UY","2019/06/21 19:49:00","新北市板橋區民治街96巷22號","121.47855","25.032155","6500100","板橋區"
"220069","AAD-861","2019/06/21 19:48:57","新北市板橋區大明街31號","121.458195","25.00266","6500100","板橋區"
"247004","893-R6","2019/06/21 19:48:57","新北市蘆洲區中原路91號","121.457731666667","25.081515","6501400","蘆洲區"
"247002","500-BY","2019/06/21 19:48:54","新北市蘆洲區永樂街38巷57弄2號","121.45849","25.09021","6501400","蘆洲區"
"247024","337-TH","2019/06/21 19:49:14","新北市蘆洲區光復路13號","121.462571666667","25.0843216666667","6501400","蘆洲區"
"226004","312-R5","2019/06/21 19:49:10","新北市平溪區靜安路三段392巷3號","121.784538333333","25.0495666666667","6502400","平溪區"
"228001","212-TW","2019/06/21 19:49:00","新北市貢寮區真理里新港街113-2號","121.92646","25.05665","6502600","貢寮區"
"228003","828-UM","2019/06/21 19:48:59","新北市貢寮區真理里美艷山街9號","121.927181666667","25.0597683333333","6502600","貢寮區"
"224010","AGQ-8101","2019/06/21 19:49:00","新北市瑞芳區豎崎路1號","121.843466666667","25.10875","6501200","瑞芳區"
"227002","642-TC","2019/06/21 19:49:04","新北市雙溪區雙溪里內挖路47號","121.863281666667","25.036725","6502500","雙溪區"
"227001","400-TW","2019/06/21 19:49:11","新北市雙溪區新基里中華路90-1號","121.866","25.0390316666667","6502500","雙溪區"
"222001","KEA-2212","2019/06/21 19:49:09","新北市深坑區北深路三段71號","121.606831666667","25.001475","6501800","深坑區"
"208002","KEA-2872","2019/06/21 19:49:04","新北市金山區中華路168號","121.632738333333","25.2223616666667","6502700","金山區"
"208003","665-BX","2019/06/21 19:48:55","新北市金山區永興里忠義路29-1號","121.630583333333","25.2637433333333","6502700","金山區"
"251004","009-UM","2019/06/21 19:49:07","新北市淡水區民權路177巷53號","121.460481666667","25.1338816666667","6501000","淡水區"
"251005","010-UM","2019/06/21 19:49:03","新北市淡水區中正東路37號","121.44587","25.1681666666667","6501000","淡水區"
"251001","011-UM","2019/06/21 19:49:11","新北市淡水區中正東路二段37號","121.45927","25.1562183333333","6501000","淡水區"
"251008","181-VK","2019/06/21 19:49:14","新北市淡水區中正路二段24巷2-1號","121.426845","25.1769483333333","6501000","淡水區"
"251010","413-VK","2019/06/21 19:48:55","新北市淡水區崁頂92號","121.429608333333","25.2025683333333","6501000","淡水區"
"251012","441-VK","2019/06/21 19:49:09","新北市淡水區淡金路三段8-3號","121.447391666667","25.1982033333333","6501000","淡水區"
"251007","442-VK","2019/06/21 19:49:00","新北市淡水區中正東路一段3巷6號","121.451058333333","25.165","6501000","淡水區"
"251006","561-UM","2019/06/21 19:48:55","新北市淡水區水碓街15號","121.443458333333","25.1769366666667","6501000","淡水區"
"251009","575-R6","2019/06/21 19:49:17","新北市淡水區中正路38-1號","121.443775","25.169335","6501000","淡水區"
"251011","650-BX","2019/06/21 19:49:09","新北市淡水區八勢路15號","121.461165","25.15391","6501000","淡水區"
"251002","672-BX","2019/06/21 19:49:13","新北市淡水區下圭柔山90-8號","121.431255","25.2102883333333","6501000","淡水區"
"207003","550-UM","2019/06/21 19:49:03","新北市萬里區大鵬里萬里加投68號","121.642465","25.2147916666667","6502800","萬里區"
"207004","225-TW","2019/06/21 19:49:06","新北市萬里區萬里里瑪鋉路197號","121.690553333333","25.1790016666667","6502800","萬里區"
"252002","178-VK","2019/06/21 19:49:09","新北市三芝區三民街33-1號","121.504603333333","25.2585533333333","6502100","三芝區"
"208001","170-UY","2019/06/21 19:48:56","新北市金山區重和里林口32號","121.596265","25.2094733333333","6502700","金山區"
"237004","KEA-2597","2019/06/21 19:49:10","新北市三峽區添福285號","121.375786666667","24.8922933333333","6500900","三峽區"
"237007","153-BY","2019/06/21 19:48:59","新北市三峽區二鬮路21號","121.3626","24.9109816666667","6500900","三峽區"
"237009","210-TH","2019/06/21 19:48:44","新北市三峽區清水街426號","121.368745","24.9261016666667","6500900","三峽區"
"237013","252-BX","2019/06/21 19:49:07","新北市三峽區介壽路二段167號","121.394611666667","24.93597","6500900","三峽區"
"237012","275-BY","2019/06/21 19:49:07","新北市三峽區中華路24號","121.374021666667","24.93239","6500900","三峽區"
"237008","302-VK","2019/06/21 19:49:10","新北市三峽區大同路209號","121.370723333333","24.9270183333333","6500900","三峽區"
"237014","433-BY","2019/06/21 19:49:05","新北市三峽區添福15-6號","121.372096666667","24.905755","6500900","三峽區"
"237006","5529-G3","2019/06/21 19:49:15","新北市三峽區中正路一段336巷15弄2號","121.369925","24.9249583333333","6500900","三峽區"
"237011","KEA-2596","2019/06/21 19:49:09","新北市三峽區中正路一段524號","121.369485","24.920155","6500900","三峽區"
"237015","649-BX","2019/06/21 19:49:08","新北市三峽區溪東路307號","121.409623333333","24.9309516666667","6500900","三峽區"
"237005","AKY-6261","2019/06/21 19:48:59","新北市三峽區長泰街79-2號","121.37572","24.9331166666667","6500900","三峽區"
"236042","KED-0685","2019/06/21 19:49:07","新北市土城區金城路二段210-1號","121.455586666667","24.9823616666667","6501300","土城區"
"236079","166-UM","2019/06/21 19:49:03","新北市土城區民生街15號","121.41238","24.96205","6501300","土城區"
"236030","253-BX","2019/06/21 19:49:12","新北市土城區中央路一段290號","121.443315","24.9824116666667","6501300","土城區"
"236026","269-VK","2019/06/21 19:48:56","新北市土城區中央路二段61巷28號","121.443438333333","24.97876","6501300","土城區"
"236039","271-VK","2019/06/21 19:49:16","新北市土城區國際路158巷24弄2號","121.468493333333","24.9758733333333","6501300","土城區"
"236069","KEA-2877","2019/06/21 19:49:05","新北市土城區中正路2號","121.442291666667","24.97493","6501300","土城區"
"252001","KED-0821","2019/06/21 19:49:03","新北市三芝區長安街89號","121.499675","25.257475","6502100","三芝區"
"236020","401-BY","2019/06/21 19:49:12","新北市土城區延吉街137巷2弄25號","121.470105","24.9855316666667","6501300","土城區"
"236063","752-BX","2019/06/21 19:49:04","新北市土城區金城路三段149巷4弄10號","121.4688","24.9891033333333","6501300","土城區"
"236059","912-UM","2019/06/21 19:49:13","新北市土城區中央路一段106號","121.44672","24.9882516666667","6501300","土城區"
"236048","913-UM","2019/06/21 19:49:04","新北市土城區青雲路180號","121.459075","24.9823466666667","6501300","土城區"
"236055","AAC-216","2019/06/21 19:49:02","新北市土城區延和路260號","121.470048333333","24.9893916666667","6501300","土城區"
"242039","AAC-296","2019/06/21 19:49:10","新北市新莊區民安路299巷45號","121.429545","25.02341","6500500","新莊區"
"242060","986-R7","2019/06/21 19:49:07","新北市新莊區瓊林路118號","121.442245","25.025555","6500500","新莊區"
"242027","613-BX","2019/06/21 19:35:24","新北市新莊區三和路12-21號","121.44195","25.038895","6500500","新莊區"
"242005","440-UM","2019/06/21 19:49:04","新北市新莊區化成路63巷24弄31號","121.462316666667","25.0459133333333","6500500","新莊區"
"242048","400-BY","2019/06/21 19:48:59","新北市新莊區後港一路28巷14號","121.425611666667","25.0250683333333","6500500","新莊區"
"242025","362-BY","2019/06/21 19:49:03","新北市新莊區五權一路12巷21弄4號","121.457786666667","25.06448","6500500","新莊區"
"242023","353-BY","2019/06/21 19:49:08","新北市新莊區化成路69號","121.465545","25.0461466666667","6500500","新莊區"
"242013","132-UY","2019/06/21 19:49:02","新北市新莊區中泰街65-1號","121.449978333333","25.0467216666667","6500500","新莊區"
"242037","135-UY","2019/06/21 19:49:12","新北市新莊區民安路207巷30弄3號","121.427923333333","25.023945","6500500","新莊區"
"242015","173-VK","2019/06/21 19:49:09","新北市新莊區新泰路500號","121.442436666667","25.0458916666667","6500500","新莊區"
"242021","346-TH","2019/06/21 19:49:14","新北市新莊區新泰路125號","121.44837","25.0361216666667","6500500","新莊區"
"242032","347-TH","2019/06/21 19:49:09","新北市新莊區公園一路134號","121.446121666667","25.0381116666667","6500500","新莊區"
"242034","348-TH","2019/06/21 19:49:12","新北市新莊區新泰路199巷19號","121.445615","25.0377633333333","6500500","新莊區"
"238015","755-BX","2019/06/21 19:49:13","新北市樹林區八德街598巷3號","121.39753","24.9706766666667","6500700","樹林區"
"238019","599-UM","2019/06/21 19:49:17","新北市樹林區中山路二段219號","121.402825","24.9764633333333","6500700","樹林區"
"238021","KEA-2539","2019/06/21 19:49:13","新北市樹林區田尾街194-1號","121.40041","24.9485116666667","6500700","樹林區"
"238025","303-VK","2019/06/21 19:49:00","新北市樹林區育德街121巷7號","121.389213333333","24.968205","6500700","樹林區"
"238017","283-BY","2019/06/21 19:49:06","新北市樹林區保安街二段107巷1弄5號","121.41512","25.00089","6500700","樹林區"
"239006","891-R6","2019/06/21 19:48:56","新北市鶯歌區中正一路428號","121.361203333333","24.9570016666667","6500800","鶯歌區"
"221008","489-VK","2019/06/21 19:49:03","新北市汐止區康寧街61巷22弄7號","121.619641666667","25.0669533333333","6501100","汐止區"
"221010","269-BY","2019/06/21 19:49:03","新北市汐止區汐萬路二段23巷1號","121.649533333333","25.0808866666667","6501100","汐止區"
"221012","278-VK","2019/06/21 19:49:14","新北市汐止區大同路三段334號","121.679655","25.07094","6501100","汐止區"
"221023","279-VK","2019/06/21 19:49:02","新北市汐止區明峰街190號","121.62816","25.0696633333333","6501100","汐止區"
"221021","299-VK","2019/06/21 19:49:00","新北市汐止區復興路58巷11弄10號","121.656238333333","25.06165","6501100","汐止區"
"221031","353-TW","2019/06/21 19:49:06","新北市汐止區翠峰街21巷3弄20號","121.644445","25.0757866666667","6501100","汐止區"
"221038","646-BX","2019/06/21 19:49:01","新北市汐止區忠孝東路414號","121.665853333333","25.07128","6501100","汐止區"
"221033","647-BX","2019/06/21 19:49:12","新北市汐止區東勢街60號","121.632401666667","25.03922","6501100","汐止區"
"220079","145-BY","2019/06/21 19:49:16","新北市板橋區民權路202巷18弄1號","121.460873333333","25.0166333333333","6500100","板橋區"
"220080","200-UY","2019/06/21 19:49:12","新北市板橋區大觀路二段37巷30號","121.448331666667","25.0026516666667","6500100","板橋區"
"220082","610-BX","2019/06/21 19:48:54","新北市板橋區溪崑一街92號","121.429045","24.9894516666667","6500100","板橋區"
"220101","245-BX","2019/06/21 19:48:55","新北市板橋區莒光路180巷3號","121.473788333333","25.02279","6500100","板橋區"
"224002","257-TC","2019/06/21 19:49:15","新北市瑞芳區民享新村9號","121.816916666667","25.1055466666667","6501200","瑞芳區"
"220091","267-BY","2019/06/21 19:49:06","新北市板橋區懷德街127巷49號","121.480515","25.0318783333333","6500100","板橋區"
"220056","276-BY","2019/06/21 19:49:10","新北市板橋區四川路二段47巷2弄1號","121.454076666667","24.994905","6500100","板橋區"
"220072","277-BY","2019/06/21 19:49:13","新北市板橋區金門街215巷29號","121.432901666667","24.989795","6500100","板橋區"
"220071","283-VK","2019/06/21 19:49:05","新北市板橋區和平路174巷31號","121.464838333333","24.9943033333333","6500100","板橋區"
"220094","285-UM","2019/06/21 19:49:11","新北市板橋區雨農路15號","121.462208333333","25.0246283333333","6500100","板橋區"
"220053","285-VK","2019/06/21 19:49:13","新北市板橋區中山路二段92號","121.475273333333","25.0162616666667","6500100","板橋區"
"220083","286-VK","2019/06/21 19:49:13","新北市板橋區龍興街63巷4號","121.442955","25.00129","6500100","板橋區"
"220081","287-VK","2019/06/21 19:49:04","新北市板橋區大觀路一段28巷113號","121.449778333333","25.0123766666667","6500100","板橋區"
"220090","288-VK","2019/06/21 19:49:05","新北市板橋區漢生西路165巷34號","121.462128333333","25.0234333333333","6500100","板橋區"
"220061","293-UM","2019/06/21 19:48:59","新北市板橋區板新路136號","121.470791666667","25.01554","6500100","板橋區"
"220062","295-UM","2019/06/21 19:49:13","新北市板橋區光復街33巷39號","121.482605","25.01894","6500100","板橋區"
"220084","296-UM","2019/06/21 19:49:11","新北市板橋區溪崑二街118巷5號","121.425521666667","24.9885633333333","6500100","板橋區"
"220075","303-R5","2019/06/21 19:49:15","新北市板橋區大勇街77號","121.452866666667","25.0165366666667","6500100","板橋區"
"220092","307-R5","2019/06/21 19:49:13","新北市板橋區幸福路32巷2弄35號","121.460808333333","25.0219816666667","6500100","板橋區"
"220098","317-R6","2019/06/21 19:49:07","新北市板橋區四維路269巷45號","121.461326666667","25.02741","6500100","板橋區"
"220089","487-VK","2019/06/21 19:49:13","新北市板橋區互助街40號","121.461901666667","25.0270533333333","6500100","板橋區"
"220088","491-VK","2019/06/21 19:49:01","新北市板橋區懷德街174巷2-4號","121.479378333333","25.0299216666667","6500100","板橋區"
"220103","561-BX","2019/06/21 19:49:03","新北市板橋區自由路52號","121.465776666667","25.0234566666667","6500100","板橋區"
"220063","609-BX","2019/06/21 19:49:07","新北市板橋區三民路一段3巷1號","121.478883333333","25.023555","6500100","板橋區"
"220035","630-UY","2019/06/21 19:48:55","新北市板橋區金華街85巷42號","121.459153333333","25.0213583333333","6500100","板橋區"
"220057","686-BX","2019/06/21 19:49:07","新北市板橋區四川路二段71號","121.453241666667","24.9950533333333","6500100","板橋區"
"220077","687-BX","2019/06/21 19:49:04","新北市板橋區僑中一街104號","121.446586666667","25.011655","6500100","板橋區"
"220093","689-BX","2019/06/21 19:49:02","新北市板橋區長江路三段120號","121.475236666667","25.0343066666667","6500100","板橋區"
"220054","741-BX","2019/06/21 19:49:13","新北市板橋區實踐路93巷9-2號","121.464676666667","25.005485","6500100","板橋區"
"220102","KEA-2699","2019/06/21 19:49:08","新北市板橋區松柏街2號","121.473831666667","25.0292666666667","6500100","板橋區"
"220055","827-TW","2019/06/21 19:49:12","新北市板橋區實踐路102號","121.464073333333","25.0048183333333","6500100","板橋區"
"220067","829-TW","2019/06/21 19:48:57","新北市板橋區長安街331巷3號","121.47425","25.01218","6500100","板橋區"
"220068","831-TW","2019/06/21 19:48:59","新北市板橋區光復街150號","121.484656666667","25.0194266666667","6500100","板橋區"
"220074","895-R6","2019/06/21 19:49:01","新北市板橋區南門街9-4號","121.457621666667","25.0092066666667","6500100","板橋區"
"220073","985-R7","2019/06/21 19:49:12","新北市板橋區國光路67巷14號","121.45911","25.018755","6500100","板橋區"
"220097","AAC-210","2019/06/21 19:49:07","新北市板橋區光正街18巷2號","121.46274","25.01717","6500100","板橋區"
"220064","AAC-253","2019/06/21 19:49:07","新北市板橋區民族路232號","121.468933333333","25.0073233333333","6500100","板橋區"
"235068","KEA-2873","2019/06/21 19:48:46","新北市中和區中山路二段189號","121.500183333333","25.0025416666667","6500300","中和區"
"235061","KEA-2875","2019/06/21 19:49:12","新北市中和區員山路271-1號","121.481201666667","24.9994133333333","6500300","中和區"
"235039","KEA-2876","2019/06/21 19:48:50","新北市中和區大勇街27巷25號","121.516376666667","24.9937866666667","6500300","中和區"
