"lineid","car","time","location","longitude","latitude","cityid","cityname"
"234046","148-BY","2019/06/21 19:59:07","新北市永和區成功路一段16巷7號","121.526503333333","25.0054","6500400","永和區"
"234038","336-UY","2019/06/21 19:59:10","新北市永和區成功路二段152-2號","121.526518333333","24.9967516666667","6500400","永和區"
"234064","337-UY","2019/06/21 19:58:54","新北市永和區中正路368巷1弄50號","121.519173333333","25.0009383333333","6500400","永和區"
"234086","338-UY","2019/06/21 19:59:16","新北市永和區福和路160號","121.521295","25.0078866666667","6500400","永和區"
"234070","552-UM","2019/06/21 19:59:10","新北市永和區大新街108號","121.518416666667","25.0079466666667","6500400","永和區"
"234017","745-BX","2019/06/21 19:59:05","新北市永和區文化路69號","121.51394","25.0151316666667","6500400","永和區"
"234030","746-BX","2019/06/21 19:59:11","新北市永和區民生路22巷13號","121.521713333333","24.9971433333333","6500400","永和區"
"234054","KEA-2590","2019/06/21 19:59:15","新北市永和區環河東路一段124號","121.520641666667","25.0154033333333","6500400","永和區"
"234007","KED-0605","2019/06/21 19:58:59","新北市永和區中山路一段215-1號","121.508153333333","25.0080566666667","6500400","永和區"
"234013","KEA-2591","2019/06/21 19:59:03","新北市永和區保生路55號","121.504736666667","25.0105866666667","6500400","永和區"
"234061","AAD-866","2019/06/21 19:59:08","新北市永和區中正路283巷33號","121.516211666667","24.9997166666667","6500400","永和區"
"234081","748-BX","2019/06/21 19:59:06","新北市永和區國中路1號","121.523921666667","25.0044733333333","6500400","永和區"
"234042","862-TW","2019/06/21 19:59:12","新北市永和區中和路421巷5弄1號","121.508726666667","25.0010983333333","6500400","永和區"
"234050","863-TW","2019/06/21 19:59:06","新北市永和區保安路153號","121.506806666667","25.013005","6500400","永和區"
"234026","9371-KE","2019/06/21 19:59:11","新北市永和區水源街27巷9號","121.511305","25.0040116666667","6500400","永和區"
"234011","9373-KE","2019/06/21 19:59:14","新北市永和區仁愛路352巷112弄10號","121.501111666667","25.00849","6500400","永和區"
"249005","172-UM","2019/06/21 19:59:07","新北市八里區楓林路2-9號","121.386003333333","25.1323433333333","6502300","八里區"
"249001","173-UM","2019/06/21 19:59:08","新北市八里區中華路二段312號","121.40382","25.1483183333333","6502300","八里區"
"249004","303-UY","2019/06/21 19:58:59","新北市八里區中華路一段333-1號","121.41307","25.1541383333333","6502300","八里區"
"249002","305-UY","2019/06/21 19:58:56","新北市八里區頂寮二街11號","121.450698333333","25.12417","6502300","八里區"
"249003","759-BX","2019/06/21 19:58:58","新北市八里區中華路二段560巷1號","121.398648333333","25.1449533333333","6502300","八里區"
"248014","025-BX","2019/06/21 19:58:59","新北市五股區成泰路二段147巷23-15號","121.437963333333","25.0871133333333","6501500","五股區"
"248016","026-BX","2019/06/21 19:59:11","新北市五股區成泰路三段577巷80弄7號","121.449521666667","25.1042883333333","6501500","五股區"
"248008","KED-0815","2019/06/21 19:59:13","新北市五股區四維路30巷15號","121.46829","25.07154","6501500","五股區"
"248018","KED-0813","2019/06/21 19:59:13","新北市五股區登林路114-16號","121.422828333333","25.0711883333333","6501500","五股區"
"248012","247-BX","2019/06/21 19:59:03","新北市五股區民義路一段109號","121.434088333333","25.0864366666667","6501500","五股區"
"248010","272-BY","2019/06/21 19:59:13","新北市五股區成泰路一段87號","121.43483","25.0688533333333","6501500","五股區"
"248004","677-BX","2019/06/21 19:59:04","新北市五股區成泰路一段30號","121.434933333333","25.0679516666667","6501500","五股區"
"248002","678-BX","2019/06/21 19:59:11","新北市五股區成泰路三段487號","121.450703333333","25.099225","6501500","五股區"
"234023","9380-KE","2019/06/21 19:59:09","新北市永和區豫溪街57巷15號","121.517376666667","25.0104066666667","6500400","永和區"
"234077","969-R7","2019/06/21 19:59:02","新北市永和區民有街26號","121.516643333333","24.996335","6500400","永和區"
"234074","AAC-211","2019/06/21 19:59:06","新北市永和區豫溪街205號","121.52362","25.0096416666667","6500400","永和區"
"234067","AAC-212","2019/06/21 19:58:56","新北市永和區中山路一段283號","121.507095","25.0068983333333","6500400","永和區"
"234003","AAC-295","2019/06/21 19:59:00","新北市永和區中正路732巷4號","121.515493333333","25.010225","6500400","永和區"
"243012","AAD-798","2019/06/21 19:59:06","新北市泰山區全興路13號","121.4323","25.0589566666667","6501600","泰山區"
"243010","297-R6","2019/06/21 19:59:08","新北市泰山區民生路33號","121.430756666667","25.0521683333333","6501600","泰山區"
"243014","KEA-2801","2019/06/21 19:59:01","新北市泰山區泰林路二段29號","121.435883333333","25.0567733333333","6501600","泰山區"
"243016","421-VK","2019/06/21 19:59:16","新北市泰山區明志路三段423號","121.421063333333","25.0333966666667","6501600","泰山區"
"243009","KEA-2215","2019/06/21 19:59:14","新北市泰山區楓江路16巷19號","121.433941666667","25.0616433333333","6501600","泰山區"
"243011","KEA-2216","2019/06/21 19:59:15","新北市泰山區工專路65號","121.422106666667","25.0404133333333","6501600","泰山區"
"222003","436-BY","2019/06/21 19:59:13","新北市深坑區埔新街14號","121.62074","25.00391","6501800","深坑區"
"222002","659-BX","2019/06/21 19:59:05","新北市深坑區北深路二段81巷8弄3號","121.618281666667","25.0030566666667","6501800","深坑區"
"231060","001-UM","2019/06/21 19:58:55","新北市新店區安康路二段341巷3號","121.49733","24.9554316666667","6500600","新店區"
"231061","002-UM","2019/06/21 19:59:05","新北市新店區安民街304號","121.517678333333","24.9738333333333","6500600","新店區"
"231059","046-UY","2019/06/21 19:59:01","新北市新店區安和路一段15號","121.516826666667","24.964205","6500600","新店區"
"231041","047-UY","2019/06/21 19:58:58","新北市新店區中正路406號","121.534423333333","24.9775866666667","6500600","新店區"
"231051","107-UY","2019/06/21 19:59:10","新北市新店區中央路206號","121.530255","24.9739583333333","6500600","新店區"
"231049","108-UY","2019/06/21 19:59:11","新北市新店區建國路222號","121.537696666667","24.9813666666667","6500600","新店區"
"231065","110-UY","2019/06/21 19:58:59","新北市新店區安祥路106巷22號","121.477961666667","24.9623516666667","6500600","新店區"
"231068","187-VK","2019/06/21 19:59:05","新北市新店區安一路一段1-1號","121.519583333333","24.9610616666667","6500600","新店區"
"231062","256-BX","2019/06/21 19:59:08","新北市新店區華城路10巷1-3號","121.52885","24.9577583333333","6500600","新店區"
"231054","260-TV","2019/06/21 19:59:14","新北市新店區光明街141號","121.539496666667","24.9620683333333","6500600","新店區"
"231042","268-BY","2019/06/21 19:58:58","新北市新店區中興路一段290號","121.54585","24.9691066666667","6500600","新店區"
"231064","278-BY","2019/06/21 19:59:01","新北市新店區吉安街2號","121.517285","24.9655766666667","6500600","新店區"
"231045","355-BY","2019/06/21 19:59:14","新北市新店區北宜路二段461號","121.561818333333","24.9540566666667","6500600","新店區"
"231055","4716-K9","2019/06/21 19:59:03","新北市新店區新生街1號","121.540398333333","24.9656033333333","6500600","新店區"
"231056","4715-K9","2019/06/21 19:59:12","新北市新店區北新路二段187-1號","121.542616666667","24.9777883333333","6500600","新店區"
"231067","4772-VM","2019/06/21 19:59:12","新北市新店區秀山路11巷24號","121.531488333333","24.95868","6500600","新店區"
"231053","513-UM","2019/06/21 19:59:00","新北市新店區新烏路三段336號","121.546701666667","24.8960733333333","6500600","新店區"
"231040","617-UM","2019/06/21 19:59:14","新北市新店區中正路75巷71號","121.54322","24.9688666666667","6500600","新店區"
"231063","641-BX","2019/06/21 19:59:05","新北市新店區車子路11號","121.503036666667","24.9520183333333","6500600","新店區"
"231048","KED-0819","2019/06/21 19:58:58","新北市新店區寶宏路2號","121.549091666667","24.9769383333333","6500600","新店區"
"231057","720-UM","2019/06/21 19:59:16","新北市新店區花園二路一段11號","121.55546","24.932525","6500600","新店區"
"231044","897-TW","2019/06/21 19:59:05","新北市新店區復興路27號","121.539028333333","24.9866616666667","6500600","新店區"
"231043","899-TW","2019/06/21 19:59:02","新北市新店區中正路263-4號","121.538328333333","24.973825","6500600","新店區"
"231066","AKT-0513","2019/06/21 19:59:04","新北市新店區安康路二段341巷14號","121.496333333333","24.9547283333333","6500600","新店區"
"241011","013-R5","2019/06/21 19:59:02","新北市三重區三和路三段13號","121.496206666667","25.0708583333333","6500200","三重區"
"241028","022-UY","2019/06/21 19:59:10","新北市三重區中正南路46號","121.493863333333","25.0599633333333","6500200","三重區"
"241008","059-VK","2019/06/21 19:59:09","新北市三重區永福街179巷25號","121.478005","25.074885","6500200","三重區"
"241012","060-VK","2019/06/21 19:59:08","新北市三重區仁厚街19號","121.499456666667","25.076205","6500200","三重區"
"241031","061-VK","2019/06/21 19:59:06","新北市三重區重新路四段144巷22號","121.487136666667","25.0552666666667","6500200","三重區"
"241015","062-VK","2019/06/21 19:59:08","新北市三重區三和路二段8號","121.501148333333","25.0668666666667","6500200","三重區"
"241017","063-VK","2019/06/21 19:59:05","新北市三重區自強路一段298號","121.491401666667","25.0683983333333","6500200","三重區"
"241024","065-VK","2019/06/21 19:59:05","新北市三重區大勇街52號","121.480801666667","25.0715316666667","6500200","三重區"
"241001","066-VK","2019/06/21 19:59:00","新北市三重區福隆路7號","121.489545","25.0771","6500200","三重區"
"241002","090-VK","2019/06/21 19:59:16","新北市三重區仁忠街100號","121.492376666667","25.0798766666667","6500200","三重區"
"241003","091-VK","2019/06/21 19:59:02","新北市三重區仁愛街453號","121.490116666667","25.081655","6500200","三重區"
"241005","262-UM","2019/06/21 19:59:07","新北市三重區溪尾街325巷1號","121.48806","25.0843266666667","6500200","三重區"
"241016","266-UM","2019/06/21 19:59:10","新北市三重區正義北路38號","121.497283333333","25.0634166666667","6500200","三重區"
"241009","267-UM","2019/06/21 19:59:11","新北市三重區三和路四段390巷26號","121.480985","25.0787416666667","6500200","三重區"
"241018","268-UM","2019/06/21 19:59:11","新北市三重區正義北路244巷78號","121.493905","25.0675483333333","6500200","三重區"
"241032","269-UM","2019/06/21 19:59:00","新北市三重區捷運路71號","121.483218333333","25.055665","6500200","三重區"
"241013","270-UM","2019/06/21 19:59:02","新北市三重區三和路三段125巷40號","121.49396","25.0737316666667","6500200","三重區"
"241025","271-UM","2019/06/21 19:59:06","新北市三重區頂崁街210巷11號","121.476488333333","25.0678133333333","6500200","三重區"
"241007","398-BY","2019/06/21 19:59:02","新北市三重區溪尾街150號","121.488948333333","25.079915","6500200","三重區"
"241035","KEA-2210","2019/06/21 19:59:17","新北市三重區大榮街7號","121.498196666667","25.063125","6500200","三重區"
"241004","475-VK","2019/06/21 19:59:16","新北市三重區五華街108-2號","121.492463333333","25.0827633333333","6500200","三重區"
"241020","478-VK","2019/06/21 19:59:11","新北市三重區忠孝路一段101號","121.489591666667","25.072175","6500200","三重區"
"241026","480-VK","2019/06/21 19:59:13","新北市三重區仁慈街30號","121.502303333333","25.06321","6500200","三重區"
"241014","543-UM","2019/06/21 19:59:03","新北市三重區長樂街5號","121.499465","25.0689366666667","6500200","三重區"
"241006","AAD-863","2019/06/21 19:59:12","新北市三重區力行路二段123巷6-1號","121.483446666667","25.07645","6500200","三重區"
"241019","743-BX","2019/06/21 19:59:03","新北市三重區自強路二段20號","121.48972","25.0690316666667","6500200","三重區"
"241022","KED-0820","2019/06/21 19:59:08","新北市三重區過圳街19號","121.488646666667","25.0605383333333","6500200","三重區"
"241029","942-UM","2019/06/21 19:59:08","新北市三重區重安街14號","121.490191666667","25.0582283333333","6500200","三重區"
"241033","AAC-255","2019/06/21 19:59:11","新北市三重區中興北街93號","121.469526666667","25.0480783333333","6500200","三重區"
"235066","003-UY","2019/06/21 19:59:03","新北市中和區光華街12號","121.504138333333","25.0041633333333","6500300","中和區"
"235056","096-UM","2019/06/21 19:59:06","新北市中和區中山路三段147號","121.473683333333","25.0062083333333","6500300","中和區"
"235065","098-UM","2019/06/21 19:58:59","新北市中和區永和路90巷2弄2號","121.497366666667","25.0057033333333","6500300","中和區"
"235040","150-BY","2019/06/21 19:59:05","新北市中和區宜安路163號","121.50878","24.9989716666667","6500300","中和區"
"235055","183-VK","2019/06/21 19:59:16","新北市中和區德光路17號","121.471096666667","25.00435","6500300","中和區"
"235067","255-BX","2019/06/21 19:59:12","新北市板橋區民生路一段28-10號","121.476201666667","25.01252","6500300","中和區"
"235044","293-VK","2019/06/21 19:59:04","新北市中和區復興路56號","121.503863333333","24.9904766666667","6500300","中和區"
"235043","352-BY","2019/06/21 19:59:07","新北市中和區興南路二段159巷25號","121.505473333333","24.9829483333333","6500300","中和區"
"247014","KEA-2869","2019/06/21 19:59:04","新北市蘆洲區成功路193號","121.471153333333","25.0838216666667","6501400","蘆洲區"
"247008","KED-0682","2019/06/21 19:59:07","新北市蘆洲區信義路115號","121.478496666667","25.0802283333333","6501400","蘆洲區"
"235050","4979-A6","2019/06/21 19:58:58","新北市中和區景平路241巷64弄1號","121.507628333333","24.9924616666667","6500300","中和區"
"235070","558-UM","2019/06/21 19:59:13","新北市中和區中正路426號","121.49151","24.994215","6500300","中和區"
"235047","732-UM","2019/06/21 19:59:14","新北市中和區和平街164-4號","121.505615","24.99213","6500300","中和區"
"235046","733-UM","2019/06/21 19:59:16","新北市中和區興南路一段105巷20弄6號","121.51033","24.98556","6500300","中和區"
"235052","805-TS","2019/06/21 19:59:11","新北市中和區華新街80號","121.508368333333","24.9834983333333","6500300","中和區"
"235048","896-TW","2019/06/21 19:59:06","新北市中和區景新街385號","121.512436666667","24.9901583333333","6500300","中和區"
"235051","157-BY","2019/06/21 19:59:13","新北市中和區復興路56號","121.503876666667","24.99029","6500300","中和區"
"235037","AAC-213","2019/06/21 19:59:13","新北市中和區自立路16-1號","121.522093333333","24.9937583333333","6500300","中和區"
"235059","AAC-215","2019/06/21 19:59:15","新北市中和區圓通路365號","121.49127","24.9896033333333","6500300","中和區"
"220065","072-UY","2019/06/21 19:59:16","新北市板橋區民族路233號","121.469873333333","25.0071066666667","6500100","板橋區"
"220086","073-UY","2019/06/21 19:59:12","新北市板橋區光華街1號","121.45423","25.01112","6500100","板橋區"
"220106","075-UY","2019/06/21 19:59:00","新北市板橋區文聖街13號","121.475511666667","25.0323616666667","6500100","板橋區"
"220069","AAD-861","2019/06/21 19:58:57","新北市板橋區大明街20巷19弄11號","121.458061666667","25.0032033333333","6500100","板橋區"
"247004","893-R6","2019/06/21 19:59:17","新北市蘆洲區長安街267巷7弄1號","121.458333333333","25.0836883333333","6501400","蘆洲區"
"247018","546-UM","2019/06/21 19:59:13","新北市蘆洲區民族路290巷11號","121.478415","25.0898533333333","6501400","蘆洲區"
"247002","500-BY","2019/06/21 19:59:15","新北市蘆洲區長安街272號","121.457276666667","25.0869416666667","6501400","蘆洲區"
"247024","337-TH","2019/06/21 19:59:14","新北市蘆洲區光榮路120巷12號","121.46539","25.0884116666667","6501400","蘆洲區"
"247022","057-VK","2019/06/21 19:59:11","新北市蘆洲區中正路174巷6號","121.467561666667","25.0878433333333","6501400","蘆洲區"
"247016","053-VK","2019/06/21 19:59:04","新北市蘆洲區中正路83號","121.469998333333","25.08357","6501400","蘆洲區"
"247020","007-UY","2019/06/21 19:59:03","新北市蘆洲區民義街68巷6號","121.473041666667","25.0898966666667","6501400","蘆洲區"
"247006","002-UY","2019/06/21 19:58:57","新北市蘆洲區九芎街139巷7號","121.46581","25.079175","6501400","蘆洲區"
"226004","312-R5","2019/06/21 19:59:10","新北市平溪區十分里十分街129號","121.776895","25.043165","6502400","平溪區"
"228003","828-UM","2019/06/21 19:58:59","新北市貢寮區仁理村仁和路19號","121.923843333333","25.0535716666667","6502600","貢寮區"
"227002","642-TC","2019/06/21 19:59:04","新北市雙溪區雙溪里長安街16號","121.865025","25.0347233333333","6502500","雙溪區"
"227001","400-TW","2019/06/21 19:59:11","新北市雙溪區新基里新基南街25號","121.866245","25.0381266666667","6502500","雙溪區"
"222001","KEA-2212","2019/06/21 19:59:12","新北市深坑區北深路三段162號","121.602496666667","25.00342","6501800","深坑區"
"208002","KEA-2872","2019/06/21 19:59:04","新北市金山區中正路147號","121.632076666667","25.22098","6502700","金山區"
"251004","009-UM","2019/06/21 19:59:06","新北市淡水區民族路50巷1號","121.461646666667","25.1358766666667","6501000","淡水區"
"251005","010-UM","2019/06/21 19:59:03","新北市淡水區學府路136巷6號","121.450888333333","25.1729016666667","6501000","淡水區"
"251001","011-UM","2019/06/21 19:59:11","新北市淡水區淡金路一段166-7號","121.453823333333","25.180165","6501000","淡水區"
"251008","181-VK","2019/06/21 19:59:13","新北市淡水區淡海路72巷6號","121.42343","25.180925","6501000","淡水區"
"251012","441-VK","2019/06/21 19:59:09","新北市淡水區下圭柔山70巷2號","121.446266666667","25.2080933333333","6501000","淡水區"
"251007","442-VK","2019/06/21 19:59:00","新北市淡水區中正東路一段105巷1號","121.453495","25.1604266666667","6501000","淡水區"
"251006","561-UM","2019/06/21 19:59:15","新北市淡水區北新路8號","121.444456666667","25.1773866666667","6501000","淡水區"
"251009","575-R6","2019/06/21 19:58:57","新北市淡水區英專路21巷21號","121.444858333333","25.1697483333333","6501000","淡水區"
"251011","650-BX","2019/06/21 19:58:59","新北市淡水區淡金路一段166-7號","121.453596666667","25.1802833333333","6501000","淡水區"
"251002","672-BX","2019/06/21 19:59:13","新北市淡水區新市一路一段6號","121.429171666667","25.1875833333333","6501000","淡水區"
"207003","550-UM","2019/06/21 19:59:00","新北市萬里區磺潭里公館崙8-1號","121.64172","25.2140933333333","6502800","萬里區"
"207004","225-TW","2019/06/21 19:59:06","新北市萬里區北基里忠二街35號","121.68564","25.1757633333333","6502800","萬里區"
"252002","178-VK","2019/06/21 19:59:09","新北市三芝區三民街39巷5號","121.505443333333","25.2576083333333","6502100","三芝區"
"237004","KEA-2597","2019/06/21 19:59:10","新北市三峽區添福2-8號","121.371703333333","24.9066416666667","6500900","三峽區"
"237009","210-TH","2019/06/21 19:59:05","新北市三峽區民族街76號","121.369545","24.9299033333333","6500900","三峽區"
"237012","275-BY","2019/06/21 19:59:07","新北市三峽區光明路2號","121.373075","24.9312366666667","6500900","三峽區"
"237008","302-VK","2019/06/21 19:59:10","新北市三峽區中正路一段174巷9號","121.37187","24.9289066666667","6500900","三峽區"
"237014","433-BY","2019/06/21 19:59:05","新北市三峽區添福11-6號","121.373318333333","24.907105","6500900","三峽區"
"237006","5529-G3","2019/06/21 19:59:15","新北市三峽區中正路二段176巷22號","121.365365","24.9148683333333","6500900","三峽區"
"237015","649-BX","2019/06/21 19:59:08","新北市三峽區介壽路三段20號","121.395968333333","24.93623","6500900","三峽區"
"237005","AKY-6261","2019/06/21 19:58:59","新北市三峽區民生街1巷29號","121.382895","24.9337316666667","6500900","三峽區"
"236042","KED-0685","2019/06/21 19:59:07","新北市土城區學府路一段98巷15號","121.455686666667","24.9886516666667","6501300","土城區"
"236079","166-UM","2019/06/21 19:59:17","新北市土城區三民路61巷1號","121.419563333333","24.9643616666667","6501300","土城區"
"236030","253-BX","2019/06/21 19:59:12","新北市土城區中央路一段252號","121.444313333333","24.9846666666667","6501300","土城區"
"236026","269-VK","2019/06/21 19:59:16","新北市土城區中央路二段89號","121.442488333333","24.978115","6501300","土城區"
"236039","271-VK","2019/06/21 19:59:16","新北市土城區國際路31巷14號","121.46594","24.9793683333333","6501300","土城區"
"247010","KED-0683","2019/06/21 19:58:59","新北市三重區集賢路188號","121.483798333333","25.0879666666667","6501400","蘆洲區"
"236069","KEA-2877","2019/06/21 19:59:05","新北市土城區忠義路55巷75號","121.442281666667","24.9658016666667","6501300","土城區"
"252001","KED-0821","2019/06/21 19:59:03","新北市三芝區公正街66號","121.49981","25.257485","6502100","三芝區"
"236020","401-BY","2019/06/21 19:59:03","新北市土城區延吉街20號","121.472141666667","24.9875033333333","6501300","土城區"
"236063","752-BX","2019/06/21 19:59:02","新北市土城區延和路12巷15號","121.46456","24.9874983333333","6501300","土城區"
"236059","912-UM","2019/06/21 19:59:13","新北市土城區中央路一段346號","121.443103333333","24.981075","6501300","土城區"
"236048","913-UM","2019/06/21 19:59:15","新北市土城區金城路三段262號","121.47435","24.990765","6501300","土城區"
"236055","AAC-216","2019/06/21 19:59:07","新北市土城區學府路一段125號","121.454915","24.9869666666667","6501300","土城區"
"242039","AAC-296","2019/06/21 19:59:10","新北市新莊區民安路285-4號","121.42902","25.0223316666667","6500500","新莊區"
"242060","986-R7","2019/06/21 19:59:06","新北市新莊區瓊泰路37號","121.44381","25.028555","6500500","新莊區"
"242002","751-BX","2019/06/21 19:58:59","新北市新莊區新泰路97號","121.449023333333","25.0348","6500500","新莊區"
"242029","615-BX","2019/06/21 19:59:13","新北市新莊區中榮街152巷55號","121.445883333333","25.0535483333333","6500500","新莊區"
"242027","613-BX","2019/06/21 19:35:24","新北市新莊區三和路12-21號","121.44195","25.038895","6500500","新莊區"
"242058","612-BX","2019/06/21 19:59:16","新北市新莊區八德街57號","121.424861666667","25.0221866666667","6500500","新莊區"
"242056","441-UM","2019/06/21 19:59:09","新北市新莊區新豐街64號","121.446791666667","25.0337516666667","6500500","新莊區"
"242005","440-UM","2019/06/21 19:59:04","新北市新莊區化成路352巷31號","121.46717","25.0492716666667","6500500","新莊區"
"242011","413-TV","2019/06/21 19:59:06","新北市新莊區中港路531巷54號","121.450063333333","25.0515816666667","6500500","新莊區"
"242048","400-BY","2019/06/21 19:58:59","新北市新莊區民安路201號","121.42632","25.0224366666667","6500500","新莊區"
"242025","362-BY","2019/06/21 19:59:03","新北市新莊區五工一路86號","121.461353333333","25.0674033333333","6500500","新莊區"
"242023","353-BY","2019/06/21 19:59:08","新北市新莊區化成路197號","121.465865","25.0506366666667","6500500","新莊區"
"242013","132-UY","2019/06/21 19:59:07","新北市新莊區中誠街53巷32號","121.451463333333","25.0472566666667","6500500","新莊區"
"242037","135-UY","2019/06/21 19:59:12","新北市新莊區建安街25巷2號","121.429153333333","25.02591","6500500","新莊區"
"242054","172-VK","2019/06/21 19:59:11","新北市新莊區西盛街422號","121.42714","25.0120533333333","6500500","新莊區"
"242015","173-VK","2019/06/21 19:59:09","新北市新莊區泰順街44號","121.447103333333","25.04283","6500500","新莊區"
"242007","175-VK","2019/06/21 19:59:13","新北市新莊區思源路587號","121.459673333333","25.0595083333333","6500500","新莊區"
"242019","176-VK","2019/06/21 19:59:12","新北市新莊區中港路180號","121.454903333333","25.0420533333333","6500500","新莊區"
"242021","346-TH","2019/06/21 19:59:14","新北市新莊區建中街16巷35號","121.448658333333","25.0384983333333","6500500","新莊區"
"242032","347-TH","2019/06/21 19:59:15","新北市新莊區忠孝街20號","121.44397","25.035135","6500500","新莊區"
"242034","348-TH","2019/06/21 19:59:12","新北市新莊區建中街75號","121.447443333333","25.03677","6500500","新莊區"
"242050","350-TH","2019/06/21 19:59:06","新北市新莊區西盛街131號","121.428241666667","25.018625","6500500","新莊區"
"242017","351-TH","2019/06/21 19:59:13","新北市新莊區中安街2號","121.452851666667","25.0452266666667","6500500","新莊區"
"238021","KEA-2539","2019/06/21 19:59:13","新北市樹林區西圳街一段118巷16號","121.394501666667","24.9658366666667","6500700","樹林區"
"238017","283-BY","2019/06/21 19:59:06","新北市樹林區保安街二段37-1號","121.416091666667","25.0001283333333","6500700","樹林區"
"221008","489-VK","2019/06/21 19:59:03","新北市汐止區康寧街147號","121.621451666667","25.0671616666667","6501100","汐止區"
"221015","131-UY","2019/06/21 19:59:09","新北市汐止區橋東街20號","121.666381666667","25.07566","6501100","汐止區"
"221010","269-BY","2019/06/21 19:59:03","新北市汐止區汐萬路一段411號","121.649221666667","25.079505","6501100","汐止區"
"221012","278-VK","2019/06/21 19:59:14","新北市汐止區保長路273巷2號","121.681148333333","25.0740066666667","6501100","汐止區"
"221023","279-VK","2019/06/21 19:59:02","新北市汐止區民族六街6巷2號","121.629743333333","25.0698866666667","6501100","汐止區"
"221027","281-BY","2019/06/21 19:59:11","新北市汐止區中正路89號","121.661216666667","25.0694366666667","6501100","汐止區"
"221029","298-VK","2019/06/21 19:53:32","新北市汐止區樟樹二路345號","121.641865","25.0731733333333","6501100","汐止區"
"221021","299-VK","2019/06/21 19:59:00","新北市汐止區水源路一段196號","121.654638333333","25.06154","6501100","汐止區"
"221031","353-TW","2019/06/21 19:59:06","新北市汐止區福德二路55巷6弄1號","121.634538333333","25.06666","6501100","汐止區"
"221035","622-UM","2019/06/21 19:58:57","新北市汐止區長江街9號","121.654576666667","25.0711466666667","6501100","汐止區"
"221038","646-BX","2019/06/21 19:59:01","新北市汐止區忠孝東路491-1號","121.666295","25.0742316666667","6501100","汐止區"
"221033","647-BX","2019/06/21 19:59:12","新北市汐止區東勢街190巷3號","121.633843333333","25.04162","6501100","汐止區"
"220079","145-BY","2019/06/21 19:59:12","新北市板橋區國光路8-1號","121.457005","25.01698","6500100","板橋區"
"220080","200-UY","2019/06/21 19:59:02","新北市板橋區大觀路二段163巷17號","121.446393333333","25.000235","6500100","板橋區"
"220082","610-BX","2019/06/21 19:59:14","新北市板橋區存德街11號","121.42999","24.991895","6500100","板橋區"
"220101","245-BX","2019/06/21 19:59:15","新北市板橋區雙十路二段47巷21號","121.47545","25.0256783333333","6500100","板橋區"
"224002","257-TC","2019/06/21 19:59:09","新北市瑞芳區員山子路員山巷15-1號","121.816955","25.10414","6501200","瑞芳區"
"220091","267-BY","2019/06/21 19:59:12","新北市板橋區文聖街101巷1號","121.47799","25.0296433333333","6500100","板橋區"
"220056","276-BY","2019/06/21 19:59:09","新北市板橋區四川路二段99巷3號","121.452808333333","24.9945116666667","6500100","板橋區"
"220072","277-BY","2019/06/21 19:59:13","新北市板橋區篤行路二段73號","121.431776666667","24.991915","6500100","板橋區"
"220071","283-VK","2019/06/21 19:59:05","新北市板橋區五權街32巷7-4號","121.464593333333","24.9930366666667","6500100","板橋區"
"220094","285-UM","2019/06/21 19:59:11","新北市板橋區文化路一段371號","121.466848333333","25.0216133333333","6500100","板橋區"
"220053","285-VK","2019/06/21 19:59:16","新北市板橋區懷仁街55號","121.47694","25.0189433333333","6500100","板橋區"
"220083","286-VK","2019/06/21 19:58:59","新北市板橋區僑中二街8巷33號","121.445526666667","25.011415","6500100","板橋區"
"220081","287-VK","2019/06/21 19:59:04","新北市板橋區僑中一街124巷20弄36號","121.447545","25.0138683333333","6500100","板橋區"
"220090","288-VK","2019/06/21 19:59:05","新北市板橋區新海路72巷5弄41號","121.46127","25.0234066666667","6500100","板橋區"
"220061","293-UM","2019/06/21 19:58:59","新北市板橋區觀光街79巷2號","121.469385","25.0169383333333","6500100","板橋區"
"220062","295-UM","2019/06/21 19:59:13","新北市板橋區中山路二段318巷4號","121.480171666667","25.0191966666667","6500100","板橋區"
"220084","296-UM","2019/06/21 19:59:11","新北市板橋區溪崑二街112巷2號","121.426396666667","24.988865","6500100","板橋區"
"242044","281-VK","2019/06/21 19:59:18","新北市新莊區中正路746巷25號","121.410593333333","25.0243916666667","6500500","新莊區"
"220075","303-R5","2019/06/21 19:59:15","新北市板橋區金華街10巷5號","121.456011666667","25.020115","6500100","板橋區"
"220092","307-R5","2019/06/21 19:59:13","新北市板橋區光正街23巷46號","121.461721666667","25.0156483333333","6500100","板橋區"
"220098","317-R6","2019/06/21 19:59:06","新北市板橋區四維路269巷94弄18號","121.45938","25.0268633333333","6500100","板橋區"
"220089","487-VK","2019/06/21 19:59:12","新北市板橋區四維路301號","121.463186666667","25.0285516666667","6500100","板橋區"
"220088","491-VK","2019/06/21 19:59:04","新北市板橋區民治街79號","121.479596666667","25.0323133333333","6500100","板橋區"
"220103","561-BX","2019/06/21 19:59:03","新北市板橋區陽明街279巷35號","121.460986666667","25.0255916666667","6500100","板橋區"
"220063","609-BX","2019/06/21 19:59:07","新北市板橋區中山路二段84-4號","121.474931666667","25.016085","6500100","板橋區"
"220035","630-UY","2019/06/21 19:59:15","新北市板橋區金華街69號","121.457506666667","25.0207216666667","6500100","板橋區"
"220057","686-BX","2019/06/21 19:59:06","新北市板橋區四川路二段132號","121.450213333333","24.9936233333333","6500100","板橋區"
"220077","687-BX","2019/06/21 19:59:04","新北市板橋區僑中一街102巷7弄20號","121.44606","25.0131416666667","6500100","板橋區"
"220093","689-BX","2019/06/21 19:59:02","新北市板橋區長江路一段182號","121.461818333333","25.0305516666667","6500100","板橋區"
"220102","KEA-2699","2019/06/21 19:59:08","新北市板橋區文化路一段370-1號","121.469788333333","25.0235466666667","6500100","板橋區"
"220055","827-TW","2019/06/21 19:59:12","新北市板橋區國慶路157號","121.461635","24.996055","6500100","板橋區"
"220067","829-TW","2019/06/21 19:59:10","新北市板橋區漢生東路175-1號","121.469438333333","25.012135","6500100","板橋區"
"220068","831-TW","2019/06/21 19:58:59","新北市板橋區光復街237號","121.484575","25.021495","6500100","板橋區"
"220074","895-R6","2019/06/21 19:59:13","新北市板橋區文化路一段46巷23號","121.460391666667","25.0114966666667","6500100","板橋區"
"220073","985-R7","2019/06/21 19:59:12","新北市板橋區大仁街39號","121.455103333333","25.0166333333333","6500100","板橋區"
"220097","AAC-210","2019/06/21 19:59:07","新北市板橋區建國街125號","121.460858333333","25.01772","6500100","板橋區"
"220064","AAC-253","2019/06/21 19:59:11","新北市板橋區海山路51號","121.466878333333","25.0102733333333","6500100","板橋區"
"235068","KEA-2873","2019/06/21 19:58:46","新北市中和區永和路39巷10號","121.49767","25.0049466666667","6500300","中和區"
"235039","KEA-2876","2019/06/21 19:58:50","新北市中和區大勇街25巷39弄1號","121.514818333333","24.9942483333333","6500300","中和區"
