"lineid","car","time","location","longitude","latitude","cityid","cityname"
"234038","336-UY","2019/06/21 20:19:00","新北市永和區成功路一段93巷21弄1號","121.528141666667","25.0027283333333","6500400","永和區"
"234064","337-UY","2019/06/21 20:18:34","新北市永和區得和路131號","121.5191","25.0001933333333","6500400","永和區"
"234086","338-UY","2019/06/21 20:19:13","新北市永和區永和路二段59號","121.514641666667","25.0110583333333","6500400","永和區"
"234070","552-UM","2019/06/21 20:19:10","新北市永和區福和路263巷13號","121.517991666667","25.0065516666667","6500400","永和區"
"234017","745-BX","2019/06/21 20:19:05","新北市永和區仁愛路35號","121.514151666667","25.013325","6500400","永和區"
"234030","746-BX","2019/06/21 20:18:58","新北市永和區民有街75巷10弄1號","121.518355","24.9962516666667","6500400","永和區"
"234054","KEA-2590","2019/06/21 20:19:17","新北市永和區光復街2巷13號","121.516976666667","25.016615","6500400","永和區"
"234007","KED-0605","2019/06/21 20:18:59","新北市永和區仁愛路306巷81號","121.501611666667","25.00977","6500400","永和區"
"234013","KEA-2591","2019/06/21 20:19:03","新北市永和區保生路5巷3號","121.505981666667","25.0071133333333","6500400","永和區"
"234061","AAD-866","2019/06/21 20:19:08","新北市永和區得和路49號","121.516623333333","25.0001016666667","6500400","永和區"
"234081","748-BX","2019/06/21 20:19:06","新北市永和區永亨路83號","121.52196","25.0056166666667","6500400","永和區"
"234042","862-TW","2019/06/21 20:19:12","新北市中和區中安街178巷2號","121.51097","24.999585","6500400","永和區"
"234050","863-TW","2019/06/21 20:19:10","新北市永和區環河西路二段7-11號","121.50923","25.0168966666667","6500400","永和區"
"249005","172-UM","2019/06/21 20:19:07","新北市八里區下罟子1-16號","121.389783333333","25.14204","6502300","八里區"
"249001","173-UM","2019/06/21 20:19:08","新北市八里區中華路二段536-4號","121.399106666667","25.1450633333333","6502300","八里區"
"249004","303-UY","2019/06/21 20:18:59","新北市八里區中山路一段326號","121.41285","25.1590866666667","6502300","八里區"
"249002","305-UY","2019/06/21 20:19:16","新北市八里區龍米路一段100巷5號","121.453551666667","25.12515","6502300","八里區"
"249003","759-BX","2019/06/21 20:18:58","新北市八里區中山路二段447巷23號","121.397475","25.1451866666667","6502300","八里區"
"248016","026-BX","2019/06/21 20:19:13","新北市五股區凌雲路一段158巷39弄2號","121.446773333333","25.103805","6501500","五股區"
"248002","678-BX","2019/06/21 20:19:11","新北市五股區成泰路三段173號","121.445336666667","25.0920516666667","6501500","五股區"
"234023","9380-KE","2019/06/21 20:19:09","新北市永和區勵行街44號","121.516646666667","25.0135766666667","6500400","永和區"
"234077","969-R7","2019/06/21 20:19:02","新北市永和區民享街19號","121.515485","24.9950783333333","6500400","永和區"
"234074","AAC-211","2019/06/21 20:19:06","新北市永和區竹林路201巷22弄18號","121.523055","25.0093933333333","6500400","永和區"
"234067","AAC-212","2019/06/21 20:19:13","新北市永和區保平路268巷27號","121.50794","25.00591","6500400","永和區"
"234003","AAC-295","2019/06/21 20:19:00","新北市永和區大新街16號","121.51503","25.0084533333333","6500400","永和區"
"243012","AAD-798","2019/06/21 20:19:06","新北市泰山區楓江路162號","121.440768333333","25.06566","6501600","泰山區"
"243010","297-R6","2019/06/21 20:19:08","新北市泰山區明志路二段254巷16弄5號","121.426173333333","25.0481066666667","6501600","泰山區"
"243014","KEA-2801","2019/06/21 20:19:01","新北市泰山區明志路一段189號","121.432948333333","25.061905","6501600","泰山區"
"243016","421-VK","2019/06/21 20:18:59","新北市泰山區明志路三段1號","121.424795","25.0434516666667","6501600","泰山區"
"243009","KEA-2215","2019/06/21 20:19:01","新北市泰山區福泰街17號","121.432846666667","25.0602683333333","6501600","泰山區"
"243011","KEA-2216","2019/06/21 20:19:14","新北市新莊區壽山路160巷21號","121.417478333333","25.03189","6501600","泰山區"
"243013","646-TV","2019/06/21 20:19:07","新北市泰山區民國街31號","121.425871666667","25.0437833333333","6501600","泰山區"
"243015","680-BX","2019/06/21 20:19:15","新北市泰山區明志路一段280號","121.432028333333","25.0600433333333","6501600","泰山區"
"222003","436-BY","2019/06/21 20:19:15","新北市深坑區深坑街8號","121.616276666667","25.0025783333333","6501800","深坑區"
"222002","659-BX","2019/06/21 20:19:05","新北市深坑區萬福路75巷21號","121.599051666667","25.0096866666667","6501800","深坑區"
"231060","001-UM","2019/06/21 20:18:55","新北市新店區安康路三段578-1號","121.481063333333","24.9487183333333","6500600","新店區"
"231061","002-UM","2019/06/21 20:19:05","新北市新店區安興路33-1號","121.515825","24.970435","6500600","新店區"
"231058","0293-UT","2019/06/21 20:19:10","新北市新店區安興路137-1號","121.516211666667","24.979445","6500600","新店區"
"231059","046-UY","2019/06/21 20:19:01","新北市新店區安成街36號","121.51003","24.9611933333333","6500600","新店區"
"231041","047-UY","2019/06/21 20:18:58","新北市新店區民權路59號","121.539501666667","24.9828366666667","6500600","新店區"
"231051","107-UY","2019/06/21 20:19:10","新北市新店區中央六街33號","121.528988333333","24.9752383333333","6500600","新店區"
"231049","108-UY","2019/06/21 20:19:11","新北市新店區北新路二段35號","121.542651666667","24.9725033333333","6500600","新店區"
"231065","110-UY","2019/06/21 20:18:59","新北市新店區安祥路102巷32號","121.484123333333","24.96403","6500600","新店區"
"231068","187-VK","2019/06/21 20:19:05","新北市新店區寶安街30號","121.542081666667","24.9824183333333","6500600","新店區"
"221025","KEA-2785","2019/06/21 20:10:39","新北市汐止區新台五路一段232號","121.656766666667","25.0633916666667","6501100","汐止區"
"231062","256-BX","2019/06/21 20:19:09","新北市新店區安泰路7巷16號","121.485688333333","24.95093","6500600","新店區"
"231054","260-TV","2019/06/21 20:19:14","新北市新店區檳榔路109號","121.544445","24.9617783333333","6500600","新店區"
"231042","268-BY","2019/06/21 20:18:57","新北市新店區中興路二段231-2號","121.547775","24.9748783333333","6500600","新店區"
"231064","278-BY","2019/06/21 20:19:01","新北市新店區安業街8巷1號","121.515808333333","24.9772583333333","6500600","新店區"
"231050","AAD-862","2019/06/21 20:19:02","新北市新店區博愛街11巷1號","121.54086","24.9730633333333","6500600","新店區"
"231045","355-BY","2019/06/21 20:18:54","新北市新店區中興路一段90號","121.539873333333","24.9604083333333","6500600","新店區"
"231055","4716-K9","2019/06/21 20:19:03","新北市新店區中華路42巷26號","121.5409","24.9688816666667","6500600","新店區"
"231056","4715-K9","2019/06/21 20:19:12","新北市新店區中正路326號","121.536936666667","24.97483","6500600","新店區"
"231067","4772-VM","2019/06/21 20:19:12","新北市新店區安康路一段78號","121.528175","24.9619433333333","6500600","新店區"
"231053","513-UM","2019/06/21 20:19:00","新北市新店區新烏路二段315號","121.54962","24.9112266666667","6500600","新店區"
"231040","617-UM","2019/06/21 20:19:14","新北市新店區中正路108號","121.543075","24.9706283333333","6500600","新店區"
"231063","641-BX","2019/06/21 20:19:05","新北市新店區車子路1-1號","121.504795","24.9577633333333","6500600","新店區"
"231048","KED-0819","2019/06/21 20:18:58","新北市新店區寶橋路85巷5弄3號","121.545938333333","24.9757416666667","6500600","新店區"
"231057","720-UM","2019/06/21 20:19:16","新北市新店區花園十二路1號","121.554806666667","24.93469","6500600","新店區"
"231044","897-TW","2019/06/21 20:19:05","新北市新店區北新路三段190號","121.541435","24.9829616666667","6500600","新店區"
"231043","899-TW","2019/06/21 20:19:02","新北市新店區建國路133號","121.539323333333","24.978215","6500600","新店區"
"241011","013-R5","2019/06/21 20:19:02","新北市三重區龍門路168號","121.498913333333","25.0731233333333","6500200","三重區"
"241028","022-UY","2019/06/21 20:19:10","新北市三重區大同南路141號","121.496573333333","25.0574616666667","6500200","三重區"
"241008","059-VK","2019/06/21 20:19:10","新北市三重區永福街209號","121.479928333333","25.0744583333333","6500200","三重區"
"241012","060-VK","2019/06/21 20:19:08","新北市三重區河邊北街379-1號","121.501673333333","25.0766066666667","6500200","三重區"
"241031","061-VK","2019/06/21 20:19:06","新北市三重區三寧街15號","121.489496666667","25.0597483333333","6500200","三重區"
"241015","062-VK","2019/06/21 20:19:08","新北市三重區重新路一段137號","121.49994","25.06307","6500200","三重區"
"241017","063-VK","2019/06/21 20:19:05","新北市三重區自強路一段157號","121.49339","25.06715","6500200","三重區"
"241024","065-VK","2019/06/21 20:19:05","新北市三重區中正北路238號","121.481813333333","25.0678283333333","6500200","三重區"
"241001","066-VK","2019/06/21 20:19:12","新北市三重區自強路四段33號","121.48893","25.0766016666667","6500200","三重區"
"241002","090-VK","2019/06/21 20:19:16","新北市三重區仁義街101巷2號","121.497593333333","25.0801216666667","6500200","三重區"
"241003","091-VK","2019/06/21 20:19:02","新北市三重區富華街88號","121.491065","25.08353","6500200","三重區"
"241005","262-UM","2019/06/21 20:19:07","新北市三重區仁愛街502號","121.488145","25.0821","6500200","三重區"
"241016","266-UM","2019/06/21 20:19:10","新北市三重區大同北路97-3號","121.49438","25.0634766666667","6500200","三重區"
"241009","267-UM","2019/06/21 20:19:11","新北市三重區三和路四段382巷44號","121.481203333333","25.078525","6500200","三重區"
"241018","268-UM","2019/06/21 20:19:16","新北市三重區雙園街66號","121.49571","25.06768","6500200","三重區"
"241032","269-UM","2019/06/21 20:19:00","新北市三重區捷運路19巷8弄12號","121.484461666667","25.0572283333333","6500200","三重區"
"241013","270-UM","2019/06/21 20:19:01","新北市三重區三和路三段167巷31號","121.49304","25.074425","6500200","三重區"
"241025","271-UM","2019/06/21 20:19:06","新北市三重區自由街18巷1號","121.479568333333","25.0662416666667","6500200","三重區"
"241007","398-BY","2019/06/21 20:19:06","新北市三重區溪尾街108巷54號","121.48737","25.0781366666667","6500200","三重區"
"241035","KEA-2210","2019/06/21 20:19:01","新北市三重區正義北路33巷41號","121.49872","25.06379","6500200","三重區"
"241004","475-VK","2019/06/21 20:19:05","新北市三重區慈愛街156號","121.490811666667","25.080825","6500200","三重區"
"241020","478-VK","2019/06/21 20:19:11","新北市三重區忠孝路一段21巷11-1號","121.491801666667","25.0727616666667","6500200","三重區"
"241026","480-VK","2019/06/21 20:19:13","新北市三重區福德南路1號","121.502563333333","25.06363","6500200","三重區"
"241014","543-UM","2019/06/21 20:19:03","新北市三重區龍濱路285號","121.501063333333","25.0733416666667","6500200","三重區"
"241006","AAD-863","2019/06/21 20:19:01","新北市三重區車路頭街135-1號","121.48426","25.0761516666667","6500200","三重區"
"241019","743-BX","2019/06/21 20:16:22","新北市三重區忠孝路一段30巷58號","121.490595","25.07128","6500200","三重區"
"241022","KED-0820","2019/06/21 20:19:08","新北市三重區新北大道一段50號","121.487743333333","25.0614583333333","6500200","三重區"
"241029","942-UM","2019/06/21 20:19:08","新北市三重區集美街225號","121.491945","25.0551666666667","6500200","三重區"
"241033","AAC-255","2019/06/21 20:19:11","新北市三重區五谷王北街50巷41號","121.475148333333","25.0514216666667","6500200","三重區"
"235066","003-UY","2019/06/21 20:19:03","新北市中和區南工路85巷2號","121.507078333333","25.0029316666667","6500300","中和區"
"235065","098-UM","2019/06/21 20:18:59","新北市中和區福美路317號","121.496705","25.0046983333333","6500300","中和區"
"235055","183-VK","2019/06/21 20:19:16","新北市中和區員山路469巷1號","121.480343333333","25.004515","6500300","中和區"
"235067","255-BX","2019/06/21 20:19:12","新北市八里區下罟子8-10號","121.38393","25.1446783333333","6500300","中和區"
"247014","KEA-2869","2019/06/21 20:19:04","新北市蘆洲區中山二路144號","121.471231666667","25.0813933333333","6501400","蘆洲區"
"247008","KED-0682","2019/06/21 20:19:07","新北市蘆洲區集賢路300號","121.481521666667","25.08511","6501400","蘆洲區"
"235050","4979-A6","2019/06/21 20:18:58","新北市中和區景平路223號","121.51039","24.992655","6500300","中和區"
"235069","4980-A6","2019/06/21 20:19:12","新北市中和區景平路624號","121.500573333333","24.9975033333333","6500300","中和區"
"235026","800-TS","2019/06/21 20:19:10","新北市中和區員山路36巷16-2號","121.485256666667","24.9914","6500300","中和區"
"235059","AAC-215","2019/06/21 20:19:15","新北市中和區員山路30-2號","121.48322","24.98782","6500300","中和區"
"247004","893-R6","2019/06/21 20:18:57","新北市蘆洲區永康街118號","121.458045","25.085315","6501400","蘆洲區"
"247018","546-UM","2019/06/21 20:19:13","新北市蘆洲區民族路406號","121.474673333333","25.0913983333333","6501400","蘆洲區"
"247002","500-BY","2019/06/21 20:18:54","新北市蘆洲區長安街331巷13號","121.455986666667","25.086555","6501400","蘆洲區"
"247024","337-TH","2019/06/21 20:19:14","新北市蘆洲區光榮路120巷8弄37號","121.46474","25.0878383333333","6501400","蘆洲區"
"247022","057-VK","2019/06/21 20:19:15","新北市蘆洲區三民路130號","121.47087","25.0874416666667","6501400","蘆洲區"
"247012","056-VK","2019/06/21 20:19:01","新北市蘆洲區中興街30號","121.480836666667","25.0869333333333","6501400","蘆洲區"
"247006","002-UY","2019/06/21 20:19:17","新北市蘆洲區九芎街136號","121.465138333333","25.0790883333333","6501400","蘆洲區"
"222001","KEA-2212","2019/06/21 20:19:09","新北市深坑區北深路三段262號","121.59944","25.0044816666667","6501800","深坑區"
"251004","009-UM","2019/06/21 20:18:46","新北市淡水區民生路117巷46號","121.464875","25.140045","6501000","淡水區"
"251001","011-UM","2019/06/21 20:19:11","新北市淡水區淡金路二段15號","121.446323333333","25.189205","6501000","淡水區"
"251008","181-VK","2019/06/21 20:19:13","新北市淡水區淡海路180巷13號","121.421105","25.1846266666667","6501000","淡水區"
"251010","413-VK","2019/06/21 20:19:15","新北市淡水區濱海路三段148巷50弄76號","121.430671666667","25.1910433333333","6501000","淡水區"
"251012","441-VK","2019/06/21 20:19:09","新北市淡水區下圭柔山431-1號","121.449766666667","25.21019","6501000","淡水區"
"251006","561-UM","2019/06/21 20:19:15","新北市淡水區北新路169巷4號","121.450265","25.1795366666667","6501000","淡水區"
"251009","575-R6","2019/06/21 20:18:57","新北市淡水區中山路110號","121.442231666667","25.170665","6501000","淡水區"
"251002","672-BX","2019/06/21 20:19:13","新北市淡水區中正路125號","121.439515","25.1702533333333","6501000","淡水區"
"251003","766-UM","2019/06/21 20:19:08","新北市淡水區中山北路一段229號","121.444498333333","25.1795533333333","6501000","淡水區"
"207003","550-UM","2019/06/21 20:19:00","新北市萬里區野柳里八斗60號","121.66631","25.2047733333333","6502800","萬里區"
"207004","225-TW","2019/06/21 20:19:06","新北市萬里區北基里大仁路2號","121.681853333333","25.1752116666667","6502800","萬里區"
"252002","178-VK","2019/06/21 20:19:09","新北市三芝區中正路一段23號","121.502976666667","25.2586083333333","6502100","三芝區"
"237006","5529-G3","2019/06/21 20:19:01","新北市三峽區中園街86巷2號","121.367543333333","24.92487","6500900","三峽區"
"237005","AKY-6261","2019/06/21 20:18:59","新北市三峽區三樹路98巷74弄91號","121.385073333333","24.9384766666667","6500900","三峽區"
"236030","253-BX","2019/06/21 20:19:12","新北市土城區學成路108巷13弄11號","121.449625","24.9900216666667","6501300","土城區"
"236026","269-VK","2019/06/21 20:19:16","新北市土城區中央路一段249巷24號","121.446426666667","24.9853166666667","6501300","土城區"
"236014","270-VK","2019/06/21 20:19:02","新北市土城區四川路31號","121.455056666667","24.9956766666667","6501300","土城區"
"247010","KED-0683","2019/06/21 20:18:59","新北市蘆洲區信義路204號","121.47902","25.0847583333333","6501400","蘆洲區"
"236069","KEA-2877","2019/06/21 20:19:04","新北市土城區大安路101-5號","121.433385","24.9683766666667","6501300","土城區"
"252001","KED-0821","2019/06/21 20:19:03","新北市三芝區中山路一段14號","121.500668333333","25.2580233333333","6502100","三芝區"
"236059","912-UM","2019/06/21 20:19:13","新北市土城區大安路101-5號","121.433473333333","24.9686416666667","6501300","土城區"
"242039","AAC-296","2019/06/21 20:19:10","新北市新莊區八德街133巷11號","121.424703333333","25.0201333333333","6500500","新莊區"
"242060","986-R7","2019/06/21 20:19:06","新北市新莊區瓊林路206-6號","121.43552","25.02216","6500500","新莊區"
"242002","751-BX","2019/06/21 20:18:59","新北市新莊區中正路33號","121.463946666667","25.0409516666667","6500500","新莊區"
"242029","615-BX","2019/06/21 20:19:13","新北市新莊區中華路二段163號","121.452845","25.051825","6500500","新莊區"
"242027","613-BX","2019/06/21 20:06:07","新北市新莊區立信三街7巷1號","121.444236666667","25.05032","6500500","新莊區"
"242058","612-BX","2019/06/21 20:19:16","新北市新莊區龍安路278巷22號","121.421778333333","25.0184866666667","6500500","新莊區"
"242046","566-BX","2019/06/21 20:19:05","新北市新莊區中正路新生巷41號","121.417425","25.0234316666667","6500500","新莊區"
"242056","441-UM","2019/06/21 20:19:09","新北市新莊區新莊路649巷26弄24號","121.444338333333","25.0320733333333","6500500","新莊區"
"242005","440-UM","2019/06/21 20:19:04","新北市新莊區頭前路2巷8號","121.468485","25.0529633333333","6500500","新莊區"
"242041","415-TV","2019/06/21 20:19:10","新北市新莊區天祥街54巷1弄1號","121.416651666667","25.0292766666667","6500500","新莊區"
"242011","413-TV","2019/06/21 20:19:06","新北市新莊區中信街23巷1號","121.451011666667","25.0505966666667","6500500","新莊區"
"242048","400-BY","2019/06/21 20:19:11","新北市新莊區四維路212巷4弄6號","121.421183333333","25.0204633333333","6500500","新莊區"
"242025","362-BY","2019/06/21 20:19:03","新北市新莊區五工一路80巷16號","121.461076666667","25.0667733333333","6500500","新莊區"
"242023","353-BY","2019/06/21 20:19:08","新北市新莊區化成路766號","121.465226666667","25.0588333333333","6500500","新莊區"
"242013","132-UY","2019/06/21 20:19:02","新北市新莊區幸福路710巷5弄1號","121.449146666667","25.0497516666667","6500500","新莊區"
"242037","135-UY","2019/06/21 20:19:12","新北市新莊區建安街42號","121.427676666667","25.0249666666667","6500500","新莊區"
"242054","172-VK","2019/06/21 20:19:03","新北市新莊區西盛街388巷1號","121.427531666667","25.0129016666667","6500500","新莊區"
"242015","173-VK","2019/06/21 20:19:09","新北市新莊區中和街31巷18號","121.447375","25.0439566666667","6500500","新莊區"
"242007","175-VK","2019/06/21 20:19:13","新北市新莊區福壽街124巷34弄1號","121.459335","25.0512516666667","6500500","新莊區"
"242019","176-VK","2019/06/21 20:19:05","新北市新莊區博愛路7巷2號","121.45609","25.0439083333333","6500500","新莊區"
"242021","346-TH","2019/06/21 20:19:14","新北市新莊區復興路一段14號","121.445811666667","25.041545","6500500","新莊區"
"242032","347-TH","2019/06/21 20:19:11","新北市新莊區中正路453號","121.442876666667","25.0341216666667","6500500","新莊區"
"242034","348-TH","2019/06/21 20:19:11","新北市新莊區新泰路199巷6號","121.446723333333","25.038","6500500","新莊區"
"242050","350-TH","2019/06/21 20:19:06","新北市新莊區民安西路212巷3弄8號","121.425223333333","25.0146683333333","6500500","新莊區"
"242017","351-TH","2019/06/21 20:19:13","新北市新莊區中港一街72號","121.449858333333","25.0453833333333","6500500","新莊區"
"221008","489-VK","2019/06/21 20:19:03","台北市內湖區康樂街235號","121.623458333333","25.0783683333333","6501100","汐止區"
"221036","130-UY","2019/06/21 20:18:58","新北市汐止區福安街59巷4號","121.664183333333","25.0636283333333","6501100","汐止區"
"221015","131-UY","2019/06/21 20:19:09","新北市汐止區建成路160巷16號","121.661858333333","25.0739566666667","6501100","汐止區"
"221010","269-BY","2019/06/21 20:19:03","新北市汐止區八連路一段207號","121.641091666667","25.08084","6501100","汐止區"
"221012","278-VK","2019/06/21 20:19:14","新北市汐止區汐平路一段22號","121.681801666667","25.0706666666667","6501100","汐止區"
"221023","279-VK","2019/06/21 20:19:02","新北市汐止區明峰街298巷8弄1號","121.625048333333","25.0686333333333","6501100","汐止區"
"221032","280-BY","2019/06/21 20:19:15","新北市汐止區弘道街57號","121.618811666667","25.0484466666667","6501100","汐止區"
"221029","298-VK","2019/06/21 19:53:32","新北市汐止區樟樹二路345號","121.641865","25.0731733333333","6501100","汐止區"
"221021","299-VK","2019/06/21 20:19:00","新北市汐止區水源路一段280號","121.654236666667","25.0583983333333","6501100","汐止區"
"221031","353-TW","2019/06/21 20:19:06","新北市汐止區福德二路104號","121.632203333333","25.0661","6501100","汐止區"
"221035","622-UM","2019/06/21 20:18:57","新北市汐止區長江街57巷14號","121.656093333333","25.0720666666667","6501100","汐止區"
"221038","646-BX","2019/06/21 20:19:01","新北市汐止區忠孝東路460號","121.666175","25.0729966666667","6501100","汐止區"
"221033","647-BX","2019/06/21 20:19:14","新北市汐止區東勢街201巷96號","121.63381","25.0431366666667","6501100","汐止區"
"221002","707-TV","2019/06/21 20:18:59","新北市汐止區福德三路20號","121.637101666667","25.0694983333333","6501100","汐止區"
"221018","753-BX","2019/06/21 20:19:09","新北市汐止區茄安路37號","121.67342","25.0681583333333","6501100","汐止區"
"220083","286-VK","2019/06/21 20:18:59","新北市板橋區僑中二街92巷15號","121.44548","25.0090083333333","6500100","板橋區"
"220081","287-VK","2019/06/21 20:19:04","新北市板橋區僑中三街40號","121.445155","25.00494","6500100","板橋區"
"220061","293-UM","2019/06/21 20:19:14","新北市板橋區四川路一段274巷4號","121.458181666667","25.0013633333333","6500100","板橋區"
"242044","281-VK","2019/06/21 20:19:07","新北市新莊區中正路895-1號","121.412285","25.0220216666667","6500500","新莊區"
"242009","280-VK","2019/06/21 20:19:17","新北市新莊區昌隆街31號","121.454881666667","25.0511166666667","6500500","新莊區"
"220103","561-BX","2019/06/21 20:19:04","新北市板橋區漢生東路83巷27號","121.467441666667","25.0168083333333","6500100","板橋區"
"220055","827-TW","2019/06/21 20:19:12","新北市板橋區國慶路149巷36號","121.460995","24.9979933333333","6500100","板橋區"
"220074","895-R6","2019/06/21 20:19:01","新北市板橋區南雅南路一段7巷21-1號","121.456211666667","25.0050583333333","6500100","板橋區"
"235068","KEA-2873","2019/06/21 20:19:16","新北市中和區勝利路35巷1弄4號","121.499131666667","25.0074583333333","6500300","中和區"
"235039","KEA-2876","2019/06/21 20:18:50","新北市中和區大勇街29巷10號","121.515963333333","24.994475","6500300","中和區"
