"lineid","car","time","location","longitude","latitude","cityid","cityname"
"234038","336-UY","2019/06/21 20:38:59","新北市永和區環河東路四段86號","121.52857","24.9975516666667","6500400","永和區"
"234064","337-UY","2019/06/21 20:39:14","新北市永和區環河西路二段93號","121.506423333333","25.0150066666667","6500400","永和區"
"234061","AAD-866","2019/06/21 20:39:08","新北市永和區秀朗路一段175號","121.516993333333","25.00362","6500400","永和區"
"234081","748-BX","2019/06/21 20:39:06","新北市永和區永貞路78號","121.520205","25.0050933333333","6500400","永和區"
"234050","863-TW","2019/06/21 20:39:06","新北市永和區保安路132號","121.508781666667","25.0152933333333","6500400","永和區"
"249001","173-UM","2019/06/21 20:39:08","新北市八里區中山路三段382號","121.368671666667","25.1359066666667","6502300","八里區"
"249004","303-UY","2019/06/21 20:38:59","新北市八里區中山路一段336號","121.41263","25.15893","6502300","八里區"
"234074","AAC-211","2019/06/21 20:39:05","新北市永和區竹林路119巷4弄2號","121.520456666667","25.0114433333333","6500400","永和區"
"243011","KEA-2216","2019/06/21 20:39:14","新北市泰山區明志路二段199號","121.427488333333","25.0491316666667","6501600","泰山區"
"222003","436-BY","2019/06/21 20:39:13","新北市深坑區文山路二段30巷31號","121.614861666667","24.9989816666667","6501800","深坑區"
"222002","659-BX","2019/06/21 20:39:05","新北市深坑區萬福路43號","121.59935","25.00685","6501800","深坑區"
"231060","001-UM","2019/06/21 20:38:55","新北市新店區錦秀路50號","121.479075","24.9433933333333","6500600","新店區"
"231061","002-UM","2019/06/21 20:39:05","新北市新店區安和路三段99號","121.517816666667","24.984325","6500600","新店區"
"231058","0293-UT","2019/06/21 20:39:10","新北市新店區中正路307巷16號","121.536345","24.9744033333333","6500600","新店區"
"231059","046-UY","2019/06/21 20:39:01","新北市新店區安豐路46號","121.50016","24.9549316666667","6500600","新店區"
"231041","047-UY","2019/06/21 20:38:58","新北市新店區中正路568號","121.533833333333","24.9877516666667","6500600","新店區"
"231051","107-UY","2019/06/21 20:39:10","新北市新店區中央八街71號","121.527865","24.976745","6500600","新店區"
"231049","108-UY","2019/06/21 20:39:11","新北市新店區永業路81巷5弄1號","121.530175","24.94894","6500600","新店區"
"231065","110-UY","2019/06/21 20:38:58","新北市新店區安祥路102巷103號","121.486781666667","24.9640866666667","6500600","新店區"
"231068","187-VK","2019/06/21 20:39:05","新北市新店區中興路三段330號","121.54217","24.9865716666667","6500600","新店區"
"221025","KEA-2785","2019/06/21 20:10:39","新北市汐止區新台五路一段232號","121.656766666667","25.0633916666667","6501100","汐止區"
"231062","256-BX","2019/06/21 20:39:09","新北市新店區安泰路70號","121.485271666667","24.9474633333333","6500600","新店區"
"231054","260-TV","2019/06/21 20:39:14","新北市新店區行政街10巷2號","121.542713333333","24.9666733333333","6500600","新店區"
"231042","268-BY","2019/06/21 20:39:17","新北市新店區寶高路120巷1號","121.554603333333","24.9761383333333","6500600","新店區"
"231064","278-BY","2019/06/21 20:39:01","新北市新店區安和路三段171號","121.515941666667","24.9861266666667","6500600","新店區"
"231050","AAD-862","2019/06/21 20:39:06","新北市新店區中正路261號","121.538835","24.97358","6500600","新店區"
"231045","355-BY","2019/06/21 20:39:14","新北市新店區長春路171號","121.558335","24.9618533333333","6500600","新店區"
"231056","4715-K9","2019/06/21 20:39:12","新北市新店區安和路三段1-1號","121.51714","24.979525","6500600","新店區"
"231067","4772-VM","2019/06/21 20:39:12","新北市新店區安華路28-1號","121.520073333333","24.96082","6500600","新店區"
"231053","513-UM","2019/06/21 20:38:59","新北市新店區松林路51號","121.54445","24.9113616666667","6500600","新店區"
"231040","617-UM","2019/06/21 20:39:14","新北市新店區中正路265巷32號","121.537735","24.9730683333333","6500600","新店區"
"231063","641-BX","2019/06/21 20:39:05","新北市新店區玫瑰路4-1號","121.493683333333","24.9514016666667","6500600","新店區"
"231048","KED-0819","2019/06/21 20:38:58","新北市新店區寶慶街58巷21-1號","121.542135","24.98753","6500600","新店區"
"231057","720-UM","2019/06/21 20:39:16","新北市新店區花園二路一段9-5號","121.556351666667","24.9328","6500600","新店區"
"231044","897-TW","2019/06/21 20:39:05","新北市新店區民權路90巷36號","121.53697","24.984705","6500600","新店區"
"231043","899-TW","2019/06/21 20:39:02","新北市新店區建國路13號","121.539911666667","24.9735183333333","6500600","新店區"
"241011","013-R5","2019/06/21 20:39:02","新北市三重區龍濱路217號","121.501878333333","25.07197","6500200","三重區"
"241028","022-UY","2019/06/21 20:39:10","新北市三重區光興街91號","121.497366666667","25.0598916666667","6500200","三重區"
"241008","059-VK","2019/06/21 20:39:09","新北市三重區下竹圍街91號","121.481125","25.0747983333333","6500200","三重區"
"241012","060-VK","2019/06/21 20:39:08","新北市三重區秀江街31號","121.50203","25.0729233333333","6500200","三重區"
"241031","061-VK","2019/06/21 20:39:06","新北市三重區重陽路一段43巷36號","121.488381666667","25.0585783333333","6500200","三重區"
"241015","062-VK","2019/06/21 20:39:08","新北市三重區文化北路200巷13號","121.497883333333","25.0682816666667","6500200","三重區"
"241017","063-VK","2019/06/21 20:39:05","新北市三重區安慶街270號","121.490708333333","25.0675933333333","6500200","三重區"
"241024","065-VK","2019/06/21 20:39:05","新北市三重區中正北路276巷28號","121.480291666667","25.06717","6500200","三重區"
"241001","066-VK","2019/06/21 20:39:00","新北市三重區自強路三段76巷27弄8號","121.485178333333","25.074315","6500200","三重區"
"241002","090-VK","2019/06/21 20:39:16","新北市三重區仁義街155號","121.497103333333","25.0811016666667","6500200","三重區"
"241003","091-VK","2019/06/21 20:39:02","新北市三重區集賢路87-1號","121.493603333333","25.08683","6500200","三重區"
"241005","262-UM","2019/06/21 20:39:07","新北市三重區五華街141巷58號","121.493411666667","25.08662","6500200","三重區"
"241016","266-UM","2019/06/21 20:39:10","新北市三重區長壽西街113號","121.494425","25.0668433333333","6500200","三重區"
"241009","267-UM","2019/06/21 20:39:11","新北市三重區碧華街57號","121.484761666667","25.0812783333333","6500200","三重區"
"241018","268-UM","2019/06/21 20:39:11","新北市三重區重陽路三段115號","121.490985","25.06866","6500200","三重區"
"241032","269-UM","2019/06/21 20:39:00","新北市三重區重陽路一段120巷48號","121.484965","25.0601733333333","6500200","三重區"
"241013","270-UM","2019/06/21 20:39:01","新北市三重區仁愛街131號","121.495565","25.074925","6500200","三重區"
"241025","271-UM","2019/06/21 20:39:06","新北市三重區金華街82號","121.4771","25.0651383333333","6500200","三重區"
"241007","398-BY","2019/06/21 20:39:02","新北市三重區自強路四段28號","121.488888333333","25.0767816666667","6500200","三重區"
"241035","KEA-2210","2019/06/21 20:38:57","新北市三重區正義北路332號","121.49461","25.070625","6500200","三重區"
"241004","475-VK","2019/06/21 20:39:05","新北市三重區仁愛街409號","121.490733333333","25.081235","6500200","三重區"
"241020","478-VK","2019/06/21 20:39:11","新北市三重區忠孝路一段101號","121.489401666667","25.0722516666667","6500200","三重區"
"241026","480-VK","2019/06/21 20:39:13","新北市三重區和平街1號","121.500053333333","25.062205","6500200","三重區"
"241014","543-UM","2019/06/21 20:39:03","新北市三重區萬壽街4號","121.499075","25.069425","6500200","三重區"
"241006","AAD-863","2019/06/21 20:39:01","新北市三重區車路頭街139巷14號","121.484386666667","25.0762216666667","6500200","三重區"
"241019","743-BX","2019/06/21 20:39:03","新北市三重區忠孝路一段10巷11號","121.491531666667","25.0714833333333","6500200","三重區"
"241022","KED-0820","2019/06/21 20:39:08","新北市三重區新北大道一段7號","121.48962","25.0612583333333","6500200","三重區"
"241029","942-UM","2019/06/21 20:39:08","新北市三重區集美街126巷25號","121.48996","25.05382","6500200","三重區"
"241033","AAC-255","2019/06/21 20:39:11","新北市三重區神農街378號","121.474136666667","25.0560833333333","6500200","三重區"
"235055","183-VK","2019/06/21 20:39:16","新北市中和區員山路36巷13號","121.48432","24.9907333333333","6500300","中和區"
"235067","255-BX","2019/06/21 20:39:12","新北市五股區凌雲路二段18巷12-1號","121.44398","25.106755","6500300","中和區"
"247014","KEA-2869","2019/06/21 20:39:04","新北市蘆洲區中山一路211號","121.473861666667","25.0808183333333","6501400","蘆洲區"
"247008","KED-0682","2019/06/21 20:39:07","新北市蘆洲區重陽街2號","121.480518333333","25.0811583333333","6501400","蘆洲區"
"235050","4979-A6","2019/06/21 20:39:18","新北市中和區中正路226號","121.496165","24.99405","6500300","中和區"
"235069","4980-A6","2019/06/21 20:39:12","新北市中和區中正路636號","121.485683333333","24.9962716666667","6500300","中和區"
"235026","800-TS","2019/06/21 20:19:56","新北市中和區員山路36巷16-3號","121.485125","24.991465","6500300","中和區"
"247004","893-R6","2019/06/21 20:39:17","新北市蘆洲區長安街222號","121.458125","25.084945","6501400","蘆洲區"
"247002","500-BY","2019/06/21 20:39:15","新北市蘆洲區永樂街30號","121.458476666667","25.08819","6501400","蘆洲區"
"247024","337-TH","2019/06/21 20:38:54","新北市蘆洲區長樂路79號","121.46255","25.0868066666667","6501400","蘆洲區"
"247022","057-VK","2019/06/21 20:38:55","新北市蘆洲區中正路185巷46弄12號","121.467148333333","25.08518","6501400","蘆洲區"
"247012","056-VK","2019/06/21 20:39:01","新北市蘆洲區集賢路224巷33號","121.481185","25.0876533333333","6501400","蘆洲區"
"247016","053-VK","2019/06/21 20:39:04","新北市蘆洲區中山二路288號","121.468855","25.07769","6501400","蘆洲區"
"247020","007-UY","2019/06/21 20:39:03","新北市蘆洲區民族路331號","121.473816666667","25.0917583333333","6501400","蘆洲區"
"247006","002-UY","2019/06/21 20:38:57","新北市蘆洲區和平路141-1號","121.4671","25.080385","6501400","蘆洲區"
"222001","KEA-2212","2019/06/21 20:39:09","新北市深坑區北深路三段205號","121.600748333333","25.0038933333333","6501800","深坑區"
"251001","011-UM","2019/06/21 20:39:11","新北市淡水區水源街二段177巷32弄20號","121.455001666667","25.178245","6501000","淡水區"
"251010","413-VK","2019/06/21 20:38:55","新北市淡水區沙崙路181巷15號","121.423986666667","25.1843683333333","6501000","淡水區"
"251012","441-VK","2019/06/21 20:39:09","新北市淡水區興仁路108號","121.451661666667","25.21816","6501000","淡水區"
"251006","561-UM","2019/06/21 20:39:15","新北市淡水區商工路186巷11號","121.451021666667","25.1876433333333","6501000","淡水區"
"251002","672-BX","2019/06/21 20:39:13","新北市淡水區中正路38-1號","121.443718333333","25.1692333333333","6501000","淡水區"
"251003","766-UM","2019/06/21 20:39:08","新北市淡水區新民街120巷15號","121.438208333333","25.177985","6501000","淡水區"
"252002","178-VK","2019/06/21 20:39:09","新北市三芝區淡金路二段76-1號","121.504025","25.260925","6502100","三芝區"
"247010","KED-0683","2019/06/21 20:38:58","新北市蘆洲區中山一路53號","121.47859","25.0810816666667","6501400","蘆洲區"
"252001","KED-0821","2019/06/21 20:39:03","新北市三芝區育英街29-1號","121.501315","25.2574","6502100","三芝區"
"242039","AAC-296","2019/06/21 20:39:10","新北市新莊區瓊林路204-13號","121.437415","25.0212583333333","6500500","新莊區"
"242060","986-R7","2019/06/21 20:39:07","新北市新莊區新樹路246號","121.432623333333","25.0183733333333","6500500","新莊區"
"242002","751-BX","2019/06/21 20:38:59","新北市新莊區中正路育農巷1號","121.456995","25.0379233333333","6500500","新莊區"
"242029","615-BX","2019/06/21 20:39:13","新北市新莊區中華路二段109號","121.452836666667","25.0498983333333","6500500","新莊區"
"242027","613-BX","2019/06/21 20:39:04","新北市新莊區思源路219號","121.459763333333","25.0461566666667","6500500","新莊區"
"242058","612-BX","2019/06/21 20:39:18","新北市新莊區四維路140號","121.423138333333","25.023435","6500500","新莊區"
"242046","566-BX","2019/06/21 20:39:05","新北市新莊區裕民街57號","121.418748333333","25.02455","6500500","新莊區"
"242056","441-UM","2019/06/21 20:39:09","新北市新莊區瓊泰路94巷48號","121.44503","25.029415","6500500","新莊區"
"242005","440-UM","2019/06/21 20:39:04","新北市新莊區化成路389巷30號","121.46413","25.0584716666667","6500500","新莊區"
"242041","415-TV","2019/06/21 20:39:12","新北市新莊區天祥街29號","121.417138333333","25.02815","6500500","新莊區"
"242011","413-TV","2019/06/21 20:39:06","新北市新莊區中榮街120號","121.446595","25.0528533333333","6500500","新莊區"
"242048","400-BY","2019/06/21 20:39:09","新北市新莊區中正路654號","121.421296666667","25.0284733333333","6500500","新莊區"
"242025","362-BY","2019/06/21 20:39:03","新北市三重區光復路二段178-1號","121.471838333333","25.062295","6500500","新莊區"
"242023","353-BY","2019/06/21 20:39:08","新北市新莊區化成路422號","121.465923333333","25.05097","6500500","新莊區"
"242013","132-UY","2019/06/21 20:39:02","新北市新莊區中平路302巷6號","121.445438333333","25.0517183333333","6500500","新莊區"
"242037","135-UY","2019/06/21 20:39:12","新北市新莊區建國一路80號","121.434443333333","25.0303916666667","6500500","新莊區"
"242054","172-VK","2019/06/21 20:39:03","新北市新莊區民安西路220號","121.42594","25.0146466666667","6500500","新莊區"
"242015","173-VK","2019/06/21 20:39:09","新北市新莊區中和街32號","121.448241666667","25.0438216666667","6500500","新莊區"
"242007","175-VK","2019/06/21 20:39:13","新北市新莊區福壽街26號","121.458191666667","25.0482883333333","6500500","新莊區"
"242019","176-VK","2019/06/21 20:39:05","新北市新莊區銘德街99號","121.455843333333","25.0433933333333","6500500","新莊區"
"242021","346-TH","2019/06/21 20:39:14","新北市新莊區公園路130號","121.452135","25.0401033333333","6500500","新莊區"
"242032","347-TH","2019/06/21 20:39:08","新北市新莊區三泰路23號","121.43715","25.0356","6500500","新莊區"
"242034","348-TH","2019/06/21 20:39:12","新北市新莊區中正路356號","121.443821666667","25.0342833333333","6500500","新莊區"
"242050","350-TH","2019/06/21 20:39:06","新北市新莊區民安西路173巷7號","121.426451666667","25.0160016666667","6500500","新莊區"
"242017","351-TH","2019/06/21 20:39:13","新北市新莊區中港三街120號","121.447888333333","25.0459966666667","6500500","新莊區"
"221008","489-VK","2019/06/21 20:39:03","新北市汐止區康寧街509號","121.633","25.0685916666667","6501100","汐止區"
"221036","130-UY","2019/06/21 20:38:58","新北市汐止區忠孝東路228號","121.662378333333","25.066815","6501100","汐止區"
"221015","131-UY","2019/06/21 20:39:09","新北市汐止區建成路72號","121.663043333333","25.0730666666667","6501100","汐止區"
"221012","278-VK","2019/06/21 20:39:14","新北市汐止區保新街151號","121.688281666667","25.0696166666667","6501100","汐止區"
"221023","279-VK","2019/06/21 20:39:02","新北市汐止區湖東街22號","121.634335","25.0722316666667","6501100","汐止區"
"221021","299-VK","2019/06/21 20:39:00","新北市汐止區水源路一段280號","121.654148333333","25.0583366666667","6501100","汐止區"
"221031","353-TW","2019/06/21 20:39:06","新北市汐止區中興路110巷34號","121.634328333333","25.0646583333333","6501100","汐止區"
"221035","622-UM","2019/06/21 20:39:17","新北市汐止區長江街101-5號","121.658693333333","25.073215","6501100","汐止區"
"221038","646-BX","2019/06/21 20:39:01","新北市汐止區龍安路28巷22號","121.65437","25.0644","6501100","汐止區"
"221033","647-BX","2019/06/21 20:39:12","新北市汐止區合順街18巷8弄5號","121.620345","25.0419366666667","6501100","汐止區"
"221002","707-TV","2019/06/21 20:38:59","新北市汐止區福德二路169號","121.63084","25.0650866666667","6501100","汐止區"
"221018","753-BX","2019/06/21 20:39:09","新北市汐止區茄苳路61號","121.666706666667","25.0707216666667","6501100","汐止區"
"220083","286-VK","2019/06/21 20:38:59","新北市板橋區僑中二街108巷17號","121.444985","25.0073666666667","6500100","板橋區"
"220061","293-UM","2019/06/21 20:38:59","新北市板橋區金門街215巷88號","121.43262","24.9838883333333","6500100","板橋區"
"242044","281-VK","2019/06/21 20:38:56","新北市新莊區龍安路47號","121.415101666667","25.02198","6500500","新莊區"
"242009","280-VK","2019/06/21 20:39:07","新北市新莊區幸福路64巷4弄4號","121.45731","25.0499416666667","6500500","新莊區"
"220055","827-TW","2019/06/21 20:39:12","新北市板橋區重慶路290巷5號","121.461396666667","24.998685","6500100","板橋區"
