"lineid","car","time","location","longitude","latitude","cityid","cityname"
"231059","046-UY","2019/06/21 21:19:01","新北市新店區安豐路48號","121.500575","24.9540183333333","6500600","新店區"
"231051","107-UY","2019/06/21 21:19:10","新北市新店區中正路700巷73號","121.53579","24.9934583333333","6500600","新店區"
"231065","110-UY","2019/06/21 21:18:58","新北市新店區薏仁坑路11號","121.498455","24.9589966666667","6500600","新店區"
"231068","187-VK","2019/06/21 21:19:05","新北市樹林區佳園路三段91號","121.387911666667","24.9521183333333","6500600","新店區"
"231062","256-BX","2019/06/21 21:19:09","新北市新店區安興路125-12號","121.514396666667","24.9779483333333","6500600","新店區"
"231042","268-BY","2019/06/21 21:18:57","新北市樹林區佳園路三段99巷71號","121.39427","24.9518883333333","6500600","新店區"
"231064","278-BY","2019/06/21 21:19:01","新北市土城區中央路四段321巷34弄9號","121.414758333333","24.9513883333333","6500600","新店區"
"231050","AAD-862","2019/06/21 21:19:02","新北市新店區中正路183巷8號","121.540355","24.9718683333333","6500600","新店區"
"231040","617-UM","2019/06/21 21:19:14","新北市新店區安康路一段52巷2號","121.529996666667","24.9612416666667","6500600","新店區"
"231063","641-BX","2019/06/21 21:19:05","新北市新店區吉祥街11巷1號","121.497591666667","24.9465933333333","6500600","新店區"
"241011","013-R5","2019/06/21 21:19:17","新北市三重區龍濱路191號","121.50201","25.07119","6500200","三重區"
"241028","022-UY","2019/06/21 21:19:10","新北市三重區同安街105號","121.494541666667","25.05641","6500200","三重區"
"241008","059-VK","2019/06/21 21:19:09","新北市三重區自強路一段220號","121.494185","25.0666466666667","6500200","三重區"
"241031","061-VK","2019/06/21 21:19:06","新北市三重區中興北街21號","121.469618333333","25.0466033333333","6500200","三重區"
"241015","062-VK","2019/06/21 21:19:08","新北市三重區龍濱路37號","121.502853333333","25.0682983333333","6500200","三重區"
"241017","063-VK","2019/06/21 21:19:04","新北市三重區國隆路2巷1號","121.493715","25.0635033333333","6500200","三重區"
"241024","065-VK","2019/06/21 21:19:05","新北市三重區中正北路145巷14號","121.484153333333","25.0677883333333","6500200","三重區"
"241001","066-VK","2019/06/21 21:19:00","新北市三重區碧華街378號","121.490916666667","25.0843416666667","6500200","三重區"
"241002","090-VK","2019/06/21 21:18:55","新北市三重區自強路五段43號","121.494248333333","25.08132","6500200","三重區"
"241003","091-VK","2019/06/21 21:19:02","新北市三重區仁義街220巷1號","121.49533","25.0841716666667","6500200","三重區"
"241005","262-UM","2019/06/21 21:19:07","新北市三重區五華街180巷11號","121.488246666667","25.0860416666667","6500200","三重區"
"241016","266-UM","2019/06/21 21:18:30","新北市三重區自強路一段99號","121.49579","25.0663883333333","6500200","三重區"
"241009","267-UM","2019/06/21 21:19:11","新北市五股區中興路三段1-6號","121.451833333333","25.0758516666667","6500200","三重區"
"241018","268-UM","2019/06/21 21:19:11","新北市三重區忠孝路二段160號","121.482258333333","25.0680616666667","6500200","三重區"
"241032","269-UM","2019/06/21 21:19:00","新北市新莊區化成路585號","121.463738333333","25.0667266666667","6500200","三重區"
"241013","270-UM","2019/06/21 21:19:01","新北市三重區仁愛街81-1號","121.495883333333","25.0731833333333","6500200","三重區"
"241025","271-UM","2019/06/21 21:19:06","新北市三重區中正北路208巷10弄4號","121.482418333333","25.0668883333333","6500200","三重區"
"241007","398-BY","2019/06/21 21:19:02","新北市三重區正義北路366號","121.493823333333","25.0713233333333","6500200","三重區"
"241004","475-VK","2019/06/21 21:19:05","新北市三重區碧華街211-1號","121.488586666667","25.0827716666667","6500200","三重區"
"241026","480-VK","2019/06/21 21:19:13","新北市三重區大同南路210號","121.496731666667","25.0564883333333","6500200","三重區"
"241014","543-UM","2019/06/21 21:19:03","新北市三重區萬全街9號","121.49931","25.06967","6500200","三重區"
"241023","545-UM","2019/06/21 20:52:08","","121.480943333333","25.064035","6500200","三重區"
"241006","AAD-863","2019/06/21 21:19:01","新北市三重區疏洪西路399號","121.469105","25.0639466666667","6500200","三重區"
"241019","743-BX","2019/06/21 21:18:22","新北市三重區新北大道一段168號","121.483655","25.0614","6500200","三重區"
"241033","AAC-255","2019/06/21 21:19:10","新北市三重區光復路二段88巷18號","121.471185","25.05742","6500200","三重區"
"235067","255-BX","2019/06/21 21:09:52","新北市中和區員山路36巷13號","121.484391666667","24.9911483333333","6500300","中和區"
"247014","KEA-2869","2019/06/21 21:19:04","新北市蘆洲區中正路185巷54號","121.466973333333","25.0847783333333","6501400","蘆洲區"
"247008","KED-0682","2019/06/21 21:19:07","新北市蘆洲區信義路73巷10號","121.476108333333","25.080425","6501400","蘆洲區"
"247004","893-R6","2019/06/21 21:18:57","新北市五股區中興路三段2巷10號","121.449065","25.0811716666667","6501400","蘆洲區"
"247002","500-BY","2019/06/21 21:19:15","新北市蘆洲區永樂街47號","121.456866666667","25.0883816666667","6501400","蘆洲區"
"247024","337-TH","2019/06/21 21:19:14","新北市蘆洲區光榮路2號","121.460013333333","25.0862433333333","6501400","蘆洲區"
"247022","057-VK","2019/06/21 21:19:15","新北市蘆洲區三民路128巷98號","121.469396666667","25.0906816666667","6501400","蘆洲區"
"247012","056-VK","2019/06/21 21:19:01","新北市蘆洲區中興街116號","121.482465","25.0888583333333","6501400","蘆洲區"
"247006","002-UY","2019/06/21 21:19:17","新北市蘆洲區長安街72號","121.462568333333","25.0800866666667","6501400","蘆洲區"
"251004","009-UM","2019/06/21 21:19:06","新北市淡水區民族路33號","121.462305","25.1358133333333","6501000","淡水區"
"251005","010-UM","2019/06/21 21:19:03","新北市淡水區水源街一段122巷40號","121.447006666667","25.1704266666667","6501000","淡水區"
"251001","011-UM","2019/06/21 21:19:11","新北市淡水區濱海路一段53號","121.443673333333","25.1891366666667","6501000","淡水區"
"251008","181-VK","2019/06/21 21:19:13","新北市淡水區水源街二段233號","121.460783333333","25.1763733333333","6501000","淡水區"
"251010","413-VK","2019/06/21 21:19:15","新北市淡水區中正路一段156巷51號","121.421788333333","25.1811166666667","6501000","淡水區"
"251012","441-VK","2019/06/21 21:19:09","新北市淡水區淡金路五段35巷46號","121.452518333333","25.2347666666667","6501000","淡水區"
"251007","442-VK","2019/06/21 21:19:00","新北市淡水區淡金路二段600號","121.446716666667","25.1922833333333","6501000","淡水區"
"251006","561-UM","2019/06/21 21:19:08","新北市淡水區中正路一段156巷1號","121.420835","25.18001","6501000","淡水區"
"251011","650-BX","2019/06/21 21:18:59","新北市淡水區新民街120巷29號","121.438871666667","25.178815","6501000","淡水區"
"251002","672-BX","2019/06/21 21:19:13","新北市淡水區學府路172巷21號","121.448313333333","25.174835","6501000","淡水區"
"251003","766-UM","2019/06/21 21:19:08","新北市淡水區崁頂18號","121.439155","25.1855333333333","6501000","淡水區"
"247010","KED-0683","2019/06/21 21:18:58","新北市蘆洲區三民路5號","121.47583","25.0819716666667","6501400","蘆洲區"
"242002","751-BX","2019/06/21 21:18:59","新北市八里區中山路三段112號","121.386808333333","25.1459416666667","6500500","新莊區"
"242056","441-UM","2019/06/21 21:19:09","新北市八里區下罟子30-35號","121.36758","25.135095","6500500","新莊區"
