"lineid","car","time","location","longitude","latitude","cityid","cityname"
"231051","107-UY","2019/06/21 22:18:50","新北市中和區圓通路393巷14弄6號","121.48936","24.9873483333333","6500600","新店區"
"251004","009-UM","2019/06/21 22:19:06","新北市淡水區民族路33號","121.462243333333","25.1357966666667","6501000","淡水區"
"251008","181-VK","2019/06/21 22:19:13","新北市淡水區學府路104號","121.449896666667","25.171775","6501000","淡水區"
"251010","413-VK","2019/06/21 22:19:15","新北市淡水區沙崙路200號","121.424731666667","25.183905","6501000","淡水區"
"251007","442-VK","2019/06/21 22:19:00","新北市淡水區北新路186-3號","121.449586666667","25.1786816666667","6501000","淡水區"
"251011","650-BX","2019/06/21 22:18:59","新北市淡水區水碓街7號","121.443208333333","25.1771266666667","6501000","淡水區"
