"lineid","car","time","location","longitude","latitude","cityid","cityname"
"222004","289-BY","2019/07/16 08:59:07","新北市深坑區大崙尾8號","121.613405","24.9806983333333","6501800","深坑區"
"231007","189-VK","2019/07/16 08:59:21","新北市新店區環湖路5號","121.531875","24.924135","6500600","新店區"
"231009","192-VK","2019/07/16 08:59:28","新北市新店區廣興路60巷35號","121.542591666667","24.9164816666667","6500600","新店區"
"226002","7418-A5","2019/07/16 08:50:21","新北市平溪區東勢里東勢格31號","121.729055","24.9977833333333","6502400","平溪區"
"226006","AGD-0702","2019/07/16 08:59:23","新北市平溪區嶺腳里嶺腳寮90號","121.747681666667","25.0348433333333","6502400","平溪區"
"223003","205-TH","2019/07/16 08:59:19","新北市石碇區北宜路六段水底寮巷18號","121.661606666667","24.9395416666667","6501900","石碇區"
"223008","406-TH","2019/07/16 08:57:26","新北市石碇區光明路16號","121.683373333333","25.0329916666667","6501900","石碇區"
"223001","592-UM","2019/07/16 08:59:26","新北市石碇區北宜路六段柑腳巷1-1號","121.661093333333","24.9394966666667","6501900","石碇區"
"223004","660-BX","2019/07/16 08:59:13","新北市石碇區碇坪路二段55號","121.683805","24.971165","6501900","石碇區"
"223007","661-BX","2019/07/16 08:59:19","新北市石碇區光明路2號","121.67416","25.02859","6501900","石碇區"
"223005","677-TV","2019/07/16 08:58:57","新北市石碇區磨石坑18-9號","121.683688333333","24.9684533333333","6501900","石碇區"
"227004","282-VK","2019/07/16 08:59:17","新北市雙溪區平林里竹寮坑7號","121.841436666667","25.039045","6502500","雙溪區"
"227006","030-BX","2019/07/16 08:51:17","新北市坪林區坪雙路三段66號","121.793523333333","24.9809416666667","6502500","雙溪區"
"252004","249-BX","2019/07/16 08:59:25","新北市三芝區興華里田心子31號","121.488741666667","25.20051","6502100","三芝區"
"252007","AAC-283","2019/07/16 08:59:19","新北市三芝區後厝里北勢子22號","121.473473333333","25.2532316666667","6502100","三芝區"
"237014","760-BX","2019/07/16 08:59:11","新北市三峽區三層坪路17號","121.438111666667","24.906555","6500900","三峽區"
