"lineid","car","time","location","longitude","latitude","cityid","cityname"
"234078","298-R6","2019/07/16 13:29:21","新北市永和區環河東路三段52巷2弄2號","121.526571666667","25.0060916666667","6500400","永和區"
"234036","336-UY","2019/07/16 13:29:19","新北市永和區民樂街37巷1號","121.527601666667","25.00076","6500400","永和區"
"234062","337-UY","2019/07/16 13:29:26","新北市永和區得和路243巷7弄6號","121.520228333333","25.0006366666667","6500400","永和區"
"234084","338-UY","2019/07/16 13:29:25","新北市永和區成功路一段18巷15號","121.52625","25.0050316666667","6500400","永和區"
"234068","552-UM","2019/07/16 13:29:25","新北市永和區竹林路182號","121.520478333333","25.009685","6500400","永和區"
"234040","553-UM","2019/07/16 13:29:18","新北市永和區水源街39巷3號","121.510461666667","25.00415","6500400","永和區"
"234015","745-BX","2019/07/16 13:29:18","新北市永和區環河西路一段1號","121.515256666667","25.0180166666667","6500400","永和區"
"234028","746-BX","2019/07/16 13:29:19","新北市永和區民生路45號","121.522728333333","24.997895","6500400","永和區"
"234052","KEA-2590","2019/07/16 13:29:25","新北市永和區復興街22號","121.516001666667","25.0129033333333","6500400","永和區"
"234005","KED-0605","2019/07/16 13:29:19","新北市永和區中山路一段195號","121.509146666667","25.0087666666667","6500400","永和區"
"234012","KEA-2591","2019/07/16 13:29:16","新北市永和區永平路220號","121.509053333333","25.010535","6500400","永和區"
"234060","AAD-866","2019/07/16 13:29:14","新北市永和區永貞路176號","121.5166","25.0042683333333","6500400","永和區"
"234044","748-BX","2019/07/16 13:29:26","新北市永和區成功路二段76號","121.526615","24.9992033333333","6500400","永和區"
"234048","863-TW","2019/07/16 13:29:16","新北市永和區保福路二段148號","121.509441666667","25.0147666666667","6500400","永和區"
"234025","9371-KE","2019/07/16 13:29:27","新北市永和區中山路一段9號","121.51393","25.0104333333333","6500400","永和區"
"234010","9373-KE","2019/07/16 13:29:28","新北市永和區保福路二段14-1號","121.510935","25.011445","6500400","永和區"
"248017","KED-0813","2019/07/16 13:29:16","新北市五股區御史路300號","121.416976666667","25.1090033333333","6501500","五股區"
"234022","9380-KE","2019/07/16 13:29:26","新北市永和區竹林路91巷34號","121.520933333333","25.0124633333333","6500400","永和區"
"234076","969-R7","2019/07/16 13:29:25","新北市永和區中正路320號","121.517866666667","24.99947","6500400","永和區"
"234072","AAC-211","2019/07/16 13:29:16","新北市永和區光復街60巷4弄20號","121.51726","25.0177533333333","6500400","永和區"
"234066","AAC-212","2019/07/16 13:29:19","新北市永和區永貞路422號","121.508451666667","25.0081916666667","6500400","永和區"
"234001","AAC-295","2019/07/16 13:29:19","新北市永和區自強街2號","121.514083333333","25.0079833333333","6500400","永和區"
"244002","248-BX","2019/07/16 13:29:14","新北市林口區頂福16-1號","121.357511666667","25.08813","6501700","林口區"
"231030","002-UM","2019/07/16 13:29:27","新北市新店區安華路28-1號","121.519601666667","24.9608666666667","6500600","新店區"
"231027","0293-UT","2019/07/16 13:29:28","新北市新店區環河路1-1號","121.537941666667","24.9615133333333","6500600","新店區"
"231029","106-UY","2019/07/16 13:29:11","新北市新店區安華路30巷3號","121.518945","24.9589733333333","6500600","新店區"
"231018","107-UY","2019/07/16 13:29:26","新北市新店區中央路206號","121.530401666667","24.9739666666667","6500600","新店區"
"231013","108-UY","2019/07/16 13:29:21","新北市新店區環河路113-1號","121.530953333333","24.9713683333333","6500600","新店區"
"231036","110-UY","2019/07/16 13:29:15","新北市新店區建業路47-1號","121.47868","24.9551716666667","6500600","新店區"
"231015","KEA-2219","2019/07/16 13:29:09","新北市新店區北宜路一段154號","121.540301666667","24.953735","6500600","新店區"
"231032","256-BX","2019/07/16 13:29:17","新北市新店區安豐路60-1號","121.497915","24.9536166666667","6500600","新店區"
"231023","260-TV","2019/07/16 13:29:15","新北市新店區北宜路一段152-1號","121.540245","24.9538216666667","6500600","新店區"
"231003","268-BY","2019/07/16 13:29:26","新北市新店區北新路一段303號","121.541495","24.9674516666667","6500600","新店區"
"231035","278-BY","2019/07/16 13:29:10","新北市新店區安一路一段1-1號","121.519603333333","24.961165","6500600","新店區"
"231006","355-BY","2019/07/16 13:29:27","新北市新店區安華路28-1號","121.51938","24.9608366666667","6500600","新店區"
"231038","3712-VJ","2019/07/16 13:29:28","新北市新店區安華路28-1號","121.519326666667","24.9605833333333","6500600","新店區"
"231024","4716-K9","2019/07/16 13:29:15","新北市新店區北新路二段59巷5號","121.542253333333","24.973075","6500600","新店區"
"231025","4715-K9","2019/07/16 13:29:18","新北市新店區中央五街37號","121.528558333333","24.9750733333333","6500600","新店區"
"231020","513-UM","2019/07/16 13:29:24","新北市新店區永興路88-1號","121.544003333333","24.933775","6500600","新店區"
"231005","618-UM","2019/07/16 13:29:18","新北市新店區安康路一段46巷3號","121.530185","24.9614116666667","6500600","新店區"
"231002","619-UM","2019/07/16 13:29:13","新北市新店區安康路一段226-2號","121.523336666667","24.96363","6500600","新店區"
"231034","641-BX","2019/07/16 13:29:20","新北市新店區安華路28-1號","121.519601666667","24.9605766666667","6500600","新店區"
"231012","KED-0819","2019/07/16 13:29:08","新北市新店區安康路一段52巷2號","121.530181666667","24.9611266666667","6500600","新店區"
"231010","719-UM","2019/07/16 13:29:12","新北市新店區中正路397號","121.534493333333","24.9773866666667","6500600","新店區"
"231026","720-UM","2019/07/16 13:29:17","新北市新店區安華路28-1號","121.519455","24.9609983333333","6500600","新店區"
"231028","897-TW","2019/07/16 13:29:10","新北市新店區安一路一段1-1號","121.51968","24.9610516666667","6500600","新店區"
"231001","898-TW","2019/07/16 13:29:16","新北市新店區安康路一段228號","121.523215","24.9636333333333","6500600","新店區"
"231004","899-TW","2019/07/16 13:29:14","新北市新店區安華路28-1號","121.519346666667","24.9607433333333","6500600","新店區"
"231037","AKT-0513","2019/07/16 13:29:22","新北市新店區薏仁坑路55號","121.490938333333","24.964495","6500600","新店區"
"235030","003-UY","2019/07/16 13:29:24","新北市中和區中山路二段110號","121.502918333333","25.0038283333333","6500300","中和區"
"235028","005-UY","2019/07/16 13:29:25","新北市中和區連城路109巷65號","121.497211666667","24.998045","6500300","中和區"
"235027","006-UY","2019/07/16 13:29:23","新北市中和區連城路347巷2弄3-3號","121.488023333333","24.99584","6500300","中和區"
"235020","096-UM","2019/07/16 13:29:22","新北市中和區中山路二段570號","121.482901666667","25.005115","6500300","中和區"
"235003","097-UM","2019/07/16 13:29:14","新北市中和區大勇街25巷1號","121.517218333333","24.9931783333333","6500300","中和區"
"235029","098-UM","2019/07/16 13:29:09","新北市中和區中山路二段64巷14弄2號","121.503511666667","25.00547","6500300","中和區"
"235004","150-BY","2019/07/16 13:29:19","新北市中和區安平路59號","121.509401666667","24.99515","6500300","中和區"
"235022","151-BY","2019/07/16 13:29:30","新北市中和區圓通路369巷165號","121.490183333333","24.9822116666667","6500300","中和區"
"235019","183-VK","2019/07/16 13:29:26","新北市中和區莒光路120巷30號","121.471558333333","25.001615","6500300","中和區"
"235002","185-VK","2019/07/16 13:29:19","新北市中和區秀朗路三段128巷17弄41號","121.522991666667","24.9932483333333","6500300","中和區"
"235013","186-VK","2019/07/16 13:29:23","新北市中和區景安路78號","121.505746666667","24.99645","6500300","中和區"
"235008","293-VK","2019/07/16 13:29:14","新北市中和區復興路301巷2弄2號","121.501486666667","24.9899766666667","6500300","中和區"
"235036","301-VK","2019/07/16 13:29:25","新北市中和區連城路237-1號","121.493831666667","24.997405","6500300","中和區"
"235007","352-BY","2019/07/16 13:29:13","新北市中和區景平路317號","121.506196666667","24.9931966666667","6500300","中和區"
"235006","KEA-2878","2019/07/16 13:29:21","新北市中和區自立路64巷6號","121.52348","24.9911583333333","6500300","中和區"
"235014","4979-A6","2019/07/16 13:29:09","新北市中和區興南路一段57-1號","121.51059","24.9898883333333","6500300","中和區"
"235033","4980-A6","2019/07/16 13:29:14","新北市中和區連城路127巷25號","121.497038333333","24.9977616666667","6500300","中和區"
"235034","558-UM","2019/07/16 13:29:15","新北市中和區安和路159號","121.50619","24.9973733333333","6500300","中和區"
"235009","565-BX","2019/07/16 13:29:13","新北市中和區南山路236巷22弄39號","121.504411666667","24.9890883333333","6500300","中和區"
"235024","KED-0823","2019/07/16 13:29:19","新北市中和區中山路二段481號","121.482976666667","25.0050016666667","6500300","中和區"
"235018","640-BX","2019/07/16 13:29:14","新北市中和區民享街32巷15號","121.472905","25.00316","6500300","中和區"
"235011","732-UM","2019/07/16 13:29:14","新北市中和區南山路401號","121.50682","24.990005","6500300","中和區"
"235010","733-UM","2019/07/16 13:29:22","新北市中和區板南路158號","121.50178","24.9926966666667","6500300","中和區"
"235035","783-BX","2019/07/16 13:29:14","新北市中和區中板路2號","121.485015","25.0118366666667","6500300","中和區"
"235021","801-TS","2019/07/16 13:29:13","新北市中和區民安街42巷14號","121.479683333333","25.0006783333333","6500300","中和區"
"235005","802-TS","2019/07/16 13:29:27","新北市永和區中和路483-3號","121.51049","25.002105","6500300","中和區"
"235016","805-TS","2019/07/16 13:29:23","新北市中和區興南路二段133號","121.505316666667","24.9842033333333","6500300","中和區"
"235017","900-TW","2019/07/16 13:29:30","新北市土城區金城路三段216號","121.47221","24.990115","6500300","中和區"
"235012","911-UM","2019/07/16 13:29:20","新北市中和區中正路637巷52弄1號","121.485513333333","24.993355","6500300","中和區"
"235015","157-BY","2019/07/16 13:29:26","新北市中和區興南路二段142巷18-4號","121.502808333333","24.9841933333333","6500300","中和區"
"235001","AAC-213","2019/07/16 13:29:24","新北市中和區景德街62號","121.517176666667","24.9915233333333","6500300","中和區"
"235023","AAC-215","2019/07/16 13:29:10","新北市中和區員山路36巷16-3號","121.485138333333","24.9911666666667","6500300","中和區"
"220013","072-UY","2019/07/16 13:29:21","新北市板橋區南雅南路二段1-1號","121.45491","25.0037033333333","6500100","板橋區"
"220017","AAD-861","2019/07/16 13:29:26","新北市板橋區華東街1-10號","121.448323333333","24.9950416666667","6500100","板橋區"
"247011","056-VK","2019/07/16 13:29:09","新北市五股區中興路三段2巷10號","121.449186666667","25.081245","6501400","蘆洲區"
"247015","053-VK","2019/07/16 13:29:24","新北市五股區中興路三段163號","121.449203333333","25.080705","6501400","蘆洲區"
"228004","212-TW","2019/07/16 13:29:11","新北市貢寮區龍崗里石壁坑街17號","121.910351666667","24.9896016666667","6502600","貢寮區"
"228005","828-UM","2019/07/16 13:29:19","新北市貢寮區美豐里文秀坑8號","121.902568333333","25.0504066666667","6502600","貢寮區"
"207002","749-BX","2019/07/16 13:29:23","新北市萬里區崁腳里崁腳路166號","121.645066666667","25.1558466666667","6502800","萬里區"
"207001","662-BX","2019/07/16 13:28:12","新北市萬里區龜吼里石角路43號","121.684273333333","25.1921483333333","6502800","萬里區"
"252005","AAC-283","2019/07/16 13:29:25","新北市三芝區圓山里木屐寮38-2號","121.531506666667","25.2284066666667","6502100","三芝區"
"236013","270-VK","2019/07/16 13:29:22","新北市土城區城林路6巷80號","121.438643333333","24.9798183333333","6501300","土城區"
"247009","KED-0683","2019/07/16 13:29:23","新北市五股區中興路三段163號","121.449166666667","25.0809966666667","6501400","蘆洲區"
"221008","489-VK","2019/07/16 13:29:16","新北市汐止區伯爵街92巷1號","121.6367","25.0831833333333","6501100","汐止區"
"221029","298-VK","2019/07/16 13:29:17","新北市汐止區南陽街43號","121.62504","25.0646716666667","6501100","汐止區"
"220027","145-BY","2019/07/16 13:29:14","新北市板橋區華東街1-10號","121.448328333333","24.995085","6500100","板橋區"
"220030","610-BX","2019/07/16 13:29:24","新北市板橋區華東街1-10號","121.448281666667","24.994935","6500100","板橋區"
"220004","276-BY","2019/07/16 13:29:15","新北市板橋區華東街1-9號","121.448131666667","24.9949666666667","6500100","板橋區"
"220029","287-VK","2019/07/16 13:29:20","新北市板橋區華東街1-10號","121.448306666667","24.995035","6500100","板橋區"
"220104","560-BX","2019/07/16 13:29:21","新北市板橋區南雅東路120號","121.453316666667","25.0083733333333","6500100","板橋區"
"220022","630-UY","2019/07/16 13:29:28","新北市板橋區南雅南路二段114號","121.453376666667","25.0007583333333","6500100","板橋區"
"220005","686-BX","2019/07/16 13:29:13","新北市板橋區華東街1-9號","121.448253333333","24.9949266666667","6500100","板橋區"
"220025","687-BX","2019/07/16 13:29:18","新北市板橋區板城路421號","121.448","24.996345","6500100","板橋區"
"220021","985-R7","2019/07/16 13:29:09","新北市板橋區四川路二段140巷16弄13號","121.448768333333","24.9935","6500100","板橋區"
"220012","AAC-253","2019/07/16 13:29:11","新北市板橋區南雅南路二段120-2號","121.452391666667","24.9999266666667","6500100","板橋區"
"235032","KEA-2873","2019/07/16 13:29:18","新北市中和區中正路211巷13弄7號","121.497046666667","24.9931516666667","6500300","中和區"
"235026","KEA-2876","2019/07/16 13:29:02","新北市中和區景平路740號","121.49654","25.0041333333333","6500300","中和區"
