"lineid","car","time","location","longitude","latitude","cityid","cityname"
"234078","298-R6","2019/07/16 13:39:21","新北市永和區國中路104巷8弄4號","121.52482","25.0067933333333","6500400","永和區"
"234036","336-UY","2019/07/16 13:39:19","新北市永和區民樂街29號","121.527736666667","25.001545","6500400","永和區"
"234062","337-UY","2019/07/16 13:39:26","新北市永和區秀朗路二段24巷28弄14號","121.519605","25.001865","6500400","永和區"
"234084","338-UY","2019/07/16 13:39:25","新北市永和區林森路62號","121.523971666667","25.004325","6500400","永和區"
"234068","552-UM","2019/07/16 13:39:25","新北市永和區永和路二段235號","121.51568","25.014355","6500400","永和區"
"234040","553-UM","2019/07/16 13:39:26","新北市永和區中和路305巷16弄20號","121.50718","25.0011283333333","6500400","永和區"
"234015","745-BX","2019/07/16 13:39:18","新北市永和區忠孝街26巷8號","121.51529","25.016765","6500400","永和區"
"234028","746-BX","2019/07/16 13:39:19","新北市永和區民權路23號","121.520041666667","24.9978383333333","6500400","永和區"
"234052","KEA-2590","2019/07/16 13:39:25","新北市永和區竹林路39巷24弄3號","121.519126666667","25.0144966666667","6500400","永和區"
"234005","KED-0605","2019/07/16 13:39:19","新北市永和區永和路一段157-1號","121.514288333333","25.0096833333333","6500400","永和區"
"234012","KEA-2591","2019/07/16 13:39:16","新北市永和區仁愛路219號","121.509391666667","25.0122666666667","6500400","永和區"
"234060","AAD-866","2019/07/16 13:39:14","新北市永和區中正路446號","121.51745","25.0027866666667","6500400","永和區"
"234044","748-BX","2019/07/16 13:39:07","新北市永和區永利路101號","121.52304","25.0027216666667","6500400","永和區"
"234048","863-TW","2019/07/16 13:39:16","新北市永和區文化路192巷7弄8號","121.510558333333","25.0166883333333","6500400","永和區"
"234025","9371-KE","2019/07/16 13:39:27","新北市永和區永和路一段39號","121.512908333333","25.0061766666667","6500400","永和區"
"234010","9373-KE","2019/07/16 13:39:28","新北市永和區保福路二段15巷5號","121.510675","25.0109066666667","6500400","永和區"
"248017","KED-0813","2019/07/16 13:39:16","新北市五股區民義路二段66-3號","121.406105","25.1086916666667","6501500","五股區"
"234022","9380-KE","2019/07/16 13:39:16","新北市永和區中正路702巷18號","121.51644","25.01056","6500400","永和區"
"234076","969-R7","2019/07/16 13:39:06","新北市永和區民族街29號","121.518821666667","24.9995816666667","6500400","永和區"
"234072","AAC-211","2019/07/16 13:39:16","新北市永和區竹林路213巷2號","121.521035","25.008845","6500400","永和區"
"234066","AAC-212","2019/07/16 13:39:20","新北市永和區中山路一段197號","121.50901","25.0088","6500400","永和區"
"234001","AAC-295","2019/07/16 13:39:19","新北市永和區永和路一段122號","121.513896666667","25.0075933333333","6500400","永和區"
"244002","248-BX","2019/07/16 13:39:14","新北市林口區頂福里5-5號","121.360068333333","25.0828833333333","6501700","林口區"
"231030","002-UM","2019/07/16 13:39:07","新北市新店區安康路二段1-5號","121.517301666667","24.96376","6500600","新店區"
"231027","0293-UT","2019/07/16 13:39:07","新北市新店區新店後街60號","121.53775","24.9540633333333","6500600","新店區"
"231029","106-UY","2019/07/16 13:39:11","新北市新店區車子路1-1號","121.504633333333","24.9579116666667","6500600","新店區"
"231018","107-UY","2019/07/16 13:39:26","新北市新店區中正路351號","121.535295","24.9759616666667","6500600","新店區"
"231013","108-UY","2019/07/16 13:39:21","新北市新店區中正路454-5號","121.53446","24.9791266666667","6500600","新店區"
"231036","110-UY","2019/07/16 13:39:15","新北市新店區安祥路156巷30號","121.473468333333","24.9542333333333","6500600","新店區"
"231015","KEA-2219","2019/07/16 13:39:09","新北市新店區竹林路2巷21-1號","121.550333333333","24.951115","6500600","新店區"
"231032","256-BX","2019/07/16 13:39:17","新北市新店區安華路28-1號","121.519555","24.960625","6500600","新店區"
"231023","260-TV","2019/07/16 13:39:16","新北市新店區新店路120號","121.537105","24.9548633333333","6500600","新店區"
"231003","268-BY","2019/07/16 13:39:25","新北市新店區中興路一段282號","121.545811666667","24.9684383333333","6500600","新店區"
"231035","278-BY","2019/07/16 13:39:10","新北市新店區安忠路56巷6號","121.51301","24.9594183333333","6500600","新店區"
"231006","355-BY","2019/07/16 13:39:07","新北市新店區北新路一段63號","121.538203333333","24.9598016666667","6500600","新店區"
"231038","3712-VJ","2019/07/16 13:39:08","新北市新店區安華路28-1號","121.51933","24.9605883333333","6500600","新店區"
"231024","4716-K9","2019/07/16 13:39:15","新北市新店區華興街36號","121.537058333333","24.969005","6500600","新店區"
"231025","4715-K9","2019/07/16 13:39:18","新北市新店區中央五街39號","121.52852","24.9750716666667","6500600","新店區"
"231020","513-UM","2019/07/16 13:39:24","新北市新店區永興路88-1號","121.544015","24.9337766666667","6500600","新店區"
"231005","618-UM","2019/07/16 13:39:18","新北市新店區中興路二段192號","121.548363333333","24.9734233333333","6500600","新店區"
"231002","619-UM","2019/07/16 13:39:13","新北市新店區中央三街127號","121.524163333333","24.9768366666667","6500600","新店區"
"231034","641-BX","2019/07/16 13:39:20","新北市新店區車子路110號","121.505231666667","24.9520916666667","6500600","新店區"
"231012","KED-0819","2019/07/16 13:39:08","新北市新店區德正街24號","121.543928333333","24.9720966666667","6500600","新店區"
"231010","719-UM","2019/07/16 13:39:18","新北市新店區中正路293號","121.537108333333","24.9743733333333","6500600","新店區"
"231026","720-UM","2019/07/16 13:39:17","新北市新店區北新路一段41號","121.538073333333","24.959305","6500600","新店區"
"231028","897-TW","2019/07/16 13:39:30","新北市新店區安和路一段23號","121.517","24.9649916666667","6500600","新店區"
"231001","898-TW","2019/07/16 13:39:17","新北市新店區中央路83號","121.532418333333","24.9764383333333","6500600","新店區"
"231004","899-TW","2019/07/16 13:39:15","新北市新店區北新路二段18號","121.542771666667","24.9712883333333","6500600","新店區"
"231037","AKT-0513","2019/07/16 13:39:22","新北市新店區安康路二段382號","121.500313333333","24.9569316666667","6500600","新店區"
"235030","003-UY","2019/07/16 13:39:24","新北市中和區水源路45號","121.504756666667","25.00358","6500300","中和區"
"235028","005-UY","2019/07/16 13:39:25","新北市中和區連城路75巷10號","121.49838","24.9984766666667","6500300","中和區"
"235027","006-UY","2019/07/16 13:39:23","新北市中和區連城路391號","121.486548333333","24.9962583333333","6500300","中和區"
"235020","096-UM","2019/07/16 13:39:22","新北市中和區員山路466巷17弄18號","121.480511666667","25.007465","6500300","中和區"
"235003","097-UM","2019/07/16 13:39:26","新北市中和區景平路278巷14弄1號","121.514105","24.9930533333333","6500300","中和區"
"235029","098-UM","2019/07/16 13:39:09","新北市中和區莊敬路49巷29弄8號","121.501323333333","25.006445","6500300","中和區"
"235004","150-BY","2019/07/16 13:39:19","新北市中和區安平路59號","121.509518333333","24.9951183333333","6500300","中和區"
"235022","151-BY","2019/07/16 13:39:10","新北市中和區員山路28-25號","121.480991666667","24.986585","6500300","中和區"
"235019","183-VK","2019/07/16 13:39:26","新北市中和區民德路25巷7弄2號","121.46967","25.0030166666667","6500300","中和區"
"235002","185-VK","2019/07/16 13:39:19","新北市中和區大勇街106號","121.517878333333","24.995075","6500300","中和區"
"235013","186-VK","2019/07/16 13:39:23","新北市中和區明義街30號","121.504043333333","24.9951383333333","6500300","中和區"
"235008","293-VK","2019/07/16 13:39:14","新北市中和區復興路280巷15號","121.502276666667","24.99131","6500300","中和區"
"235036","301-VK","2019/07/16 13:39:25","新北市中和區連城路97號","121.496568333333","24.9998516666667","6500300","中和區"
"235007","352-BY","2019/07/16 13:39:13","新北市中和區景平路125巷2弄2號","121.515088333333","24.9919233333333","6500300","中和區"
"235006","KEA-2878","2019/07/16 13:39:26","新北市中和區成功路107巷2號","121.526208333333","24.9911733333333","6500300","中和區"
"235014","4979-A6","2019/07/16 13:39:09","新北市中和區忠孝街121號","121.512478333333","24.9879416666667","6500300","中和區"
"235033","4980-A6","2019/07/16 13:39:12","新北市中和區連城路99巷55號","121.497236666667","24.9985983333333","6500300","中和區"
"235034","558-UM","2019/07/16 13:39:15","新北市中和區圓通路12號","121.501631666667","24.9980666666667","6500300","中和區"
"235009","565-BX","2019/07/16 13:39:17","新北市中和區復興路12號","121.505911666667","24.9897716666667","6500300","中和區"
"235024","KED-0823","2019/07/16 13:39:19","新北市中和區中山路三段118號","121.475813333333","25.006005","6500300","中和區"
"235018","640-BX","2019/07/16 13:39:14","新北市中和區民享街35巷15號","121.474933333333","25.0040533333333","6500300","中和區"
"235011","732-UM","2019/07/16 13:39:14","新北市中和區南山路320巷10弄14號","121.506856666667","24.98678","6500300","中和區"
"235010","733-UM","2019/07/16 13:39:26","新北市中和區忠孝街126-1號","121.512095","24.9862333333333","6500300","中和區"
"235035","783-BX","2019/07/16 13:39:14","新北市中和區中原街92號","121.488105","25.0101716666667","6500300","中和區"
"235021","801-TS","2019/07/16 13:39:13","新北市中和區民安街6號","121.48078","25.0009033333333","6500300","中和區"
"235005","802-TS","2019/07/16 13:39:07","新北市中和區中和路400巷12弄2號","121.511308333333","25.002395","6500300","中和區"
"235016","805-TS","2019/07/16 13:39:26","新北市中和區興南路三段52巷2-5號","121.494545","24.9759","6500300","中和區"
"235017","900-TW","2019/07/16 13:39:10","新北市中和區華安街99號","121.468251666667","24.9962383333333","6500300","中和區"
"235012","911-UM","2019/07/16 13:39:20","新北市中和區中正路83號","121.500693333333","24.9935516666667","6500300","中和區"
"235015","157-BY","2019/07/16 13:39:26","新北市中和區華新街143巷106弄19號","121.506475","24.978495","6500300","中和區"
"235001","AAC-213","2019/07/16 13:39:23","新北市中和區秀朗路三段128巷7弄2號","121.524561666667","24.9929516666667","6500300","中和區"
"235023","AAC-215","2019/07/16 13:39:10","新北市中和區中正路525號","121.48791","24.993595","6500300","中和區"
"220013","072-UY","2019/07/16 13:39:21","新北市板橋區成都街72-3號","121.463398333333","25.00526","6500100","板橋區"
"220034","073-UY","2019/07/16 13:39:08","新北市板橋區華東街1-10號","121.448288333333","24.995055","6500100","板橋區"
"220105","075-UY","2019/07/16 13:39:16","新北市板橋區民生路二段120號","121.470348333333","25.0196866666667","6500100","板橋區"
"220017","AAD-861","2019/07/16 13:39:26","新北市板橋區大華街5號","121.458921666667","25.006265","6500100","板橋區"
"220039","120-SR","2019/07/16 13:39:08","新北市板橋區民生路二段120號","121.470525","25.0196816666667","6500100","板橋區"
"247001","336-TH","2019/07/16 13:39:22","新北市五股區中興路三段163號","121.449253333333","25.0805733333333","6501400","蘆洲區"
"247011","056-VK","2019/07/16 13:39:09","新北市五股區中興路三段2巷10號","121.44932","25.0811133333333","6501400","蘆洲區"
"247015","053-VK","2019/07/16 13:39:24","新北市五股區新五路三段260號","121.448213333333","25.0903466666667","6501400","蘆洲區"
"228004","212-TW","2019/07/16 13:39:11","新北市貢寮區龍崗里嵩陽街17號","121.90768","25.009315","6502600","貢寮區"
"228005","828-UM","2019/07/16 13:39:19","新北市貢寮區美豐里文秀坑5-1號","121.903258333333","25.051365","6502600","貢寮區"
"207002","749-BX","2019/07/16 13:39:23","新北市萬里區崁腳里崁腳路166號","121.645115","25.1558983333333","6502800","萬里區"
"207001","662-BX","2019/07/16 13:39:12","新北市萬里區大鵬里萬里加投45-1號","121.641891666667","25.2110983333333","6502800","萬里區"
"252005","AAC-283","2019/07/16 13:39:25","新北市三芝區圓山里二坪頂77-1號","121.537411666667","25.239095","6502100","三芝區"
"236013","270-VK","2019/07/16 13:39:22","新北市土城區城林路6巷80號","121.43852","24.9797616666667","6501300","土城區"
"236032","271-VK","2019/07/16 13:39:15","新北市土城區城林路6巷80號","121.4385","24.9798083333333","6501300","土城區"
"247009","KED-0683","2019/07/16 13:39:23","新北市五股區中興路三段163號","121.449135","25.0806983333333","6501400","蘆洲區"
"236065","KEA-2877","2019/07/16 13:39:19","新北市土城區中華路二段2號","121.438806666667","24.97982","6501300","土城區"
"236057","912-UM","2019/07/16 13:39:13","新北市土城區城林路6巷80號","121.438521666667","24.9797233333333","6501300","土城區"
"236045","913-UM","2019/07/16 13:39:18","新北市土城區城林路6巷80號","121.438513333333","24.979775","6501300","土城區"
"236060","915-UM","2019/07/16 13:39:18","新北市土城區城林路6巷80號","121.438475","24.9797466666667","6501300","土城區"
"221008","489-VK","2019/07/16 13:39:16","新北市汐止區伯爵街57巷1號","121.63874","25.0814733333333","6501100","汐止區"
"221029","298-VK","2019/07/16 13:39:17","新北市汐止區福德二路77號","121.633118333333","25.0661233333333","6501100","汐止區"
"220027","145-BY","2019/07/16 13:39:14","新北市板橋區大觀路二段111號","121.446201666667","25.0015733333333","6500100","板橋區"
"220030","610-BX","2019/07/16 13:39:24","新北市板橋區大觀路二段443-2號","121.440185","24.995055","6500100","板橋區"
"220004","276-BY","2019/07/16 13:39:15","新北市板橋區館前西路4-1號","121.4591","25.0071116666667","6500100","板橋區"
"220020","277-BY","2019/07/16 13:39:20","新北市板橋區華東街1-9號","121.448186666667","24.9949383333333","6500100","板橋區"
"220043","283-UM","2019/07/16 13:39:24","新北市板橋區民生路二段161巷1號","121.470268333333","25.0199466666667","6500100","板橋區"
"220019","283-VK","2019/07/16 13:39:21","新北市板橋區四川路二段14號","121.45605","24.99623","6500100","板橋區"
"220001","285-VK","2019/07/16 13:39:22","新北市板橋區民生路二段120號","121.470303333333","25.0198483333333","6500100","板橋區"
"220031","286-VK","2019/07/16 13:39:15","新北市板橋區華東街1-10號","121.448733333333","24.994915","6500100","板橋區"
"220029","287-VK","2019/07/16 13:39:20","新北市板橋區大觀路二段153巷24號","121.44683","25.0001183333333","6500100","板橋區"
"220009","295-UM","2019/07/16 13:39:26","新北市板橋區民生路二段161巷9號","121.47018","25.0195483333333","6500100","板橋區"
"220032","296-UM","2019/07/16 13:39:19","新北市板橋區大觀路二段179巷34號","121.446241666667","24.999435","6500100","板橋區"
"220023","303-R5","2019/07/16 13:39:13","新北市板橋區華東街1-10號","121.448366666667","24.99502","6500100","板橋區"
"220041","307-R5","2019/07/16 13:39:22","新北市板橋區民生路二段121號","121.470818333333","25.0185416666667","6500100","板橋區"
"220047","317-R6","2019/07/16 13:39:11","新北市板橋區民生路二段89-6號","121.470438333333","25.01944","6500100","板橋區"
"220104","560-BX","2019/07/16 13:39:21","新北市板橋區南雅西路二段145巷10號","121.451595","25.0118916666667","6500100","板橋區"
"220052","561-BX","2019/07/16 13:39:27","新北市板橋區民生路二段89-4號","121.471301666667","25.01802","6500100","板橋區"
"220022","630-UY","2019/07/16 13:39:08","新北市板橋區南雅南路一段8號","121.455951666667","25.006285","6500100","板橋區"
"220005","686-BX","2019/07/16 13:39:23","新北市板橋區館前西路19號","121.458678333333","25.0069616666667","6500100","板橋區"
"220025","687-BX","2019/07/16 13:39:18","新北市板橋區溪崑一街17號","121.430785","24.9921266666667","6500100","板橋區"
"220003","827-TW","2019/07/16 13:39:27","新北市板橋區忠孝路28號","121.460326666667","25.00189","6500100","板橋區"
"220014","829-TW","2019/07/16 13:39:10","新北市板橋區民生路二段161巷9號","121.47022","25.01964","6500100","板橋區"
"220021","985-R7","2019/07/16 13:39:29","新北市板橋區南雅南路二段116號","121.45438","25.0000383333333","6500100","板橋區"
"220046","AAC-210","2019/07/16 13:39:20","新北市板橋區民生路二段161巷1號","121.470158333333","25.0200883333333","6500100","板橋區"
"220012","AAC-253","2019/07/16 13:39:11","新北市板橋區縣民大道二段200巷35號","121.470688333333","25.01808","6500100","板橋區"
"235032","KEA-2873","2019/07/16 13:39:18","新北市中和區圓通路291巷2號","121.495171666667","24.9925333333333","6500300","中和區"
"235026","KEA-2876","2019/07/16 13:39:02","新北市中和區中山路二段312巷33弄14號","121.494855","25.004005","6500300","中和區"
