"lineid","car","time","location","longitude","latitude","cityid","cityname"
"234078","298-R6","2019/07/16 14:29:21","新北市永和區永貞路18號","121.520895","25.0070733333333","6500400","永和區"
"234062","337-UY","2019/07/16 14:29:19","新北市永和區中正路411號","121.516981666667","25.00476","6500400","永和區"
"234068","552-UM","2019/07/16 14:29:25","新北市永和區永亨路4號","121.519255","25.0054883333333","6500400","永和區"
"234040","553-UM","2019/07/16 14:29:18","新北市永和區永和路一段136號","121.514165","25.0078683333333","6500400","永和區"
"234028","746-BX","2019/07/16 14:29:19","新北市永和區民權路84號","121.519853333333","24.9970466666667","6500400","永和區"
"234052","KEA-2590","2019/07/16 14:29:25","新北市永和區環河東路一段76號","121.519371666667","25.0164583333333","6500400","永和區"
"234060","AAD-866","2019/07/16 14:29:14","新北市永和區中正路381號","121.5172","25.00374","6500400","永和區"
"234048","863-TW","2019/07/16 14:29:16","新北市永和區保安路132-1號","121.508785","25.01545","6500400","永和區"
"234025","9371-KE","2019/07/16 14:29:07","新北市中和區中安街166號","121.510925","25.0001133333333","6500400","永和區"
"248017","KED-0813","2019/07/16 14:25:36","新北市五股區壟路11-1號","121.416085","25.08432","6501500","五股區"
"234072","AAC-211","2019/07/16 14:29:16","新北市永和區竹林路117-1號","121.520041666667","25.0115416666667","6500400","永和區"
"234001","AAC-295","2019/07/16 14:29:22","新北市永和區大新街46號","121.515838333333","25.0083416666667","6500400","永和區"
"244002","248-BX","2019/07/16 14:29:14","新北市林口區南勢里34-8號","121.352476666667","25.0701216666667","6501700","林口區"
"231030","002-UM","2019/07/16 14:29:07","新北市新店區安民街14號","121.51535","24.9645083333333","6500600","新店區"
"231027","0293-UT","2019/07/16 14:29:27","新北市新店區北新路二段226號","121.543","24.9773133333333","6500600","新店區"
"231029","106-UY","2019/07/16 14:29:11","新北市新店區安康路二段382號","121.500448333333","24.957035","6500600","新店區"
"231018","107-UY","2019/07/16 14:29:26","新北市新店區中央三街31號","121.528253333333","24.9742216666667","6500600","新店區"
"231013","108-UY","2019/07/16 14:29:21","新北市新店區民權路102號","121.536058333333","24.983125","6500600","新店區"
"231036","110-UY","2019/07/16 14:29:15","新北市新店區安祥路109巷3弄2號","121.475273333333","24.95945","6500600","新店區"
"231015","KEA-2219","2019/07/16 14:29:28","新北市新店區北宜路三段66號","121.575843333333","24.9506933333333","6500600","新店區"
"231032","256-BX","2019/07/16 14:29:17","新北市新店區溪洲路196-3號","121.530471666667","24.965675","6500600","新店區"
"231023","260-TV","2019/07/16 14:29:16","新北市新店區光明街221號","121.540285","24.9640866666667","6500600","新店區"
"231003","268-BY","2019/07/16 14:29:25","新北市新店區中興路一段267號","121.544855","24.96768","6500600","新店區"
"231035","278-BY","2019/07/16 14:29:10","新北市新店區安光路10-1號","121.513763333333","24.9640166666667","6500600","新店區"
"231006","355-BY","2019/07/16 14:29:27","新北市新店區北宜路二段523號","121.563591666667","24.953645","6500600","新店區"
"231038","3712-VJ","2019/07/16 14:29:08","新北市新店區安康路一段46巷16號","121.531178333333","24.962055","6500600","新店區"
"231020","513-UM","2019/07/16 14:29:20","新北市新店區新烏路二段401號","121.551308333333","24.9095633333333","6500600","新店區"
"231005","618-UM","2019/07/16 14:29:18","新北市新店區中興路三段136號","121.54455","24.9799916666667","6500600","新店區"
"231002","619-UM","2019/07/16 14:29:13","新北市新店區中央路81號","121.532353333333","24.9766733333333","6500600","新店區"
"231034","641-BX","2019/07/16 14:29:20","新北市新店區車子路11號","121.503061666667","24.9519883333333","6500600","新店區"
"231012","KED-0819","2019/07/16 14:29:28","新北市新店區寶興路61巷2號","121.550868333333","24.9719516666667","6500600","新店區"
"231028","897-TW","2019/07/16 14:29:30","新北市新店區安和路一段15號","121.516861666667","24.9641966666667","6500600","新店區"
"231001","898-TW","2019/07/16 14:29:16","新北市新店區中正路75巷71號","121.54319","24.9688383333333","6500600","新店區"
"231004","899-TW","2019/07/16 14:29:14","新北市新店區中正路282-11號","121.538483333333","24.9739116666667","6500600","新店區"
"231037","AKT-0513","2019/07/16 14:29:22","新北市新店區安康路二段269號","121.504603333333","24.9575033333333","6500600","新店區"
"235030","003-UY","2019/07/16 14:29:23","新北市中和區中和路132號","121.503783333333","24.9993483333333","6500300","中和區"
"235028","005-UY","2019/07/16 14:29:25","新北市中和區圓通路33號","121.501006666667","24.9977","6500300","中和區"
"235027","006-UY","2019/07/16 14:29:23","新北市中和區連城路237-1號","121.493818333333","24.99739","6500300","中和區"
"235020","096-UM","2019/07/16 14:29:22","新北市中和區員山路514巷2號","121.47936","25.0095916666667","6500300","中和區"
"235003","097-UM","2019/07/16 14:29:14","新北市永和區中正路58號","121.513291666667","24.9946683333333","6500300","中和區"
"235029","098-UM","2019/07/16 14:29:29","新北市中和區福祥路90巷7弄5號","121.499555","25.0061283333333","6500300","中和區"
"235004","150-BY","2019/07/16 14:29:19","新北市中和區安樂路91號","121.512965","24.994775","6500300","中和區"
"235022","151-BY","2019/07/16 14:29:17","新北市中和區員山路130號","121.481113333333","24.9963033333333","6500300","中和區"
"235019","183-VK","2019/07/16 14:29:25","新北市中和區民生街37號","121.470283333333","25.00542","6500300","中和區"
"235002","185-VK","2019/07/16 14:29:19","新北市中和區自立路99巷1號","121.522075","24.9948183333333","6500300","中和區"
"235013","186-VK","2019/07/16 14:29:23","新北市中和區安平路15號","121.509103333333","24.9941216666667","6500300","中和區"
"235008","293-VK","2019/07/16 14:29:14","新北市中和區捷運路149-1號","121.506645","24.9908466666667","6500300","中和區"
"235036","301-VK","2019/07/16 14:29:25","新北市中和區莊敬路1號","121.499643333333","25.0043966666667","6500300","中和區"
"235007","352-BY","2019/07/16 14:29:13","新北市中和區景新街264號","121.509806666667","24.9928616666667","6500300","中和區"
"235006","KEA-2878","2019/07/16 14:29:28","新北市中和區中和路350巷8弄14號","121.510285","25.00021","6500300","中和區"
"247013","KEA-2869","2019/07/16 14:29:21","新北市蘆洲區中山二路199號","121.47068","25.0806666666667","6501400","蘆洲區"
"247007","KED-0682","2019/07/16 14:29:09","新北市蘆洲區民生街10號","121.47561","25.07913","6501400","蘆洲區"
"235033","4980-A6","2019/07/16 14:29:12","新北市中和區連城路134巷7號","121.495295","24.9998433333333","6500300","中和區"
"235034","558-UM","2019/07/16 14:29:15","新北市中和區景平路511號","121.499515","24.998865","6500300","中和區"
"235009","565-BX","2019/07/16 14:29:13","新北市中和區景新街436號","121.51299","24.98835","6500300","中和區"
"235024","KED-0823","2019/07/16 14:29:17","新北市中和區員山路294巷17號","121.482261666667","25.0023783333333","6500300","中和區"
"235018","640-BX","2019/07/16 14:29:14","新北市中和區莒光路108號","121.472393333333","25.00214","6500300","中和區"
"235011","732-UM","2019/07/16 14:29:14","新北市中和區景平路259巷32號","121.507053333333","24.9928283333333","6500300","中和區"
"235010","733-UM","2019/07/16 14:29:22","新北市中和區忠孝街37巷52號","121.511103333333","24.984885","6500300","中和區"
"235035","783-BX","2019/07/16 14:29:14","新北市中和區中正路637巷15弄2號","121.484818333333","24.995105","6500300","中和區"
"235021","801-TS","2019/07/16 14:29:14","新北市中和區員山路337號","121.481288333333","25.001505","6500300","中和區"
"235005","802-TS","2019/07/16 14:29:27","新北市中和區中和路230巷7號","121.506653333333","24.9991016666667","6500300","中和區"
"235016","805-TS","2019/07/16 14:29:23","新北市中和區華新街143巷61號","121.506295","24.9794566666667","6500300","中和區"
"235017","900-TW","2019/07/16 14:29:10","新北市中和區民德路197號","121.469251666667","24.9981016666667","6500300","中和區"
"235012","911-UM","2019/07/16 14:29:20","新北市中和區忠孝街68號","121.51201","24.9839916666667","6500300","中和區"
"235015","157-BY","2019/07/16 14:29:26","新北市中和區中興街132巷26號","121.498758333333","24.991625","6500300","中和區"
"235001","AAC-213","2019/07/16 14:29:23","新北市中和區秀朗路三段107號","121.52648","24.99468","6500300","中和區"
"235023","AAC-215","2019/07/16 14:29:10","新北市中和區圓通路262-2號","121.49289","24.9908216666667","6500300","中和區"
"220016","015-TV","2019/07/16 14:29:08","新北市板橋區萬安街18號","121.484688333333","25.0228083333333","6500100","板橋區"
"220013","072-UY","2019/07/16 14:29:22","新北市板橋區實踐路93巷71號","121.467035","25.005075","6500100","板橋區"
"220034","073-UY","2019/07/16 14:29:08","新北市板橋區中正路216巷8號","121.456338333333","25.0183766666667","6500100","板橋區"
"220105","075-UY","2019/07/16 14:29:25","新北市板橋區民治街26巷15號","121.477556666667","25.0337566666667","6500100","板橋區"
"220017","AAD-861","2019/07/16 14:29:07","新北市板橋區貴興路106巷7號","121.455168333333","25.0028533333333","6500100","板橋區"
"220039","120-SR","2019/07/16 14:29:18","新北市板橋區龍泉街54巷8弄10號","121.457341666667","25.0268916666667","6500100","板橋區"
"247003","893-R6","2019/07/16 14:29:14","新北市蘆洲區長安街267巷8弄2號","121.458293333333","25.0836983333333","6501400","蘆洲區"
"247017","546-UM","2019/07/16 14:29:24","新北市蘆洲區民族路314巷3弄13號","121.47684","25.0905083333333","6501400","蘆洲區"
"247023","337-TH","2019/07/16 14:29:12","新北市蘆洲區中正路263巷2號","121.467313333333","25.0876033333333","6501400","蘆洲區"
"247001","336-TH","2019/07/16 14:29:22","新北市蘆洲區永樂街38巷33弄4號","121.45788","25.0895016666667","6501400","蘆洲區"
"247011","056-VK","2019/07/16 14:29:29","新北市蘆洲區復興路202號","121.478436666667","25.0889633333333","6501400","蘆洲區"
"247015","053-VK","2019/07/16 14:29:24","新北市蘆洲區中正路185巷72號","121.466418333333","25.0844316666667","6501400","蘆洲區"
"247019","007-UY","2019/07/16 14:29:14","新北市蘆洲區水湳街257號","121.46945","25.0924566666667","6501400","蘆洲區"
"247005","002-UY","2019/07/16 14:29:21","新北市蘆洲區長安街74號","121.462616666667","25.0803166666667","6501400","蘆洲區"
"228004","212-TW","2019/07/16 14:29:11","新北市貢寮區雙玉里田寮洋街33-1號","121.93211","25.013665","6502600","貢寮區"
"228005","828-UM","2019/07/16 14:29:19","新北市貢寮區美豐里巫里岸9-1號","121.901963333333","25.0701216666667","6502600","貢寮區"
"207002","749-BX","2019/07/16 14:29:23","新北市萬里區溪底里瑞泉路4號","121.609335","25.1456083333333","6502800","萬里區"
"207001","662-BX","2019/07/16 14:29:12","新北市萬里區磺潭里清水9號","121.640218333333","25.1996666666667","6502800","萬里區"
"252005","AAC-283","2019/07/16 14:29:25","新北市三芝區茂長里陳厝坑61-4號","121.513346666667","25.2549933333333","6502100","三芝區"
"236040","KED-0685","2019/07/16 14:29:24","新北市土城區學成路91巷10號","121.450688333333","24.988085","6501300","土城區"
"220038","KED-0812","2019/07/16 14:29:19","新北市板橋區新海路330號","121.460543333333","25.0242366666667","6500100","板橋區"
"236074","166-UM","2019/07/16 14:29:23","新北市土城區大暖路26號","121.423478333333","24.9597566666667","6501300","土城區"
"236029","253-BX","2019/07/16 14:29:17","新北市土城區水源街63號","121.440103333333","24.9762083333333","6501300","土城區"
"236024","269-VK","2019/07/16 14:29:25","新北市土城區承天路47號","121.438838333333","24.9638866666667","6501300","土城區"
"236013","270-VK","2019/07/16 14:29:22","新北市土城區青雲路39巷7號","121.460325","24.9875333333333","6501300","土城區"
"236032","271-VK","2019/07/16 14:29:15","新北市土城區青山路2巷13號","121.461136666667","24.9764833333333","6501300","土城區"
"247009","KED-0683","2019/07/16 14:29:23","新北市蘆洲區信義路154-1號","121.47959","25.083375","6501400","蘆洲區"
"236065","KEA-2877","2019/07/16 14:29:19","新北市土城區永豐路205-3號","121.473833333333","24.9775766666667","6501300","土城區"
"236017","401-BY","2019/07/16 14:29:28","新北市土城區永豐路202巷14號","121.466361666667","24.9833816666667","6501300","土城區"
"236057","912-UM","2019/07/16 14:29:13","新北市土城區中央路四段281-5號","121.412211666667","24.9535666666667","6501300","土城區"
"236045","913-UM","2019/07/16 14:29:20","新北市土城區明德路一段319號","121.459203333333","24.977095","6501300","土城區"
"236060","915-UM","2019/07/16 14:29:18","新北市土城區延壽路75巷8弄2號","121.468685","24.9922166666667","6501300","土城區"
"236054","AAC-216","2019/07/16 14:29:18","新北市土城區中華路二段1號","121.439676666667","24.9790933333333","6501300","土城區"
"220027","145-BY","2019/07/16 14:29:14","新北市板橋區民權路202巷12弄4號","121.460638333333","25.01542","6500100","板橋區"
"220028","200-UY","2019/07/16 14:29:18","新北市板橋區大觀路二段3巷46號","121.448703333333","25.0034983333333","6500100","板橋區"
"220030","610-BX","2019/07/16 14:29:24","新北市板橋區金門街378號","121.426948333333","24.9837533333333","6500100","板橋區"
"220050","245-BX","2019/07/16 14:29:17","新北市板橋區莊敬路263巷24號","121.473063333333","25.0218733333333","6500100","板橋區"
"220004","276-BY","2019/07/16 14:29:15","新北市板橋區廣權路4號","121.460283333333","24.9909583333333","6500100","板橋區"
"220020","277-BY","2019/07/16 14:29:20","新北市板橋區篤行路二段161巷9號","121.429913333333","24.9875516666667","6500100","板橋區"
"220043","283-UM","2019/07/16 14:29:24","新北市板橋區松江街109巷2號","121.46909","25.0307816666667","6500100","板橋區"
"220019","283-VK","2019/07/16 14:29:21","新北市板橋區忠孝路48巷4弄7號","121.460623333333","25.00063","6500100","板橋區"
"220001","285-VK","2019/07/16 14:29:22","新北市板橋區永豐街124號","121.476903333333","25.0210966666667","6500100","板橋區"
"220031","286-VK","2019/07/16 14:29:15","新北市板橋區龍興街73巷56號","121.441795","25.0031733333333","6500100","板橋區"
"220029","287-VK","2019/07/16 14:29:20","新北市板橋區大觀路一段75巷39號","121.448953333333","25.00415","6500100","板橋區"
"220009","295-UM","2019/07/16 14:29:26","新北市板橋區中山路一段265巷7-4號","121.468551666667","25.0146316666667","6500100","板橋區"
"220032","296-UM","2019/07/16 14:29:21","新北市板橋區滿平街84巷120弄28號","121.426123333333","24.98549","6500100","板橋區"
"220023","303-R5","2019/07/16 14:29:13","新北市板橋區南雅西路二段287巷18號","121.450226666667","25.0160316666667","6500100","板橋區"
"220010","305-R5","2019/07/16 14:29:14","新北市板橋區三民路二段95巷21號","121.480513333333","25.0165033333333","6500100","板橋區"
"220041","307-R5","2019/07/16 14:29:22","新北市板橋區四維路105號","121.46537","25.0245333333333","6500100","板橋區"
"220047","317-R6","2019/07/16 14:29:11","新北市板橋區民有街115號","121.464363333333","25.0284283333333","6500100","板橋區"
"220037","491-VK","2019/07/16 14:29:12","新北市板橋區富山街7巷12弄24號","121.47771","25.0209883333333","6500100","板橋區"
"220104","560-BX","2019/07/16 14:29:21","新北市板橋區中正路399巷34號","121.45293","25.0230166666667","6500100","板橋區"
"220052","561-BX","2019/07/16 14:29:27","新北市板橋區自由路13號","121.465473333333","25.0226816666667","6500100","板橋區"
"220011","609-BX","2019/07/16 14:29:27","新北市板橋區三民路一段136號","121.479218333333","25.0205433333333","6500100","板橋區"
"220022","630-UY","2019/07/16 14:29:08","新北市板橋區北門街23-2號","121.456791666667","25.0111616666667","6500100","板橋區"
"220040","637-BX","2019/07/16 14:29:26","新北市板橋區文聖街149巷23弄2號","121.479426666667","25.0287966666667","6500100","板橋區"
"220005","686-BX","2019/07/16 14:29:13","新北市板橋區廣和街66號","121.462163333333","24.99392","6500100","板橋區"
"220025","687-BX","2019/07/16 14:29:18","新北市板橋區大觀路二段35號","121.446796666667","25.0029616666667","6500100","板橋區"
"220042","689-BX","2019/07/16 14:29:19","新北市板橋區裕民街151號","121.458555","25.026985","6500100","板橋區"
"220002","741-BX","2019/07/16 14:29:19","新北市板橋區光明街4號","121.459945","25.0023266666667","6500100","板橋區"
"220051","KEA-2699","2019/07/16 14:29:25","新北市板橋區雙十路二段46巷10號","121.476056666667","25.0279616666667","6500100","板橋區"
"220003","827-TW","2019/07/16 14:29:27","新北市板橋區重慶路278巷2-3號","121.462813333333","24.9997383333333","6500100","板橋區"
"220014","829-TW","2019/07/16 14:29:10","新北市板橋區漢生東路313巷11號","121.472293333333","25.0083133333333","6500100","板橋區"
"220021","985-R7","2019/07/16 14:29:29","新北市板橋區中正路372巷6號","121.454813333333","25.0241666666667","6500100","板橋區"
"220046","AAC-210","2019/07/16 14:29:20","新北市板橋區文化路一段285巷1弄4號","121.464225","25.0187466666667","6500100","板橋區"
"220012","AAC-253","2019/07/16 14:29:17","新北市板橋區民權路6號","121.463463333333","25.0097166666667","6500100","板橋區"
"235032","KEA-2873","2019/07/16 14:29:18","新北市中和區景平路736巷5弄11號","121.497776666667","25.0035633333333","6500300","中和區"
