"lineid","car","time","location","longitude","latitude","cityid","cityname"
"234040","553-UM","2019/07/16 14:49:18","新北市五股區孝義路9-18號","121.449275","25.1070016666667","6500400","永和區"
"234028","746-BX","2019/07/16 14:49:19","新北市五股區中興路三段2巷10號","121.448221666667","25.0829766666667","6500400","永和區"
"234025","9371-KE","2019/07/16 14:49:27","新北市永和區水源街33巷5號","121.510898333333","25.00424","6500400","永和區"
"248017","KED-0813","2019/07/16 14:49:16","新北市五股區外寮路13-1號","121.424845","25.0812316666667","6501500","五股區"
"244002","248-BX","2019/07/16 14:49:14","新北市林口區南勢里34-8號","121.352295","25.0702983333333","6501700","林口區"
"231030","002-UM","2019/07/16 14:49:27","新北市新店區安民街267號","121.517515","24.9729166666667","6500600","新店區"
"231027","0293-UT","2019/07/16 14:49:27","新北市新店區北新路二段2號","121.54279","24.9707216666667","6500600","新店區"
"231029","106-UY","2019/07/16 14:49:11","新北市新店區安康路三段578-1號","121.481145","24.9487483333333","6500600","新店區"
"231018","107-UY","2019/07/16 14:49:26","新北市新店區中央五街5號","121.5302","24.9742416666667","6500600","新店區"
"231013","108-UY","2019/07/16 14:49:21","新北市新店區北新路二段171巷9號","121.542235","24.9764283333333","6500600","新店區"
"231036","110-UY","2019/07/16 14:49:24","新北市新店區安祥路104巷1弄1號","121.48118","24.9628433333333","6500600","新店區"
"231039","187-VK","2019/07/16 14:49:14","新北市新店區安一路一段1-1號","121.519596666667","24.9611133333333","6500600","新店區"
"231015","KEA-2219","2019/07/16 14:49:09","新北市新店區北宜路三段221號","121.592461666667","24.9531516666667","6500600","新店區"
"231023","260-TV","2019/07/16 14:49:15","新北市新店區檳榔路111號","121.544615","24.9615483333333","6500600","新店區"
"231003","268-BY","2019/07/16 14:49:25","新北市新店區中興路二段55號","121.546536666667","24.9702833333333","6500600","新店區"
"231035","278-BY","2019/07/16 14:49:10","新北市新店區安業街67巷22號","121.518953333333","24.97591","6500600","新店區"
"231006","355-BY","2019/07/16 14:49:27","新北市新店區北宜路二段13號","121.547868333333","24.95198","6500600","新店區"
"231038","3712-VJ","2019/07/16 14:49:08","新北市新店區安華路28-1號","121.519748333333","24.9608733333333","6500600","新店區"
"231024","4716-K9","2019/07/16 14:49:15","新北市新店區中華路83巷67號","121.538271666667","24.9672933333333","6500600","新店區"
"231025","4715-K9","2019/07/16 14:49:18","新北市新店區建國路198巷13號","121.5381","24.9804366666667","6500600","新店區"
"231020","513-UM","2019/07/16 14:49:20","新北市新店區桂山路71巷2號","121.566715","24.9004116666667","6500600","新店區"
"231005","618-UM","2019/07/16 14:49:18","新北市新店區復興路59-1號","121.535738333333","24.9873833333333","6500600","新店區"
"231002","619-UM","2019/07/16 14:49:13","新北市新店區民權路61號","121.53939","24.9829383333333","6500600","新店區"
"231034","641-BX","2019/07/16 14:49:20","新北市新店區玫瑰路4-1號","121.493595","24.9514083333333","6500600","新店區"
"231012","KED-0819","2019/07/16 14:49:08","新北市新店區寶橋路48號","121.545828333333","24.975085","6500600","新店區"
"231028","897-TW","2019/07/16 14:49:23","新北市新店區安德街120巷6號","121.509055","24.9607883333333","6500600","新店區"
"231001","898-TW","2019/07/16 14:49:16","新北市新店區三民路17號","121.539641666667","24.9722083333333","6500600","新店區"
"231004","899-TW","2019/07/16 14:49:14","新北市新店區民族路75-2號","121.53925","24.978065","6500600","新店區"
"231037","AKT-0513","2019/07/16 14:49:22","新北市新店區柴埕路60巷34號","121.505746666667","24.9687616666667","6500600","新店區"
"235030","003-UY","2019/07/16 14:49:24","新北市中和區南工路2巷2號","121.505451666667","25.0000266666667","6500300","中和區"
"235020","096-UM","2019/07/16 14:49:22","新北市中和區中山路三段114巷3號","121.475361666667","25.0075016666667","6500300","中和區"
"235003","097-UM","2019/07/16 14:49:14","新北市永和區中正路45號","121.514215","24.99635","6500300","中和區"
"235029","098-UM","2019/07/16 14:49:09","新北市中和區永和路124號","121.496563333333","25.0066516666667","6500300","中和區"
"235004","150-BY","2019/07/16 14:49:19","新北市中和區安和路39號","121.509673333333","24.9948333333333","6500300","中和區"
"235002","185-VK","2019/07/16 14:49:19","新北市中和區更生街1號","121.521368333333","24.9961016666667","6500300","中和區"
"235013","186-VK","2019/07/16 14:49:23","新北市中和區景平路522號","121.503278333333","24.99415","6500300","中和區"
"235008","293-VK","2019/07/16 14:49:28","新北市中和區板南路100號","121.503821666667","24.9926366666667","6500300","中和區"
"235036","301-VK","2019/07/16 14:49:25","新北市中和區保平路340巷18號","121.5061","25.0045533333333","6500300","中和區"
"235007","352-BY","2019/07/16 14:49:13","新北市中和區安和路9號","121.51149","24.99359","6500300","中和區"
"235006","KEA-2878","2019/07/16 14:49:20","新北市中和區景平路59-11號","121.521228333333","24.9908666666667","6500300","中和區"
"247013","KEA-2869","2019/07/16 14:49:21","新北市蘆洲區中央路30號","121.473593333333","25.08303","6501400","蘆洲區"
"247007","KED-0682","2019/07/16 14:49:09","新北市蘆洲區中山一路186號","121.473856666667","25.0809166666667","6501400","蘆洲區"
"235014","4979-A6","2019/07/16 14:49:09","新北市中和區景平路241巷84弄54號","121.506071666667","24.9924683333333","6500300","中和區"
"235034","558-UM","2019/07/16 14:49:15","新北市中和區連勝街42號","121.497945","24.997535","6500300","中和區"
"235010","733-UM","2019/07/16 14:49:22","新北市中和區仁愛街14號","121.510715","24.98903","6500300","中和區"
"235035","783-BX","2019/07/16 14:49:14","新北市中和區建一路179號","121.488201666667","24.9987216666667","6500300","中和區"
"235005","802-TS","2019/07/16 14:49:07","新北市中和區中和路298號","121.508655","24.9998716666667","6500300","中和區"
"235016","805-TS","2019/07/16 14:49:23","新北市中和區華新街192巷22弄9號","121.506531666667","24.9832183333333","6500300","中和區"
"235017","900-TW","2019/07/16 14:49:10","新北市中和區民德路77號","121.468893333333","25.0013","6500300","中和區"
"235012","911-UM","2019/07/16 14:49:20","新北市中和區忠孝街1巷2-1號","121.509173333333","24.98312","6500300","中和區"
"235015","157-BY","2019/07/16 14:49:26","新北市中和區景安路198號","121.50422","24.991355","6500300","中和區"
"235001","AAC-213","2019/07/16 14:49:23","新北市中和區自立路99巷24號","121.523441666667","24.99452","6500300","中和區"
"235023","AAC-215","2019/07/16 14:49:10","新北市中和區圓通路305巷5弄17號","121.494098333333","24.9903333333333","6500300","中和區"
"220016","015-TV","2019/07/16 14:49:28","新北市板橋區光復街141號","121.485248333333","25.0197933333333","6500100","板橋區"
"220013","072-UY","2019/07/16 14:49:25","新北市板橋區國泰街41號","121.468383333333","25.0065416666667","6500100","板橋區"
"220034","073-UY","2019/07/16 14:49:08","新北市板橋區國光路4號","121.456753333333","25.017335","6500100","板橋區"
"220105","075-UY","2019/07/16 14:49:20","新北市板橋區懷德街26號","121.4768","25.032855","6500100","板橋區"
"220017","AAD-861","2019/07/16 14:49:26","新北市板橋區大明街25巷2弄9號","121.457861666667","25.0023866666667","6500100","板橋區"
"220039","120-SR","2019/07/16 14:49:27","新北市板橋區新海路72巷12號","121.462463333333","25.022045","6500100","板橋區"
"247001","336-TH","2019/07/16 14:49:22","新北市蘆洲區永康街2巷10號","121.459341666667","25.0862366666667","6501400","蘆洲區"
"228004","212-TW","2019/07/16 14:49:11","新北市貢寮區福隆里裕隆街3-1號","121.946168333333","25.015885","6502600","貢寮區"
"228005","828-UM","2019/07/16 14:49:19","新北市貢寮區美豐里丹裡街67號","121.907903333333","25.0583066666667","6502600","貢寮區"
"207002","749-BX","2019/07/16 14:47:43","新北市萬里區溪底里福德坑路10號","121.625336666667","25.1569233333333","6502800","萬里區"
"207001","662-BX","2019/07/16 14:48:52","新北市萬里區雙興里二坪路1號","121.650091666667","25.1784516666667","6502800","萬里區"
"252005","AAC-283","2019/07/16 14:49:25","新北市三芝區埔坪里埔頭坑147號","121.509306666667","25.249805","6502100","三芝區"
"236040","KED-0685","2019/07/16 14:49:24","新北市土城區裕民路136巷4弄4號","121.451078333333","24.9858266666667","6501300","土城區"
"220038","KED-0812","2019/07/16 14:49:19","新北市板橋區新海路403巷18號","121.457748333333","25.0263916666667","6500100","板橋區"
"236074","166-UM","2019/07/16 14:49:23","新北市土城區中央路四段69號","121.417571666667","24.9579116666667","6501300","土城區"
"236029","253-BX","2019/07/16 14:49:17","新北市土城區忠義路26巷10號","121.439886666667","24.9699583333333","6501300","土城區"
"236024","269-VK","2019/07/16 14:49:25","新北市土城區慶安街41號","121.441143333333","24.9731733333333","6501300","土城區"
"236013","270-VK","2019/07/16 14:49:22","新北市土城區金城路二段360-2號","121.461723333333","24.98501","6501300","土城區"
"236032","271-VK","2019/07/16 14:49:15","新北市土城區仁愛路54巷9號","121.462091666667","24.9783733333333","6501300","土城區"
"236065","KEA-2877","2019/07/16 14:49:18","新北市土城區明德路一段365-1號","121.453546666667","24.9791283333333","6501300","土城區"
"236017","401-BY","2019/07/16 14:49:28","新北市土城區延安街42號","121.467456666667","24.9854816666667","6501300","土城區"
"236057","912-UM","2019/07/16 14:49:13","新北市土城區中央路三段99-6號","121.43674","24.9670916666667","6501300","土城區"
"236045","913-UM","2019/07/16 14:49:18","新北市土城區青雲路107-1號","121.45915","24.98546","6501300","土城區"
"236060","915-UM","2019/07/16 14:49:26","新北市土城區延和路41巷6弄18號","121.466735","24.9902233333333","6501300","土城區"
"236054","AAC-216","2019/07/16 14:49:18","新北市土城區學府路一段169號","121.452731666667","24.9854883333333","6501300","土城區"
"220027","145-BY","2019/07/16 14:49:14","新北市板橋區民權路202巷24號","121.46078","25.0170266666667","6500100","板橋區"
"220028","200-UY","2019/07/16 14:49:19","新北市板橋區大觀路二段37巷326號","121.449783333333","25.0024016666667","6500100","板橋區"
"220030","610-BX","2019/07/16 14:49:24","新北市板橋區大觀路三段160巷36號","121.429946666667","24.994065","6500100","板橋區"
"220050","245-BX","2019/07/16 14:49:13","新北市板橋區萬板路378號","121.478445","25.0253033333333","6500100","板橋區"
"220004","276-BY","2019/07/16 14:49:15","新北市板橋區信義路1巷28號","121.45813","24.9971283333333","6500100","板橋區"
"220020","277-BY","2019/07/16 14:49:20","新北市板橋區金門街173號","121.432581666667","24.9900816666667","6500100","板橋區"
"220043","283-UM","2019/07/16 14:49:24","新北市板橋區雨農路17巷3號","121.462126666667","25.0245016666667","6500100","板橋區"
"220019","283-VK","2019/07/16 14:49:21","新北市板橋區和平路174巷37號","121.46521","24.9941816666667","6500100","板橋區"
"220001","285-VK","2019/07/16 14:49:22","新北市板橋區中山路二段60巷1弄16號","121.47488","25.0155933333333","6500100","板橋區"
"220031","286-VK","2019/07/16 14:49:15","新北市板橋區僑中二街2號","121.44722","25.011325","6500100","板橋區"
"220029","287-VK","2019/07/16 14:49:20","新北市板橋區大觀路一段27號","121.45008","25.0084133333333","6500100","板橋區"
"220009","295-UM","2019/07/16 14:49:26","新北市板橋區觀光街88號","121.469485","25.0168716666667","6500100","板橋區"
"220032","296-UM","2019/07/16 14:49:19","新北市板橋區溪崑二街112巷12號","121.426078333333","24.9889883333333","6500100","板橋區"
"220023","303-R5","2019/07/16 14:49:13","新北市板橋區中正路253巷72號","121.452735","25.0172183333333","6500100","板橋區"
"220010","305-R5","2019/07/16 14:49:14","新北市板橋區中山路二段光榮巷17號","121.485006666667","25.0206883333333","6500100","板橋區"
"220041","307-R5","2019/07/16 14:49:22","新北市板橋區新海路109巷1弄2號","121.460771666667","25.0224416666667","6500100","板橋區"
"220047","317-R6","2019/07/16 14:49:11","新北市板橋區裕民街133巷2號","121.459331666667","25.0271016666667","6500100","板橋區"
"220037","491-VK","2019/07/16 14:48:53","新北市板橋區文聖街137號","121.478256666667","25.0284866666667","6500100","板橋區"
"220104","560-BX","2019/07/16 14:49:21","新北市板橋區金華街107號","121.458938333333","25.0209183333333","6500100","板橋區"
"220052","561-BX","2019/07/16 14:49:27","新北市板橋區漢生東路7號","121.464635","25.0174033333333","6500100","板橋區"
"220011","609-BX","2019/07/16 14:49:20","新北市板橋區中山路二段364號","121.481683333333","25.0202016666667","6500100","板橋區"
"220022","630-UY","2019/07/16 14:49:08","新北市板橋區東門街36-5號","121.4585","25.007925","6500100","板橋區"
"220040","637-BX","2019/07/16 14:49:26","新北市板橋區懷德街127巷25號","121.479636666667","25.03133","6500100","板橋區"
"220005","686-BX","2019/07/16 14:49:13","新北市板橋區信義路19號","121.456908333333","24.99658","6500100","板橋區"
"220025","687-BX","2019/07/16 14:49:18","新北市板橋區僑中二街114巷2號","121.445796666667","25.0067633333333","6500100","板橋區"
"220042","689-BX","2019/07/16 14:49:15","新北市板橋區長江路三段80號","121.474086666667","25.0341583333333","6500100","板橋區"
"220002","741-BX","2019/07/16 14:46:59","新北市板橋區忠孝路忠義巷15弄61-2號","121.46535","25.0049883333333","6500100","板橋區"
"220051","KEA-2699","2019/07/16 14:49:14","新北市板橋區文化路二段182巷5弄28號","121.47282","25.02807","6500100","板橋區"
"220003","827-TW","2019/07/16 14:49:27","新北市板橋區國慶路149巷31號","121.460856666667","24.9977983333333","6500100","板橋區"
"220014","829-TW","2019/07/16 14:49:26","新北市板橋區漢生東路193巷62號","121.47303","25.0119083333333","6500100","板橋區"
"220021","985-R7","2019/07/16 14:49:08","新北市板橋區大仁街13號","121.455765","25.0169083333333","6500100","板橋區"
"220046","AAC-210","2019/07/16 14:49:20","新北市板橋區光正街18巷9號","121.462571666667","25.0176033333333","6500100","板橋區"
"220012","AAC-253","2019/07/16 14:49:22","新北市板橋區實踐路147號","121.464323333333","25.00437","6500100","板橋區"
"235032","KEA-2873","2019/07/16 14:49:18","新北市中和區永和路24號","121.499456666667","25.0035233333333","6500300","中和區"
