"lineid","car","time","location","longitude","latitude","cityid","cityname"
"231030","002-UM","2019/07/16 15:49:24","新北市新店區永安街62巷2號","121.519215","24.9868266666667","6500600","新店區"
"231029","106-UY","2019/07/16 15:49:11","新北市新店區車子路15號","121.503711666667","24.954295","6500600","新店區"
"231018","107-UY","2019/07/16 15:49:26","新北市新店區中正路663巷7弄15號","121.533036666667","24.99014","6500600","新店區"
"231013","108-UY","2019/07/16 15:49:21","新北市新店區永業路81巷3弄14號","121.530328333333","24.9495783333333","6500600","新店區"
"231039","187-VK","2019/07/16 15:49:14","新北市新店區光明街28號","121.538498333333","24.9586983333333","6500600","新店區"
"231015","KEA-2219","2019/07/16 15:49:09","新北市新店區中華路83巷2弄5號","121.538928333333","24.9685383333333","6500600","新店區"
"231032","256-BX","2019/07/16 15:49:16","新北市新店區雙城路155號","121.495266666667","24.9443966666667","6500600","新店區"
"231023","260-TV","2019/07/16 15:49:15","新北市新店區安康路一段3-1號","121.534761666667","24.9609116666667","6500600","新店區"
"231003","268-BY","2019/07/16 15:49:25","新北市新店區寶興路60巷3號","121.549956666667","24.97179","6500600","新店區"
"231035","278-BY","2019/07/16 15:49:25","新北市新店區安民街365巷10弄22號","121.515931666667","24.976015","6500600","新店區"
"231020","513-UM","2019/07/16 15:49:20","新北市新店區新烏路一段87巷9號","121.546273333333","24.9420116666667","6500600","新店區"
"231005","618-UM","2019/07/16 15:49:18","新北市新店區溪園路403號","121.523936666667","24.97823","6500600","新店區"
"231034","641-BX","2019/07/16 15:49:20","新北市新店區吉祥街13巷1號","121.497768333333","24.946055","6500600","新店區"
"231026","720-UM","2019/07/16 15:49:10","新北市新店區中正路487號","121.53386","24.9821283333333","6500600","新店區"
"231037","AKT-0513","2019/07/16 15:49:22","新北市新店區安興路81號","121.515513333333","24.9752966666667","6500600","新店區"
"241011","013-R5","2019/07/16 15:49:22","新北市三重區文化北路141號","121.49763","25.0692933333333","6500200","三重區"
"241028","022-UY","2019/07/16 15:49:14","新北市三重區中正南路47號","121.493971666667","25.0596416666667","6500200","三重區"
"241029","060-VK","2019/07/16 15:49:15","新北市三重區大同南路242號","121.496961666667","25.0558283333333","6500200","三重區"
"241015","062-VK","2019/07/16 15:49:11","新北市三重區重新路四段121號","121.485231666667","25.0518866666667","6500200","三重區"
"241017","063-VK","2019/07/16 15:49:27","新北市三重區大仁街11號","121.491683333333","25.0642033333333","6500200","三重區"
"241024","065-VK","2019/07/16 15:49:15","新北市三重區重新路四段121號","121.484691666667","25.0524116666667","6500200","三重區"
"241023","066-VK","2019/07/16 15:49:25","新北市三重區忠孝路三段84巷18號","121.480776666667","25.0646533333333","6500200","三重區"
"241002","090-VK","2019/07/16 15:49:16","新北市三重區重新路四段121號","121.484753333333","25.052235","6500200","三重區"
"241016","266-UM","2019/07/16 15:49:23","新北市三重區重新路四段121號","121.485336666667","25.0520416666667","6500200","三重區"
"241018","268-UM","2019/07/16 15:49:26","新北市三重區重新路四段121號","121.485316666667","25.052065","6500200","三重區"
"241013","270-UM","2019/07/16 15:49:24","新北市三重區正義北路291號","121.494856666667","25.070575","6500200","三重區"
"241025","271-UM","2019/07/16 15:49:16","新北市三重區忠孝路三段84巷5號","121.480186666667","25.0643833333333","6500200","三重區"
"241007","398-BY","2019/07/16 15:49:20","新北市三重區忠孝路三段2號","121.481953333333","25.067595","6500200","三重區"
"241004","475-VK","2019/07/16 15:49:16","新北市三重區成功路102號","121.487865","25.051405","6500200","三重區"
"241020","478-VK","2019/07/16 15:49:28","新北市三重區力行路一段179巷24號","121.485281666667","25.0700416666667","6500200","三重區"
"241026","480-VK","2019/07/16 15:49:10","新北市三重區重新路四段121號","121.484776666667","25.052545","6500200","三重區"
"241014","543-UM","2019/07/16 15:49:21","新北市三重區重新路四段121號","121.4851","25.0518","6500200","三重區"
"241019","KEA-2593","2019/07/16 15:49:25","新北市三重區頂崁街223號","121.477101666667","25.067815","6500200","三重區"
"241006","AAD-863","2019/07/16 15:49:25","新北市三重區重新路四段121號","121.484628333333","25.052125","6500200","三重區"
"241005","887-TS","2019/07/16 15:49:22","新北市三重區泉州街84巷18號","121.495888333333","25.054295","6500200","三重區"
"241012","941-UM","2019/07/16 15:49:25","新北市三重區文化北路61-4號","121.498633333333","25.0663833333333","6500200","三重區"
"241033","AAC-255","2019/07/16 15:49:28","新北市三重區光復路一段113號","121.472063333333","25.0518733333333","6500200","三重區"
"235033","4980-A6","2019/07/16 15:49:12","新北市中和區連城路308號","121.483723333333","24.996345","6500300","中和區"
"235054","640-BX","2019/07/16 15:49:14","新北市中和區和城路一段271巷1號","121.48548","24.9915066666667","6500300","中和區"
"235023","AAC-215","2019/07/16 15:49:29","新北市中和區員山路59號","121.48095","24.9931933333333","6500300","中和區"
"224007","285-BY","2019/07/16 15:49:23","新北市瑞芳區大寮路356-1號","121.78509","25.103065","6501200","瑞芳區"
"224005","271-BY","2019/07/16 15:46:29","新北市瑞芳區明燈路二段66號","121.809478333333","25.1074516666667","6501200","瑞芳區"
"227002","642-TC","2019/07/16 15:49:10","新北市雙溪區平林里外平林48號","121.852131666667","25.0360616666667","6502500","雙溪區"
"227001","400-TW","2019/07/16 15:49:27","新北市雙溪區三港里雙澳路26號","121.869503333333","25.04822","6502500","雙溪區"
"236074","166-UM","2019/07/16 15:49:20","新北市土城區福安街104號","121.417388333333","24.9639716666667","6501300","土城區"
"236065","KEA-2877","2019/07/16 15:49:18","新北市土城區中山路34號","121.424793333333","24.9638183333333","6501300","土城區"
"236017","401-BY","2019/07/16 15:49:28","新北市土城區金城路三段208號","121.47181","24.9896433333333","6501300","土城區"
"236057","752-BX","2019/07/16 15:49:27","新北市土城區中央路一段299號","121.444098333333","24.983775","6501300","土城區"
"220025","687-BX","2019/07/16 15:49:18","新北市樹林區八德街630號","121.397358333333","24.9691583333333","6500100","板橋區"
"235026","KEA-2876","2019/07/16 15:49:02","新北市中和區中山路二段327巷15號","121.493393333333","25.000485","6500300","中和區"
