"lineid","car","time","location","longitude","latitude","cityid","cityname"
"234046","148-BY","2019/07/16 19:59:25","新北市永和區成功路一段16巷2號","121.526745","25.0054716666667","6500400","永和區"
"234081","298-R6","2019/07/16 19:59:09","新北市永和區永亨路113號","121.523678333333","25.0045383333333","6500400","永和區"
"234038","336-UY","2019/07/16 19:59:21","新北市永和區成功路二段145號","121.526616666667","24.99774","6500400","永和區"
"234064","337-UY","2019/07/16 19:59:03","新北市永和區中正路368巷1弄47號","121.519213333333","25.0013066666667","6500400","永和區"
"234086","338-UY","2019/07/16 19:59:23","新北市永和區福和路243號","121.518213333333","25.0074466666667","6500400","永和區"
"234070","552-UM","2019/07/16 19:59:25","新北市永和區國光路33號","121.519383333333","25.0083083333333","6500400","永和區"
"234017","745-BX","2019/07/16 19:59:13","新北市永和區文化路69號","121.51392","25.01512","6500400","永和區"
"234030","746-BX","2019/07/16 19:59:20","新北市永和區民生路46巷30號","121.521638333333","24.9968966666667","6500400","永和區"
"234054","KEA-2590","2019/07/16 19:59:20","新北市永和區環河東路一段122號","121.520603333333","25.01546","6500400","永和區"
"234007","KED-0605","2019/07/16 19:59:20","新北市永和區保生路40巷1號","121.505823333333","25.008335","6500400","永和區"
"234013","KEA-2591","2019/07/16 19:59:12","新北市永和區保生路55號","121.504733333333","25.0105766666667","6500400","永和區"
"234061","AAD-866","2019/07/16 19:59:18","新北市永和區得和路68號","121.516273333333","24.9998733333333","6500400","永和區"
"234042","862-TW","2019/07/16 19:59:13","新北市永和區中和路335巷18弄6號","121.50769","25.0002116666667","6500400","永和區"
"234050","863-TW","2019/07/16 19:59:10","新北市永和區保安路151號","121.50693","25.0131316666667","6500400","永和區"
"234026","9371-KE","2019/07/16 19:59:11","新北市永和區水源街21巷14弄2號","121.511628333333","25.0039533333333","6500400","永和區"
"234011","9373-KE","2019/07/16 19:59:14","新北市永和區仁愛路352巷120號","121.500278333333","25.00854","6500400","永和區"
"249005","172-UM","2019/07/16 19:59:07","新北市八里區楓林路2-10號","121.385946666667","25.1324116666667","6502300","八里區"
"249001","173-UM","2019/07/16 19:59:12","新北市八里區中華路二段249-2號","121.404073333333","25.1485066666667","6502300","八里區"
"249004","303-UY","2019/07/16 19:59:12","新北市八里區文昌路55號","121.4109","25.156395","6502300","八里區"
"249002","305-UY","2019/07/16 19:59:12","新北市八里區頂寮二街1號","121.451006666667","25.1238466666667","6502300","八里區"
"248014","025-BX","2019/07/16 19:59:26","新北市五股區成泰路二段238號","121.440015","25.0868433333333","6501500","五股區"
"248016","026-BX","2019/07/16 19:59:03","新北市五股區成泰路三段577巷80弄7號","121.449525","25.104275","6501500","五股區"
"248008","KED-0815","2019/07/16 19:59:11","新北市五股區四維路155巷36弄4號","121.466838333333","25.0746366666667","6501500","五股區"
"248020","KED-0813","2019/07/16 19:59:15","新北市五股區凌雲路三段60號","121.430201666667","25.11034","6501500","五股區"
"248012","247-BX","2019/07/16 19:59:23","新北市五股區民義路一段138-1號","121.434126666667","25.086505","6501500","五股區"
"248010","272-BY","2019/07/16 19:59:06","新北市五股區登林路104號","121.427248333333","25.070625","6501500","五股區"
"248002","678-BX","2019/07/16 19:59:13","新北市五股區成泰路三段553號","121.452058333333","25.1019583333333","6501500","五股區"
"248004","682-TV","2019/07/16 19:59:22","新北市五股區成泰路一段10-1號","121.434581666667","25.0672516666667","6501500","五股區"
"234023","9380-KE","2019/07/16 19:59:10","新北市永和區豫溪街57巷4弄1號","121.517418333333","25.01017","6500400","永和區"
"234077","969-R7","2019/07/16 19:59:25","新北市永和區民有街7號","121.516151666667","24.99698","6500400","永和區"
"234074","AAC-211","2019/07/16 19:59:10","新北市永和區豫溪街215巷21號","121.523631666667","25.010165","6500400","永和區"
"234067","AAC-212","2019/07/16 19:59:09","新北市永和區保平路236巷15弄18號","121.507738333333","25.006845","6500400","永和區"
"234003","AAC-295","2019/07/16 19:59:04","新北市永和區中正路730號","121.515551666667","25.0102233333333","6500400","永和區"
"244019","402-UM","2019/07/16 19:59:17","新北市林口區粉寮69號","121.40498","25.0908616666667","6501700","林口區"
"243012","AAD-798","2019/07/16 19:59:13","新北市泰山區全興路13號","121.432325","25.05892","6501600","泰山區"
"243010","297-R6","2019/07/16 19:59:13","新北市泰山區民生路33號","121.430703333333","25.05222","6501600","泰山區"
"243014","KEA-2801","2019/07/16 19:59:08","新北市泰山區泰林路二段29號","121.4359","25.05673","6501600","泰山區"
"243016","421-VK","2019/07/16 19:59:03","新北市泰山區明志路三段423號","121.421195","25.03324","6501600","泰山區"
"243009","KEA-2215","2019/07/16 19:59:17","新北市泰山區楓江路16巷32號","121.434003333333","25.06143","6501600","泰山區"
"243011","KEA-2216","2019/07/16 19:59:08","新北市泰山區明志路三段196巷50弄1號","121.42162","25.0402066666667","6501600","泰山區"
"222002","016-RS","2019/07/16 19:59:21","新北市深坑區北深路二段81巷8弄2號","121.618311666667","25.0031383333333","6501800","深坑區"
"222003","436-BY","2019/07/16 19:59:06","新北市深坑區埔新街14號","121.620716666667","25.0039166666667","6501800","深坑區"
"231061","002-UM","2019/07/16 19:59:10","新北市新店區安民街307號","121.517578333333","24.9739133333333","6500600","新店區"
"231060","106-UY","2019/07/16 19:59:04","新北市新店區安康路二段337-1號","121.49812","24.9558316666667","6500600","新店區"
"231051","107-UY","2019/07/16 19:59:23","新北市新店區中央路153號","121.529853333333","24.9730283333333","6500600","新店區"
"231049","108-UY","2019/07/16 19:59:12","新北市新店區民族路47號","121.540356666667","24.9785716666667","6500600","新店區"
"231065","110-UY","2019/07/16 19:59:11","新北市新店區安祥路106巷31號","121.476776666667","24.96114","6500600","新店區"
"231068","187-VK","2019/07/16 19:59:07","新北市新店區安一路一段1-1號","121.519815","24.9612383333333","6500600","新店區"
"231050","KEA-2219","2019/07/16 19:59:08","新北市新店區北宜路二段579巷1-1號","121.565585","24.9535816666667","6500600","新店區"
"221035","KEA-2785","2019/07/16 19:59:08","新北市汐止區長江街11號","121.654695","25.0711883333333","6501100","汐止區"
"231062","256-BX","2019/07/16 19:59:22","新北市新店區華潭街24號","121.529233333333","24.95327","6500600","新店區"
"231054","260-TV","2019/07/16 19:59:24","新北市新店區光明街171號","121.539725","24.96262","6500600","新店區"
"231042","268-BY","2019/07/16 19:59:20","新北市新店區中興路一段292號","121.545943333333","24.9692416666667","6500600","新店區"
"231064","278-BY","2019/07/16 19:59:10","新北市新店區安光路10-1號","121.513791666667","24.9640783333333","6500600","新店區"
"231045","355-BY","2019/07/16 19:59:06","新北市新店區明山路1巷9弄14號","121.56211","24.953935","6500600","新店區"
"231055","4716-K9","2019/07/16 19:59:18","新北市新店區力行路14巷16弄2號","121.539131666667","24.9654166666667","6500600","新店區"
"231056","4715-K9","2019/07/16 19:59:21","新北市新店區北新路二段29巷1弄2號","121.542478333333","24.9725516666667","6500600","新店區"
"231067","4772-VM","2019/07/16 19:59:19","新北市新店區秀山路11巷22號","121.531528333333","24.9587183333333","6500600","新店區"
"231053","513-UM","2019/07/16 19:59:13","新北市新店區新烏路三段241號","121.546856666667","24.89611","6500600","新店區"
"231044","618-UM","2019/07/16 19:59:08","新北市新店區復興路38號","121.538933333333","24.9868466666667","6500600","新店區"
"231041","619-UM","2019/07/16 19:59:26","新北市新店區中央路47號","121.53281","24.9774866666667","6500600","新店區"
"231063","641-BX","2019/07/16 19:59:13","新北市新店區車子路11號","121.503061666667","24.9519616666667","6500600","新店區"
"231048","KED-0819","2019/07/16 19:59:25","新北市新店區寶興路64巷1號","121.550631666667","24.9716216666667","6500600","新店區"
"231057","720-UM","2019/07/16 19:59:12","新北市新店區花園二路一段11號","121.55548","24.9324716666667","6500600","新店區"
"231059","897-TW","2019/07/16 19:59:19","新北市新店區吉安街2號","121.517361666667","24.96562","6500600","新店區"
"231040","898-TW","2019/07/16 19:59:11","新北市新店區中正路75巷71號","121.543075","24.9688533333333","6500600","新店區"
"231043","899-TW","2019/07/16 19:59:09","新北市新店區中正路265號","121.53819","24.974015","6500600","新店區"
"231066","AKT-0513","2019/07/16 19:59:04","新北市新店區安康路二段341巷48號","121.4967","24.954315","6500600","新店區"
"241011","013-R5","2019/07/16 19:59:20","新北市三重區三和路二段167號","121.497886666667","25.0696566666667","6500200","三重區"
"241028","022-UY","2019/07/16 19:59:14","新北市三重區中正南路83號","121.494295","25.0584283333333","6500200","三重區"
"241008","059-VK","2019/07/16 19:59:22","新北市三重區永福街179巷26號","121.478078333333","25.0747466666667","6500200","三重區"
"241029","060-VK","2019/07/16 19:59:15","新北市三重區重安街6號","121.490168333333","25.0582516666667","6500200","三重區"
"241031","061-VK","2019/07/16 19:59:11","新北市三重區重新路四段144巷18號","121.487176666667","25.0554533333333","6500200","三重區"
"241015","062-VK","2019/07/16 19:59:08","新北市三重區三和路二段8號","121.501066666667","25.0669366666667","6500200","三重區"
"241017","063-VK","2019/07/16 19:59:07","新北市三重區重陽路四段1號","121.49109","25.06876","6500200","三重區"
"241024","065-VK","2019/07/16 19:59:15","新北市三重區大勇街34號","121.481576666667","25.07171","6500200","三重區"
"241023","066-VK","2019/07/16 19:59:25","新北市三重區頂崁街166號","121.477636666667","25.0658566666667","6500200","三重區"
"241003","091-VK","2019/07/16 19:59:20","新北市三重區富華街63號","121.491376666667","25.0835116666667","6500200","三重區"
"241030","742-BX","2019/07/16 19:59:02","新北市三重區重新路四段248號","121.486093333333","25.0535033333333","6500200","三重區"
"241016","266-UM","2019/07/16 19:58:42","新北市三重區正義北路36巷20號","121.496393333333","25.063275","6500200","三重區"
"241009","267-UM","2019/07/16 19:59:26","新北市三重區三和路四段388-2號","121.482076666667","25.0791133333333","6500200","三重區"
"241018","268-UM","2019/07/16 19:59:10","新北市三重區正義北路244巷58號","121.49431","25.0676833333333","6500200","三重區"
"241032","269-UM","2019/07/16 19:59:09","新北市三重區朝陽街26巷1弄22號","121.482998333333","25.0569116666667","6500200","三重區"
"241013","270-UM","2019/07/16 19:59:22","新北市三重區三和路三段125巷33號","121.494103333333","25.07362","6500200","三重區"
"241025","271-UM","2019/07/16 19:59:17","新北市三重區頂崁街210巷16號","121.476565","25.0676266666667","6500200","三重區"
"241007","398-BY","2019/07/16 19:59:20","新北市三重區慈愛街125號","121.488553333333","25.07981","6500200","三重區"
"241004","475-VK","2019/07/16 19:59:16","新北市三重區五華街74號","121.493431666667","25.0819633333333","6500200","三重區"
"241020","478-VK","2019/07/16 19:59:05","新北市三重區忠孝路一段101號","121.489491666667","25.0721533333333","6500200","三重區"
"241026","480-VK","2019/07/16 19:59:06","新北市三重區仁慈街27號","121.502246666667","25.0630966666667","6500200","三重區"
"241014","543-UM","2019/07/16 19:59:21","新北市三重區三和路二段156號","121.499453333333","25.06842","6500200","三重區"
"241001","547-UM","2019/07/16 19:59:24","新北市三重區福隆路13號","121.489758333333","25.07715","6500200","三重區"
"241019","KEA-2593","2019/07/16 19:59:09","新北市三重區重陽路四段5號","121.490943333333","25.0689383333333","6500200","三重區"
"241006","AAD-863","2019/07/16 19:59:25","新北市三重區力行路二段138-1號","121.482391666667","25.0756083333333","6500200","三重區"
"241035","743-BX","2019/07/16 19:59:17","新北市三重區重新路二段13巷4號","121.498261666667","25.0627583333333","6500200","三重區"
"241005","887-TS","2019/07/16 19:59:10","新北市三重區溪尾街325巷25號","121.488683333333","25.0833116666667","6500200","三重區"
"241012","941-UM","2019/07/16 19:59:12","新北市三重區仁厚街3號","121.49919","25.0760283333333","6500200","三重區"
"241033","AAC-255","2019/07/16 19:59:17","新北市三重區中興北街101號","121.46967","25.04838","6500200","三重區"
"235066","003-UY","2019/07/16 19:59:23","新北市中和區光華街19號","121.504821666667","25.0041766666667","6500300","中和區"
"235039","097-UM","2019/07/16 19:59:14","新北市中和區景平路278巷16弄4號","121.514148333333","24.99352","6500300","中和區"
"235065","098-UM","2019/07/16 19:59:09","新北市中和區永和路90巷2弄20號","121.498071666667","25.005505","6500300","中和區"
"235040","150-BY","2019/07/16 19:59:06","新北市中和區保健路10巷20-3號","121.507826666667","24.9966716666667","6500300","中和區"
"235058","151-BY","2019/07/16 19:59:03","新北市中和區員山路150巷2弄43-2號","121.482008333333","24.9974333333333","6500300","中和區"
"235055","183-VK","2019/07/16 19:59:09","新北市中和區民生街21-6號","121.47083","25.0056116666667","6500300","中和區"
"235049","186-VK","2019/07/16 19:59:08","新北市中和區景平路564號","121.501931666667","24.9951133333333","6500300","中和區"
"235044","293-VK","2019/07/16 19:59:17","新北市中和區復興路56號","121.503873333333","24.9904516666667","6500300","中和區"
"235042","KEA-2878","2019/07/16 19:59:20","新北市中和區景平路4號","121.524306666667","24.9904183333333","6500300","中和區"
"247014","KEA-2869","2019/07/16 19:59:22","新北市蘆洲區成功路136號","121.47198","25.0828866666667","6501400","蘆洲區"
"247008","KED-0682","2019/07/16 19:59:24","新北市蘆洲區信義路119巷1號","121.47843","25.0802866666667","6501400","蘆洲區"
"235050","4979-A6","2019/07/16 19:59:16","新北市中和區景平路239巷38號","121.508221666667","24.9922566666667","6500300","中和區"
"235070","558-UM","2019/07/16 19:59:04","新北市中和區中正路226號","121.496245","24.9940733333333","6500300","中和區"
"235047","732-UM","2019/07/16 19:59:14","新北市中和區和平街166號","121.505546666667","24.992125","6500300","中和區"
"235046","733-UM","2019/07/16 19:59:10","新北市中和區興南路一段105巷20弄9號","121.510338333333","24.9854483333333","6500300","中和區"
"235052","805-TS","2019/07/16 19:59:21","新北市中和區華新街97號","121.508696666667","24.9830366666667","6500300","中和區"
"235048","911-UM","2019/07/16 19:59:26","新北市中和區景新街397號","121.512501666667","24.990005","6500300","中和區"
"235051","157-BY","2019/07/16 19:59:17","新北市中和區復興路56號","121.503841666667","24.9904333333333","6500300","中和區"
"235037","AAC-213","2019/07/16 19:59:14","新北市中和區立人街51號","121.520471666667","24.9942266666667","6500300","中和區"
"235059","AAC-215","2019/07/16 19:59:22","新北市中和區圓通路305巷5弄2號","121.493603333333","24.9901066666667","6500300","中和區"
"220068","015-TV","2019/07/16 19:59:20","新北市板橋區中山路二段390-1號","121.482385","25.02067","6500100","板橋區"
"220065","072-UY","2019/07/16 19:59:19","新北市板橋區民族路231號","121.469788333333","25.0071483333333","6500100","板橋區"
"220086","073-UY","2019/07/16 19:59:10","新北市板橋區林園街4-1號","121.454238333333","25.009525","6500100","板橋區"
"220106","075-UY","2019/07/16 19:59:23","新北市板橋區懷德街76巷8號","121.477616666667","25.0317266666667","6500100","板橋區"
"220069","AAD-861","2019/07/16 19:59:16","新北市板橋區大明街55號","121.45759","25.0029083333333","6500100","板橋區"
"247004","893-R6","2019/07/16 19:59:15","新北市蘆洲區永康街39號","121.457326666667","25.0852583333333","6501400","蘆洲區"
"247018","546-UM","2019/07/16 19:59:16","新北市蘆洲區民族路290巷11號","121.478426666667","25.0898766666667","6501400","蘆洲區"
"247024","337-TH","2019/07/16 19:59:03","新北市蘆洲區光榮路120巷12號","121.465373333333","25.0884466666667","6501400","蘆洲區"
"247002","336-TH","2019/07/16 19:59:07","新北市蘆洲區長安街274巷4號","121.457688333333","25.0868866666667","6501400","蘆洲區"
"247012","056-VK","2019/07/16 19:59:19","新北市蘆洲區民族路149號","121.479515","25.0878383333333","6501400","蘆洲區"
"247016","053-VK","2019/07/16 19:59:10","新北市蘆洲區中正路79-1號","121.470005","25.0833816666667","6501400","蘆洲區"
"247020","007-UY","2019/07/16 19:59:08","新北市蘆洲區民義街53號","121.472838333333","25.089795","6501400","蘆洲區"
"247006","002-UY","2019/07/16 19:59:15","新北市蘆洲區九芎街139巷3號","121.465658333333","25.0793283333333","6501400","蘆洲區"
"226004","312-R5","2019/07/16 19:59:17","新北市平溪區靜安路三段392巷3號","121.78444","25.04955","6502400","平溪區"
"228003","828-UM","2019/07/16 19:59:05","新北市貢寮區仁理村仁和路216號","121.923706666667","25.0531983333333","6502600","貢寮區"
"227002","642-TC","2019/07/16 19:59:15","新北市雙溪區雙溪里太平路64號","121.865181666667","25.0359216666667","6502500","雙溪區"
"227001","400-TW","2019/07/16 19:59:07","新北市雙溪區新基里自強路2號","121.866431666667","25.0388183333333","6502500","雙溪區"
"222001","KEA-2212","2019/07/16 19:59:14","新北市深坑區北深路三段160號","121.602508333333","25.0033583333333","6501800","深坑區"
"208002","KEA-2872","2019/07/16 19:59:08","新北市金山區中山路16號","121.64181","25.21728","6502700","金山區"
"208003","665-BX","2019/07/16 19:59:13","新北市金山區永興里濆水路15號","121.62659","25.2686983333333","6502700","金山區"
"251004","009-UM","2019/07/16 19:59:13","新北市淡水區民權路177巷20號","121.460633333333","25.1351666666667","6501000","淡水區"
"251005","010-UM","2019/07/16 19:59:09","新北市淡水區學府路136巷6號","121.450785","25.1729183333333","6501000","淡水區"
"251001","011-UM","2019/07/16 19:59:16","新北市淡水區北投子14-2號","121.44861","25.1835466666667","6501000","淡水區"
"251015","KEA-2871","2019/07/16 19:59:11","新北市淡水區北新路三段171-1號","121.491786666667","25.191455","6501000","淡水區"
"251016","179-VK","2019/07/16 19:59:23","新北市淡水區番子田16-13號","121.453728333333","25.2316333333333","6501000","淡水區"
"251008","181-VK","2019/07/16 19:59:05","新北市淡水區淡海路63巷18號","121.422561666667","25.18065","6501000","淡水區"
"251013","182-VK","2019/07/16 19:59:11","新北市淡水區下圭柔山63-7號","121.451881666667","25.2061566666667","6501000","淡水區"
"251012","443-VK","2019/07/16 19:59:23","新北市淡水區下圭柔山93-3號","121.436216666667","25.2091316666667","6501000","淡水區"
"251006","561-UM","2019/07/16 19:59:12","新北市淡水區水碓街10號","121.44363","25.17707","6501000","淡水區"
"251009","575-R6","2019/07/16 19:59:14","新北市淡水區英專路21巷8號","121.445028333333","25.16981","6501000","淡水區"
"251014","577-R6","2019/07/16 19:59:09","新北市淡水區石頭厝12-1號","121.460891666667","25.236045","6501000","淡水區"
"251011","650-BX","2019/07/16 19:59:22","新北市淡水區淡金路二段507號","121.447086666667","25.1895333333333","6501000","淡水區"
"251002","672-BX","2019/07/16 19:59:16","新北市淡水區新市一路一段6號","121.428986666667","25.1873033333333","6501000","淡水區"
"207003","550-UM","2019/07/16 19:59:14","新北市萬里區大鵬里萬里加投46-1號","121.641865","25.2113083333333","6502800","萬里區"
"207004","291-VK","2019/07/16 19:59:16","新北市萬里區北基里忠一街1號","121.686415","25.1762433333333","6502800","萬里區"
"252002","178-VK","2019/07/16 19:59:17","新北市三芝區忠孝街116-3號","121.505483333333","25.2575766666667","6502100","三芝區"
"237004","KEA-2597","2019/07/16 19:59:05","新北市三峽區添福15-32號","121.37258","24.9047366666667","6500900","三峽區"
"237009","210-TH","2019/07/16 19:59:08","新北市三峽區民權街185號","121.36788","24.9295866666667","6500900","三峽區"
"237012","275-BY","2019/07/16 19:59:10","新北市三峽區中華路98號","121.371098333333","24.9279966666667","6500900","三峽區"
"237008","302-VK","2019/07/16 19:59:15","新北市三峽區中正路一段174巷5號","121.372076666667","24.9287766666667","6500900","三峽區"
"237014","433-BY","2019/07/16 19:59:16","新北市三峽區添福9-35號","121.371626666667","24.9067783333333","6500900","三峽區"
"237006","5529-G3","2019/07/16 19:59:23","新北市三峽區中正路二段168號","121.366018333333","24.9155383333333","6500900","三峽區"
"237015","649-BX","2019/07/16 19:59:14","新北市三峽區介壽路三段22號","121.395916666667","24.93629","6500900","三峽區"
"237005","AKY-6261","2019/07/16 19:59:09","新北市三峽區民生街1巷5-96號","121.379578333333","24.9353466666667","6500900","三峽區"
"236042","KED-0685","2019/07/16 19:59:23","新北市土城區學府路一段98巷23-1號","121.455271666667","24.9885833333333","6501300","土城區"
"220089","KED-0812","2019/07/16 19:59:11","新北市板橋區四維路133號","121.465028333333","25.0251966666667","6500100","板橋區"
"236079","166-UM","2019/07/16 19:59:24","新北市土城區福安街55巷11號","121.418901666667","24.9638916666667","6501300","土城區"
"236030","253-BX","2019/07/16 19:59:13","新北市土城區中央路一段250巷2-6號","121.443775","24.9848783333333","6501300","土城區"
"236026","269-VK","2019/07/16 19:59:16","新北市土城區中央路二段89號","121.442415","24.978045","6501300","土城區"
"236038","271-VK","2019/07/16 19:59:20","新北市土城區國際路64號","121.466613333333","24.9774733333333","6501300","土城區"
"247010","KED-0683","2019/07/16 19:59:14","新北市三重區集賢路188號","121.483818333333","25.0879233333333","6501400","蘆洲區"
"236070","KEA-2877","2019/07/16 19:59:24","新北市土城區忠義路86號","121.44366","24.9636233333333","6501300","土城區"
"252001","KED-0821","2019/07/16 19:59:17","新北市三芝區公正街66號","121.499808333333","25.2574516666667","6502100","三芝區"
"236021","401-BY","2019/07/16 19:59:07","新北市土城區延吉街111巷12弄15-3號","121.471608333333","24.98499","6501300","土城區"
"236059","752-BX","2019/07/16 19:59:14","新北市土城區中央路一段289號","121.444391666667","24.9841883333333","6501300","土城區"
"236049","913-UM","2019/07/16 19:59:11","新北市土城區金城路三段170號","121.467521666667","24.9875533333333","6501300","土城區"
"236063","915-UM","2019/07/16 19:59:18","新北市土城區金城路三段73巷4弄32號","121.466276666667","24.9883066666667","6501300","土城區"
"236055","AAC-216","2019/07/16 19:59:23","新北市土城區立德路15號","121.461083333333","24.98823","6501300","土城區"
"242039","AAC-296","2019/07/16 19:59:22","新北市新莊區民安路287-2號","121.428906666667","25.0229","6500500","新莊區"
"242061","986-R7","2019/07/16 19:59:11","新北市新莊區瓊泰路50號","121.443735","25.028655","6500500","新莊區"
"242002","751-BX","2019/07/16 19:59:05","新北市新莊區中正路285號","121.44887","25.0351916666667","6500500","新莊區"
"242029","615-BX","2019/07/16 19:59:16","新北市新莊區中榮街152巷42號","121.4455","25.05379","6500500","新莊區"
"242058","612-BX","2019/07/16 19:59:19","新北市新莊區八德街99號","121.424385","25.021245","6500500","新莊區"
"242051","497-BY","2019/07/16 19:59:03","新北市新莊區民本街29巷1號","121.42823","25.0189866666667","6500500","新莊區"
"242056","441-UM","2019/07/16 19:59:11","新北市新莊區中正路347巷17弄10號","121.447465","25.0343516666667","6500500","新莊區"
"242005","440-UM","2019/07/16 19:59:06","新北市新莊區化成路352巷29號","121.46711","25.04927","6500500","新莊區"
"242048","400-BY","2019/07/16 19:59:10","新北市新莊區四維路10號","121.423796666667","25.025225","6500500","新莊區"
"242023","353-BY","2019/07/16 19:59:25","新北市新莊區化成路384號","121.46593","25.0501933333333","6500500","新莊區"
"242013","132-UY","2019/07/16 19:59:16","新北市新莊區中泰街25號","121.451023333333","25.0468133333333","6500500","新莊區"
"242037","135-UY","2019/07/16 19:59:09","新北市新莊區建安街25巷2號","121.429125","25.02603","6500500","新莊區"
"242054","172-VK","2019/07/16 19:59:07","新北市新莊區民安西路338號","121.42696","25.011455","6500500","新莊區"
"242015","173-VK","2019/07/16 19:59:14","新北市新莊區復興路一段47巷10號","121.446821666667","25.0426383333333","6500500","新莊區"
"242021","175-VK","2019/07/16 19:59:21","新北市新莊區建中街16巷29號","121.44899","25.0386483333333","6500500","新莊區"
"242034","176-VK","2019/07/16 19:59:23","新北市新莊區建中街116巷3弄1號","121.445691666667","25.0368966666667","6500500","新莊區"
"242019","KED-0687","2019/07/16 19:59:05","新北市新莊區民生街15巷9號","121.455338333333","25.04262","6500500","新莊區"
"242011","346-TH","2019/07/16 19:59:10","新北市新莊區中港路531巷12號","121.450705","25.05157","6500500","新莊區"
"242007","349-TH","2019/07/16 19:59:20","新北市新莊區思源路591號","121.45981","25.0595516666667","6500500","新莊區"
"242032","350-TH","2019/07/16 19:59:24","新北市新莊區公園一路37號","121.443305","25.0355066666667","6500500","新莊區"
"242017","351-TH","2019/07/16 19:59:19","新北市新莊區中安街10號","121.45302","25.0454416666667","6500500","新莊區"
"238021","KEA-2539","2019/07/16 19:59:18","新北市樹林區佳園路二段55號","121.391361666667","24.96167","6500700","樹林區"
"238025","303-VK","2019/07/16 19:59:09","新北市樹林區中山路三段214號","121.380078333333","24.96795","6500700","樹林區"
"238017","283-BY","2019/07/16 19:59:22","新北市樹林區保安街一段306號","121.418813333333","24.99753","6500700","樹林區"
"221008","489-VK","2019/07/16 19:59:09","新北市汐止區康寧街141巷5號","121.62111","25.06734","6501100","汐止區"
"221015","131-UY","2019/07/16 19:59:20","新北市汐止區橋東街9號","121.666628333333","25.07596","6501100","汐止區"
"221010","269-BY","2019/07/16 19:59:22","新北市汐止區汐萬路一段355-1號","121.65005","25.0775016666667","6501100","汐止區"
"221012","278-VK","2019/07/16 19:59:06","新北市汐止區大同路三段456號","121.683461666667","25.0732083333333","6501100","汐止區"
"221023","279-VK","2019/07/16 19:59:13","新北市汐止區民族三街42號","121.629635","25.0700666666667","6501100","汐止區"
"221027","281-BY","2019/07/16 19:59:14","新北市汐止區中正路89號","121.661191666667","25.0694183333333","6501100","汐止區"
"221033","297-VK","2019/07/16 19:59:11","新北市汐止區東勢街190巷1號","121.633903333333","25.0417183333333","6501100","汐止區"
"221029","298-VK","2019/07/16 19:59:14","新北市汐止區樟樹一路137巷26號","121.640983333333","25.06595","6501100","汐止區"
"221021","299-VK","2019/07/16 19:59:10","新北市汐止區水源路一段158號","121.655555","25.0622783333333","6501100","汐止區"
"221031","353-TW","2019/07/16 19:59:24","新北市汐止區福德二路55巷6弄1號","121.634546666667","25.0665633333333","6501100","汐止區"
"221025","623-UM","2019/07/16 19:59:16","新北市汐止區秀峰路109巷26弄7號","121.66112","25.0634116666667","6501100","汐止區"
"221038","646-BX","2019/07/16 19:59:09","新北市汐止區忠孝東路480號","121.666231666667","25.0738766666667","6501100","汐止區"
"220079","145-BY","2019/07/16 19:59:09","新北市板橋區民權路259號","121.457083333333","25.0160566666667","6500100","板橋區"
"220080","200-UY","2019/07/16 19:59:24","新北市板橋區大觀路二段59巷2號","121.446945","25.0025483333333","6500100","板橋區"
"220082","610-BX","2019/07/16 19:59:20","新北市板橋區溪北路64號","121.42779","24.989745","6500100","板橋區"
"220101","245-BX","2019/07/16 19:59:20","新北市板橋區雙十路二段47巷2弄25號","121.475256666667","25.02699","6500100","板橋區"
"224002","257-TC","2019/07/16 19:59:20","新北市瑞芳區三爪子坑路331號","121.818891666667","25.1045433333333","6501200","瑞芳區"
"220056","276-BY","2019/07/16 19:59:19","新北市板橋區德興街39號","121.453513333333","24.9937233333333","6500100","板橋區"
"220072","277-BY","2019/07/16 19:59:21","新北市板橋區篤行路二段77巷12弄2號","121.432248333333","24.9917833333333","6500100","板橋區"
"220094","283-UM","2019/07/16 19:59:16","新北市板橋區陽明街2號","121.466935","25.0217433333333","6500100","板橋區"
"220071","283-VK","2019/07/16 19:59:22","新北市板橋區五權街30巷21號","121.464118333333","24.9930366666667","6500100","板橋區"
"220053","285-VK","2019/07/16 19:59:24","新北市板橋區懷仁街55號","121.476948333333","25.0189033333333","6500100","板橋區"
"220083","286-VK","2019/07/16 19:59:13","新北市板橋區僑中二街112巷1號","121.4458","25.0070433333333","6500100","板橋區"
"220081","287-VK","2019/07/16 19:59:21","新北市板橋區大觀路一段29巷37號","121.45027","25.007505","6500100","板橋區"
"220090","288-VK","2019/07/16 19:59:21","新北市板橋區新海路72巷7號","121.462181666667","25.0219616666667","6500100","板橋區"
"220061","295-UM","2019/07/16 19:59:22","新北市板橋區民生路二段36-1號","121.472153333333","25.0167683333333","6500100","板橋區"
"220084","296-UM","2019/07/16 19:59:14","新北市板橋區滿平街84巷25號","121.427256666667","24.988645","6500100","板橋區"
"220075","303-R5","2019/07/16 19:59:21","新北市板橋區金華街3號","121.455561666667","25.0201266666667","6500100","板橋區"
"220062","305-R5","2019/07/16 19:59:17","新北市板橋區中山路二段318巷4號","121.480225","25.0191916666667","6500100","板橋區"
"220092","307-R5","2019/07/16 19:59:18","新北市板橋區文化路一段81巷7號","121.46052","25.01414","6500100","板橋區"
"220088","491-VK","2019/07/16 19:59:26","新北市板橋區民治街59號","121.479563333333","25.0331716666667","6500100","板橋區"
"220035","560-BX","2019/07/16 19:59:05","新北市板橋區金華街63號","121.457305","25.020665","6500100","板橋區"
"220103","561-BX","2019/07/16 19:59:18","新北市板橋區漢生東路33巷42號","121.466133333333","25.0176933333333","6500100","板橋區"
"220063","609-BX","2019/07/16 19:58:56","新北市板橋區中山路二段108號","121.475813333333","25.0166583333333","6500100","板橋區"
"220074","630-UY","2019/07/16 19:59:09","新北市板橋區縣民大道一段193號","121.458866666667","25.008245","6500100","板橋區"
"220091","637-BX","2019/07/16 19:59:22","新北市板橋區文聖街89巷34號","121.478508333333","25.0304283333333","6500100","板橋區"
"220057","686-BX","2019/07/16 19:59:12","新北市板橋區四川路二段120號","121.450333333333","24.9938683333333","6500100","板橋區"
"220077","687-BX","2019/07/16 19:59:11","新北市板橋區僑中二街116巷1號","121.44567","25.0063316666667","6500100","板橋區"
"220093","689-BX","2019/07/16 19:59:23","新北市板橋區長江路二段45號","121.464313333333","25.0313833333333","6500100","板橋區"
"220054","741-BX","2019/07/16 19:59:24","新北市板橋區忠孝路忠義巷21弄1號","121.466688333333","25.0039716666667","6500100","板橋區"
"220102","KEA-2699","2019/07/16 19:59:21","新北市板橋區莒光路40巷7弄2號","121.47038","25.0236966666667","6500100","板橋區"
"220055","827-TW","2019/07/16 19:59:15","新北市板橋區國慶路149巷38弄6號","121.461431666667","24.9980983333333","6500100","板橋區"
"220067","829-TW","2019/07/16 19:59:04","新北市板橋區長安街331巷93弄9號","121.472178333333","25.0123533333333","6500100","板橋區"
"220073","985-R7","2019/07/16 19:59:10","新北市板橋區南雅西路二段184號","121.451626666667","25.0141766666667","6500100","板橋區"
"220097","AAC-210","2019/07/16 19:59:20","新北市板橋區光正街9巷11號","121.462671666667","25.01648","6500100","板橋區"
"220064","AAC-253","2019/07/16 19:59:24","新北市板橋區漢生東路193巷5號","121.470313333333","25.0117783333333","6500100","板橋區"
"235068","KEA-2873","2019/07/16 19:59:13","新北市中和區中山路二段252號","121.497616666667","25.002815","6500300","中和區"
