"lineid","car","time","location","longitude","latitude","cityid","cityname"
"234081","298-R6","2019/07/16 20:39:09","新北市永和區永貞路84號","121.520036666667","25.0050766666667","6500400","永和區"
"234064","337-UY","2019/07/16 20:39:03","新北市永和區中正路417-1號","121.51709","25.00497","6500400","永和區"
"234054","KEA-2590","2019/07/16 20:39:20","新北市永和區環河東路一段80號","121.519581666667","25.0164766666667","6500400","永和區"
"234061","AAD-866","2019/07/16 20:39:18","新北市永和區中正路381號","121.517185","25.0036716666667","6500400","永和區"
"234042","862-TW","2019/07/16 20:39:13","新北市永和區自由街16號","121.514618333333","25.0066633333333","6500400","永和區"
"249001","173-UM","2019/07/16 20:39:12","新北市八里區中山路三段382號","121.3687","25.1359166666667","6502300","八里區"
"249004","303-UY","2019/07/16 20:39:12","新北市八里區中山路一段338號","121.412506666667","25.1589","6502300","八里區"
"234023","9380-KE","2019/07/16 20:38:50","新北市永和區竹林路25巷26號","121.517948333333","25.0148916666667","6500400","永和區"
"234074","AAC-211","2019/07/16 20:39:10","新北市永和區竹林路64號","121.518311666667","25.0134833333333","6500400","永和區"
"243014","KEA-2801","2019/07/16 20:39:08","新北市泰山區泰林路二段607巷1-7號","121.421088333333","25.06388","6501600","泰山區"
"222002","016-RS","2019/07/16 20:39:21","新北市深坑區北深路三段349號","121.596931666667","25.0053516666667","6501800","深坑區"
"222003","436-BY","2019/07/16 20:39:26","新北市深坑區麻竹寮2-7號","121.614153333333","24.9989266666667","6501800","深坑區"
"231061","002-UM","2019/07/16 20:39:10","新北市新店區新和街33號","121.51906","24.9847533333333","6500600","新店區"
"231058","0293-UT","2019/07/16 20:39:08","新北市新店區中正路379號","121.53471","24.976845","6500600","新店區"
"231060","106-UY","2019/07/16 20:39:24","新北市新店區錦秀路32號","121.479213333333","24.9439683333333","6500600","新店區"
"231051","107-UY","2019/07/16 20:39:23","新北市新店區溪園路421號","121.524931666667","24.97838","6500600","新店區"
"231049","108-UY","2019/07/16 20:39:21","新北市新店區永業路81巷3弄1號","121.529891666667","24.949195","6500600","新店區"
"231065","110-UY","2019/07/16 20:39:11","新北市新店區安祥路102巷87號","121.487145","24.9635366666667","6500600","新店區"
"231068","187-VK","2019/07/16 20:39:07","新北市新店區寶慶街35巷1弄2號","121.543103333333","24.986285","6500600","新店區"
"231050","KEA-2219","2019/07/16 20:39:08","新北市新店區中正路263-1號","121.53857","24.9737116666667","6500600","新店區"
"221035","KEA-2785","2019/07/16 20:39:08","新北市汐止區長江街101-5號","121.658656666667","25.073205","6501100","汐止區"
"231062","256-BX","2019/07/16 20:39:02","新北市新店區安泰路60巷55弄117號","121.48456","24.946405","6500600","新店區"
"231054","260-TV","2019/07/16 20:39:24","新北市新店區行政街19巷2號","121.54298","24.9664566666667","6500600","新店區"
"231042","268-BY","2019/07/16 20:39:20","新北市新店區寶高路120巷1號","121.5546","24.9760516666667","6500600","新店區"
"231064","278-BY","2019/07/16 20:39:10","新北市新店區安和路三段111巷7弄1號","121.516821666667","24.98474","6500600","新店區"
"231045","355-BY","2019/07/16 20:39:06","新北市新店區長春路213號","121.559556666667","24.962","6500600","新店區"
"231055","4716-K9","2019/07/16 20:39:18","新北市新店區薏仁坑路2-1號","121.500526666667","24.95799","6500600","新店區"
"231056","4715-K9","2019/07/16 20:39:21","新北市新店區安興路83-3號","121.515415","24.9756233333333","6500600","新店區"
"231067","4772-VM","2019/07/16 20:39:19","新北市新店區安華路28-1號","121.519873333333","24.9608","6500600","新店區"
"231053","513-UM","2019/07/16 20:39:13","新北市新店區松林路51號","121.54443","24.9113666666667","6500600","新店區"
"231044","618-UM","2019/07/16 20:39:08","新北市新店區建國路293巷1號","121.536688333333","24.9861733333333","6500600","新店區"
"231041","619-UM","2019/07/16 20:39:06","新北市新店區中正路539-5號","121.5335","24.9865133333333","6500600","新店區"
"231063","641-BX","2019/07/16 20:39:13","新北市新店區玫瑰路4-2號","121.493716666667","24.9513283333333","6500600","新店區"
"231048","KED-0819","2019/07/16 20:39:05","新北市新店區寶慶街9號","121.543715","24.98664","6500600","新店區"
"231057","720-UM","2019/07/16 20:39:12","新北市新店區花園二路一段9-5號","121.556348333333","24.93278","6500600","新店區"
"231059","897-TW","2019/07/16 20:39:19","新北市新店區安豐路46號","121.500056666667","24.95497","6500600","新店區"
"231040","898-TW","2019/07/16 20:39:11","新北市新店區中正路265巷32號","121.537706666667","24.9731133333333","6500600","新店區"
"231043","899-TW","2019/07/16 20:39:09","新北市新店區建國路6-1號","121.539921666667","24.9734733333333","6500600","新店區"
"231066","AKT-0513","2019/07/16 20:39:24","新北市新店區安興路91巷4號","121.514743333333","24.976105","6500600","新店區"
"241011","013-R5","2019/07/16 20:39:20","新北市三重區龍濱路257號","121.50146","25.0728","6500200","三重區"
"241028","022-UY","2019/07/16 20:39:14","新北市三重區光興街22號","121.497576666667","25.0598983333333","6500200","三重區"
"241008","059-VK","2019/07/16 20:39:22","新北市三重區下竹圍街91號","121.481121666667","25.074855","6500200","三重區"
"241029","060-VK","2019/07/16 20:39:15","新北市三重區集美街126巷27號","121.490103333333","25.053805","6500200","三重區"
"241031","061-VK","2019/07/16 20:39:11","新北市三重區重陽路一段113巷1弄42號","121.488113333333","25.0587183333333","6500200","三重區"
"241015","062-VK","2019/07/16 20:39:08","新北市三重區三和路二段154巷27號","121.497988333333","25.068055","6500200","三重區"
"241017","063-VK","2019/07/16 20:39:07","新北市三重區安慶街262號","121.490895","25.067715","6500200","三重區"
"241024","065-VK","2019/07/16 20:39:24","新北市三重區三民街206巷1-1號","121.480455","25.0669683333333","6500200","三重區"
"241023","066-VK","2019/07/16 20:39:05","新北市三重區自由街61號","121.478168333333","25.0664433333333","6500200","三重區"
"241002","090-VK","2019/07/16 20:39:16","新北市三重區仁義街167巷4號","121.497188333333","25.08166","6500200","三重區"
"241003","091-VK","2019/07/16 20:39:13","新北市三重區五華街141巷58號","121.493548333333","25.08672","6500200","三重區"
"241030","742-BX","2019/07/16 20:39:13","新北市三重區成功路73巷12號","121.489291666667","25.0518366666667","6500200","三重區"
"241016","266-UM","2019/07/16 20:39:22","新北市三重區長壽西街134號","121.495008333333","25.0669083333333","6500200","三重區"
"241009","267-UM","2019/07/16 20:39:20","新北市三重區碧華街59號","121.4848","25.0813766666667","6500200","三重區"
"241018","268-UM","2019/07/16 20:39:10","新北市三重區重陽路四段1號","121.490935","25.0687583333333","6500200","三重區"
"241032","269-UM","2019/07/16 20:39:09","新北市三重區重陽路一段120巷35號","121.485121666667","25.06019","6500200","三重區"
"241013","270-UM","2019/07/16 20:39:22","新北市三重區自強路四段39號","121.48919","25.0769633333333","6500200","三重區"
"241025","271-UM","2019/07/16 20:39:17","新北市三重區大有街1-62號","121.47586","25.0658283333333","6500200","三重區"
"241007","398-BY","2019/07/16 20:39:20","新北市三重區自強路四段32-2號","121.488823333333","25.0770483333333","6500200","三重區"
"241004","475-VK","2019/07/16 20:39:16","新北市三重區仁愛街390號","121.490968333333","25.0808933333333","6500200","三重區"
"241020","478-VK","2019/07/16 20:39:05","新北市三重區忠孝路一段101號","121.489428333333","25.0721083333333","6500200","三重區"
"241026","480-VK","2019/07/16 20:39:26","新北市三重區和平街1號","121.50007","25.0623033333333","6500200","三重區"
"241014","543-UM","2019/07/16 20:39:21","新北市三重區萬壽街3號","121.499255","25.0692933333333","6500200","三重區"
"241001","547-UM","2019/07/16 20:39:24","新北市三重區自強路三段76巷27弄1號","121.485396666667","25.0739716666667","6500200","三重區"
"241019","KEA-2593","2019/07/16 20:39:09","新北市三重區忠孝路一段10巷16號","121.491653333333","25.07145","6500200","三重區"
"241006","AAD-863","2019/07/16 20:39:04","新北市三重區車路頭街139巷12號","121.484255","25.0761933333333","6500200","三重區"
"241035","743-BX","2019/07/16 20:39:17","新北市三重區正義北路328號","121.494781666667","25.0705666666667","6500200","三重區"
"241022","KED-0820","2019/07/16 20:39:12","新北市三重區過圳街31巷23號","121.489731666667","25.06068","6500200","三重區"
"241005","887-TS","2019/07/16 20:39:10","新北市三重區集賢路87-1號","121.493848333333","25.0868966666667","6500200","三重區"
"241012","941-UM","2019/07/16 20:39:12","新北市三重區秀江街28號","121.502371666667","25.0730016666667","6500200","三重區"
"241033","AAC-255","2019/07/16 20:39:17","新北市三重區光復路二段1號","121.47248","25.05329","6500200","三重區"
"235066","003-UY","2019/07/16 20:39:23","新北市中和區安和路173號","121.50607","24.9977816666667","6500300","中和區"
"235055","183-VK","2019/07/16 20:39:09","新北市林口區太平里180號","121.367716666667","25.1338166666667","6500300","中和區"
"247014","KEA-2869","2019/07/16 20:39:22","新北市蘆洲區中山一路225號","121.473751666667","25.0807516666667","6501400","蘆洲區"
"247008","KED-0682","2019/07/16 20:39:18","新北市蘆洲區永安北路二段12巷10號","121.480645","25.08119","6501400","蘆洲區"
"235069","4980-A6","2019/07/16 20:39:09","新北市中和區連城路347巷16弄15號","121.48798","24.9948233333333","6500300","中和區"
"247004","893-R6","2019/07/16 20:39:09","新北市蘆洲區長安街295號","121.458133333333","25.08483","6501400","蘆洲區"
"247024","337-TH","2019/07/16 20:39:23","新北市蘆洲區長樂路125-1號","121.462065","25.08794","6501400","蘆洲區"
"247002","336-TH","2019/07/16 20:39:07","新北市蘆洲區永樂街83號","121.455781666667","25.0886633333333","6501400","蘆洲區"
"247022","057-VK","2019/07/16 20:39:15","新北市蘆洲區中正路263巷4號","121.467103333333","25.0872516666667","6501400","蘆洲區"
"247012","056-VK","2019/07/16 20:39:19","新北市蘆洲區集賢路224巷66號","121.480725","25.0881533333333","6501400","蘆洲區"
"247016","053-VK","2019/07/16 20:39:09","新北市蘆洲區中山二路309號","121.469106666667","25.077","6501400","蘆洲區"
"247020","007-UY","2019/07/16 20:39:08","新北市蘆洲區民族路424號","121.473836666667","25.091795","6501400","蘆洲區"
"247006","002-UY","2019/07/16 20:39:15","新北市蘆洲區和平路148號","121.466666666667","25.08104","6501400","蘆洲區"
"222001","KEA-2212","2019/07/16 20:39:11","新北市深坑區北深路三段230號","121.600736666667","25.003945","6501800","深坑區"
"251005","010-UM","2019/07/16 20:39:09","新北市淡水區崁頂57-12號","121.443816666667","25.1970116666667","6501000","淡水區"
"251001","011-UM","2019/07/16 20:39:16","新北市淡水區水源街二段177巷32弄20號","121.455031666667","25.1782566666667","6501000","淡水區"
"251015","KEA-2871","2019/07/16 20:39:11","新北市淡水區淡金路三段446號","121.450861666667","25.2143766666667","6501000","淡水區"
"251016","179-VK","2019/07/16 20:39:03","新北市淡水區後洲子8-2號","121.449528333333","25.2240033333333","6501000","淡水區"
"251007","180-VK","2019/07/16 20:39:13","新北市淡水區忠愛街4-1號","121.458888333333","25.1712933333333","6501000","淡水區"
"251013","182-VK","2019/07/16 20:39:11","新北市淡水區下圭柔山28巷10號","121.457485","25.204065","6501000","淡水區"
"251010","413-VK","2019/07/16 20:39:20","新北市淡水區沙崙路181巷15號","121.423946666667","25.1844333333333","6501000","淡水區"
"251012","443-VK","2019/07/16 20:39:13","新北市淡水區興仁路104號","121.45176","25.2181133333333","6501000","淡水區"
"251006","561-UM","2019/07/16 20:39:17","新北市淡水區商工路198巷1號","121.451053333333","25.1880316666667","6501000","淡水區"
"251014","577-R6","2019/07/16 20:39:13","新北市淡水區公埔子29號","121.463398333333","25.232635","6501000","淡水區"
"251002","672-BX","2019/07/16 20:39:16","新北市淡水區中正路36號","121.443761666667","25.1692316666667","6501000","淡水區"
"251003","673-BX","2019/07/16 20:39:13","新北市淡水區新民街120巷19號","121.438338333333","25.1780283333333","6501000","淡水區"
"252002","178-VK","2019/07/16 20:39:17","新北市三芝區淡金路二段47-2號","121.503661666667","25.2605416666667","6502100","三芝區"
"247010","KED-0683","2019/07/16 20:39:14","新北市蘆洲區集賢路396號","121.480306666667","25.0824116666667","6501400","蘆洲區"
"252001","KED-0821","2019/07/16 20:39:17","新北市三芝區中山路一段40號","121.501368333333","25.256855","6502100","三芝區"
"242039","AAC-296","2019/07/16 20:39:21","新北市新莊區民安路461號","121.434675","25.0225233333333","6500500","新莊區"
"242061","986-R7","2019/07/16 20:39:11","新北市新莊區新樹路268巷1號","121.4326","25.0134583333333","6500500","新莊區"
"242002","751-BX","2019/07/16 20:39:25","新北市新莊區明中街4號","121.458833333333","25.0382016666667","6500500","新莊區"
"242029","615-BX","2019/07/16 20:39:16","新北市新莊區中華路二段30號","121.453593333333","25.045175","6500500","新莊區"
"242027","613-BX","2019/07/16 20:39:25","新北市新莊區思源路205號","121.459815","25.045825","6500500","新莊區"
"242058","612-BX","2019/07/16 20:39:19","新北市新莊區四維路129號","121.42294","25.0226833333333","6500500","新莊區"
"242046","566-BX","2019/07/16 20:39:16","新北市新莊區裕民街18巷11號","121.418551666667","25.0257416666667","6500500","新莊區"
"242051","497-BY","2019/07/16 20:39:23","新北市新莊區民安西路169號","121.426128333333","25.0160983333333","6500500","新莊區"
"242056","441-UM","2019/07/16 20:39:10","新北市新莊區瓊泰路94巷61號","121.444943333333","25.0294866666667","6500500","新莊區"
"242005","440-UM","2019/07/16 20:39:04","新北市新莊區化成路403巷19號","121.464028333333","25.0586883333333","6500500","新莊區"
"242042","415-TV","2019/07/16 20:39:15","新北市新莊區中正路857-1號","121.419571666667","25.0277416666667","6500500","新莊區"
"242048","400-BY","2019/07/16 20:39:16","新北市新莊區中正路654號","121.421283333333","25.028495","6500500","新莊區"
"242023","353-BY","2019/07/16 20:39:25","新北市新莊區化成路351號","121.465756666667","25.0566483333333","6500500","新莊區"
"242013","132-UY","2019/07/16 20:39:16","新北市新莊區中平路292巷1弄15號","121.445558333333","25.0519783333333","6500500","新莊區"
"242037","135-UY","2019/07/16 20:39:09","新北市新莊區建安街10-1號","121.428581666667","25.026455","6500500","新莊區"
"242015","173-VK","2019/07/16 20:39:14","新北市新莊區中和街51號","121.448006666667","25.04465","6500500","新莊區"
"242021","175-VK","2019/07/16 20:39:21","新北市新莊區中華路一段112號","121.452168333333","25.0404283333333","6500500","新莊區"
"242034","176-VK","2019/07/16 20:39:23","新北市新莊區公園一路148號","121.446758333333","25.0382816666667","6500500","新莊區"
"242019","KED-0687","2019/07/16 20:39:25","新北市新莊區銘德街141號","121.454721666667","25.0428116666667","6500500","新莊區"
"242011","346-TH","2019/07/16 20:39:10","新北市新莊區中榮街104巷11弄2號","121.447156666667","25.0534766666667","6500500","新莊區"
"242054","348-TH","2019/07/16 20:39:17","新北市新莊區民安西路310號","121.426446666667","25.0119466666667","6500500","新莊區"
"242007","349-TH","2019/07/16 20:39:19","新北市新莊區思源路287巷2弄14號","121.45943","25.04868","6500500","新莊區"
"242032","350-TH","2019/07/16 20:39:24","新北市新莊區中正路508巷5弄2號","121.434996666667","25.0338533333333","6500500","新莊區"
"242017","351-TH","2019/07/16 20:39:19","新北市新莊區中港一街140號","121.447896666667","25.0451983333333","6500500","新莊區"
"221008","489-VK","2019/07/16 20:39:09","新北市汐止區康寧街442號","121.631183333333","25.0681866666667","6501100","汐止區"
"221036","130-UY","2019/07/16 20:39:06","新北市汐止區忠孝東路211巷2號","121.661958333333","25.06675","6501100","汐止區"
"221015","131-UY","2019/07/16 20:39:20","新北市汐止區建成路37巷1號","121.663661666667","25.0728333333333","6501100","汐止區"
"221010","269-BY","2019/07/16 20:39:22","新北市汐止區八連路二段616號","121.625213333333","25.1101166666667","6501100","汐止區"
"221012","278-VK","2019/07/16 20:39:06","新北市汐止區保新街133-1號","121.687953333333","25.0704533333333","6501100","汐止區"
"221023","279-VK","2019/07/16 20:39:13","新北市汐止區湖東街5巷4號","121.633536666667","25.0727316666667","6501100","汐止區"
"221033","297-VK","2019/07/16 20:39:11","新北市汐止區合順街18巷8弄5號","121.62031","25.0419166666667","6501100","汐止區"
"221029","298-VK","2019/07/16 20:39:14","新北市汐止區大同路一段515巷26號","121.644945","25.062535","6501100","汐止區"
"221021","299-VK","2019/07/16 20:39:10","新北市汐止區水源路一段284號","121.654261666667","25.0583216666667","6501100","汐止區"
"221031","353-TW","2019/07/16 20:39:20","新北市汐止區福德一路237號","121.634256666667","25.0646866666667","6501100","汐止區"
"221025","623-UM","2019/07/16 20:39:16","新北市汐止區水源路二段185號","121.657736666667","25.05356","6501100","汐止區"
"221002","707-TV","2019/07/16 20:39:22","新北市汐止區福德二路138號","121.630781666667","25.0652166666667","6501100","汐止區"
"221018","753-BX","2019/07/16 20:39:11","新北市汐止區茄苳路70號","121.66676","25.0706716666667","6501100","汐止區"
"220083","286-VK","2019/07/16 20:39:13","新北市板橋區僑中二街102巷3號","121.445835","25.0082516666667","6500100","板橋區"
"220081","287-VK","2019/07/16 20:39:21","新北市板橋區大觀路二段116號","121.443806666667","24.99929","6500100","板橋區"
"242044","281-VK","2019/07/16 20:39:16","新北市新莊區龍安路22號","121.414485","25.022305","6500500","新莊區"
"242009","280-VK","2019/07/16 20:39:14","新北市新莊區福壽街99巷8弄15號","121.456691666667","25.0506316666667","6500500","新莊區"
