"lineid","car","time","location","longitude","latitude","cityid","cityname"
"231061","002-UM","2019/07/16 20:59:10","新北市新店區永安街64號","121.519386666667","24.9868566666667","6500600","新店區"
"231058","0293-UT","2019/07/16 20:59:08","新北市新店區平等街89號","121.535386666667","24.9724316666667","6500600","新店區"
"231060","106-UY","2019/07/16 20:59:04","新北市新店區安康路三段517號","121.481946666667","24.9484233333333","6500600","新店區"
"231051","107-UY","2019/07/16 20:59:23","新北市新店區中正路663巷1弄2號","121.532965","24.9900433333333","6500600","新店區"
"231049","108-UY","2019/07/16 20:59:12","新北市新店區安康路一段240-1號","121.521751666667","24.9638","6500600","新店區"
"231065","110-UY","2019/07/16 20:59:11","新北市新店區安祥路69巷72號","121.48258","24.959485","6500600","新店區"
"231068","187-VK","2019/07/16 20:59:07","新北市新店區寶元路二段64巷1號","121.5472","24.9810783333333","6500600","新店區"
"231050","KEA-2219","2019/07/16 20:59:08","新北市新店區三民路42號","121.536113333333","24.971575","6500600","新店區"
"221035","KEA-2785","2019/07/16 20:59:08","新北市汐止區汐萬路一段312號","121.650448333333","25.0749866666667","6501100","汐止區"
"231062","256-BX","2019/07/16 20:59:22","新北市新店區裕合街105號","121.489921666667","24.9495716666667","6500600","新店區"
"231054","260-TV","2019/07/16 20:59:04","新北市新店區五峰路51號","121.544855","24.9688516666667","6500600","新店區"
"231042","268-BY","2019/07/16 20:59:20","新北市新店區寶興路60巷4號","121.54981","24.9718266666667","6500600","新店區"
"231064","278-BY","2019/07/16 20:59:10","新北市新店區安民街135號","121.516348333333","24.9692","6500600","新店區"
"231063","641-BX","2019/07/16 20:59:13","新北市新店區玫瑰路32號","121.495553333333","24.95005","6500600","新店區"
"231048","KED-0819","2019/07/16 20:59:14","新北市新店區寶強路45號","121.543446666667","24.9795533333333","6500600","新店區"
"231059","897-TW","2019/07/16 20:59:19","新北市新店區僑信路74巷15號","121.499091666667","24.9482416666667","6500600","新店區"
"231040","898-TW","2019/07/16 20:59:11","新北市新店區中正路147號","121.541398333333","24.97169","6500600","新店區"
"231043","899-TW","2019/07/16 20:59:09","新北市新店區中央路131號","121.530441666667","24.97394","6500600","新店區"
"231066","AKT-0513","2019/07/16 20:59:04","新北市新店區吉安街9號","121.516731666667","24.965675","6500600","新店區"
"241011","013-R5","2019/07/16 20:59:20","新北市三重區秀江街109號","121.499876666667","25.0722516666667","6500200","三重區"
"241028","022-UY","2019/07/16 20:59:14","新北市三重區重新路二段78號","121.497298333333","25.0619533333333","6500200","三重區"
"241008","059-VK","2019/07/16 20:59:22","新北市三重區車路頭街135-1號","121.484265","25.0758866666667","6500200","三重區"
"241029","060-VK","2019/07/16 20:59:15","新北市三重區正義南路111號","121.498251666667","25.0585183333333","6500200","三重區"
"241031","061-VK","2019/07/16 20:59:11","新北市三重區重陽路一段113巷2弄2號","121.487488333333","25.0598383333333","6500200","三重區"
"241015","062-VK","2019/07/16 20:59:08","新北市三重區三和路二段8號","121.501125","25.0669566666667","6500200","三重區"
"241017","063-VK","2019/07/16 20:59:07","新北市三重區大智街45-2號","121.493376666667","25.0665916666667","6500200","三重區"
"241024","065-VK","2019/07/16 20:59:15","新北市三重區大勇街49號","121.481353333333","25.0719283333333","6500200","三重區"
"241023","066-VK","2019/07/16 20:59:05","新北市三重區洛陽街45巷11號","121.482358333333","25.063755","6500200","三重區"
"241002","090-VK","2019/07/16 20:59:16","新北市三重區五華街1巷4號","121.495748333333","25.0797233333333","6500200","三重區"
"241003","091-VK","2019/07/16 20:59:13","新北市三重區五華街141巷58號","121.493538333333","25.0867133333333","6500200","三重區"
"241030","742-BX","2019/07/16 20:59:12","新北市三重區中正南路252巷5號","121.493533333333","25.0524533333333","6500200","三重區"
"241016","266-UM","2019/07/16 20:59:22","新北市三重區正義北路113號","121.496903333333","25.0657","6500200","三重區"
"241009","267-UM","2019/07/16 20:59:20","新北市三重區車路頭街135號","121.483998333333","25.0760233333333","6500200","三重區"
"241018","268-UM","2019/07/16 20:59:10","新北市三重區雙園街87號","121.494026666667","25.0674116666667","6500200","三重區"
"241032","269-UM","2019/07/16 20:59:09","新北市三重區興華街133號","121.483136666667","25.0600716666667","6500200","三重區"
"241013","270-UM","2019/07/16 20:59:22","新北市三重區仁賢街12-1號","121.495763333333","25.074805","6500200","三重區"
"241025","271-UM","2019/07/16 20:59:17","新北市三重區貴陽街14號","121.484213333333","25.0618766666667","6500200","三重區"
"241007","398-BY","2019/07/16 20:59:20","新北市三重區慈愛街5號","121.484936666667","25.0784416666667","6500200","三重區"
"241004","475-VK","2019/07/16 20:59:16","新北市三重區仁愛街420號","121.49038","25.08142","6500200","三重區"
"241020","478-VK","2019/07/16 20:59:25","新北市三重區忠孝路二段51號","121.485693333333","25.07104","6500200","三重區"
"241026","480-VK","2019/07/16 20:59:06","新北市三重區文化南路32號","121.500355","25.0614683333333","6500200","三重區"
"241014","543-UM","2019/07/16 20:59:20","新北市三重區長榮路75號","121.502608333333","25.0691583333333","6500200","三重區"
"241001","547-UM","2019/07/16 20:59:24","新北市三重區自強路三段103號","121.487973333333","25.0755866666667","6500200","三重區"
"241019","KEA-2593","2019/07/16 20:59:09","新北市三重區自強路二段74巷13號","121.488163333333","25.0698766666667","6500200","三重區"
"241006","AAD-863","2019/07/16 20:59:04","新北市三重區永福街58巷3弄20號","121.480611666667","25.0772966666667","6500200","三重區"
"241022","KED-0820","2019/07/16 20:59:12","新北市三重區中正北路20巷12號","121.487973333333","25.0624916666667","6500200","三重區"
"241005","887-TS","2019/07/16 20:59:10","新北市三重區三信路182號","121.488018333333","25.0861566666667","6500200","三重區"
"241012","941-UM","2019/07/16 20:59:12","新北市三重區龍門路274巷45號","121.501216666667","25.0755416666667","6500200","三重區"
"241033","AAC-255","2019/07/16 20:59:17","新北市三重區光復路二段2號","121.472045","25.0534033333333","6500200","三重區"
"235055","183-VK","2019/07/16 20:59:09","新北市板橋區文化路二段652號","121.478451666667","25.0378466666667","6500300","中和區"
"247014","KEA-2869","2019/07/16 20:59:22","新北市蘆洲區中山二路36巷22號","121.474408333333","25.08295","6501400","蘆洲區"
"247008","KED-0682","2019/07/16 20:59:23","新北市蘆洲區民生街76號","121.472858333333","25.079025","6501400","蘆洲區"
"235069","4980-A6","2019/07/16 20:59:09","新北市中和區連城路469巷70弄8號","121.483258333333","24.9936766666667","6500300","中和區"
"235018","640-BX","2019/07/16 20:58:36","新北市中和區員山路36巷16-2號","121.485308333333","24.9915266666667","6500300","中和區"
"247004","893-R6","2019/07/16 20:59:09","新北市蘆洲區永安南路二段264號","121.459391666667","25.0803666666667","6501400","蘆洲區"
"247018","546-UM","2019/07/16 20:59:16","新北市蘆洲區民權路99號","121.472715","25.0890966666667","6501400","蘆洲區"
"247024","337-TH","2019/07/16 20:59:23","新北市蘆洲區光明路20號","121.461255","25.0864666666667","6501400","蘆洲區"
"247002","336-TH","2019/07/16 20:59:07","新北市蘆洲區永樂街38巷12號","121.458271666667","25.0889733333333","6501400","蘆洲區"
"247022","057-VK","2019/07/16 20:59:15","新北市蘆洲區中正路263巷2號","121.46728","25.0874916666667","6501400","蘆洲區"
"247012","056-VK","2019/07/16 20:59:18","新北市蘆洲區民權路5號","121.476495","25.0857383333333","6501400","蘆洲區"
"247016","053-VK","2019/07/16 20:59:09","新北市蘆洲區正和街61號","121.468826666667","25.081155","6501400","蘆洲區"
"247020","007-UY","2019/07/16 20:59:08","新北市蘆洲區民族路371號","121.471116666667","25.0912816666667","6501400","蘆洲區"
"247006","002-UY","2019/07/16 20:59:15","新北市蘆洲區永安南路二段16巷8號","121.467761666667","25.07721","6501400","蘆洲區"
"251005","010-UM","2019/07/16 20:59:09","新北市淡水區學府路51巷2弄7號","121.447765","25.1697733333333","6501000","淡水區"
"251001","011-UM","2019/07/16 20:59:16","新北市淡水區新市一路三段104號","121.446433333333","25.1828516666667","6501000","淡水區"
"251015","KEA-2871","2019/07/16 20:59:11","新北市淡水區淡金路四段542巷17號","121.452843333333","25.2270616666667","6501000","淡水區"
"251016","179-VK","2019/07/16 20:59:03","新北市淡水區牛埔子11-1號","121.450186666667","25.2184566666667","6501000","淡水區"
"251007","180-VK","2019/07/16 20:59:13","新北市淡水區仁愛街2巷25號","121.446451666667","25.1710166666667","6501000","淡水區"
"251013","182-VK","2019/07/16 20:59:11","新北市淡水區番子厝13號","121.461381666667","25.2014083333333","6501000","淡水區"
"251010","413-VK","2019/07/16 20:59:20","新北市淡水區淡海路22號","121.423953333333","25.1787216666667","6501000","淡水區"
"251012","443-VK","2019/07/16 20:59:13","新北市淡水區淡金路五段116號","121.456556666667","25.2367833333333","6501000","淡水區"
"251014","577-R6","2019/07/16 20:59:09","新北市淡水區溪口16號","121.455751666667","25.2365033333333","6501000","淡水區"
"251011","650-BX","2019/07/16 20:59:21","新北市淡水區新民街322巷2號","121.435293333333","25.183535","6501000","淡水區"
"251002","672-BX","2019/07/16 20:59:16","新北市淡水區英專路77號","121.445696666667","25.1712816666667","6501000","淡水區"
"251003","673-BX","2019/07/16 20:59:13","新北市淡水區新春街148-1號","121.442461666667","25.1812133333333","6501000","淡水區"
"247010","KED-0683","2019/07/16 20:59:14","新北市蘆洲區鷺江街93號","121.476801666667","25.083795","6501400","蘆洲區"
"242034","176-VK","2019/07/16 20:59:23","新北市新莊區中正路268號","121.447555","25.0350833333333","6500500","新莊區"
"242054","348-TH","2019/07/16 20:59:10","新北市新莊區西盛街325號","121.42821","25.0146833333333","6500500","新莊區"
"221008","489-VK","2019/07/16 20:59:09","新北市汐止區康寧街901號","121.651396666667","25.07501","6501100","汐止區"
"220081","287-VK","2019/07/16 20:59:21","新北市樹林區中山路三段206號","121.383858333333","24.9669683333333","6500100","板橋區"
