"lineid","car","time","location","longitude","latitude","cityid","cityname"
"231061","002-UM","2019/07/16 21:09:10","新北市新店區永平街49號","121.516091666667","24.9839833333333","6500600","新店區"
"231060","106-UY","2019/07/16 21:09:24","新北市新店區安康路三段27號","121.493223333333","24.9532166666667","6500600","新店區"
"231051","107-UY","2019/07/16 21:09:23","新北市新店區中正路680巷51弄11號","121.53516","24.9894083333333","6500600","新店區"
"231065","110-UY","2019/07/16 21:09:12","新北市新店區安祥路69巷89弄35號","121.482558333333","24.9611516666667","6500600","新店區"
"231068","187-VK","2019/07/16 21:09:08","新北市新店區安平路53-2號","121.52053","24.966395","6500600","新店區"
"231050","KEA-2219","2019/07/16 21:09:08","新北市新店區中華路83巷4弄10號","121.538575","24.9684716666667","6500600","新店區"
"221035","KEA-2785","2019/07/16 21:09:08","新北市汐止區汐萬路一段256巷3號","121.653356666667","25.0747033333333","6501100","汐止區"
"231062","256-BX","2019/07/16 21:09:05","新北市新店區雙城路4巷1號","121.491361666667","24.9507933333333","6500600","新店區"
"231054","260-TV","2019/07/16 21:09:24","新北市新店區大新街9巷28號","121.544491666667","24.9668416666667","6500600","新店區"
"231042","268-BY","2019/07/16 21:09:20","新北市新店區安興路20號","121.514981666667","24.9658666666667","6500600","新店區"
"231064","278-BY","2019/07/16 21:09:10","新北市新店區薏仁坑路自強巷1號","121.497675","24.9578983333333","6500600","新店區"
"231063","641-BX","2019/07/16 21:09:13","新北市新店區玫瑰路66巷1號","121.495856666667","24.94518","6500600","新店區"
"231059","897-TW","2019/07/16 21:09:19","新北市新店區僑信路45號","121.499338333333","24.9499483333333","6500600","新店區"
"231040","898-TW","2019/07/16 21:09:11","新北市新店區北新路一段217號","121.540553333333","24.9651933333333","6500600","新店區"
"241011","013-R5","2019/07/16 21:09:20","新北市三重區秀江街53號","121.501036666667","25.072645","6500200","三重區"
"241028","022-UY","2019/07/16 21:09:14","新北市三重區正義南路60-1號","121.498386666667","25.060575","6500200","三重區"
"241008","059-VK","2019/07/16 21:09:22","新北市三重區自強路一段34號","121.497931666667","25.067265","6500200","三重區"
"241029","060-VK","2019/07/16 21:09:15","新北市三重區正義南路111號","121.498211666667","25.0585116666667","6500200","三重區"
"241031","061-VK","2019/07/16 21:09:11","新北市三重區重新路五段318號","121.478288333333","25.0487183333333","6500200","三重區"
"241015","062-VK","2019/07/16 21:09:12","新北市三重區福德北路89號","121.501831666667","25.06606","6500200","三重區"
"241017","063-VK","2019/07/16 21:09:07","新北市三重區國隆路28號","121.4923","25.0642866666667","6500200","三重區"
"241024","065-VK","2019/07/16 21:09:15","新北市三重區大勇街49號","121.4814","25.071905","6500200","三重區"
"241023","066-VK","2019/07/16 21:09:25","新北市三重區洛陽街45巷15號","121.482381666667","25.06377","6500200","三重區"
"241002","090-VK","2019/07/16 21:09:16","新北市三重區五華街16號","121.494905","25.0802983333333","6500200","三重區"
"241003","091-VK","2019/07/16 21:09:13","新北市三重區仁義街224號","121.494946666667","25.0846766666667","6500200","三重區"
"241030","742-BX","2019/07/16 21:09:12","新北市三重區五谷王北街20巷15弄1號","121.474996666667","25.0484733333333","6500200","三重區"
"241016","266-UM","2019/07/16 21:09:22","新北市三重區信義西街138號","121.49565","25.06423","6500200","三重區"
"241009","267-UM","2019/07/16 21:09:20","新北市三重區忠孝路二段124號","121.483056666667","25.0689083333333","6500200","三重區"
"241018","268-UM","2019/07/16 21:09:10","新北市三重區正義北路340號","121.494301666667","25.0707416666667","6500200","三重區"
"241032","269-UM","2019/07/16 21:09:09","新北市三重區中興北街136巷15號","121.468538333333","25.0560383333333","6500200","三重區"
"241013","270-UM","2019/07/16 21:09:22","新北市三重區仁愛街125巷14號","121.496715","25.0756366666667","6500200","三重區"
"241025","271-UM","2019/07/16 21:09:17","新北市三重區中正北路208巷8號","121.482321666667","25.0669716666667","6500200","三重區"
"241007","398-BY","2019/07/16 21:09:20","新北市三重區三和路四段145巷85號","121.48643","25.07875","6500200","三重區"
"241004","475-VK","2019/07/16 21:09:16","新北市三重區仁愛街423-1號","121.490363333333","25.08146","6500200","三重區"
"241026","480-VK","2019/07/16 21:09:26","新北市三重區文化南路46號","121.50034","25.0600283333333","6500200","三重區"
"241014","543-UM","2019/07/16 21:09:21","新北市三重區長安街82-1號","121.501378333333","25.0677033333333","6500200","三重區"
"241001","547-UM","2019/07/16 21:09:04","新北市三重區福隆路44號","121.492391666667","25.078375","6500200","三重區"
"241019","KEA-2593","2019/07/16 21:09:08","新北市三重區自強路二段74巷13號","121.488133333333","25.0698666666667","6500200","三重區"
"241006","AAD-863","2019/07/16 21:09:24","新北市三重區中正北路2號","121.489391666667","25.0631483333333","6500200","三重區"
"241022","KED-0820","2019/07/16 21:09:12","新北市三重區中正北路64巷20號","121.486208333333","25.063725","6500200","三重區"
"241005","887-TS","2019/07/16 21:09:10","新北市三重區三信路186號","121.487921666667","25.086005","6500200","三重區"
"241012","941-UM","2019/07/16 21:09:12","新北市三重區龍門路274巷45號","121.50117","25.0755666666667","6500200","三重區"
"241033","AAC-255","2019/07/16 21:09:17","新北市三重區中興北街283號","121.469165","25.0619833333333","6500200","三重區"
"235055","183-VK","2019/07/16 21:09:09","新北市中和區員山路36巷16-3號","121.484576666667","24.991295","6500300","中和區"
"247014","KEA-2869","2019/07/16 21:09:22","新北市蘆洲區中央路155號","121.472671666667","25.0846516666667","6501400","蘆洲區"
"247008","KED-0682","2019/07/16 21:09:24","新北市蘆洲區民生街24號","121.475013333333","25.0789133333333","6501400","蘆洲區"
"235018","640-BX","2019/07/16 20:58:36","新北市中和區員山路36巷16-2號","121.485308333333","24.9915266666667","6500300","中和區"
"247004","893-R6","2019/07/16 21:09:09","新北市蘆洲區永安南路二段286號","121.457625","25.0812533333333","6501400","蘆洲區"
"247018","546-UM","2019/07/16 21:09:16","新北市蘆洲區民族路408巷14號","121.47498","25.0921133333333","6501400","蘆洲區"
"247024","337-TH","2019/07/16 21:09:23","新北市蘆洲區長興路50巷1號","121.46373","25.0839416666667","6501400","蘆洲區"
"247002","336-TH","2019/07/16 21:09:07","新北市蘆洲區永樂街38巷40號","121.458601666667","25.0900183333333","6501400","蘆洲區"
"247022","057-VK","2019/07/16 21:09:15","新北市蘆洲區三民路229號","121.469435","25.088525","6501400","蘆洲區"
"247012","056-VK","2019/07/16 21:09:18","新北市蘆洲區三民路95號","121.474088333333","25.084925","6501400","蘆洲區"
"247016","053-VK","2019/07/16 21:09:09","新北市蘆洲區中正路185巷76號","121.466301666667","25.08431","6501400","蘆洲區"
"247020","007-UY","2019/07/16 21:09:08","新北市蘆洲區民族路371號","121.471115","25.0912933333333","6501400","蘆洲區"
"247006","002-UY","2019/07/16 21:09:15","新北市蘆洲區九芎街10號","121.467556666667","25.0786966666667","6501400","蘆洲區"
"251004","009-UM","2019/07/16 21:09:07","新北市淡水區民族路33號","121.46232","25.13583","6501000","淡水區"
"251005","010-UM","2019/07/16 21:09:09","新北市淡水區英專路2巷24號","121.446523333333","25.1691783333333","6501000","淡水區"
"251001","011-UM","2019/07/16 21:09:16","新北市淡水區中山北路一段382號","121.444798333333","25.1829016666667","6501000","淡水區"
"251015","KEA-2871","2019/07/16 21:09:11","新北市淡水區淡金路四段542巷52-2號","121.455668333333","25.2259383333333","6501000","淡水區"
"251016","179-VK","2019/07/16 21:09:23","新北市淡水區前洲子6-1號","121.442473333333","25.21901","6501000","淡水區"
"251008","181-VK","2019/07/16 21:09:05","新北市淡水區崁頂51-1號","121.441781666667","25.1976266666667","6501000","淡水區"
"251013","182-VK","2019/07/16 21:09:11","新北市淡水區水汴頭12號","121.46974","25.2033983333333","6501000","淡水區"
"251010","413-VK","2019/07/16 21:09:20","新北市淡水區中正路一段63巷7弄1號","121.423225","25.1773316666667","6501000","淡水區"
"251012","443-VK","2019/07/16 21:09:13","新北市淡水區淡金路五段172號","121.45703","25.2400533333333","6501000","淡水區"
"251009","575-R6","2019/07/16 21:09:14","新北市淡水區民權路187巷74弄9號","121.462081666667","25.134375","6501000","淡水區"
"251014","577-R6","2019/07/16 21:09:09","新北市淡水區六塊厝1-2號","121.450521666667","25.242635","6501000","淡水區"
"251011","650-BX","2019/07/16 21:09:21","新北市淡水區新民街120巷45弄24號","121.437866666667","25.1796933333333","6501000","淡水區"
"251002","672-BX","2019/07/16 21:09:16","新北市淡水區水源街一段152號","121.448255","25.1714883333333","6501000","淡水區"
"251003","673-BX","2019/07/16 21:09:13","新北市淡水區新春街132-4號","121.441281666667","25.1817733333333","6501000","淡水區"
"247010","KED-0683","2019/07/16 21:09:14","新北市蘆洲區鷺江街46號","121.477231666667","25.083135","6501400","蘆洲區"
"242054","348-TH","2019/07/16 21:09:12","新北市新莊區民安西路214號","121.42597","25.01485","6500500","新莊區"
"221008","489-VK","2019/07/16 21:03:14","新北市汐止區康寧街901號","121.65138","25.0750383333333","6501100","汐止區"
