"lineid","car","time","location","longitude","latitude","cityid","cityname"
"251004","009-UM","2019/07/16 22:09:07","新北市淡水區民族路33號","121.462311666667","25.13574","6501000","淡水區"
"251005","010-UM","2019/07/16 22:09:09","新北市淡水區鄧公路19號","121.451475","25.1699883333333","6501000","淡水區"
"251007","180-VK","2019/07/16 22:09:13","新北市淡水區北新路180號","121.449425","25.1787366666667","6501000","淡水區"
"251008","181-VK","2019/07/16 22:09:05","新北市淡水區學府路104號","121.449865","25.1718933333333","6501000","淡水區"
"251010","413-VK","2019/07/16 22:09:20","新北市淡水區沙崙路200號","121.42468","25.1838733333333","6501000","淡水區"
"251006","561-UM","2019/07/16 22:09:17","新北市淡水區重建街永興巷11號","121.439248333333","25.1726816666667","6501000","淡水區"
"251011","650-BX","2019/07/16 22:09:21","新北市淡水區水碓街7號","121.44315","25.1771116666667","6501000","淡水區"
