"lineid","car","time","location","longitude","latitude","cityid","cityname"
"222007","289-BY","2019/08/03 09:29:23","新北市深坑區阿柔洋35-1號","121.613296666667","24.9975966666667","6501800","深坑區"
"231008","192-VK","2019/08/03 09:29:10","新北市新店區平廣路一段221-1號","121.511305","24.8891266666667","6500600","新店區"
"223005","KEA-2673","2019/08/03 09:29:16","新北市石碇區碇坪路二段41號","121.686485","24.9751633333333","6501900","石碇區"
"223003","205-TH","2019/08/03 09:29:26","新北市石碇區北宜路五段12號","121.62958","24.9538083333333","6501900","石碇區"
"223008","406-TH","2019/08/03 09:29:24","新北市石碇區光明路耳空龜巷12-2號","121.69233","25.034365","6501900","石碇區"
"223001","592-UM","2019/08/03 09:29:16","新北市石碇區北宜路五段12號","121.629496666667","24.9538966666667","6501900","石碇區"
"223004","660-BX","2019/08/03 09:29:29","新北市石碇區碇坪路二段35號","121.684805","24.9767116666667","6501900","石碇區"
"223007","661-BX","2019/08/03 09:29:19","新北市石碇區光明路32號","121.695133333333","25.0225416666667","6501900","石碇區"
"227004","282-VK","2019/08/03 09:29:26","新北市雙溪區長源里赤皮崙4號","121.796753333333","25.0176383333333","6502500","雙溪區"
"252007","178-VK","2019/08/03 09:29:21","新北市三芝區新庄里新庄子92-1號","121.510998333333","25.2693333333333","6502100","三芝區"
"252004","249-BX","2019/08/03 09:29:17","新北市三芝區圓山里石曹子坑36-1號","121.509185","25.212705","6502100","三芝區"
"237012","756-BX","2019/08/03 09:16:48","新北市三峽區中山路459巷135號","121.348875","24.9330483333333","6500900","三峽區"
"233003","KEA-2870","2019/08/03 09:29:22","新北市烏來區卡拉模基26號","121.502958333333","24.78013","6502900","烏來區"
