"lineid","car","time","location","longitude","latitude","cityid","cityname"
"234044","148-BY","2019/08/03 13:19:29","新北市永和區得和路326號","121.523283333333","24.999565","6500400","永和區"
"234078","298-R6","2019/08/03 13:19:26","新北市永和區福和路38號","121.523836666667","25.0082566666667","6500400","永和區"
"234036","336-UY","2019/08/03 13:19:31","新北市永和區民樂街55巷2號","121.527506666667","24.9984883333333","6500400","永和區"
"234062","337-UY","2019/08/03 13:19:30","新北市永和區永元路17巷9號","121.521228333333","25.0006883333333","6500400","永和區"
"234084","338-UY","2019/08/03 13:19:19","新北市永和區永利路69號","121.519693333333","25.0047716666667","6500400","永和區"
"234068","552-UM","2019/08/03 13:19:29","新北市永和區豫溪街43號","121.516893333333","25.0099483333333","6500400","永和區"
"234015","745-BX","2019/08/03 13:19:21","新北市永和區文化路144巷31弄14號","121.512185","25.01692","6500400","永和區"
"234028","746-BX","2019/08/03 13:19:32","新北市永和區厚德街93號","121.52372","24.99878","6500400","永和區"
"234052","KEA-2590","2019/08/03 13:19:21","新北市永和區中興街45號","121.516451666667","25.0118116666667","6500400","永和區"
"234005","KED-0605","2019/08/03 13:19:21","新北市中和區中山路二段67號","121.504001666667","25.0044916666667","6500400","永和區"
"234012","KEA-2591","2019/08/03 13:19:29","新北市永和區信義路23號","121.513955","25.0122666666667","6500400","永和區"
"234060","AAD-866","2019/08/03 13:19:31","新北市永和區中正路381號","121.517165","25.0037583333333","6500400","永和區"
"234040","862-TW","2019/08/03 13:19:28","新北市永和區保平路203巷37號","121.50954","25.004415","6500400","永和區"
"234048","863-TW","2019/08/03 13:19:22","新北市永和區仁愛路102號","121.512096666667","25.013205","6500400","永和區"
"234025","9371-KE","2019/08/03 13:19:22","新北市永和區豫溪街28巷17號","121.515091666667","25.00907","6500400","永和區"
"234010","9373-KE","2019/08/03 13:19:24","新北市永和區文化路90巷32弄9號","121.51346","25.0167683333333","6500400","永和區"
"248017","KED-0813","2019/08/03 13:19:20","新北市五股區御史路120號","121.437535","25.0962933333333","6501500","五股區"
"234022","9380-KE","2019/08/03 13:19:19","新北市永和區竹林路89號","121.519651666667","25.01211","6500400","永和區"
"234076","969-R7","2019/08/03 13:19:33","新北市永和區民有街26號","121.516671666667","24.9964016666667","6500400","永和區"
"234072","AAC-211","2019/08/03 13:19:28","新北市永和區竹林路35號","121.517685","25.0143883333333","6500400","永和區"
"234066","AAC-212","2019/08/03 13:19:16","新北市永和區保平路50巷22弄2號","121.510693333333","25.0080366666667","6500400","永和區"
"234001","AAC-295","2019/08/03 13:19:15","新北市永和區中山路一段91巷1號","121.511735","25.0106816666667","6500400","永和區"
"244005","248-BX","2019/08/03 13:19:12","新北市林口區南勢里90-3號","121.345848333333","25.0773383333333","6501700","林口區"
"231028","001-UM","2019/08/03 13:19:14","新北市新店區安華路28-1號","121.51947","24.96096","6500600","新店區"
"231030","002-UM","2019/08/03 13:19:20","新北市新店區安華路28-1號","121.519701666667","24.960835","6500600","新店區"
"231005","046-UY","2019/08/03 13:19:29","新北市新店區安華路28-1號","121.519241666667","24.9608633333333","6500600","新店區"
"231029","106-UY","2019/08/03 13:19:16","新北市新店區安華路28-1號","121.519675","24.9608066666667","6500600","新店區"
"231018","107-UY","2019/08/03 13:19:17","新北市新店區環河路29巷1號","121.536946666667","24.961355","6500600","新店區"
"231036","110-UY","2019/08/03 13:19:29","新北市新店區建業路20號","121.482653333333","24.952955","6500600","新店區"
"231017","KEA-2219","2019/08/03 13:19:24","新北市新店區安華路28-1號","121.519968333333","24.961075","6500600","新店區"
"231033","256-BX","2019/08/03 13:19:16","新北市新店區安華路3號","121.519321666667","24.9597483333333","6500600","新店區"
"231023","260-TV","2019/08/03 13:19:27","新北市新店區安一路一段1-1號","121.519325","24.9612466666667","6500600","新店區"
"231003","268-BY","2019/08/03 13:19:32","新北市新店區北新路一段126巷25號","121.54338","24.9698716666667","6500600","新店區"
"231006","355-BY","2019/08/03 13:19:33","新北市新店區安一路一段1-1號","121.519055","24.9609633333333","6500600","新店區"
"231027","3713-VJ","2019/08/03 13:19:15","新北市新店區安康路一段35-1號","121.532123333333","24.9606116666667","6500600","新店區"
"231024","4716-K9","2019/08/03 13:19:14","新北市新店區安康路一段116號","121.52718","24.9626516666667","6500600","新店區"
"231025","4715-K9","2019/08/03 13:19:18","新北市新店區力行路15號","121.537053333333","24.9652716666667","6500600","新店區"
"231020","513-UM","2019/08/03 13:19:27","新北市新店區安一路一段1-1號","121.519758333333","24.9616216666667","6500600","新店區"
"231001","617-UM","2019/08/03 13:19:18","新北市新店區安華路28-1號","121.51927","24.9609233333333","6500600","新店區"
"231002","619-UM","2019/08/03 13:19:24","新北市新店區安華路28-1號","121.519583333333","24.9609833333333","6500600","新店區"
"231034","641-BX","2019/08/03 13:19:31","新北市新店區安華路1-1號","121.519525","24.9605016666667","6500600","新店區"
"231012","718-UY","2019/08/03 13:19:21","新北市新店區安康路一段202號","121.524298333333","24.9634466666667","6500600","新店區"
"231010","719-UM","2019/08/03 13:19:19","新北市新店區安康路一段107-2號","121.528825","24.96161","6500600","新店區"
"231026","720-UM","2019/08/03 13:19:26","新北市新店區安一路一段1-1號","121.519306666667","24.9613516666667","6500600","新店區"
"231004","899-TW","2019/08/03 13:19:26","新北市新店區安華路28-1號","121.519306666667","24.9609066666667","6500600","新店區"
"231037","AKT-0513","2019/08/03 13:19:20","新北市新店區安華路28-1號","121.51957","24.9606733333333","6500600","新店區"
"235030","003-UY","2019/08/03 13:19:15","新北市中和區中山路二段110號","121.502906666667","25.0039316666667","6500300","中和區"
"235027","006-UY","2019/08/03 13:19:32","新北市中和區中正路589巷15號","121.4857","24.9936216666667","6500300","中和區"
"235003","097-UM","2019/08/03 13:19:32","新北市中和區安平路38號","121.51001","24.99506","6500300","中和區"
"235029","098-UM","2019/08/03 13:19:28","新北市中和區莊敬路49巷20弄22號","121.502768333333","25.0058283333333","6500300","中和區"
"235004","150-BY","2019/08/03 13:19:13","新北市中和區安平路30號","121.509503333333","24.9946783333333","6500300","中和區"
"235022","151-BY","2019/08/03 13:19:34","新北市中和區圓通路367巷21-1號","121.492525","24.986445","6500300","中和區"
"235019","183-VK","2019/08/03 13:19:21","新北市土城區延壽路117號","121.469053333333","24.994315","6500300","中和區"
"235002","185-VK","2019/08/03 13:19:29","新北市中和區大智街32號","121.521558333333","24.9920333333333","6500300","中和區"
"235013","186-VK","2019/08/03 13:19:30","新北市中和區中正路271號","121.495886666667","24.993645","6500300","中和區"
"235031","255-BX","2019/08/03 13:19:24","新北市中和區新生街284號","121.483666666667","24.996675","6500300","中和區"
"235036","301-VK","2019/08/03 13:19:29","新北市中和區連城路265巷6弄2號","121.49144","24.9959866666667","6500300","中和區"
"235007","352-BY","2019/08/03 13:19:27","新北市中和區景平路381號","121.503755","24.9934133333333","6500300","中和區"
"235006","KEA-2878","2019/08/03 13:19:22","新北市中和區大勇街23號","121.517038333333","24.99288","6500300","中和區"
"235033","4980-A6","2019/08/03 13:19:14","新北市中和區錦和路350-1號","121.490568333333","24.9934983333333","6500300","中和區"
"235034","558-UM","2019/08/03 13:19:30","新北市中和區景平路590號","121.50108","24.996045","6500300","中和區"
"235009","565-BX","2019/08/03 13:19:23","新北市中和區景安路198號","121.504281666667","24.9914166666667","6500300","中和區"
"235024","KED-0823","2019/08/03 13:19:22","新北市中和區員山路425號","121.480925","25.0034516666667","6500300","中和區"
"235018","640-BX","2019/08/03 13:19:15","新北市中和區民享街105號","121.474833333333","24.9996783333333","6500300","中和區"
"235011","732-UM","2019/08/03 13:19:27","新北市中和區中正路271-1號","121.49577","24.9936416666667","6500300","中和區"
"235010","733-UM","2019/08/03 13:19:16","新北市中和區員山路36巷16-3號","121.484598333333","24.9913","6500300","中和區"
"235035","783-BX","2019/08/03 13:19:15","新北市中和區中板路18巷3弄13號","121.483663333333","25.0129683333333","6500300","中和區"
"235073","800-TS","2019/08/03 13:19:19","新北市中和區景平路756號","121.496413333333","25.0047533333333","6500300","中和區"
"235021","801-TS","2019/08/03 13:19:30","新北市中和區民享街97巷21號","121.47536","24.9995316666667","6500300","中和區"
"235012","896-TW","2019/08/03 13:19:17","新北市中和區員山路36巷16-2號","121.48525","24.991595","6500300","中和區"
"235017","900-TW","2019/08/03 13:19:18","新北市中和區員山路36巷16-2號","121.48529","24.9914983333333","6500300","中和區"
"235028","911-UM","2019/08/03 13:19:29","新北市中和區連城路139巷67號","121.497021666667","24.99707","6500300","中和區"
"235015","157-BY","2019/08/03 13:19:31","新北市中和區信義街76號","121.511595","24.9880433333333","6500300","中和區"
"235001","AAC-213","2019/08/03 13:19:30","新北市中和區景德街89巷1號","121.516301666667","24.99136","6500300","中和區"
"235023","AAC-215","2019/08/03 13:19:29","新北市中和區員山路36巷16-3號","121.485091666667","24.9915016666667","6500300","中和區"
"247024","337-TH","2019/08/03 13:19:17","新北市五股區中興路三段163號","121.44904","25.0808666666667","6501400","蘆洲區"
"247011","056-VK","2019/08/03 13:19:30","新北市五股區中興路三段2巷10號","121.449188333333","25.0810633333333","6501400","蘆洲區"
"247005","002-UY","2019/08/03 13:19:18","新北市五股區中興路三段163號","121.449183333333","25.0808133333333","6501400","蘆洲區"
"235005","251-BX","2019/08/03 13:19:17","新北市中和區中和路298號","121.508716666667","24.9997366666667","6500300","中和區"
"228005","097-TW","2019/08/03 13:19:20","新北市貢寮區美豐里丹裡街18-2號","121.912608333333","25.0572433333333","6502600","貢寮區"
"228004","212-TW","2019/08/03 13:19:27","新北市貢寮區吉林里內寮街23號","121.901831666667","24.9842233333333","6502600","貢寮區"
"253003","6232-TK","2019/08/03 13:19:19","新北市石門區石崩山20-8號","121.566341666667","25.2753633333333","6502200","石門區"
"253004","6251-TK","2019/08/03 13:19:26","新北市石門區阿里荖69號","121.611243333333","25.2713016666667","6502200","石門區"
"253002","637-UY","2019/08/03 13:19:14","新北市石門區大溪墘9-7號","121.552651666667","25.2750416666667","6502200","石門區"
"253001","KEC-0718","2019/08/03 13:19:31","新北市石門區下員坑38-1號","121.52027","25.28292","6502200","石門區"
"207002","291-VK","2019/08/03 13:19:14","新北市萬里區崁腳里內崁路2-3號","121.638585","25.16065","6502800","萬里區"
"252005","073-UM","2019/08/03 13:19:22","新北市三芝區八賢里八連溪82號","121.519808333333","25.2294883333333","6502100","三芝區"
"207001","662-BX","2019/08/03 13:19:23","新北市萬里區龜吼里玉田路55-1號","121.68082","25.19336","6502800","萬里區"
"221029","298-VK","2019/08/03 13:19:25","新北市汐止區南陽街117號","121.624138333333","25.0608883333333","6501100","汐止區"
"220027","145-BY","2019/08/03 13:19:24","新北市板橋區華東街1-10號","121.448345","24.995015","6500100","板橋區"
"235032","KEA-2873","2019/08/03 13:19:08","新北市中和區中正路637巷60弄61號","121.485503333333","24.9927783333333","6500300","中和區"
"235025","KEA-2875","2019/08/03 13:19:20","新北市中和區民享街97巷11號","121.475213333333","24.9995283333333","6500300","中和區"
