"lineid","car","time","location","longitude","latitude","cityid","cityname"
"234044","148-BY","2019/08/03 13:39:29","新北市永和區永利路141號","121.524191666667","25.0035566666667","6500400","永和區"
"234078","298-R6","2019/08/03 13:39:21","新北市永和區國中路104巷8弄2號","121.524773333333","25.0068266666667","6500400","永和區"
"234036","336-UY","2019/08/03 13:39:31","新北市永和區民樂街31巷4號","121.527838333333","25.0014716666667","6500400","永和區"
"234062","337-UY","2019/08/03 13:39:30","新北市永和區秀朗路一段192巷6弄14號","121.519183333333","25.0022983333333","6500400","永和區"
"234084","338-UY","2019/08/03 13:39:19","新北市永和區永亨路133號","121.524923333333","25.00399","6500400","永和區"
"234068","552-UM","2019/08/03 13:39:29","新北市永和區永和路二段235號","121.515541666667","25.0143366666667","6500400","永和區"
"234015","745-BX","2019/08/03 13:39:21","新北市永和區文化路90巷32弄7號","121.513435","25.0169433333333","6500400","永和區"
"234028","746-BX","2019/08/03 13:39:31","新北市永和區民權路55號","121.51995","24.9967716666667","6500400","永和區"
"234052","KEA-2590","2019/08/03 13:39:26","新北市永和區竹林路39巷14號","121.518451666667","25.0146033333333","6500400","永和區"
"234005","KED-0605","2019/08/03 13:39:21","新北市永和區永和路一段118號","121.513913333333","25.0078466666667","6500400","永和區"
"234012","KEA-2591","2019/08/03 13:39:29","新北市永和區永平路256號","121.508331666667","25.0113166666667","6500400","永和區"
"234060","AAD-866","2019/08/03 13:39:31","新北市永和區中正路446號","121.517501666667","25.0028066666667","6500400","永和區"
"234040","862-TW","2019/08/03 13:39:27","新北市中和區中和路262號","121.508301666667","24.99958","6500400","永和區"
"234048","863-TW","2019/08/03 13:39:22","新北市永和區環河西路一段105號","121.51109","25.0175316666667","6500400","永和區"
"234025","9371-KE","2019/08/03 13:39:22","新北市永和區和平街95巷4弄8號","121.510935","25.0097266666667","6500400","永和區"
"234010","9373-KE","2019/08/03 13:39:24","新北市永和區永平路218巷23號","121.510041666667","25.0111383333333","6500400","永和區"
"248017","KED-0813","2019/08/03 13:39:20","新北市五股區民義路二段66-1號","121.406211666667","25.10832","6501500","五股區"
"234022","9380-KE","2019/08/03 13:39:19","新北市永和區中正路702巷20弄1號","121.51655","25.0106033333333","6500400","永和區"
"234076","969-R7","2019/08/03 13:39:33","新北市永和區得和路186號","121.519985","25.0000733333333","6500400","永和區"
"234072","AAC-211","2019/08/03 13:39:28","新北市永和區豫溪街160巷17號","121.523336666667","25.0091366666667","6500400","永和區"
"234066","AAC-212","2019/08/03 13:39:30","新北市永和區中山路一段199號","121.508998333333","25.00874","6500400","永和區"
"234001","AAC-295","2019/08/03 13:39:15","新北市永和區永和路一段122號","121.513878333333","25.0076716666667","6500400","永和區"
"244005","248-BX","2019/08/03 13:39:32","新北市林口區中山路1號","121.39678","25.0780266666667","6501700","林口區"
"231028","001-UM","2019/08/03 13:39:14","新北市新店區安康路一段355號","121.519918333333","24.9638333333333","6500600","新店區"
"231030","002-UM","2019/08/03 13:39:20","新北市新店區安康路一段355-1號","121.518988333333","24.9639116666667","6500600","新店區"
"231005","046-UY","2019/08/03 13:39:29","新北市新店區中興路三段6號","121.547366666667","24.97755","6500600","新店區"
"231029","106-UY","2019/08/03 13:39:16","新北市新店區安康路二段199號","121.509163333333","24.95904","6500600","新店區"
"231018","107-UY","2019/08/03 13:39:17","新北市新店區中正路356號","121.535706666667","24.9757466666667","6500600","新店區"
"231013","108-UY","2019/08/03 13:39:21","新北市新店區中正路454-5號","121.534493333333","24.9789833333333","6500600","新店區"
"231036","110-UY","2019/08/03 13:37:29","新北市新店區安祥路147巷55號","121.476031666667","24.955675","6500600","新店區"
"231017","KEA-2219","2019/08/03 13:39:24","新北市新店區竹林路2巷29弄1號","121.550011666667","24.9505416666667","6500600","新店區"
"231033","256-BX","2019/08/03 13:39:16","新北市新店區莒光路44巷21弄12-1號","121.521268333333","24.95573","6500600","新店區"
"231023","260-TV","2019/08/03 13:39:28","新北市新店區新店路159號","121.537101666667","24.955295","6500600","新店區"
"231003","268-BY","2019/08/03 13:39:32","新北市新店區中興路一段282號","121.545705","24.9685833333333","6500600","新店區"
"231035","278-BY","2019/08/03 13:39:30","新北市新店區安忠路56巷2號","121.512738333333","24.9592066666667","6500600","新店區"
"231006","355-BY","2019/08/03 13:39:33","新北市新店區北新路一段41號","121.538005","24.9592583333333","6500600","新店區"
"231038","3712-VJ","2019/08/03 13:39:14","新北市新店區安華路30巷1號","121.519658333333","24.9592766666667","6500600","新店區"
"231027","3713-VJ","2019/08/03 13:39:15","新北市新店區國校路76-1號","121.538583333333","24.9531066666667","6500600","新店區"
"231024","4716-K9","2019/08/03 13:39:14","新北市新店區華興街7號","121.537966666667","24.969775","6500600","新店區"
"231025","4715-K9","2019/08/03 13:39:18","新北市新店區中央五街38號","121.528556666667","24.9749416666667","6500600","新店區"
"231020","513-UM","2019/08/03 13:39:27","新北市新店區新烏路一段130號","121.544096666667","24.9338416666667","6500600","新店區"
"231001","617-UM","2019/08/03 13:39:19","新北市新店區中央路59號","121.532766666667","24.97734","6500600","新店區"
"231002","619-UM","2019/08/03 13:39:23","新北市新店區中央三街127號","121.524101666667","24.9768233333333","6500600","新店區"
"231034","641-BX","2019/08/03 13:39:31","新北市新店區車子路109號","121.505233333333","24.9520933333333","6500600","新店區"
"231012","718-UY","2019/08/03 13:39:24","新北市新店區德正街23巷2號","121.544215","24.9719516666667","6500600","新店區"
"231010","719-UM","2019/08/03 13:39:19","新北市新店區中正路293號","121.537118333333","24.9743566666667","6500600","新店區"
"231026","720-UM","2019/08/03 13:39:26","新北市新店區北宜路一段123號","121.540543333333","24.9535766666667","6500600","新店區"
"231004","899-TW","2019/08/03 13:39:33","新北市新店區北新路二段4號","121.542685","24.97097","6500600","新店區"
"231037","AKT-0513","2019/08/03 13:39:20","新北市新店區薏仁坑路45號","121.493273333333","24.9635083333333","6500600","新店區"
"235030","003-UY","2019/08/03 13:39:15","新北市中和區光華街48號","121.505081666667","25.003625","6500300","中和區"
"235027","006-UY","2019/08/03 13:39:16","新北市中和區連城路389巷8號","121.486445","24.995705","6500300","中和區"
"235020","096-UM","2019/08/03 13:39:32","新北市中和區新民街94巷18號","121.481436666667","25.0092183333333","6500300","中和區"
"235003","097-UM","2019/08/03 13:39:32","新北市中和區景平路278巷14弄1號","121.513878333333","24.99316","6500300","中和區"
"235029","098-UM","2019/08/03 13:39:28","新北市中和區莊敬路33巷48號","121.500503333333","25.007035","6500300","中和區"
"235004","150-BY","2019/08/03 13:39:33","新北市中和區安平路59號","121.509478333333","24.9952333333333","6500300","中和區"
"235022","151-BY","2019/08/03 13:39:14","新北市中和區圓通路369巷55弄10號","121.49104","24.9834","6500300","中和區"
"235019","183-VK","2019/08/03 13:39:21","新北市中和區德光路77巷1號","121.469571666667","25.00344","6500300","中和區"
"235002","185-VK","2019/08/03 13:39:29","新北市中和區立人街14巷4號","121.51947","24.9948966666667","6500300","中和區"
"235013","186-VK","2019/08/03 13:39:30","新北市中和區景安路134號","121.50495","24.9943183333333","6500300","中和區"
"235031","255-BX","2019/08/03 13:39:24","新北市中和區新生街186巷1弄28號","121.483345","24.9985","6500300","中和區"
"235008","293-VK","2019/08/03 13:39:25","新北市中和區復興路280巷3弄1號","121.502226666667","24.9907883333333","6500300","中和區"
"235036","301-VK","2019/08/03 13:39:29","新北市中和區連城路5號","121.49926","25.0023183333333","6500300","中和區"
"235007","352-BY","2019/08/03 13:39:27","新北市中和區景平路73-2號","121.518703333333","24.9916383333333","6500300","中和區"
"235006","KEA-2878","2019/08/03 13:39:22","新北市中和區秀朗路三段135巷7弄9號","121.525703333333","24.9919866666667","6500300","中和區"
"235014","4979-A6","2019/08/03 13:39:12","新北市中和區忠孝街113巷31號","121.51249","24.9878616666667","6500300","中和區"
"235033","4980-A6","2019/08/03 13:39:34","新北市中和區連城路99巷64號","121.497241666667","24.9983783333333","6500300","中和區"
"235034","558-UM","2019/08/03 13:39:30","新北市中和區圓通路54號","121.500665","24.99754","6500300","中和區"
"235009","565-BX","2019/08/03 13:39:23","新北市中和區南山路236巷11號","121.505731666667","24.98882","6500300","中和區"
"235024","KED-0823","2019/08/03 13:39:22","新北市中和區中山路三段210號","121.471475","25.0065133333333","6500300","中和區"
"235018","640-BX","2019/08/03 13:39:15","新北市中和區民享街62號","121.474133333333","25.0021683333333","6500300","中和區"
"235011","732-UM","2019/08/03 13:39:27","新北市中和區南山路320巷13號","121.507468333333","24.9863816666667","6500300","中和區"
"235010","733-UM","2019/08/03 13:39:16","新北市中和區忠孝街126-1號","121.512153333333","24.9862766666667","6500300","中和區"
"235035","783-BX","2019/08/03 13:39:15","新北市中和區立德街98巷109號","121.488788333333","25.0081166666667","6500300","中和區"
"235073","800-TS","2019/08/03 13:38:59","新北市中和區中山路二段296號","121.496035","25.0023716666667","6500300","中和區"
"235021","801-TS","2019/08/03 13:39:30","新北市中和區民安街27號","121.480395","25.0003783333333","6500300","中和區"
"235016","805-TS","2019/08/03 13:39:27","新北市中和區興南路三段52巷6號","121.493853333333","24.9761366666667","6500300","中和區"
"235012","896-TW","2019/08/03 13:39:17","新北市中和區中正路75號","121.500928333333","24.9934116666667","6500300","中和區"
"235017","900-TW","2019/08/03 13:39:18","新北市中和區華福街73號","121.467256666667","24.99654","6500300","中和區"
"235028","911-UM","2019/08/03 13:39:29","新北市中和區泰和街36號","121.499241666667","25.00021","6500300","中和區"
"235015","157-BY","2019/08/03 13:39:11","新北市中和區華新街143巷106弄39號","121.506958333333","24.97827","6500300","中和區"
"235001","AAC-213","2019/08/03 13:39:30","新北市中和區秀朗路三段175巷7號","121.525073333333","24.9915133333333","6500300","中和區"
"235023","AAC-215","2019/08/03 13:39:29","新北市中和區連城路339號","121.488425","24.9961366666667","6500300","中和區"
"220013","072-UY","2019/08/03 13:39:30","新北市板橋區成都街72-3號","121.463561666667","25.0052733333333","6500100","板橋區"
"220105","075-UY","2019/08/03 13:39:23","新北市板橋區民生路二段120號","121.470498333333","25.01978","6500100","板橋區"
"220017","AAD-861","2019/08/03 13:39:21","新北市板橋區南雅南路二段120-12號","121.452158333333","24.9994016666667","6500100","板橋區"
"220016","120-SR","2019/08/03 13:39:32","新北市板橋區民生路二段120號","121.470551666667","25.0195466666667","6500100","板橋區"
"247023","337-TH","2019/08/03 13:39:16","新北市五股區成泰路三段544-1號","121.456463333333","25.0993716666667","6501400","蘆洲區"
"247011","056-VK","2019/08/03 13:39:30","新北市五股區中興路三段163號","121.449133333333","25.081005","6501400","蘆洲區"
"247005","002-UY","2019/08/03 13:39:17","新北市五股區中興路二段37巷5號","121.462008333333","25.0750066666667","6501400","蘆洲區"
"235005","251-BX","2019/08/03 13:39:17","新北市中和區中安街78號","121.512005","25.00204","6500300","中和區"
"228005","097-TW","2019/08/03 13:39:19","新北市貢寮區美豐里文秀坑5-1號","121.902886666667","25.0508266666667","6502600","貢寮區"
"228004","212-TW","2019/08/03 13:39:27","新北市貢寮區龍崗里石壁坑街30-3號","121.907628333333","25.005365","6502600","貢寮區"
"253003","6232-TK","2019/08/03 13:39:19","新北市石門區內石門20號","121.57248","25.2742016666667","6502200","石門區"
"253004","6251-TK","2019/08/03 13:39:26","新北市石門區阿里荖60-1號","121.607396666667","25.271245","6502200","石門區"
"253002","637-UY","2019/08/03 13:39:14","新北市石門區九芎林36-1號","121.565983333333","25.2525","6502200","石門區"
"253001","KEC-0718","2019/08/03 13:39:31","新北市三芝區新庄里新庄子57-1號","121.508193333333","25.27827","6502200","石門區"
"207002","291-VK","2019/08/03 13:39:34","新北市萬里區崁腳里崁腳路166號","121.645111666667","25.1558666666667","6502800","萬里區"
"252005","073-UM","2019/08/03 13:39:22","新北市三芝區圓山里木屐寮38號","121.53046","25.2266266666667","6502100","三芝區"
"207001","662-BX","2019/08/03 13:39:23","新北市萬里區大鵬里萬里加投45-1號","121.642048333333","25.2108266666667","6502800","萬里區"
"220038","KED-0812","2019/08/03 13:39:15","新北市板橋區民生路二段161巷1號","121.470095","25.0199633333333","6500100","板橋區"
"236024","269-VK","2019/08/03 13:39:15","新北市土城區城林路6巷80號","121.438608333333","24.9797066666667","6501300","土城區"
"236013","270-VK","2019/08/03 13:39:32","新北市土城區城林路6巷80號","121.438471666667","24.97971","6501300","土城區"
"236032","271-VK","2019/08/03 13:39:31","新北市土城區城林路6巷80號","121.438516666667","24.97986","6501300","土城區"
"247009","KED-0683","2019/08/03 13:39:31","新北市五股區中興路三段163號","121.449173333333","25.08098","6501400","蘆洲區"
"236060","915-UM","2019/08/03 13:39:19","新北市土城區城林路6巷80號","121.438231666667","24.9798183333333","6501300","土城區"
"221029","298-VK","2019/08/03 13:39:25","新北市汐止區福德二路359巷1號","121.624108333333","25.0637733333333","6501100","汐止區"
"220027","145-BY","2019/08/03 13:39:24","新北市板橋區南雅南路二段120-11號","121.452213333333","24.9993166666667","6500100","板橋區"
"220028","200-UY","2019/08/03 13:39:30","新北市板橋區華東街1-9號","121.448153333333","24.9948866666667","6500100","板橋區"
"220030","610-BX","2019/08/03 13:39:25","新北市板橋區大觀路二段265巷7-7號","121.444025","24.99456","6500100","板橋區"
"220050","245-BX","2019/08/03 13:39:30","新北市板橋區民生路二段161巷1號","121.470098333333","25.0198216666667","6500100","板橋區"
"220004","276-BY","2019/08/03 13:39:19","新北市板橋區南雅南路二段116號","121.453205","25.0002716666667","6500100","板橋區"
"220020","277-BY","2019/08/03 13:39:18","新北市板橋區大觀路二段265巷7-7號","121.444218333333","24.9945216666667","6500100","板橋區"
"220037","280-UM","2019/08/03 13:35:37","新北市板橋區民生路二段120號","121.470481666667","25.0195266666667","6500100","板橋區"
"220043","283-UM","2019/08/03 13:39:14","新北市板橋區民生路二段161巷3號","121.470236666667","25.01983","6500100","板橋區"
"220019","283-VK","2019/08/03 13:39:26","新北市土城區四川路17號","121.455341666667","24.995925","6500100","板橋區"
"220031","286-VK","2019/08/03 13:39:29","新北市板橋區板城路421號","121.448116666667","24.9962233333333","6500100","板橋區"
"220023","303-R5","2019/08/03 13:39:26","新北市板橋區華東街1-9號","121.44823","24.9949416666667","6500100","板橋區"
"220041","307-R5","2019/08/03 13:39:15","新北市板橋區民生路二段120號","121.470495","25.0195666666667","6500100","板橋區"
"220047","317-R6","2019/08/03 13:39:25","新北市板橋區民生路二段120號","121.470475","25.0197683333333","6500100","板橋區"
"220003","461-BY","2019/08/03 13:39:24","新北市土城區四川路3號","121.455688333333","24.9960416666667","6500100","板橋區"
"220104","560-BX","2019/08/03 13:39:16","新北市板橋區南雅西路二段145巷6號","121.451653333333","25.0118866666667","6500100","板橋區"
"220052","561-BX","2019/08/03 13:39:27","新北市板橋區民生路二段89-6號","121.470751666667","25.0192216666667","6500100","板橋區"
"220011","609-BX","2019/08/03 13:39:15","新北市板橋區民生路二段171號","121.46991","25.02015","6500100","板橋區"
"220005","686-BX","2019/08/03 13:39:32","新北市板橋區南雅南路一段1巷42號","121.457463333333","25.00632","6500100","板橋區"
"220025","687-BX","2019/08/03 13:39:24","新北市板橋區大觀路三段236-12號","121.429421666667","24.9921633333333","6500100","板橋區"
"220051","KEA-2699","2019/08/03 13:39:29","新北市板橋區民生路二段120號","121.470401666667","25.0199083333333","6500100","板橋區"
"220022","895-R6","2019/08/03 13:39:29","新北市板橋區南雅南路一段29號","121.456081666667","25.0066","6500100","板橋區"
"220021","985-R7","2019/08/03 13:39:25","新北市板橋區南雅南路二段15號","121.453825","24.9985083333333","6500100","板橋區"
"220046","AAC-210","2019/08/03 13:39:19","新北市板橋區民生路二段161巷9號","121.470255","25.0196183333333","6500100","板橋區"
"220012","AAC-253","2019/08/03 13:39:20","新北市板橋區民生路二段89-4號","121.471175","25.0181316666667","6500100","板橋區"
"235032","KEA-2873","2019/08/03 13:39:35","新北市中和區圓通路265巷58號","121.496328333333","24.9924016666667","6500300","中和區"
"235025","KEA-2875","2019/08/03 13:39:20","新北市中和區民享街46號","121.473835","25.0026583333333","6500300","中和區"
