"lineid","car","time","location","longitude","latitude","cityid","cityname"
"234062","337-UY","2019/08/03 14:39:30","新北市永和區光復街4號","121.516396666667","25.016785","6500400","永和區"
"234028","746-BX","2019/08/03 14:39:30","新北市中和區中正路778號","121.485085","25.0004616666667","6500400","永和區"
"234040","862-TW","2019/08/03 14:39:27","新北市永和區光復街42號","121.516691666667","25.0177116666667","6500400","永和區"
"234025","9371-KE","2019/08/03 14:39:33","新北市永和區中和路499號","121.510611666667","25.0022883333333","6500400","永和區"
"248017","KED-0813","2019/08/03 14:39:20","新北市五股區外寮路13-1號","121.424965","25.0812566666667","6501500","五股區"
"234072","AAC-211","2019/08/03 14:39:28","新北市永和區環河東路二段48號","121.523065","25.01194","6500400","永和區"
"231028","001-UM","2019/08/03 14:39:25","新北市新店區安德街75號","121.510096666667","24.9614633333333","6500600","新店區"
"231030","002-UM","2019/08/03 14:39:20","新北市新店區安民街150號","121.516631666667","24.9698766666667","6500600","新店區"
"231005","046-UY","2019/08/03 14:39:29","新北市新店區復興路46號","121.538256666667","24.9867766666667","6500600","新店區"
"231029","106-UY","2019/08/03 14:39:16","新北市新店區安康路三段312號","121.487175","24.9518383333333","6500600","新店區"
"231018","107-UY","2019/08/03 14:39:17","新北市新店區中央五街3號","121.530293333333","24.9742","6500600","新店區"
"231013","108-UY","2019/08/03 14:39:21","新北市新店區明德路42號","121.541468333333","24.978245","6500600","新店區"
"231036","110-UY","2019/08/03 14:39:29","新北市新店區安祥路106巷189號","121.474135","24.9599333333333","6500600","新店區"
"231017","KEA-2219","2019/08/03 14:39:24","新北市新店區北宜路三段221號","121.592413333333","24.9532266666667","6500600","新店區"
"231033","256-BX","2019/08/03 14:39:16","新北市新店區安業街8巷1號","121.51544","24.97746","6500600","新店區"
"231023","260-TV","2019/08/03 14:39:28","新北市新店區檳榔路109號","121.544355","24.9616633333333","6500600","新店區"
"231003","268-BY","2019/08/03 14:39:31","新北市新店區中興路二段100巷2號","121.547426666667","24.9714833333333","6500600","新店區"
"231035","278-BY","2019/08/03 14:39:30","新北市新店區安康路二段118-5號","121.512436666667","24.9632033333333","6500600","新店區"
"231006","355-BY","2019/08/03 14:39:33","新北市新店區北宜路二段144號","121.557433333333","24.95391","6500600","新店區"
"231038","3712-VJ","2019/08/03 14:39:14","新北市新店區安華路28-1號","121.519835","24.960865","6500600","新店區"
"231027","3713-VJ","2019/08/03 14:39:15","新北市新店區北新路二段92巷2弄5號","121.543601666667","24.9728466666667","6500600","新店區"
"231024","4716-K9","2019/08/03 14:39:34","新北市新店區溪園路397號","121.523441666667","24.9781316666667","6500600","新店區"
"231020","513-UM","2019/08/03 14:39:28","新北市新店區桂山路73-1號","121.566325","24.9008533333333","6500600","新店區"
"231001","617-UM","2019/08/03 14:39:18","新北市新店區中正路58號","121.544386666667","24.9700966666667","6500600","新店區"
"231002","619-UM","2019/08/03 14:39:23","新北市新店區中正路460號","121.533951666667","24.97935","6500600","新店區"
"231034","641-BX","2019/08/03 14:39:31","新北市新店區黎明路52巷2號","121.501941666667","24.94894","6500600","新店區"
"231012","718-UY","2019/08/03 14:39:21","新北市新店區寶宏路38號","121.54951","24.975635","6500600","新店區"
"231004","899-TW","2019/08/03 14:39:26","新北市新店區中正路304號","121.537415","24.974545","6500600","新店區"
"231037","AKT-0513","2019/08/03 14:39:20","新北市新店區柴埕路20巷2號","121.513995","24.9658383333333","6500600","新店區"
"235030","003-UY","2019/08/03 14:39:15","新北市中和區景新街166號","121.505825","24.9970083333333","6500300","中和區"
"235020","096-UM","2019/08/03 14:39:32","新北市中和區中山路三段114巷65號","121.475655","25.0079116666667","6500300","中和區"
"235003","097-UM","2019/08/03 14:39:32","新北市中和區安平路192號","121.513181666667","24.9992033333333","6500300","中和區"
"235029","098-UM","2019/08/03 14:39:28","新北市中和區福祥路85巷2弄1號","121.498683333333","25.0057716666667","6500300","中和區"
"235004","150-BY","2019/08/03 14:39:33","新北市中和區安和路39號","121.509668333333","24.994915","6500300","中和區"
"235022","151-BY","2019/08/03 14:39:14","新北市中和區員山路132巷21號","121.482365","24.996325","6500300","中和區"
"235019","183-VK","2019/08/03 14:39:21","新北市中和區民生街54號","121.469283333333","25.0050783333333","6500300","中和區"
"235002","185-VK","2019/08/03 14:39:09","新北市中和區自立路18號","121.522088333333","24.9934583333333","6500300","中和區"
"235013","186-VK","2019/08/03 14:39:30","新北市中和區景平路383-5號","121.503085","24.99399","6500300","中和區"
"235031","255-BX","2019/08/03 14:39:24","新北市中和區中正路751巷3弄4號","121.484341666667","24.9996533333333","6500300","中和區"
"235008","293-VK","2019/08/03 14:39:25","新北市中和區南山路479號","121.507868333333","24.9882866666667","6500300","中和區"
"235036","301-VK","2019/08/03 14:39:29","新北市中和區光華街49號","121.505671666667","25.0037983333333","6500300","中和區"
"235007","352-BY","2019/08/03 14:39:27","新北市中和區景安路85號","121.506253333333","24.99689","6500300","中和區"
"235006","KEA-2878","2019/08/03 14:39:30","新北市中和區保健路2巷4號","121.507638333333","24.99824","6500300","中和區"
"247013","KEA-2869","2019/08/03 14:39:27","新北市蘆洲區成功路108號","121.472415","25.0822666666667","6501400","蘆洲區"
"247007","KED-0682","2019/08/03 14:39:32","新北市蘆洲區成功路23號","121.473241666667","25.0793433333333","6501400","蘆洲區"
"235034","558-UM","2019/08/03 14:39:30","新北市中和區連勝街40號","121.498048333333","24.9976516666667","6500300","中和區"
"235009","565-BX","2019/08/03 14:39:23","新北市中和區安樂路1號","121.511548333333","24.9919066666667","6500300","中和區"
"235024","KED-0823","2019/08/03 14:39:22","新北市中和區新生街215號","121.48385","24.9995683333333","6500300","中和區"
"235018","640-BX","2019/08/03 14:39:15","新北市中和區民享街38號","121.473835","25.0030866666667","6500300","中和區"
"235011","732-UM","2019/08/03 14:39:27","新北市中和區和平街16號","121.509973333333","24.9900483333333","6500300","中和區"
"235010","733-UM","2019/08/03 14:39:16","新北市中和區四維街8號","121.513308333333","24.9873533333333","6500300","中和區"
"235073","800-TS","2019/08/03 14:39:19","新北市中和區永和路171巷3弄2號","121.49247","25.006525","6500300","中和區"
"235016","805-TS","2019/08/03 14:39:28","新北市中和區華新街192巷8號","121.506655","24.9826283333333","6500300","中和區"
"235012","896-TW","2019/08/03 14:39:17","新北市新店區安和路三段175號","121.51578","24.986315","6500300","中和區"
"235017","900-TW","2019/08/03 14:39:17","新北市中和區國光街173號","121.468055","25.0014166666667","6500300","中和區"
"235015","157-BY","2019/08/03 14:39:31","新北市中和區中興街180巷33號","121.49829","24.98908","6500300","中和區"
"235001","AAC-213","2019/08/03 14:39:30","新北市中和區秀朗路三段177號","121.524381666667","24.9911916666667","6500300","中和區"
"235023","AAC-215","2019/08/03 14:39:28","新北市中和區圓通路305巷9號","121.493808333333","24.9898333333333","6500300","中和區"
"220013","072-UY","2019/08/03 14:39:30","新北市板橋區國泰街111巷15號","121.466133333333","25.005995","6500100","板橋區"
"220034","073-UY","2019/08/03 14:39:26","新北市板橋區中正路250巷51號","121.45767","25.0197183333333","6500100","板橋區"
"220105","075-UY","2019/08/03 14:39:23","新北市板橋區文化路二段650巷19號","121.477955","25.034855","6500100","板橋區"
"220017","AAD-861","2019/08/03 14:39:21","新北市板橋區南雅南路二段18號","121.454441666667","25.003495","6500100","板橋區"
"220016","120-SR","2019/08/03 14:39:32","新北市板橋區中山路二段416巷33號","121.483206666667","25.0198033333333","6500100","板橋區"
"247001","500-BY","2019/08/03 14:39:19","新北市蘆洲區永樂街38巷43號","121.458331666667","25.08984","6501400","蘆洲區"
"247023","337-TH","2019/08/03 14:39:16","新北市蘆洲區正和街65號","121.468853333333","25.08094","6501400","蘆洲區"
"247015","053-VK","2019/08/03 14:39:18","新北市蘆洲區正和街29號","121.469728333333","25.081975","6501400","蘆洲區"
"247019","007-UY","2019/08/03 14:39:17","新北市蘆洲區民族路371號","121.47134","25.0912","6501400","蘆洲區"
"247005","002-UY","2019/08/03 14:39:17","新北市蘆洲區中華街65號","121.462335","25.080745","6501400","蘆洲區"
"235005","251-BX","2019/08/03 14:39:17","新北市中和區宜安路140號","121.509711666667","24.9985183333333","6500300","中和區"
"228005","097-TW","2019/08/03 14:39:19","新北市貢寮區美豐里雞母嶺街6-6號","121.902115","25.0642233333333","6502600","貢寮區"
"228004","212-TW","2019/08/03 14:39:27","新北市貢寮區福隆里龜壽谷街28-2號","121.946178333333","25.0147416666667","6502600","貢寮區"
"253003","6232-TK","2019/08/03 14:39:19","新北市石門區尖子鹿85號","121.576505","25.2949516666667","6502200","石門區"
"253004","6251-TK","2019/08/03 14:39:26","新北市石門區內阿里磅50號","121.580296666667","25.246425","6502200","石門區"
"253002","637-UY","2019/08/03 14:37:54","新北市三芝區橫山里橫山39-7號","121.54578","25.253855","6502200","石門區"
"253001","KEC-0718","2019/08/03 14:38:11","新北市石門區崁子腳37-5號","121.537061666667","25.2686533333333","6502200","石門區"
"207002","291-VK","2019/08/03 14:39:14","新北市萬里區溪底里溪底路2號","121.619026666667","25.1517916666667","6502800","萬里區"
"252005","073-UM","2019/08/03 14:39:22","新北市三芝區橫山里大坑82-5號","121.527796666667","25.2578683333333","6502100","三芝區"
"207001","662-BX","2019/08/03 14:39:23","新北市萬里區磺潭里員潭路54號","121.64347","25.190955","6502800","萬里區"
"236040","KED-0685","2019/08/03 14:39:25","新北市土城區裕民路55巷1號","121.448908333333","24.9880083333333","6501300","土城區"
"220038","KED-0812","2019/08/03 14:39:14","新北市板橋區龍泉街126號","121.456791666667","25.02397","6500100","板橋區"
"236074","166-UM","2019/08/03 14:39:27","新北市土城區中央路四段52巷50號","121.418565","24.9602316666667","6501300","土城區"
"236029","253-BX","2019/08/03 14:39:26","新北市土城區中華路二段185號","121.438441666667","24.9747533333333","6501300","土城區"
"236024","269-VK","2019/08/03 14:39:29","新北市土城區和平路11號","121.442816666667","24.97415","6501300","土城區"
"236013","270-VK","2019/08/03 14:39:32","新北市土城區清水路234巷15弄2號","121.461906666667","24.9820116666667","6501300","土城區"
"236032","271-VK","2019/08/03 14:39:31","新北市土城區明德路一段235巷38號","121.463188333333","24.9774483333333","6501300","土城區"
"247009","KED-0683","2019/08/03 14:39:31","新北市蘆洲區信義路222巷34弄2號","121.480736666667","25.08545","6501400","蘆洲區"
"236068","KEA-2877","2019/08/03 14:39:33","新北市土城區永豐路302-1號","121.47183","24.9776066666667","6501300","土城區"
"236017","401-BY","2019/08/03 14:39:20","新北市土城區延吉街251號","121.467551666667","24.9848483333333","6501300","土城區"
"236057","912-UM","2019/08/03 14:39:14","新北市土城區中央路三段157號","121.432003333333","24.9653583333333","6501300","土城區"
"236045","913-UM","2019/08/03 14:39:27","新北市土城區金城路三段1號","121.46418","24.986205","6501300","土城區"
"236060","915-UM","2019/08/03 14:39:25","新北市土城區延和路177巷11弄7號","121.46956","24.9908033333333","6501300","土城區"
"236054","AAC-216","2019/08/03 14:39:29","新北市土城區中華路一段45號","121.445768333333","24.9883666666667","6501300","土城區"
"220027","145-BY","2019/08/03 14:39:24","新北市板橋區民權路260巷34號","121.459006666667","25.0152766666667","6500100","板橋區"
"220028","200-UY","2019/08/03 14:39:30","新北市板橋區大觀路二段37巷242號","121.449658333333","25.0017283333333","6500100","板橋區"
"220030","610-BX","2019/08/03 14:39:30","新北市板橋區金門街119-3號","121.433025","24.9917733333333","6500100","板橋區"
"220050","245-BX","2019/08/03 14:39:30","新北市板橋區縣民大道三段93巷34號","121.47471","25.0224683333333","6500100","板橋區"
"220032","256-TC","2019/08/03 14:39:27","新北市板橋區滿平二街2巷1弄44號","121.424773333333","24.9877616666667","6500100","板橋區"
"220040","267-BY","2019/08/03 14:39:20","新北市板橋區懷德街201巷12號","121.481241666667","25.0294566666667","6500100","板橋區"
"220004","276-BY","2019/08/03 14:39:19","新北市板橋區干城路10號","121.459658333333","24.9939466666667","6500100","板橋區"
"220020","277-BY","2019/08/03 14:39:17","新北市板橋區金門街253巷7號","121.432523333333","24.9885483333333","6500100","板橋區"
"220037","280-UM","2019/08/03 14:39:18","新北市板橋區仁化街184號","121.478581666667","25.0340683333333","6500100","板橋區"
"220043","283-UM","2019/08/03 14:39:23","新北市板橋區宏國路15號","121.467491666667","25.0315133333333","6500100","板橋區"
"220019","283-VK","2019/08/03 14:39:26","新北市板橋區信義路52-2號","121.457088333333","24.9941933333333","6500100","板橋區"
"220001","285-VK","2019/08/03 14:39:33","新北市板橋區中山路二段146號","121.476628333333","25.0169966666667","6500100","板橋區"
"220031","286-VK","2019/08/03 14:39:14","新北市板橋區大觀路二段174巷137號","121.441273333333","25.00212","6500100","板橋區"
"220039","288-VK","2019/08/03 14:39:23","新北市板橋區龍泉街108巷25號","121.456383333333","25.023955","6500100","板橋區"
"220009","295-UM","2019/08/03 14:39:31","新北市板橋區觀光街1巷4號","121.472006666667","25.015445","6500100","板橋區"
"220023","303-R5","2019/08/03 14:39:26","新北市板橋區中正路275巷93號","121.451306666667","25.01868","6500100","板橋區"
"220010","305-R5","2019/08/03 14:39:30","新北市板橋區三民路二段29巷11號","121.481813333333","25.0181333333333","6500100","板橋區"
"220041","307-R5","2019/08/03 14:39:18","新北市板橋區新海路388巷12號","121.459655","25.0265933333333","6500100","板橋區"
"220047","317-R6","2019/08/03 14:39:27","新北市板橋區民生路三段299巷16號","121.462735","25.0303","6500100","板橋區"
"220003","461-BY","2019/08/03 14:39:24","新北市板橋區重慶路290巷3號","121.461515","24.9986183333333","6500100","板橋區"
"220104","560-BX","2019/08/03 14:39:16","新北市板橋區新生街89巷32號","121.456848333333","25.0227416666667","6500100","板橋區"
"220052","561-BX","2019/08/03 14:39:27","新北市板橋區陽明街41號","121.465053333333","25.0221283333333","6500100","板橋區"
"220011","609-BX","2019/08/03 14:39:18","新北市板橋區萬安街27巷22號","121.483846666667","25.0228733333333","6500100","板橋區"
"220029","630-UY","2019/08/03 14:39:22","新北市板橋區大觀路一段29巷20號","121.449131666667","25.005445","6500100","板橋區"
"220005","686-BX","2019/08/03 14:39:32","新北市板橋區廣和街79號","121.462638333333","24.9921733333333","6500100","板橋區"
"220025","687-BX","2019/08/03 14:39:24","新北市板橋區僑中二街10巷1號","121.447006666667","25.0107883333333","6500100","板橋區"
"220042","689-BX","2019/08/03 14:39:31","新北市板橋區長江路二段219號","121.468091666667","25.0325016666667","6500100","板橋區"
"220002","741-BX","2019/08/03 14:39:09","新北市板橋區忠孝路281號","121.467508333333","25.0030966666667","6500100","板橋區"
"220051","KEA-2699","2019/08/03 14:39:29","新北市板橋區文化路二段410巷10號","121.47399","25.0312933333333","6500100","板橋區"
"220014","829-TW","2019/08/03 14:39:22","新北市板橋區長安街168巷10弄16號","121.473665","25.0105666666667","6500100","板橋區"
"220022","895-R6","2019/08/03 14:39:29","新北市板橋區福德街2巷17號","121.455651666667","25.0089466666667","6500100","板橋區"
"220021","985-R7","2019/08/03 14:39:31","新北市板橋區新生街16號","121.455476666667","25.021095","6500100","板橋區"
"220046","AAC-210","2019/08/03 14:39:19","新北市板橋區文化路一段239號","121.464003333333","25.0178533333333","6500100","板橋區"
"220012","AAC-253","2019/08/03 14:39:20","新北市板橋區公園街50號","121.462223333333","25.0079733333333","6500100","板橋區"
"235032","KEA-2873","2019/08/03 14:39:08","新北市中和區中山路二段250巷24號","121.497313333333","25.0033266666667","6500300","中和區"
"235025","KEA-2875","2019/08/03 14:39:20","新北市中和區員山路263號","121.48129","24.9992083333333","6500300","中和區"
