"lineid","car","time","location","longitude","latitude","cityid","cityname"
"231028","001-UM","2019/08/03 15:39:27","新北市新店區僑義路1-1號","121.499861666667","24.9524033333333","6500600","新店區"
"231030","002-UM","2019/08/03 15:39:30","新北市新店區新和街93巷8號","121.520895","24.9866666666667","6500600","新店區"
"231005","046-UY","2019/08/03 15:39:29","新北市新店區民族路192號","121.536238333333","24.97547","6500600","新店區"
"231029","106-UY","2019/08/03 15:39:18","新北市新店區安康路三段31巷2弄10號","121.493043333333","24.9526516666667","6500600","新店區"
"231018","107-UY","2019/08/03 15:39:17","新北市新店區中正路663巷1弄8號","121.533056666667","24.9901733333333","6500600","新店區"
"231013","108-UY","2019/08/03 15:39:21","新北市新店區永業路81巷1弄2號","121.529695","24.9495516666667","6500600","新店區"
"231036","110-UY","2019/08/03 15:39:29","新北市新店區安祥路65號","121.483856666667","24.96024","6500600","新店區"
"231039","187-VK","2019/08/03 15:39:25","新北市新店區寶元路二段31巷1號","121.54671","24.9817583333333","6500600","新店區"
"231017","KEA-2219","2019/08/03 15:39:24","新北市新店區北宜路二段129號","121.55081","24.9530433333333","6500600","新店區"
"231033","256-BX","2019/08/03 15:39:16","新北市新店區雙城路15號","121.49195","24.9503066666667","6500600","新店區"
"231023","260-TV","2019/08/03 15:39:28","新北市新店區大新街7巷19號","121.544028333333","24.9679966666667","6500600","新店區"
"231003","268-BY","2019/08/03 15:39:31","新北市新店區寶興路60巷4號","121.549871666667","24.9718683333333","6500600","新店區"
"231035","278-BY","2019/08/03 15:39:30","新北市新店區安興路81號","121.515423333333","24.9755033333333","6500600","新店區"
"231038","3712-VJ","2019/08/03 15:39:14","新北市新店區安康路二段228巷19號","121.50957","24.960055","6500600","新店區"
"231020","513-UM","2019/08/03 15:39:27","新北市新店區花園二路三段21號","121.556736666667","24.9321333333333","6500600","新店區"
"231034","641-BX","2019/08/03 15:39:31","新北市新店區玫瑰路58巷18號","121.494513333333","24.94671","6500600","新店區"
"231012","718-UY","2019/08/03 15:39:21","新北市新店區中興路三段156號","121.544555","24.9806","6500600","新店區"
"231026","720-UM","2019/08/03 15:39:21","新北市新店區三民路32號","121.536701666667","24.971205","6500600","新店區"
"231037","AKT-0513","2019/08/03 15:39:20","新北市新店區安興路69號","121.515886666667","24.9747316666667","6500600","新店區"
"241028","022-UY","2019/08/03 15:39:15","新北市三重區中正南路47號","121.49393","25.05963","6500200","三重區"
"241017","063-VK","2019/08/03 15:38:05","新北市三重區新北大道一段3-1號","121.489983333333","25.0617483333333","6500200","三重區"
"241024","065-VK","2019/08/03 15:39:28","新北市三重區重新路四段121號","121.484783333333","25.05248","6500200","三重區"
"241002","090-VK","2019/08/03 15:39:20","新北市三重區重新路四段121號","121.484903333333","25.05198","6500200","三重區"
"241015","742-BX","2019/08/03 15:39:18","新北市三重區重新路四段121號","121.485341666667","25.05211","6500200","三重區"
"241006","262-UM","2019/08/03 15:39:28","新北市三重區重新路四段121號","121.484851666667","25.05192","6500200","三重區"
"241018","268-UM","2019/08/03 15:39:27","新北市三重區重新路四段121號","121.48523","25.0521266666667","6500200","三重區"
"241013","270-UM","2019/08/03 15:39:17","新北市三重區忠孝路一段1號","121.492523333333","25.0717883333333","6500200","三重區"
"241007","398-BY","2019/08/03 15:39:34","新北市三重區重新路四段121號","121.48493","25.0518983333333","6500200","三重區"
"241004","475-VK","2019/08/03 15:39:20","新北市三重區重新路四段121號","121.484956666667","25.0518816666667","6500200","三重區"
"241020","478-VK","2019/08/03 15:39:29","新北市三重區忠孝路二段51號","121.485413333333","25.0707916666667","6500200","三重區"
"241023","545-UM","2019/08/03 15:39:14","新北市三重區重新路四段121號","121.484688333333","25.052075","6500200","三重區"
"241019","KEA-2593","2019/08/03 15:39:22","新北市三重區重新路四段121號","121.485056666667","25.0520166666667","6500200","三重區"
"241005","AAD-863","2019/08/03 15:39:27","新北市三重區重新路四段121號","121.484685","25.0521783333333","6500200","三重區"
"241022","KED-0820","2019/08/03 15:39:22","新北市三重區重新路四段121號","121.48481","25.052025","6500200","三重區"
"241033","AAC-255","2019/08/03 15:39:23","新北市三重區重新路五段283號","121.479123333333","25.0492866666667","6500200","三重區"
"235019","183-VK","2019/08/03 15:39:20","新北市五股區凌雲路三段24巷7號","121.437213333333","25.106585","6500300","中和區"
"235033","4980-A6","2019/08/03 15:39:13","新北市中和區新生街150號","121.483648333333","25.00064","6500300","中和區"
"235054","640-BX","2019/08/03 15:39:15","新北市中和區員山路36巷16-2號","121.485376666667","24.99163","6500300","中和區"
"235062","800-TS","2019/08/03 15:15:35","新北市中和區員山路36巷16-3號","121.485025","24.99136","6500300","中和區"
"235023","AAC-215","2019/08/03 15:39:28","新北市中和區員山路36巷7號","121.483066666667","24.99093","6500300","中和區"
"247024","337-TH","2019/08/03 15:37:37","新北市五股區中興路三段163號","121.449165","25.080775","6501400","蘆洲區"
"247006","002-UY","2019/08/03 15:29:36","新北市五股區中興路三段163號","121.449245","25.0808633333333","6501400","蘆洲區"
"223005","677-TV","2019/08/03 15:29:43","新北市石碇區小粗坑(潭邊里)9-2號","121.678813333333","24.9858983333333","6501900","石碇區"
"227002","642-TC","2019/08/03 15:39:28","新北市雙溪區牡丹里中正路71號","121.864365","25.0442266666667","6502500","雙溪區"
"227001","400-TW","2019/08/03 15:39:34","新北市雙溪區牡丹里中正路54號","121.865465","25.0403066666667","6502500","雙溪區"
"236074","166-UM","2019/08/03 15:39:27","新北市土城區龍泉路44號","121.412178333333","24.9455983333333","6501300","土城區"
"236029","253-BX","2019/08/03 15:39:26","新北市土城區裕民路32巷6號","121.44757","24.9880766666667","6501300","土城區"
"236024","269-VK","2019/08/03 15:39:32","新北市土城區裕生路67巷16號","121.448483333333","24.9841683333333","6501300","土城區"
"236013","270-VK","2019/08/03 15:39:12","新北市土城區廣明街90巷21號","121.455353333333","24.9945066666667","6501300","土城區"
"236068","KEA-2877","2019/08/03 15:39:13","新北市土城區中央路三段130-4號","121.434378333333","24.9657883333333","6501300","土城區"
"236017","401-BY","2019/08/03 15:39:29","新北市土城區延吉街55號","121.472205","24.9875533333333","6501300","土城區"
"236057","912-UM","2019/08/03 15:39:34","新北市土城區中央路一段281號","121.444531666667","24.98466","6501300","土城區"
"236045","913-UM","2019/08/03 15:39:27","新北市土城區金城路三段13號","121.464771666667","24.98624","6501300","土城區"
"236054","AAC-216","2019/08/03 15:39:09","新北市土城區學府路一段148號","121.454761666667","24.98697","6501300","土城區"
"220031","286-VK","2019/08/03 15:39:14","新北市板橋區大觀路二段42號","121.445475","25.00085","6500100","板橋區"
