"lineid","car","time","location","longitude","latitude","cityid","cityname"
"249005","172-UM","2019/08/03 16:39:23","新北市八里區龍米路二段156號","121.435403333333","25.15756","6502300","八里區"
"249002","305-UY","2019/08/03 16:39:32","新北市八里區大堀湖8-1號","121.426301666667","25.1488966666667","6502300","八里區"
"249003","593-UM","2019/08/03 16:39:18","新北市八里區中山路二段283號","121.401593333333","25.148645","6502300","八里區"
"244007","080-UY","2019/08/03 16:39:15","新北市林口區粉寮69號","121.404971666667","25.0909183333333","6501700","林口區"
"231046","719-UM","2019/08/03 16:38:08","新北市新店區灣潭路3-5號","121.538083333333","24.9507633333333","6500600","新店區"
"241028","022-UY","2019/08/03 16:39:15","新北市三重區重新路三段58號","121.493756666667","25.0613033333333","6500200","三重區"
"241008","059-VK","2019/08/03 16:39:30","新北市三重區永安北路一段21巷56號","121.4779","25.0753783333333","6500200","三重區"
"241016","060-VK","2019/08/03 16:39:24","新北市三重區大同北路115巷19號","121.493846666667","25.0646483333333","6500200","三重區"
"241031","061-VK","2019/08/03 16:39:24","新北市三重區重新路四段41巷12號","121.48777","25.0578316666667","6500200","三重區"
"241017","063-VK","2019/08/03 16:39:25","新北市三重區中正北路25巷2號","121.493133333333","25.0626933333333","6500200","三重區"
"241024","065-VK","2019/08/03 16:39:28","新北市三重區中正北路315巷6弄70號","121.476726666667","25.07243","6500200","三重區"
"241011","066-VK","2019/08/03 16:39:27","新北市三重區秀江街231號","121.49699","25.0715433333333","6500200","三重區"
"241002","090-VK","2019/08/03 16:39:20","新北市三重區仁義街241巷35號","121.497213333333","25.0830983333333","6500200","三重區"
"241015","742-BX","2019/08/03 16:39:18","新北市三重區文化北路39巷9號","121.499351666667","25.0652183333333","6500200","三重區"
"241006","262-UM","2019/08/03 16:39:27","新北市三重區力行路二段91巷1弄8號","121.483011666667","25.0757483333333","6500200","三重區"
"241009","267-UM","2019/08/03 16:39:29","新北市三重區三和路四段203巷98號","121.484541666667","25.0801683333333","6500200","三重區"
"241018","268-UM","2019/08/03 16:39:27","新北市三重區正義北路338巷55號","121.492973333333","25.070355","6500200","三重區"
"241032","269-UM","2019/08/03 16:36:47","新北市三重區新北大道一段105號","121.483946666667","25.0612883333333","6500200","三重區"
"241013","270-UM","2019/08/03 16:39:17","新北市三重區三和路三段101巷42號","121.495421666667","25.0728666666667","6500200","三重區"
"241025","271-UM","2019/08/03 16:39:20","新北市三重區中正北路430號","121.474496666667","25.07112","6500200","三重區"
"241007","398-BY","2019/08/03 16:39:13","新北市三重區三和路四段167巷53號","121.485471666667","25.0795266666667","6500200","三重區"
"241030","KED-0822","2019/08/03 16:39:16","新北市三重區環河南路286號","121.488998333333","25.0489216666667","6500200","三重區"
"241004","475-VK","2019/08/03 16:39:20","新北市三重區五福街18號","121.492761666667","25.0814433333333","6500200","三重區"
"241020","478-VK","2019/08/03 16:39:29","新北市三重區忠孝路一段183號","121.487146666667","25.0717966666667","6500200","三重區"
"241026","480-VK","2019/08/03 16:39:18","新北市三重區和平街36號","121.501888333333","25.0626583333333","6500200","三重區"
"241014","543-UM","2019/08/03 16:39:15","新北市三重區長安街120號","121.502958333333","25.0679533333333","6500200","三重區"
"241023","545-UM","2019/08/03 16:39:14","新北市三重區忠孝路三段50巷43號","121.482853333333","25.0643883333333","6500200","三重區"
"241019","KEA-2593","2019/08/03 16:39:29","新北市三重區力行路一段2號","121.488426666667","25.0666533333333","6500200","三重區"
"241005","AAD-863","2019/08/03 16:39:27","新北市三重區碧華街148巷14號","121.48515","25.082385","6500200","三重區"
"241003","743-BX","2019/08/03 16:39:13","新北市三重區五華街71巷83號","121.494181666667","25.0837916666667","6500200","三重區"
"241022","KED-0820","2019/08/03 16:39:22","新北市三重區貴陽街20號","121.484205","25.0620716666667","6500200","三重區"
"241001","887-TS","2019/08/03 16:39:25","新北市三重區仁政街84號","121.492603333333","25.077705","6500200","三重區"
"241012","941-UM","2019/08/03 16:39:25","新北市三重區仁興街4巷39號","121.499078333333","25.0735916666667","6500200","三重區"
"241029","942-UM","2019/08/03 16:39:17","新北市三重區集美街210-5號","121.491436666667","25.0544866666667","6500200","三重區"
"241033","AAC-255","2019/08/03 16:39:23","新北市三重區光復路二段131號","121.472163333333","25.058945","6500200","三重區"
"235054","640-BX","2019/08/03 16:28:59","新北市中和區員山路36巷16-2號","121.48527","24.9915183333333","6500300","中和區"
"235064","911-UM","2019/08/03 16:24:28","新北市中和區員山路36巷16-3號","121.485081666667","24.991185","6500300","中和區"
"247024","337-TH","2019/08/03 16:39:11","新北市五股區成泰路三段358號","121.451186666667","25.0979466666667","6501400","蘆洲區"
"247012","056-VK","2019/08/03 16:39:31","新北市五股區中興路三段163號","121.449186666667","25.080855","6501400","蘆洲區"
"247006","002-UY","2019/08/03 16:39:14","新北市五股區中興路二段182巷3號","121.455658333333","25.0780816666667","6501400","蘆洲區"
"224007","285-BY","2019/08/03 16:39:15","新北市瑞芳區瑞竹路141號","121.761031666667","25.1040916666667","6501200","瑞芳區"
"224009","275-VK","2019/08/03 16:39:19","新北市瑞芳區民權街3-1號","121.809256666667","25.1082733333333","6501200","瑞芳區"
"224005","271-BY","2019/08/03 16:39:28","新北市瑞芳區洞頂路132-1號","121.86243","25.1233766666667","6501200","瑞芳區"
"227002","642-TC","2019/08/03 16:39:28","新北市雙溪區長源里內柑腳20號","121.800586666667","25.0142016666667","6502500","雙溪區"
"227001","400-TW","2019/08/03 16:39:14","新北市雙溪區牡丹里石5-2號","121.863048333333","25.0507283333333","6502500","雙溪區"
"251015","KEA-2871","2019/08/03 16:39:32","新北市淡水區文化路16號","121.439818333333","25.172575","6501000","淡水區"
"251016","179-VK","2019/08/03 16:39:18","新北市淡水區新市一路三段38號","121.445936666667","25.182965","6501000","淡水區"
"251008","181-VK","2019/08/03 16:39:17","新北市淡水區樹梅坑9號","121.472843333333","25.1427016666667","6501000","淡水區"
"251013","182-VK","2019/08/03 16:39:28","新北市淡水區大溪8號","121.495798333333","25.1903833333333","6501000","淡水區"
"252002","178-VK","2019/08/03 16:39:28","新北市三芝區晴光街1號","121.510383333333","25.2579183333333","6502100","三芝區"
"252001","KED-0821","2019/08/03 16:39:26","新北市三芝區埔坪里埔頭坑57號","121.507776666667","25.26467","6502100","三芝區"
"242025","362-BY","2019/08/03 16:39:15","新北市新莊區新泰路255巷83號","121.44208","25.0389666666667","6500500","新莊區"
