"lineid","car","time","location","longitude","latitude","cityid","cityname"
"249005","172-UM","2019/08/03 16:59:23","新北市八里區渡船頭1號","121.43408","25.1519466666667","6502300","八里區"
"249001","173-UM","2019/08/03 16:59:29","新北市八里區中山路三段106號","121.391598333333","25.1425966666667","6502300","八里區"
"249004","303-UY","2019/08/03 16:59:17","新北市八里區博物館路5號","121.415851666667","25.1640016666667","6502300","八里區"
"249002","305-UY","2019/08/03 16:59:32","新北市八里區牛寮埔28-5號","121.43242","25.1433383333333","6502300","八里區"
"249003","593-UM","2019/08/03 16:59:18","新北市八里區中山路二段289號","121.401548333333","25.1486616666667","6502300","八里區"
"244007","080-UY","2019/08/03 16:59:15","新北市林口區中湖43-5號","121.38178","25.0924033333333","6501700","林口區"
"244009","656-BX","2019/08/03 16:59:19","新北市林口區粉寮路二段26號","121.402918333333","25.0863233333333","6501700","林口區"
"244025","837-TS","2019/08/03 16:59:17","新北市林口區粉寮路二段128號","121.404618333333","25.0906783333333","6501700","林口區"
"244021","838-TS","2019/08/03 16:59:14","新北市林口區粉寮一街150-2號","121.4037","25.0867833333333","6501700","林口區"
"231046","719-UM","2019/08/03 16:59:28","新北市新店區灣潭路15-8號","121.540816666667","24.93888","6500600","新店區"
"241028","022-UY","2019/08/03 16:59:17","新北市三重區中正南路30號","121.493678333333","25.0602516666667","6500200","三重區"
"241008","059-VK","2019/08/03 16:59:30","新北市三重區永安北路一段11巷20號","121.47733","25.0748266666667","6500200","三重區"
"241016","060-VK","2019/08/03 16:59:24","新北市三重區中正北路25巷2號","121.493326666667","25.06273","6500200","三重區"
"241031","061-VK","2019/08/03 16:59:24","新北市三重區重新路三段115巷10號","121.490381666667","25.060285","6500200","三重區"
"241017","063-VK","2019/08/03 16:59:24","新北市三重區國隆路12巷2號","121.493101666667","25.063735","6500200","三重區"
"241024","065-VK","2019/08/03 16:59:28","新北市三重區大勇街82巷15弄30號","121.481161666667","25.07191","6500200","三重區"
"241011","066-VK","2019/08/03 16:59:27","新北市三重區仁愛街55巷47號","121.499253333333","25.0728183333333","6500200","三重區"
"241002","090-VK","2019/08/03 16:59:21","新北市三重區仁義街192號","121.496585","25.0817716666667","6500200","三重區"
"241015","742-BX","2019/08/03 16:59:18","新北市三重區中央北路27巷15號","121.501473333333","25.0646516666667","6500200","三重區"
"241006","262-UM","2019/08/03 16:59:27","新北市三重區車路頭街141號","121.48388","25.076525","6500200","三重區"
"241009","267-UM","2019/08/03 16:59:29","新北市三重區仁美街108巷38號","121.484296666667","25.080335","6500200","三重區"
"241018","268-UM","2019/08/03 16:59:27","新北市三重區六張街126巷7號","121.491996666667","25.0693833333333","6500200","三重區"
"241032","269-UM","2019/08/03 16:59:32","新北市三重區中山路40巷1-1號","121.485988333333","25.0612166666667","6500200","三重區"
"241013","270-UM","2019/08/03 16:59:17","新北市三重區仁愛街93號","121.495736666667","25.0734766666667","6500200","三重區"
"241025","271-UM","2019/08/03 16:59:20","新北市三重區中正北路508巷5號","121.472661666667","25.07127","6500200","三重區"
"241007","398-BY","2019/08/03 16:59:13","新北市三重區三和路四段181巷215號","121.487318333333","25.080375","6500200","三重區"
"241030","KED-0822","2019/08/03 16:59:16","新北市三重區昌隆街48號","121.491461666667","25.0516183333333","6500200","三重區"
"241004","475-VK","2019/08/03 16:59:20","新北市三重區五華街98巷11號","121.492046666667","25.082175","6500200","三重區"
"241020","478-VK","2019/08/03 16:59:29","新北市三重區國道路一段8號","121.486161666667","25.073395","6500200","三重區"
"241026","480-VK","2019/08/03 16:59:18","新北市三重區光興街3號","121.500205","25.0604683333333","6500200","三重區"
"241014","543-UM","2019/08/03 16:59:15","新北市三重區三和路二段173巷143號","121.501103333333","25.0705766666667","6500200","三重區"
"241023","545-UM","2019/08/03 16:59:14","新北市三重區忠孝路三段84巷5號","121.480155","25.06439","6500200","三重區"
"241019","KEA-2593","2019/08/03 16:59:22","新北市三重區自強路二段74巷21號","121.48799","25.0698383333333","6500200","三重區"
"241005","AAD-863","2019/08/03 16:59:27","新北市三重區仁華街6號","121.483383333333","25.081255","6500200","三重區"
"241003","743-BX","2019/08/03 16:59:13","新北市三重區五華街141巷58號","121.493605","25.0867783333333","6500200","三重區"
"241022","KED-0820","2019/08/03 16:59:22","新北市三重區中華路128號","121.483576666667","25.063865","6500200","三重區"
"241001","887-TS","2019/08/03 16:59:25","新北市三重區仁愛街245巷11號","121.493961666667","25.0782333333333","6500200","三重區"
"241012","941-UM","2019/08/03 16:59:25","新北市三重區仁和街175號","121.500038333333","25.0748033333333","6500200","三重區"
"241029","942-UM","2019/08/03 16:59:17","新北市三重區泉州街96巷6號","121.495151666667","25.0537916666667","6500200","三重區"
"241033","AAC-255","2019/08/03 16:59:23","新北市三重區中興北街275號","121.469221666667","25.0607916666667","6500200","三重區"
"247014","KEA-2869","2019/08/03 16:59:20","新北市蘆洲區三民路24號","121.47573","25.082535","6501400","蘆洲區"
"247008","KED-0682","2019/08/03 16:59:25","新北市蘆洲區信義路50號","121.475135","25.0796716666667","6501400","蘆洲區"
"247004","893-R6","2019/08/03 16:59:25","新北市蘆洲區長安街108巷5弄2號","121.461343333333","25.0818116666667","6501400","蘆洲區"
"247018","546-UM","2019/08/03 16:59:30","新北市蘆洲區民族路227巷12-1號","121.477096666667","25.08938","6501400","蘆洲區"
"247024","337-TH","2019/08/03 16:59:31","新北市蘆洲區長興路202號","121.460685","25.0873733333333","6501400","蘆洲區"
"247022","057-VK","2019/08/03 16:59:21","新北市蘆洲區三民路128巷85號","121.46838","25.0925016666667","6501400","蘆洲區"
"247012","056-VK","2019/08/03 16:59:31","新北市蘆洲區復興路152號","121.477355","25.087765","6501400","蘆洲區"
"247016","053-VK","2019/08/03 16:59:30","新北市蘆洲區中正路67號","121.470308333333","25.082635","6501400","蘆洲區"
"247020","007-UY","2019/08/03 16:59:21","新北市蘆洲區民族路422巷50號","121.473675","25.0930333333333","6501400","蘆洲區"
"247006","002-UY","2019/08/03 16:59:14","新北市蘆洲區長安街99巷19號","121.46103","25.0800566666667","6501400","蘆洲區"
"228003","097-TW","2019/08/03 16:59:25","新北市貢寮區福隆里興隆街24號","121.944601666667","25.0166266666667","6502600","貢寮區"
"228001","212-TW","2019/08/03 16:59:25","新北市貢寮區貢寮里朝陽街1-2號","121.912233333333","25.0212933333333","6502600","貢寮區"
"228002","663-BX","2019/08/03 16:59:22","新北市貢寮區貢寮里朝陽街140巷5號","121.90724","25.02255","6502600","貢寮區"
"224006","676-BX","2019/08/03 16:59:25","新北市瑞芳區大寮路356-1號","121.785045","25.1032533333333","6501200","瑞芳區"
"224007","285-BY","2019/08/03 16:59:15","新北市瑞芳區頂埔巷51-3號","121.767068333333","25.1041516666667","6501200","瑞芳區"
"224009","275-VK","2019/08/03 16:59:18","新北市瑞芳區明燈路一段1號","121.826538333333","25.1093266666667","6501200","瑞芳區"
"224008","273-VK","2019/08/03 16:59:28","新北市瑞芳區三爪子坑路1號","121.81595","25.1087583333333","6501200","瑞芳區"
"224005","271-BY","2019/08/03 16:59:28","新北市瑞芳區南雅路29-1號","121.888073333333","25.120555","6501200","瑞芳區"
"227002","642-TC","2019/08/03 16:59:28","新北市雙溪區上林里內平林101號","121.827086666667","25.02726","6502500","雙溪區"
"227001","400-TW","2019/08/03 16:59:34","新北市雙溪區三貂里十三層9-5號","121.853345","25.0773983333333","6502500","雙溪區"
"251009","008-UM","2019/08/03 16:59:21","新北市淡水區中正路二段31號","121.419503333333","25.1815883333333","6501000","淡水區"
"251004","009-UM","2019/08/03 16:59:17","新北市淡水區中山路33號","121.443841666667","25.1703733333333","6501000","淡水區"
"251005","010-UM","2019/08/03 16:59:22","新北市淡水區原德路25號","121.442231666667","25.171545","6501000","淡水區"
"251015","KEA-2871","2019/08/03 16:59:32","新北市淡水區忠愛街5-2號","121.460675","25.17158","6501000","淡水區"
"251016","179-VK","2019/08/03 16:59:18","新北市淡水區瓦坑3號","121.477585","25.1807983333333","6501000","淡水區"
"251008","181-VK","2019/08/03 16:59:17","新北市淡水區樹梅坑9號","121.472946666667","25.1426683333333","6501000","淡水區"
"251013","182-VK","2019/08/03 16:59:28","新北市淡水區泉洲厝32號","121.489275","25.1926133333333","6501000","淡水區"
"251012","441-VK","2019/08/03 16:59:18","新北市淡水區中正路二段31號","121.41904","25.1820516666667","6501000","淡水區"
"251007","442-VK","2019/08/03 16:59:20","新北市淡水區中山路37號","121.443558333333","25.17047","6501000","淡水區"
"251006","561-UM","2019/08/03 16:59:19","新北市淡水區中正路261號","121.431138333333","25.175095","6501000","淡水區"
"251014","577-R6","2019/08/03 16:59:23","新北市淡水區淡金路三段15號","121.445926666667","25.197255","6501000","淡水區"
"251011","650-BX","2019/08/03 16:59:25","新北市淡水區真理街2-1號","121.438608333333","25.1729316666667","6501000","淡水區"
"252002","178-VK","2019/08/03 16:59:28","新北市三芝區忠孝街177號","121.505275","25.26161","6502100","三芝區"
"233002","762-BX","2019/08/03 16:59:25","新北市烏來區啦卡路9巷36號","121.554456666667","24.8604983333333","6502900","烏來區"
"247010","KED-0683","2019/08/03 16:59:17","新北市蘆洲區復興路355巷38號","121.47686","25.0967483333333","6501400","蘆洲區"
"252001","KED-0821","2019/08/03 16:59:26","新北市三芝區淡金路二段76號","121.503696666667","25.260795","6502100","三芝區"
"242061","986-R7","2019/08/03 16:59:17","新北市新莊區新泰路255巷83號","121.442253333333","25.0390366666667","6500500","新莊區"
"242002","751-BX","2019/08/03 16:59:22","新北市新莊區三和路12-21號","121.44227","25.0385733333333","6500500","新莊區"
"242029","615-BX","2019/08/03 16:59:29","新北市新莊區新泰路357巷3弄57號","121.442061666667","25.03936","6500500","新莊區"
"242058","612-BX","2019/08/03 16:59:28","新北市新莊區新泰路255巷83號","121.442333333333","25.0391666666667","6500500","新莊區"
"242007","442-UM","2019/08/03 16:59:19","新北市新莊區新泰路357巷2-2號","121.441983333333","25.041055","6500500","新莊區"
"242004","440-UM","2019/08/03 16:59:24","新北市新莊區新泰路255巷83號","121.4425","25.03893","6500500","新莊區"
"242042","415-TV","2019/08/03 16:59:13","新北市新莊區三和路12-21號","121.442221666667","25.038575","6500500","新莊區"
"242011","413-TV","2019/08/03 16:59:22","新北市新莊區新泰路357巷3弄57號","121.441915","25.0394716666667","6500500","新莊區"
"242025","362-BY","2019/08/03 16:59:15","新北市新莊區新泰路357巷3弄57號","121.442171666667","25.0392666666667","6500500","新莊區"
"242021","175-VK","2019/08/03 16:59:24","新北市新莊區三和路12-21號","121.441963333333","25.03866","6500500","新莊區"
"242019","KED-0687","2019/08/03 16:59:30","新北市新莊區三和路12-21號","121.442213333333","25.0380283333333","6500500","新莊區"
"242009","346-TH","2019/08/03 16:59:29","新北市新莊區三和路12-21號","121.442038333333","25.0383583333333","6500500","新莊區"
"242034","348-TH","2019/08/03 16:59:29","新北市新莊區新泰路255巷83號","121.442196666667","25.03902","6500500","新莊區"
"242017","351-TH","2019/08/03 16:59:14","新北市新莊區新泰路357巷3弄57號","121.442015","25.039475","6500500","新莊區"
"238018","KEA-2217","2019/08/03 16:59:28","新北市樹林區育德街78-1號","121.388033333333","24.968025","6500700","樹林區"
"238017","283-BY","2019/08/03 16:59:17","新北市樹林區八德街682號","121.39624","24.9689716666667","6500700","樹林區"
"239007","AAC-297","2019/08/03 16:59:15","新北市鶯歌區二甲路13-16號","121.345163333333","24.9351833333333","6500800","鶯歌區"
"239006","891-R6","2019/08/03 16:59:32","新北市鶯歌區二甲路13-16號","121.345048333333","24.9352166666667","6500800","鶯歌區"
"239004","193-VK","2019/08/03 16:59:20","新北市鶯歌區二甲路175號","121.344653333333","24.93554","6500800","鶯歌區"
"233001","KEA-2870","2019/08/03 16:59:23","新北市烏來區烏來街45-1號","121.551743333333","24.8649716666667","6502900","烏來區"
"242044","281-VK","2019/08/03 16:59:23","新北市新莊區三和路12-21號","121.442206666667","25.038375","6500500","新莊區"
