"lineid","car","time","location","longitude","latitude","cityid","cityname"
"234026","9371-KE","2019/08/03 18:09:14","新北市永和區秀朗路一段10巷17號","121.513576666667","25.006335","6500400","永和區"
"249005","172-UM","2019/08/03 18:09:23","新北市八里區荖阡坑路15-40號","121.40173","25.1398566666667","6502300","八里區"
"249001","173-UM","2019/08/03 18:09:29","新北市八里區龍米路二段30號","121.448693333333","25.1401566666667","6502300","八里區"
"249004","303-UY","2019/08/03 18:09:17","新北市八里區龍米路二段150號","121.436501666667","25.15637","6502300","八里區"
"249002","305-UY","2019/08/03 18:09:32","新北市八里區龍米路一段356巷46號","121.452196666667","25.1301633333333","6502300","八里區"
"249003","593-UM","2019/08/03 18:09:17","新北市八里區中華路二段269-1號","121.401643333333","25.1456483333333","6502300","八里區"
"248006","077-UY","2019/08/03 18:09:28","新北市五股區中興路二段61號","121.46138","25.076855","6501500","五股區"
"248008","KED-0815","2019/08/03 18:09:22","新北市五股區更洲路32巷15弄9號","121.458208333333","25.0805016666667","6501500","五股區"
"248020","KED-0813","2019/08/03 18:09:31","新北市五股區凌雲路一段21號","121.45484","25.0983833333333","6501500","五股區"
"248014","261-SL","2019/08/03 18:09:27","新北市五股區成泰路一段191號","121.43484","25.0765916666667","6501500","五股區"
"248004","677-BX","2019/08/03 18:09:32","新北市五股區中興路四段48巷1號","121.438221666667","25.08294","6501500","五股區"
"232011","375-UM","2019/08/03 18:09:26","新北市坪林區坪林街16-1號","121.712515","24.93631","6502000","坪林區"
"244007","080-UY","2019/08/03 18:09:15","新北市林口區林口路114號","121.388651666667","25.0813966666667","6501700","林口區"
"244013","KEA-2802","2019/08/03 18:09:14","新北市林口區佳林路101巷34號","121.386945","25.08002","6501700","林口區"
"244023","483-VK","2019/08/03 18:09:13","新北市林口區東湖路93巷99號","121.385516666667","25.0703583333333","6501700","林口區"
"244017","485-VK","2019/08/03 18:09:13","新北市林口區八德路32號","121.367766666667","25.066715","6501700","林口區"
"244009","656-BX","2019/08/03 18:09:19","新北市林口區佳林路88號","121.385615","25.079995","6501700","林口區"
"244011","701-TV","2019/08/03 18:09:23","新北市林口區中正路74巷5弄4號","121.394533333333","25.0779966666667","6501700","林口區"
"244025","837-TS","2019/08/03 18:09:17","新北市林口區文化北路一段301-1號","121.360403333333","25.0727216666667","6501700","林口區"
"244021","838-TS","2019/08/03 18:09:14","新北市林口區自強八街23號","121.40008","25.0758383333333","6501700","林口區"
"222003","436-BY","2019/08/03 18:09:33","新北市深坑區阿柔洋45號","121.61224","24.9979866666667","6501800","深坑區"
"222002","659-BX","2019/08/03 18:09:13","新北市深坑區文化街52號","121.618928333333","25.0016583333333","6501800","深坑區"
"231058","0293-UT","2019/08/03 18:09:25","新北市新店區安華路28-1號","121.519653333333","24.9605233333333","6500600","新店區"
"231044","046-UY","2019/08/03 18:09:16","新北市新店區安華路1-1號","121.519185","24.9605316666667","6500600","新店區"
"231060","106-UY","2019/08/03 18:09:27","新北市新店區安華路28-1號","121.519653333333","24.9608433333333","6500600","新店區"
"231051","107-UY","2019/08/03 18:09:29","新北市新店區安一路一段1-1號","121.519495","24.9611033333333","6500600","新店區"
"231050","KEA-2219","2019/08/03 18:09:16","新北市新店區安一路一段1-1號","121.519956666667","24.96126","6500600","新店區"
"231042","268-BY","2019/08/03 18:09:20","新北市新店區安一路一段1-1號","121.51974","24.9613733333333","6500600","新店區"
"231045","355-BY","2019/08/03 18:09:18","新北市新店區安華路28-1號","121.519038333333","24.9607183333333","6500600","新店區"
"231055","4716-K9","2019/08/03 18:09:15","新北市新店區安華路28-1號","121.519853333333","24.960505","6500600","新店區"
"231056","4715-K9","2019/08/03 18:09:29","新北市新店區安華路1-1號","121.519223333333","24.9604483333333","6500600","新店區"
"231040","617-UM","2019/08/03 18:09:29","新北市新店區安一路一段1-1號","121.519386666667","24.9610283333333","6500600","新店區"
"231063","641-BX","2019/08/03 18:09:18","新北市新店區安華路1-1號","121.51948","24.96035","6500600","新店區"
"231048","718-UY","2019/08/03 18:09:23","新北市新店區安一路一段1-1號","121.519458333333","24.961175","6500600","新店區"
"231059","897-TW","2019/08/03 18:09:21","新北市新店區安華路1-1號","121.519525","24.9605183333333","6500600","新店區"
"231066","AKT-0513","2019/08/03 18:09:26","新北市新店區安華路1-1號","121.519295","24.96032","6500600","新店區"
"241033","AAC-255","2019/08/03 18:09:30","新北市三重區中興北街42巷13號","121.469095","25.04946","6500200","三重區"
"235063","006-UY","2019/08/03 18:09:26","新北市中和區員山路36巷16-3號","121.48505","24.9913916666667","6500300","中和區"
"235039","097-UM","2019/08/03 18:09:15","新北市中和區中正路637巷52弄1號","121.485495","24.993325","6500300","中和區"
"235065","098-UM","2019/08/03 18:09:28","新北市中和區莊敬路49巷18號","121.501636666667","25.0061816666667","6500300","中和區"
"235040","150-BY","2019/08/03 18:09:28","新北市中和區中正路262-1號","121.495415","24.99413","6500300","中和區"
"235058","151-BY","2019/08/03 18:09:29","新北市中和區圓通路367巷33弄39號","121.495163333333","24.98554","6500300","中和區"
"235055","183-VK","2019/08/03 18:09:29","新北市中和區員山路36巷16-3號","121.484993333333","24.9913016666667","6500300","中和區"
"235038","185-VK","2019/08/03 18:09:18","新北市中和區景平路105號","121.516911666667","24.99205","6500300","中和區"
"235072","301-VK","2019/08/03 18:09:32","新北市中和區錦和路111-1號","121.490206666667","24.9951483333333","6500300","中和區"
"235043","352-BY","2019/08/03 18:09:28","新北市中和區中正路273號","121.495578333333","24.993795","6500300","中和區"
"235042","KEA-2878","2019/08/03 18:09:24","新北市中和區中正路276號","121.494796666667","24.99402","6500300","中和區"
"235070","558-UM","2019/08/03 18:09:29","新北市中和區圓通路148號","121.498131666667","24.995865","6500300","中和區"
"235045","565-BX","2019/08/03 18:09:28","新北市中和區板南路100號","121.503748333333","24.992395","6500300","中和區"
"235060","KED-0823","2019/08/03 18:09:30","新北市中和區員山路72號","121.48096","24.9935716666667","6500300","中和區"
"235054","640-BX","2019/08/03 18:09:22","新北市中和區莒光路203號","121.472583333333","24.998995","6500300","中和區"
"235071","783-BX","2019/08/03 18:09:16","新北市中和區員山路36巷16-2號","121.48531","24.9912333333333","6500300","中和區"
"235062","800-TS","2019/08/03 18:09:19","新北市中和區景平路999巷1號","121.495496666667","25.00602","6500300","中和區"
"235057","801-TS","2019/08/03 18:09:25","新北市中和區民享街97巷19號","121.475453333333","24.9995433333333","6500300","中和區"
"235052","805-TS","2019/08/03 18:09:25","新北市中和區中正路10號","121.502973333333","24.9936016666667","6500300","中和區"
"235053","900-TW","2019/08/03 18:09:16","新北市中和區員山路36巷16-2號","121.485233333333","24.9914683333333","6500300","中和區"
"235064","911-UM","2019/08/03 18:09:17","新北市中和區中正路78號","121.500425","24.9936383333333","6500300","中和區"
"235051","157-BY","2019/08/03 18:09:28","新北市中和區復興路276號","121.502603333333","24.9904516666667","6500300","中和區"
"235037","AAC-213","2019/08/03 18:09:23","新北市中和區景德街72號","121.51685","24.9914966666667","6500300","中和區"
"247002","500-BY","2019/08/03 18:09:28","新北市蘆洲區三民路609號","121.460275","25.093485","6501400","蘆洲區"
"247020","007-UY","2019/08/03 18:09:21","新北市蘆洲區民權路137巷5號","121.47143","25.090065","6501400","蘆洲區"
"226004","312-R5","2019/08/03 18:09:13","新北市平溪區白石里中埔132號","121.723368333333","25.0225133333333","6502400","平溪區"
"228003","097-TW","2019/08/03 18:09:34","新北市貢寮區真理里美艷山街6-2號","121.92898","25.0607533333333","6502600","貢寮區"
"228001","212-TW","2019/08/03 18:09:29","新北市貢寮區真理里新港街26巷55弄2-1號","121.92737","25.0528816666667","6502600","貢寮區"
"228002","663-BX","2019/08/03 18:09:22","新北市貢寮區福連里馬崗街1號","121.995465","25.01552","6502600","貢寮區"
"224006","676-BX","2019/08/03 18:09:25","新北市瑞芳區中山路82號","121.802523333333","25.1065183333333","6501200","瑞芳區"
"224007","285-BY","2019/08/03 18:09:15","新北市瑞芳區四腳亭坑路8號","121.777753333333","25.10969","6501200","瑞芳區"
"224009","275-VK","2019/08/03 18:09:18","新北市瑞芳區金光路213號","121.852615","25.1075866666667","6501200","瑞芳區"
"224008","273-VK","2019/08/03 18:09:28","新北市瑞芳區明燈路一段45巷109號","121.822073333333","25.1036516666667","6501200","瑞芳區"
"224005","271-BY","2019/08/03 18:09:29","新北市瑞芳區深澳路9號","121.816518333333","25.1288533333333","6501200","瑞芳區"
"227002","642-TC","2019/08/03 18:09:13","新北市雙溪區共和里東榮街52號","121.866353333333","25.03345","6502500","雙溪區"
"227001","400-TW","2019/08/03 18:09:14","新北市雙溪區三貂里定福路1-2號","121.850736666667","25.0633566666667","6502500","雙溪區"
"253006","032-BX","2019/08/03 18:09:26","新北市石門區大丘田6號","121.547416666667","25.2848716666667","6502200","石門區"
"253005","295-VK","2019/08/03 18:09:31","新北市石門區福安街53號","121.56838","25.2917216666667","6502200","石門區"
"222001","KEA-2212","2019/08/03 18:09:29","新北市深坑區北深路二段190號","121.613861666667","25.0024166666667","6501800","深坑區"
"208002","KEA-2872","2019/08/03 18:09:30","新北市金山區半嶺1號","121.61906","25.2335333333333","6502700","金山區"
"208003","665-BX","2019/08/03 18:09:17","新北市金山區磺港里磺港路308號","121.643941666667","25.2275166666667","6502700","金山區"
"251009","008-UM","2019/08/03 18:09:20","新北市淡水區大仁街6巷25號","121.443058333333","25.1752033333333","6501000","淡水區"
"251004","009-UM","2019/08/03 18:09:16","新北市淡水區民族路110巷43弄1號","121.461571666667","25.1352133333333","6501000","淡水區"
"251005","010-UM","2019/08/03 18:09:22","新北市淡水區水源街一段120號","121.447181666667","25.1717333333333","6501000","淡水區"
"251001","011-UM","2019/08/03 18:09:15","新北市淡水區自立路10號","121.463105","25.129735","6501000","淡水區"
"251010","012-UM","2019/08/03 18:09:14","新北市淡水區沙崙路129號","121.422421666667","25.18232","6501000","淡水區"
"251015","KEA-2871","2019/08/03 18:09:12","新北市淡水區興福寮88巷1號","121.485318333333","25.1649983333333","6501000","淡水區"
"251016","179-VK","2019/08/03 18:09:18","新北市淡水區下圭柔山15-1號","121.45283","25.2019483333333","6501000","淡水區"
"251008","181-VK","2019/08/03 18:09:17","新北市淡水區淡金路16巷80號","121.460383333333","25.16049","6501000","淡水區"
"251013","182-VK","2019/08/03 18:09:28","新北市淡水區演戲埔腳1-2號","121.476176666667","25.193985","6501000","淡水區"
"251012","441-VK","2019/08/03 18:09:18","新北市淡水區北新路三段73號","121.485413333333","25.1879016666667","6501000","淡水區"
"251006","561-UM","2019/08/03 18:09:19","新北市淡水區真理街3巷20號","121.437525","25.1760083333333","6501000","淡水區"
"251014","577-R6","2019/08/03 18:09:23","新北市淡水區南平15號","121.488581666667","25.2189816666667","6501000","淡水區"
"251011","650-BX","2019/08/03 18:09:25","新北市淡水區三空泉5號","121.476943333333","25.1614733333333","6501000","淡水區"
"251002","672-BX","2019/08/03 18:09:26","新北市淡水區中正東路40號","121.450096666667","25.1651316666667","6501000","淡水區"
"251003","766-UM","2019/08/03 18:09:31","新北市淡水區大忠街113巷18號","121.44719","25.1775483333333","6501000","淡水區"
"207003","550-UM","2019/08/03 18:09:21","新北市萬里區野柳里港東路157號","121.690005","25.2049466666667","6502800","萬里區"
"207004","225-TW","2019/08/03 18:09:19","新北市萬里區中幅里中福路89號","121.676428333333","25.1711133333333","6502800","萬里區"
"252002","178-VK","2019/08/03 18:09:28","新北市三芝區中山路二段38號","121.50299","25.25513","6502100","三芝區"
"252003","249-BX","2019/08/03 18:09:30","新北市三芝區埔頭里埔頭37號","121.498488333333","25.260345","6502100","三芝區"
"208001","170-UY","2019/08/03 18:09:29","新北市金山區磺港里磺港路61號","121.647561666667","25.2273666666667","6502700","金山區"
"237007","153-BY","2019/08/03 18:09:32","新北市三峽區中正路二段368號","121.365565","24.9098833333333","6500900","三峽區"
"237009","210-TH","2019/08/03 18:09:16","新北市三峽區大仁路50巷4號","121.365385","24.937725","6500900","三峽區"
"237013","252-BX","2019/08/03 18:09:32","新北市三峽區介壽路一段185號","121.377145","24.931535","6500900","三峽區"
"237012","275-BY","2019/08/03 18:09:18","新北市三峽區民生街1巷1-22號","121.377716666667","24.93565","6500900","三峽區"
"237008","302-VK","2019/08/03 18:09:16","新北市三峽區白雞58-29號","121.386303333333","24.9095283333333","6500900","三峽區"
"237014","433-BY","2019/08/03 18:09:14","新北市三峽區復興路110巷4弄9號","121.373313333333","24.9384083333333","6500900","三峽區"
"237006","5529-G3","2019/08/03 18:09:29","新北市三峽區溪東路34巷13號","121.400471666667","24.9346083333333","6500900","三峽區"
"237011","KEA-2596","2019/08/03 18:09:17","新北市三峽區大同路9號","121.377493333333","24.92879","6500900","三峽區"
"237015","649-BX","2019/08/03 18:09:30","新北市三峽區紫新路47號","121.422141666667","24.921845","6500900","三峽區"
"237010","706-TV","2019/08/03 18:09:34","新北市三峽區中園街20號","121.368296666667","24.92707","6500900","三峽區"
"237004","756-BX","2019/08/03 18:09:17","新北市三峽區大埔路325號","121.370036666667","24.8985916666667","6500900","三峽區"
"237005","AKY-6261","2019/08/03 18:09:30","新北市三峽區民生街247號","121.370728333333","24.9348516666667","6500900","三峽區"
"236042","KED-0685","2019/08/03 18:09:12","新北市土城區城林路6巷80號","121.438505","24.9797616666667","6501300","土城區"
"233002","762-BX","2019/08/03 18:09:25","新北市烏來區新烏路五段56號","121.544891666667","24.8754016666667","6502900","烏來區"
"236079","166-UM","2019/08/03 18:09:18","新北市土城區永寧路27巷1號","121.430745","24.9636983333333","6501300","土城區"
"236030","253-BX","2019/08/03 18:09:17","新北市土城區城林路6巷80號","121.438561666667","24.979805","6501300","土城區"
"236026","269-VK","2019/08/03 18:09:17","新北市土城區承天路67號","121.43962","24.9634","6501300","土城區"
"236014","270-VK","2019/08/03 18:09:31","新北市土城區青雲路35號","121.460256666667","24.98835","6501300","土城區"
"236038","271-VK","2019/08/03 18:09:26","新北市土城區青雲路451巷2弄2號","121.459048333333","24.9745816666667","6501300","土城區"
"236070","KEA-2877","2019/08/03 18:09:24","新北市土城區石門路12號","121.45937","24.9679483333333","6501300","土城區"
"252001","KED-0821","2019/08/03 18:09:25","新北市三芝區中興街二段2號","121.498316666667","25.2566783333333","6502100","三芝區"
"236021","401-BY","2019/08/03 18:09:16","新北市土城區金城路二段8-1號","121.448886666667","24.97707","6501300","土城區"
"236059","912-UM","2019/08/03 18:09:28","新北市土城區中央路四段236號","121.415373333333","24.9570583333333","6501300","土城區"
"236049","913-UM","2019/08/03 18:09:30","新北市土城區明德路一段365-1號","121.453525","24.979035","6501300","土城區"
"236063","915-UM","2019/08/03 18:09:19","新北市土城區明德路一段385-1號","121.453148333333","24.98045","6501300","土城區"
"236055","AAC-216","2019/08/03 18:09:24","新北市土城區中華路二段92號","121.438291666667","24.9747","6501300","土城區"
"242039","AAC-296","2019/08/03 18:09:31","新北市新莊區民安西路38巷2號","121.42712","25.0210666666667","6500500","新莊區"
"242061","986-R7","2019/08/03 18:09:17","新北市新莊區新樹路69-34號","121.438195","25.0288466666667","6500500","新莊區"
"242002","751-BX","2019/08/03 18:09:21","新北市新莊區新莊路22號","121.458583333333","25.0373766666667","6500500","新莊區"
"242029","615-BX","2019/08/03 18:09:29","新北市新莊區幸福路858號","121.44382","25.0490816666667","6500500","新莊區"
"242058","612-BX","2019/08/03 18:09:28","新北市新莊區新北大道七段162-1號","121.415888333333","25.031475","6500500","新莊區"
"242046","566-BX","2019/08/03 18:09:22","新北市新莊區民安路46號","121.422675","25.02748","6500500","新莊區"
"242007","442-UM","2019/08/03 18:09:28","新北市新莊區自重街2號","121.453385","25.04751","6500500","新莊區"
"242056","441-UM","2019/08/03 18:09:27","新北市新莊區豐年街55-10號","121.446543333333","25.0307283333333","6500500","新莊區"
"242004","440-UM","2019/08/03 18:09:25","新北市新莊區自由街34號","121.45586","25.0465166666667","6500500","新莊區"
"242042","415-TV","2019/08/03 18:09:23","新北市新莊區天祥街135巷8弄2號","121.413701666667","25.0294316666667","6500500","新莊區"
"242011","413-TV","2019/08/03 18:08:22","新北市新莊區中榮街84號","121.448048333333","25.0527916666667","6500500","新莊區"
"242048","400-BY","2019/08/03 18:09:32","新北市新莊區萬安街47巷29號","121.422788333333","25.0242216666667","6500500","新莊區"
"242025","362-BY","2019/08/03 18:09:15","新北市新莊區五權一路120號","121.460038333333","25.0683533333333","6500500","新莊區"
"242013","132-UY","2019/08/03 18:09:32","新北市新莊區新泰路528號","121.442055","25.0475283333333","6500500","新莊區"
"242036","135-UY","2019/08/03 18:09:20","新北市新莊區後港一路65巷11弄11號","121.425728333333","25.0270916666667","6500500","新莊區"
"242053","172-VK","2019/08/03 18:09:23","新北市新莊區西盛街430號","121.426998333333","25.011945","6500500","新莊區"
"242015","173-VK","2019/08/03 18:09:19","新北市新莊區中和街59巷26號","121.446276666667","25.04673","6500500","新莊區"
"242021","175-VK","2019/08/03 18:09:24","新北市新莊區新興街98巷1號","121.450626666667","25.0388116666667","6500500","新莊區"
"242019","KED-0687","2019/08/03 18:09:30","新北市新莊區長青街37巷22弄2號","121.456095","25.0413116666667","6500500","新莊區"
"242009","346-TH","2019/08/03 18:09:29","新北市新莊區昌平街71巷16號","121.453636666667","25.0537533333333","6500500","新莊區"
"242051","347-TH","2019/08/03 18:09:31","新北市新莊區民本街29巷21號","121.429061666667","25.0190116666667","6500500","新莊區"
"242034","348-TH","2019/08/03 18:09:29","新北市新莊區福海街24巷6號","121.445616666667","25.0340783333333","6500500","新莊區"
"242031","350-TH","2019/08/03 18:09:30","新北市新莊區新泰路289巷7號","121.445115","25.040515","6500500","新莊區"
"242017","351-TH","2019/08/03 18:09:24","新北市新莊區中港路325號","121.452433333333","25.0450716666667","6500500","新莊區"
"238015","755-BX","2019/08/03 18:09:25","新北市樹林區文德街7號","121.418958333333","24.9914833333333","6500700","樹林區"
"238023","601-UM","2019/08/03 18:09:26","新北市樹林區三福街67巷2號","121.407685","25.0159983333333","6500700","樹林區"
"238019","599-UM","2019/08/03 18:09:20","新北市樹林區中華路73號","121.423035","24.98308","6500700","樹林區"
"238018","KEA-2217","2019/08/03 18:09:28","新北市樹林區保順街85號","121.429115","24.99452","6500700","樹林區"
"238022","KEA-2213","2019/08/03 18:09:23","新北市樹林區太平路174巷22號","121.417658333333","24.9767016666667","6500700","樹林區"
"238021","KEA-2539","2019/08/03 18:09:23","新北市樹林區柑園街二段172號","121.381895","24.95419","6500700","樹林區"
"238025","303-VK","2019/08/03 18:09:30","新北市樹林區保安街二段311號","121.412428333333","25.0068666666667","6500700","樹林區"
"238017","283-BY","2019/08/03 18:09:08","新北市樹林區中正路698號","121.409321666667","25.01751","6500700","樹林區"
"238014","282-BY","2019/08/03 18:09:24","新北市樹林區潭興街107巷21弄1號","121.424196666667","24.998825","6500700","樹林區"
"238020","268-VK","2019/08/03 18:09:19","新北市樹林區三俊街147號","121.418736666667","25.0155816666667","6500700","樹林區"
"238026","172-UY","2019/08/03 18:09:15","新北市樹林區佳園路一段50號","121.39297","24.9706733333333","6500700","樹林區"
"238016","169-UY","2019/08/03 18:09:09","新北市樹林區中山路一段242巷4號","121.420788333333","24.9877966666667","6500700","樹林區"
"239007","AAC-297","2019/08/03 18:09:15","新北市鶯歌區尖山埔路102號","121.347231666667","24.951145","6500800","鶯歌區"
"239006","891-R6","2019/08/03 18:09:32","新北市鶯歌區鶯桃路383號","121.333465","24.9636066666667","6500800","鶯歌區"
"239008","527-UM","2019/08/03 18:09:27","新北市鶯歌區朝陽街48巷2號","121.33754","24.9778216666667","6500800","鶯歌區"
"239005","526-UM","2019/08/03 18:09:29","新北市鶯歌區鶯桃路668巷73號","121.329953333333","24.9717966666667","6500800","鶯歌區"
"239001","417-VK","2019/08/03 18:09:35","新北市鶯歌區尖山路卓厝巷7號","121.34175","24.9453066666667","6500800","鶯歌區"
"239003","360-BY","2019/08/03 18:09:32","新北市鶯歌區福安街32巷34號","121.335326666667","24.96355","6500800","鶯歌區"
"239002","359-BY","2019/08/03 18:09:17","新北市鶯歌區中山路249巷4弄57號","121.34736","24.956615","6500800","鶯歌區"
"221008","489-VK","2019/08/03 18:09:15","新北市汐止區明峰街200-1號","121.627566666667","25.0694816666667","6501100","汐止區"
"221036","130-UY","2019/08/03 18:09:33","新北市汐止區大同路三段116號","121.672033333333","25.076765","6501100","汐止區"
"221015","131-UY","2019/08/03 18:09:30","新北市汐止區長江街287號","121.66536","25.0812633333333","6501100","汐止區"
"244019","KED-0667","2019/08/03 18:09:22","新北市林口區麗園路56號","121.373398333333","25.0695266666667","6501700","林口區"
"221010","269-BY","2019/08/03 18:09:24","新北市汐止區汐萬路二段242號","121.64637","25.0886233333333","6501100","汐止區"
"221012","278-VK","2019/08/03 18:09:21","新北市汐止區長興街二段50巷29號","121.674588333333","25.08112","6501100","汐止區"
"221023","279-VK","2019/08/03 18:09:29","新北市汐止區民族五街59號","121.628495","25.0707","6501100","汐止區"
"221032","280-BY","2019/08/03 18:09:23","新北市汐止區橫科路73巷22-2號","121.61936","25.0515266666667","6501100","汐止區"
"221033","297-VK","2019/08/03 18:09:20","新北市汐止區林森街21號","121.621791666667","25.0405616666667","6501100","汐止區"
"221029","298-VK","2019/08/03 18:09:17","新北市汐止區樟樹二路132號","121.640063333333","25.0655433333333","6501100","汐止區"
"221021","299-VK","2019/08/03 18:09:21","新北市汐止區新興路6號","121.656326666667","25.064925","6501100","汐止區"
"221031","353-TW","2019/08/03 18:09:22","新北市汐止區中興路216號","121.631028333333","25.0662716666667","6501100","汐止區"
"221035","622-UM","2019/08/03 18:09:18","新北市汐止區汐萬路一段115巷24號","121.653848333333","25.07055","6501100","汐止區"
"221025","623-UM","2019/08/03 18:09:30","新北市汐止區勤進路1號","121.660446666667","25.062015","6501100","汐止區"
"221038","646-BX","2019/08/03 18:09:21","新北市汐止區南興路81號","121.652773333333","25.05929","6501100","汐止區"
"221002","707-TV","2019/08/03 18:09:20","新北市汐止區福德一路215號","121.634645","25.0652983333333","6501100","汐止區"
"221018","753-BX","2019/08/03 18:09:24","新北市汐止區招商街20號","121.66671","25.06844","6501100","汐止區"
"233001","KEA-2870","2019/08/03 18:09:23","新北市烏來區新烏路五段121號","121.547665","24.8711616666667","6502900","烏來區"
"224002","257-TC","2019/08/03 18:09:11","新北市瑞芳區三爪子坑路48號","121.810606666667","25.1057333333333","6501200","瑞芳區"
"242044","281-VK","2019/08/03 18:09:23","新北市新莊區雙鳳路155號","121.412831666667","25.026995","6500500","新莊區"
"235068","KEA-2873","2019/08/03 18:09:06","新北市中和區員山路36巷16-3號","121.485146666667","24.9912","6500300","中和區"
