"lineid","car","time","location","longitude","latitude","cityid","cityname"
"234017","745-BX","2019/08/03 18:19:21","新北市永和區福和路1號","121.52632","25.009595","6500400","永和區"
"234007","KED-0605","2019/08/03 18:19:30","新北市永和區環河西路二段173號","121.505053333333","25.0136583333333","6500400","永和區"
"234013","KEA-2591","2019/08/03 18:19:21","新北市永和區福和路1號","121.52619","25.0095416666667","6500400","永和區"
"234026","9371-KE","2019/08/03 18:19:34","新北市永和區豫溪街42巷15號","121.515386666667","25.0090916666667","6500400","永和區"
"249005","172-UM","2019/08/03 18:19:23","新北市八里區荖阡坑路15號","121.40125","25.1401166666667","6502300","八里區"
"249001","173-UM","2019/08/03 18:19:29","新北市八里區龍米路一段131號","121.45218","25.1267833333333","6502300","八里區"
"249004","303-UY","2019/08/03 18:19:16","新北市八里區龍米路二段236-2號","121.431501666667","25.15891","6502300","八里區"
"249002","305-UY","2019/08/03 18:19:32","新北市八里區龍形二街29號","121.45051","25.1326716666667","6502300","八里區"
"248016","026-BX","2019/08/03 18:19:22","新北市五股區成泰路三段477巷18號","121.449908333333","25.0988833333333","6501500","五股區"
"248006","077-UY","2019/08/03 18:19:28","新北市五股區中興路一段84號","121.466701666667","25.0731083333333","6501500","五股區"
"248008","KED-0815","2019/08/03 18:19:22","新北市五股區更洲路32巷8弄14號","121.459251666667","25.0796133333333","6501500","五股區"
"248020","KED-0813","2019/08/03 18:19:31","新北市五股區孝義路31號","121.45431","25.1100883333333","6501500","五股區"
"248012","247-BX","2019/08/03 18:19:20","新北市五股區御史路1巷101弄2號","121.441023333333","25.091155","6501500","五股區"
"248014","261-SL","2019/08/03 18:19:28","新北市五股區自強路49號","121.433333333333","25.0734933333333","6501500","五股區"
"248010","272-BY","2019/08/03 18:19:14","新北市五股區成泰路一段193號","121.434948333333","25.0765683333333","6501500","五股區"
"248004","677-BX","2019/08/03 18:19:25","新北市五股區成泰路二段149號","121.4392","25.0855833333333","6501500","五股區"
"232011","375-UM","2019/08/03 18:19:26","新北市坪林區坪雙路一段41號","121.71171","24.942435","6502000","坪林區"
"244007","080-UY","2019/08/03 18:19:35","新北市林口區後湖13-1號","121.387918333333","25.0980633333333","6501700","林口區"
"244013","KEA-2802","2019/08/03 18:19:34","新北市林口區文化一路二段192號","121.382823333333","25.0803183333333","6501700","林口區"
"244023","483-VK","2019/08/03 18:19:33","新北市林口區東湖路153巷2號","121.382728333333","25.0728416666667","6501700","林口區"
"244017","485-VK","2019/08/03 18:19:13","新北市林口區公園路3號","121.366215","25.0661116666667","6501700","林口區"
"244009","656-BX","2019/08/03 18:19:19","新北市林口區民生路115號","121.3768","25.0887466666667","6501700","林口區"
"244011","701-TV","2019/08/03 18:19:23","新北市林口區仁愛路一段292號","121.39277","25.07641","6501700","林口區"
"244025","837-TS","2019/08/03 18:19:17","新北市林口區南勢七街51號","121.355703333333","25.0692816666667","6501700","林口區"
"244021","838-TS","2019/08/03 18:19:14","新北市林口區自強一街36號","121.398956666667","25.0777333333333","6501700","林口區"
"222003","436-BY","2019/08/03 18:19:33","新北市深坑區旺耽路67號","121.626245","25.0030033333333","6501800","深坑區"
"222002","659-BX","2019/08/03 18:19:33","新北市深坑區文山路一段62巷25號","121.621711666667","25.0008066666667","6501800","深坑區"
"231061","002-UM","2019/08/03 18:19:31","新北市新店區安華路28-1號","121.519608333333","24.960785","6500600","新店區"
"231058","0293-UT","2019/08/03 18:19:25","新北市新店區安康路一段23號","121.53298","24.9602733333333","6500600","新店區"
"231044","046-UY","2019/08/03 18:19:16","新北市新店區安華路28-1號","121.519218333333","24.9606566666667","6500600","新店區"
"231060","106-UY","2019/08/03 18:19:27","新北市新店區安華路28-1號","121.519838333333","24.960795","6500600","新店區"
"231051","107-UY","2019/08/03 18:19:29","新北市新店區安一路一段1-1號","121.51939","24.9610966666667","6500600","新店區"
"231050","KEA-2219","2019/08/03 18:19:16","新北市新店區安一路一段1-1號","121.520026666667","24.9612383333333","6500600","新店區"
"231042","268-BY","2019/08/03 18:19:20","新北市新店區安一路一段1-1號","121.519726666667","24.961505","6500600","新店區"
"231045","355-BY","2019/08/03 18:19:18","新北市新店區安華路28-1號","121.519033333333","24.9608366666667","6500600","新店區"
"231055","4716-K9","2019/08/03 18:19:35","新北市新店區安康路一段92號","121.527966666667","24.9619933333333","6500600","新店區"
"231056","4715-K9","2019/08/03 18:19:29","新北市新店區中央路210-1號","121.53004","24.97365","6500600","新店區"
"231040","617-UM","2019/08/03 18:19:29","新北市新店區安華路28-1號","121.519303333333","24.9608733333333","6500600","新店區"
"231063","641-BX","2019/08/03 18:19:18","新北市新店區安華路1-1號","121.519496666667","24.9603933333333","6500600","新店區"
"231048","718-UY","2019/08/03 18:19:23","新北市新店區安華路28-1號","121.519465","24.960995","6500600","新店區"
"231057","720-UM","2019/08/03 18:19:35","新北市新店區安一路一段1-1號","121.519046666667","24.9613033333333","6500600","新店區"
"231059","897-TW","2019/08/03 18:19:21","新北市新店區安華路1-1號","121.519521666667","24.9603916666667","6500600","新店區"
"231066","AKT-0513","2019/08/03 18:19:26","新北市新店區安華路1-1號","121.519315","24.9602683333333","6500600","新店區"
"235066","003-UY","2019/08/03 18:19:14","新北市中和區中山路二段122號","121.502591666667","25.0038283333333","6500300","中和區"
"235063","006-UY","2019/08/03 18:19:26","新北市中和區中正路530號","121.487855","24.9943933333333","6500300","中和區"
"235056","096-UM","2019/08/03 18:19:12","新北市中和區中山路二段582號","121.48264","25.0051033333333","6500300","中和區"
"235039","097-UM","2019/08/03 18:19:34","新北市中和區宜安路54號","121.511926666667","24.996675","6500300","中和區"
"235065","098-UM","2019/08/03 18:19:28","新北市中和區莊敬路49巷18號","121.501626666667","25.006135","6500300","中和區"
"235040","150-BY","2019/08/03 18:19:28","新北市中和區景新街170號","121.505915","24.996605","6500300","中和區"
"235058","151-BY","2019/08/03 18:19:29","新北市中和區圓通路367巷58號","121.492283333333","24.9845716666667","6500300","中和區"
"235055","183-VK","2019/08/03 18:19:29","新北市土城區金城路三段259-1號","121.471875","24.9900933333333","6500300","中和區"
"235038","185-VK","2019/08/03 18:19:18","新北市中和區大智街42巷13號","121.522758333333","24.9921683333333","6500300","中和區"
"235049","186-VK","2019/08/03 18:19:26","新北市中和區中正路416號","121.491853333333","24.993655","6500300","中和區"
"235072","301-VK","2019/08/03 18:19:32","新北市中和區連城路171巷28號","121.495713333333","24.997295","6500300","中和區"
"235043","352-BY","2019/08/03 18:19:28","新北市中和區景平路381號","121.503831666667","24.9934283333333","6500300","中和區"
"235042","KEA-2878","2019/08/03 18:19:24","新北市中和區景平路276-1號","121.513948333333","24.9924466666667","6500300","中和區"
"235050","4979-A6","2019/08/03 18:19:25","新北市中和區捷運路65號","121.50884","24.9898483333333","6500300","中和區"
"235069","4980-A6","2019/08/03 18:19:32","新北市中和區中正路464號","121.490125","24.99423","6500300","中和區"
"235070","558-UM","2019/08/03 18:19:29","新北市中和區景平路429-2號","121.50137","24.9954433333333","6500300","中和區"
"235045","565-BX","2019/08/03 18:19:28","新北市中和區南山路236巷20弄5號","121.505696666667","24.9893366666667","6500300","中和區"
"235060","KED-0823","2019/08/03 18:19:30","新北市中和區員山路395號","121.481208333333","25.0030183333333","6500300","中和區"
"235054","640-BX","2019/08/03 18:19:22","新北市中和區民享街117巷1號","121.474585","24.99914","6500300","中和區"
"235047","732-UM","2019/08/03 18:19:34","新北市中和區中正路305號","121.492426666667","24.993685","6500300","中和區"
"235071","783-BX","2019/08/03 18:19:16","新北市中和區員山路36巷16-2號","121.485305","24.9912333333333","6500300","中和區"
"235062","800-TS","2019/08/03 18:19:19","新北市中和區景平路752號","121.496468333333","25.004495","6500300","中和區"
"235057","801-TS","2019/08/03 18:19:25","新北市中和區民享街97巷18號","121.475318333333","24.999905","6500300","中和區"
"235052","805-TS","2019/08/03 18:19:25","新北市中和區興南路二段32巷3號","121.50721","24.985535","6500300","中和區"
"235053","900-TW","2019/08/03 18:19:16","新北市中和區員山路36巷16-2號","121.485255","24.9914533333333","6500300","中和區"
"235064","911-UM","2019/08/03 18:19:17","新北市中和區圓通路141巷48弄2號","121.498753333333","24.9944366666667","6500300","中和區"
"235051","157-BY","2019/08/03 18:19:28","新北市中和區興南路二段142巷17弄45號","121.50293","24.98252","6500300","中和區"
"235037","AAC-213","2019/08/03 18:19:23","新北市中和區景德街88號","121.516098333333","24.99156","6500300","中和區"
"220065","072-UY","2019/08/03 18:19:27","新北市板橋區華東街1-9號","121.448156666667","24.9949683333333","6500100","板橋區"
"226004","312-R5","2019/08/03 18:19:33","新北市平溪區薯榔里薯榔寮32-3號","121.71135","25.0197033333333","6502400","平溪區"
"235041","251-BX","2019/08/03 18:19:25","新北市中和區中正路165號","121.498213333333","24.9936816666667","6500300","中和區"
"228003","097-TW","2019/08/03 18:19:14","新北市貢寮區真理里美艷山街63號","121.920791666667","25.0720716666667","6502600","貢寮區"
"228001","212-TW","2019/08/03 18:19:29","新北市貢寮區真理里新港街26巷55弄2-1號","121.927363333333","25.0528466666667","6502600","貢寮區"
"228002","663-BX","2019/08/03 18:19:22","新北市貢寮區福連里馬崗街1號","121.998333333333","25.016565","6502600","貢寮區"
"224006","676-BX","2019/08/03 18:19:25","新北市瑞芳區三爪子坑路106巷1-11號","121.80804","25.1052083333333","6501200","瑞芳區"
"224007","285-BY","2019/08/03 18:19:35","新北市瑞芳區大埔路有勝新村1號","121.764901666667","25.1014116666667","6501200","瑞芳區"
"224009","275-VK","2019/08/03 18:19:19","新北市瑞芳區祈堂路221號","121.856948333333","25.10946","6501200","瑞芳區"
"224008","273-VK","2019/08/03 18:19:28","新北市瑞芳區逢甲路72號","121.810526666667","25.108285","6501200","瑞芳區"
"224005","271-BY","2019/08/03 18:19:28","新北市瑞芳區建基新村39號","121.812321666667","25.1300483333333","6501200","瑞芳區"
"227002","642-TC","2019/08/03 18:19:33","新北市雙溪區共和里中山路2號","121.863801666667","25.033765","6502500","雙溪區"
"227001","400-TW","2019/08/03 18:19:14","新北市雙溪區牡丹里牡丹73號","121.851715","25.0593616666667","6502500","雙溪區"
"253006","032-BX","2019/08/03 18:19:26","新北市石門區老梅路99號","121.546893333333","25.28924","6502200","石門區"
"253005","295-VK","2019/08/03 18:19:31","新北市石門區中央路37-5號","121.568981666667","25.2961","6502200","石門區"
"222001","KEA-2212","2019/08/03 18:19:29","新北市深坑區北深路二段66號","121.618948333333","25.00428","6501800","深坑區"
"208002","KEA-2872","2019/08/03 18:19:30","新北市金山區磺清路135號","121.639448333333","25.2274716666667","6502700","金山區"
"208003","665-BX","2019/08/03 18:19:20","新北市金山區民生路196號","121.645843333333","25.2217783333333","6502700","金山區"
"251004","009-UM","2019/08/03 18:19:16","新北市淡水區民權路215巷102號","121.462765","25.1335983333333","6501000","淡水區"
"251005","010-UM","2019/08/03 18:19:22","新北市淡水區學府路51巷2弄2號","121.447721666667","25.16957","6501000","淡水區"
"251001","011-UM","2019/08/03 18:19:15","新北市淡水區自強路108-19號","121.461646666667","25.131315","6501000","淡水區"
"251010","012-UM","2019/08/03 18:19:14","新北市淡水區淡海路202號","121.420265","25.1854433333333","6501000","淡水區"
"251015","KEA-2871","2019/08/03 18:19:32","新北市淡水區興福寮66巷541號","121.484581666667","25.1652966666667","6501000","淡水區"
"251016","179-VK","2019/08/03 18:19:18","新北市淡水區淡金路三段228巷35號","121.450041666667","25.2048616666667","6501000","淡水區"
"251008","181-VK","2019/08/03 18:19:17","新北市淡水區水源街二段346巷1弄1號","121.464353333333","25.175515","6501000","淡水區"
"251013","182-VK","2019/08/03 18:19:28","新北市淡水區行忠路592號","121.468671666667","25.19932","6501000","淡水區"
"251012","441-VK","2019/08/03 18:19:18","新北市淡水區北新路二段77-13號","121.480943333333","25.1855283333333","6501000","淡水區"
"251006","561-UM","2019/08/03 18:19:19","新北市淡水區新民街76巷36弄1號","121.43942","25.17802","6501000","淡水區"
"251014","577-R6","2019/08/03 18:19:23","新北市淡水區崙頂13號","121.492055","25.2206016666667","6501000","淡水區"
"251011","650-BX","2019/08/03 18:19:25","新北市淡水區三空泉8-1號","121.476055","25.16255","6501000","淡水區"
"251002","672-BX","2019/08/03 18:19:35","新北市淡水區中正東路一段125號","121.455425","25.1593033333333","6501000","淡水區"
"251003","766-UM","2019/08/03 18:19:31","新北市淡水區北新路184巷1號","121.449545","25.1785716666667","6501000","淡水區"
"207003","550-UM","2019/08/03 18:19:17","新北市萬里區野柳里港西路70-3號","121.685386666667","25.2046433333333","6502800","萬里區"
"207004","225-TW","2019/08/03 18:19:19","新北市萬里區崁腳里內中福路1-1號","121.670953333333","25.1655666666667","6502800","萬里區"
"252002","178-VK","2019/08/03 18:19:28","新北市三芝區中山路二段38號","121.502983333333","25.255125","6502100","三芝區"
"252003","249-BX","2019/08/03 18:19:30","新北市三芝區錫板里南勢崗7號","121.479236666667","25.2619416666667","6502100","三芝區"
"208001","170-UY","2019/08/03 18:19:31","新北市金山區自強路21號","121.640431666667","25.2163266666667","6502700","金山區"
"237007","153-BY","2019/08/03 18:19:32","新北市三峽區中正路二段586號","121.35923","24.9059716666667","6500900","三峽區"
"237009","210-TH","2019/08/03 18:19:16","新北市三峽區大勇路36巷34號","121.365783333333","24.9370916666667","6500900","三峽區"
"237013","252-BX","2019/08/03 18:19:31","新北市三峽區永安街73號","121.375625","24.92971","6500900","三峽區"
"237012","275-BY","2019/08/03 18:19:18","新北市三峽區民生街1巷3-1號","121.377076666667","24.9366516666667","6500900","三峽區"
"237008","302-VK","2019/08/03 18:19:16","新北市三峽區白雞68-85號","121.392631666667","24.9086083333333","6500900","三峽區"
"237014","433-BY","2019/08/03 18:19:17","新北市三峽區民生街106號","121.373648333333","24.9354583333333","6500900","三峽區"
"237006","5529-G3","2019/08/03 18:19:27","新北市三峽區溪東路235號","121.406506666667","24.9326016666667","6500900","三峽區"
"237011","KEA-2596","2019/08/03 18:19:17","新北市三峽區介壽路二段167號","121.394561666667","24.93594","6500900","三峽區"
"237015","649-BX","2019/08/03 18:19:30","新北市三峽區竹崙路10號","121.426685","24.9227683333333","6500900","三峽區"
"237010","706-TV","2019/08/03 18:19:14","新北市三峽區民權街147號","121.368853333333","24.93169","6500900","三峽區"
"237004","756-BX","2019/08/03 18:19:17","新北市三峽區五寮41-6號","121.367545","24.86471","6500900","三峽區"
"237005","AKY-6261","2019/08/03 18:19:30","新北市三峽區長福街12號","121.370386666667","24.9337266666667","6500900","三峽區"
"236042","KED-0685","2019/08/03 18:19:32","新北市土城區裕生路21巷2弄32號","121.447915","24.9860233333333","6501300","土城區"
"233002","762-BX","2019/08/03 18:19:25","新北市烏來區金堰2號","121.548956666667","24.8834783333333","6502900","烏來區"
"236079","166-UM","2019/08/03 18:19:23","新北市土城區中央路三段281巷11弄3號","121.426431666667","24.9628816666667","6501300","土城區"
"236030","253-BX","2019/08/03 18:19:17","新北市土城區順風路24號","121.440761666667","24.9766433333333","6501300","土城區"
"236026","269-VK","2019/08/03 18:19:17","新北市土城區承天路20號","121.439546666667","24.963405","6501300","土城區"
"236014","270-VK","2019/08/03 18:19:31","新北市土城區青雲路39巷7號","121.460291666667","24.9873916666667","6501300","土城區"
"236038","271-VK","2019/08/03 18:19:26","新北市土城區青雲路483巷10弄33號","121.459491666667","24.9725266666667","6501300","土城區"
"236070","KEA-2877","2019/08/03 18:19:24","新北市土城區明德路一段93巷6號","121.466125","24.9831666666667","6501300","土城區"
"252001","KED-0821","2019/08/03 18:19:25","新北市三芝區中興街二段2號","121.498293333333","25.2566683333333","6502100","三芝區"
"236021","401-BY","2019/08/03 18:19:16","新北市土城區明德路一段93巷6號","121.466113333333","24.98315","6501300","土城區"
"236059","912-UM","2019/08/03 18:19:28","新北市土城區中央路四段466號","121.409981666667","24.9506516666667","6501300","土城區"
"236049","913-UM","2019/08/03 18:19:10","新北市土城區青雲路369號","121.458846666667","24.9761516666667","6501300","土城區"
"236063","915-UM","2019/08/03 18:19:19","新北市土城區金城路三段189-2號","121.46988","24.9889366666667","6501300","土城區"
"236055","AAC-216","2019/08/03 18:19:24","新北市土城區中華路二段92號","121.438308333333","24.974705","6501300","土城區"
"242039","AAC-296","2019/08/03 18:19:11","新北市新莊區新樹路206巷3號","121.43351","25.0204266666667","6500500","新莊區"
"242061","986-R7","2019/08/03 18:19:17","新北市新莊區民安路144巷9號","121.424006666667","25.0252233333333","6500500","新莊區"
"242002","751-BX","2019/08/03 18:19:21","新北市新莊區碧江街18-7號","121.455373333333","25.0346366666667","6500500","新莊區"
"242058","612-BX","2019/08/03 18:19:28","新北市新莊區新北大道七段786號","121.41304","25.0247066666667","6500500","新莊區"
"242046","566-BX","2019/08/03 18:19:15","新北市新莊區中正路829巷19號","121.421073333333","25.0275783333333","6500500","新莊區"
"242007","442-UM","2019/08/03 18:19:31","新北市新莊區自強街69巷8號","121.454185","25.0473966666667","6500500","新莊區"
"242056","441-UM","2019/08/03 18:19:27","新北市新莊區豐年街豐2巷17號","121.447288333333","25.0308316666667","6500500","新莊區"
"242042","415-TV","2019/08/03 18:19:33","新北市新莊區天祥街80號","121.41561","25.02945","6500500","新莊區"
"242011","413-TV","2019/08/03 18:19:22","新北市新莊區中港路中慶巷27弄13號","121.450065","25.05325","6500500","新莊區"
"242048","400-BY","2019/08/03 18:19:12","新北市新莊區民安路98巷3號","121.42354","25.0257916666667","6500500","新莊區"
"242025","362-BY","2019/08/03 18:19:15","新北市新莊區五工三路97號","121.458041666667","25.0654166666667","6500500","新莊區"
"242053","172-VK","2019/08/03 18:19:35","新北市新莊區民安西路383號","121.428891666667","25.0101316666667","6500500","新莊區"
"242015","173-VK","2019/08/03 18:19:19","新北市新莊區中平路184巷10弄16號","121.445553333333","25.048255","6500500","新莊區"
"242021","175-VK","2019/08/03 18:19:24","新北市新莊區中正路174號","121.450511666667","25.0357333333333","6500500","新莊區"
"242051","347-TH","2019/08/03 18:19:31","新北市新莊區民本街5巷1號","121.427906666667","25.0199716666667","6500500","新莊區"
"242034","348-TH","2019/08/03 18:19:29","新北市新莊區瓊林路13-3號","121.44881","25.0309083333333","6500500","新莊區"
"242031","350-TH","2019/08/03 18:19:30","新北市新莊區新泰路255巷83號","121.442761666667","25.0393866666667","6500500","新莊區"
"242017","351-TH","2019/08/03 18:19:14","新北市新莊區瓊林路59-56號","121.444841666667","25.0262816666667","6500500","新莊區"
"238015","755-BX","2019/08/03 18:19:25","新北市樹林區文化街79巷1號","121.416858333333","24.9891216666667","6500700","樹林區"
"238023","601-UM","2019/08/03 18:19:19","新北市樹林區中正路791號","121.40966","25.016245","6500700","樹林區"
"238019","599-UM","2019/08/03 18:19:27","新北市樹林區國凱街164號","121.424593333333","24.9806133333333","6500700","樹林區"
"238024","5061-A6","2019/08/03 18:19:24","新北市樹林區中山路一段235號","121.420813333333","24.9868683333333","6500700","樹林區"
"238018","KEA-2217","2019/08/03 18:19:28","新北市樹林區保安街一段20巷2號","121.427605","24.99355","6500700","樹林區"
"238025","303-VK","2019/08/03 18:19:33","新北市樹林區保安街一段269號","121.4194","24.9970783333333","6500700","樹林區"
"238017","283-BY","2019/08/03 18:19:17","新北市樹林區保安街三段28號","121.412738333333","25.0113983333333","6500700","樹林區"
"238014","282-BY","2019/08/03 18:19:24","新北市樹林區大安路111巷11號","121.423055","24.9976466666667","6500700","樹林區"
"238020","268-VK","2019/08/03 18:19:19","新北市樹林區三龍街94巷19號","121.414491666667","25.0179583333333","6500700","樹林區"
"238026","172-UY","2019/08/03 18:19:16","新北市樹林區佳園路一段80巷2號","121.393223333333","24.96976","6500700","樹林區"
"239007","AAC-297","2019/08/03 18:19:15","新北市鶯歌區尖山埔路6號","121.349728333333","24.9511983333333","6500800","鶯歌區"
"239006","891-R6","2019/08/03 18:19:32","新北市鶯歌區德昌街140巷12號","121.332128333333","24.9610683333333","6500800","鶯歌區"
"239008","527-UM","2019/08/03 18:19:27","新北市鶯歌區朝陽街4號","121.336261666667","24.9765766666667","6500800","鶯歌區"
"239005","526-UM","2019/08/03 18:19:29","新北市鶯歌區鶯桃路668巷73號","121.329941666667","24.9717966666667","6500800","鶯歌區"
"239001","417-VK","2019/08/03 18:19:15","新北市鶯歌區中正三路福德巷15號","121.3398","24.940875","6500800","鶯歌區"
"239003","360-BY","2019/08/03 18:19:32","新北市鶯歌區福安街58號","121.33558","24.9651933333333","6500800","鶯歌區"
"239002","359-BY","2019/08/03 18:19:17","新北市鶯歌區永明街135號","121.342881666667","24.9558716666667","6500800","鶯歌區"
"239004","193-VK","2019/08/03 18:19:19","新北市鶯歌區尖山路168巷6號","121.344966666667","24.948345","6500800","鶯歌區"
"221036","130-UY","2019/08/03 18:19:13","新北市汐止區大同路三段199號","121.671353333333","25.0772066666667","6501100","汐止區"
"221015","131-UY","2019/08/03 18:19:30","新北市汐止區鄉長路二段29號","121.668366666667","25.0828983333333","6501100","汐止區"
"244019","KED-0667","2019/08/03 18:19:22","新北市林口區麗園路21號","121.37494","25.06904","6501700","林口區"
"221010","269-BY","2019/08/03 18:19:24","新北市汐止區祥雲街18巷10號","121.6467","25.089585","6501100","汐止區"
"221012","278-VK","2019/08/03 18:19:21","新北市汐止區保一街81-1號","121.674683333333","25.0802266666667","6501100","汐止區"
"221023","279-VK","2019/08/03 18:19:29","新北市汐止區中興路201號","121.629203333333","25.0684333333333","6501100","汐止區"
"221032","280-BY","2019/08/03 18:19:23","新北市汐止區力行街43號","121.616803333333","25.0499266666667","6501100","汐止區"
"221033","297-VK","2019/08/03 18:19:20","新北市汐止區宜興街40巷8號","121.62229","25.0417083333333","6501100","汐止區"
"221021","299-VK","2019/08/03 18:19:21","新北市汐止區復興路5號","121.65596","25.0644716666667","6501100","汐止區"
"221031","353-TW","2019/08/03 18:19:22","新北市汐止區中興路168號","121.63201","25.0652966666667","6501100","汐止區"
"221035","622-UM","2019/08/03 18:19:18","新北市汐止區大同路二段341-1號","121.656026666667","25.067085","6501100","汐止區"
"221025","623-UM","2019/08/03 18:19:30","新北市汐止區勤進路12巷25號","121.659163333333","25.06231","6501100","汐止區"
"221038","646-BX","2019/08/03 18:19:21","新北市汐止區仁愛路215號","121.665211666667","25.0667383333333","6501100","汐止區"
"221002","707-TV","2019/08/03 18:19:20","新北市汐止區福德一路201巷26號","121.635833333333","25.0650533333333","6501100","汐止區"
"221018","753-BX","2019/08/03 18:19:24","新北市汐止區茄苳路88巷6弄8號","121.666571666667","25.0702166666667","6501100","汐止區"
"233001","KEA-2870","2019/08/03 18:19:32","新北市烏來區新烏路四段3號","121.551188333333","24.8904316666667","6502900","烏來區"
"220082","610-BX","2019/08/03 18:19:28","新北市板橋區華東街1-10號","121.44818","24.995065","6500100","板橋區"
"224002","257-TC","2019/08/03 18:19:31","新北市瑞芳區三爪子坑路91巷3號","121.81161","25.1072233333333","6501200","瑞芳區"
"242044","281-VK","2019/08/03 18:19:23","新北市新莊區天泉二街1號","121.415263333333","25.02465","6500500","新莊區"
"220035","560-BX","2019/08/03 18:19:16","新北市板橋區華東街1-10號","121.4482","24.99503","6500100","板橋區"
"220054","741-BX","2019/08/03 18:19:24","新北市板橋區華東街1-9號","121.44804","24.9949966666667","6500100","板橋區"
"220073","985-R7","2019/08/03 18:19:16","新北市板橋區華東街1-10號","121.448311666667","24.9949266666667","6500100","板橋區"
"220064","AAC-253","2019/08/03 18:19:35","新北市板橋區華東街1-10號","121.448391666667","24.9949433333333","6500100","板橋區"
"235068","KEA-2873","2019/08/03 18:19:06","新北市中和區中正路501號","121.489033333333","24.9935666666667","6500300","中和區"
"235061","KEA-2875","2019/08/03 18:19:32","新北市中和區民享街116巷14號","121.473896666667","24.9989916666667","6500300","中和區"
