"lineid","car","time","location","longitude","latitude","cityid","cityname"
"234046","148-BY","2019/08/03 18:49:26","新北市永和區秀朗路二段124-3號","121.524865","25.00153","6500400","永和區"
"234081","298-R6","2019/08/03 18:49:26","新北市永和區永利路108號","121.521233333333","25.0034316666667","6500400","永和區"
"234038","336-UY","2019/08/03 18:49:22","新北市永和區成功路一段87號","121.526896666667","25.003055","6500400","永和區"
"234086","338-UY","2019/08/03 18:49:29","新北市永和區中正路93號","121.515328333333","24.9973266666667","6500400","永和區"
"234070","552-UM","2019/08/03 18:49:28","新北市永和區豫溪街189巷2號","121.522986666667","25.0103883333333","6500400","永和區"
"234017","745-BX","2019/08/03 18:49:21","新北市永和區永和路二段297號","121.515928333333","25.0160833333333","6500400","永和區"
"234030","746-BX","2019/08/03 18:49:19","新北市永和區得和路321號","121.523361666667","24.9996166666667","6500400","永和區"
"234054","KEA-2590","2019/08/03 18:49:29","新北市永和區豫溪街217巷19號","121.524856666667","25.0101916666667","6500400","永和區"
"234007","KED-0605","2019/08/03 18:49:30","新北市永和區文化路146號","121.512568333333","25.0153166666667","6500400","永和區"
"234013","KEA-2591","2019/08/03 18:49:21","新北市永和區仁愛路202巷24號","121.508905","25.012925","6500400","永和區"
"234061","AAD-866","2019/08/03 18:49:25","新北市永和區福和路307號","121.516271666667","25.0071766666667","6500400","永和區"
"234042","862-TW","2019/08/03 18:49:17","新北市永和區永貞路306號","121.511945","25.0048783333333","6500400","永和區"
"234050","863-TW","2019/08/03 18:49:22","新北市永和區環河東路二段58號","121.523621666667","25.011395","6500400","永和區"
"234026","9371-KE","2019/08/03 18:49:14","新北市永和區自由街58號","121.513863333333","25.0059716666667","6500400","永和區"
"234011","9373-KE","2019/08/03 18:46:16","新北市永和區永和路二段233-1號","121.515333333333","25.0142783333333","6500400","永和區"
"249005","172-UM","2019/08/03 18:49:23","新北市八里區長道坑15號","121.394641666667","25.1183733333333","6502300","八里區"
"249001","173-UM","2019/08/03 18:49:29","新北市八里區龍米路二段121-3號","121.447101666667","25.1434516666667","6502300","八里區"
"249002","305-UY","2019/08/03 18:49:32","新北市八里區頂寮二街138號","121.449325","25.1294516666667","6502300","八里區"
"248016","026-BX","2019/08/03 18:49:29","新北市五股區成泰路三段543巷52號","121.449883333333","25.1029116666667","6501500","五股區"
"248006","077-UY","2019/08/03 18:49:28","新北市五股區中興路一段40號","121.468263333333","25.072635","6501500","五股區"
"248008","KED-0815","2019/08/03 18:49:22","新北市五股區中興路一段151巷57號","121.465146666667","25.0716933333333","6501500","五股區"
"248020","KED-0813","2019/08/03 18:49:31","新北市五股區凌雲路三段田埔巷25號","121.436326666667","25.12239","6501500","五股區"
"248012","247-BX","2019/08/03 18:49:20","新北市五股區成泰路二段147巷6號","121.437698333333","25.089125","6501500","五股區"
"248014","261-SL","2019/08/03 18:49:27","新北市五股區民義路一段114號","121.435226666667","25.0856883333333","6501500","五股區"
"248010","272-BY","2019/08/03 18:49:14","新北市五股區水碓一路55號","121.431533333333","25.07206","6501500","五股區"
"248004","677-BX","2019/08/03 18:49:25","新北市五股區民義路二段52-3號","121.410286666667","25.1045666666667","6501500","五股區"
"248002","678-BX","2019/08/03 18:49:17","新北市五股區成泰路三段437號","121.449838333333","25.097875","6501500","五股區"
"234023","9380-KE","2019/08/03 18:49:31","新北市永和區竹林路119巷30弄1號","121.522103333333","25.011805","6500400","永和區"
"234077","969-R7","2019/08/03 18:49:19","新北市永和區中正路2巷29弄13號","121.513581666667","24.9941066666667","6500400","永和區"
"234003","AAC-295","2019/08/03 18:49:20","新北市永和區中正路688號","121.516621666667","25.0095183333333","6500400","永和區"
"232011","375-UM","2019/08/03 18:49:26","新北市坪林區坪碇路83號","121.711805","24.9386383333333","6502000","坪林區"
"244007","080-UY","2019/08/03 18:49:26","新北市林口區太平嶺26號","121.376968333333","25.1180116666667","6501700","林口區"
"244013","KEA-2802","2019/08/03 18:49:34","新北市林口區麗園一街11巷7號","121.378048333333","25.070565","6501700","林口區"
"244023","483-VK","2019/08/03 18:49:33","新北市林口區四維路156號","121.380833333333","25.0758466666667","6501700","林口區"
"244017","485-VK","2019/08/03 18:49:33","新北市林口區文化二路一段68巷20號","121.366803333333","25.0685866666667","6501700","林口區"
"244009","656-BX","2019/08/03 18:49:19","新北市林口區竹林路348巷26號","121.3931","25.0835933333333","6501700","林口區"
"244011","701-TV","2019/08/03 18:49:23","新北市林口區中正路26號","121.395836666667","25.0774966666667","6501700","林口區"
"244025","837-TS","2019/08/03 18:49:17","新北市林口區南勢一街6號","121.360481666667","25.0747383333333","6501700","林口區"
"244021","838-TS","2019/08/03 18:49:13","新北市林口區工六路27號","121.401208333333","25.0767133333333","6501700","林口區"
"243010","297-R6","2019/08/03 18:49:29","新北市泰山區辭修路24號","121.429066666667","25.0581966666667","6501600","泰山區"
"243016","KEA-2801","2019/08/03 18:49:16","新北市泰山區黎明路25號","121.422018333333","25.060745","6501600","泰山區"
"243011","KEA-2216","2019/08/03 18:49:17","新北市泰山區明志路二段214巷16弄16號","121.426885","25.0496066666667","6501600","泰山區"
"243015","680-BX","2019/08/03 18:49:30","新北市泰山區美寧街57巷37弄2號","121.429126666667","25.0650033333333","6501600","泰山區"
"222003","436-BY","2019/08/03 18:49:13","新北市深坑區深南路51-1號","121.621351666667","25.0101416666667","6501800","深坑區"
"222002","659-BX","2019/08/03 18:49:33","新北市深坑區文山路一段69號","121.626986666667","25.00188","6501800","深坑區"
"231061","002-UM","2019/08/03 18:49:31","新北市新店區安華路28-1號","121.519815","24.9608533333333","6500600","新店區"
"231058","0293-UT","2019/08/03 18:49:25","新北市新店區北宜路一段105巷4弄3號","121.539988333333","24.95557","6500600","新店區"
"231044","046-UY","2019/08/03 18:49:16","新北市新店區中正路104號","121.543215","24.970645","6500600","新店區"
"231060","106-UY","2019/08/03 18:49:27","新北市新店區安忠路57巷11弄14號","121.515435","24.9580083333333","6500600","新店區"
"231051","107-UY","2019/08/03 18:49:29","新北市新店區中央路83號","121.532418333333","24.9764833333333","6500600","新店區"
"231049","108-UY","2019/08/03 18:49:15","新北市新店區中央路224號","121.529675","24.9729066666667","6500600","新店區"
"231065","110-UY","2019/08/03 18:49:13","新北市新店區車子路115-11號","121.50813","24.9547666666667","6500600","新店區"
"231050","KEA-2219","2019/08/03 18:49:16","新北市新店區安康路一段226號","121.523658333333","24.9636016666667","6500600","新店區"
"231062","256-BX","2019/08/03 18:49:26","新北市新店區安一路一段1-1號","121.519768333333","24.9611533333333","6500600","新店區"
"231054","260-TV","2019/08/03 18:49:30","新北市新店區安一路一段1-1號","121.519198333333","24.9612416666667","6500600","新店區"
"231042","268-BY","2019/08/03 18:49:20","新北市新店區北新路一段126巷25號","121.543268333333","24.9699033333333","6500600","新店區"
"231045","355-BY","2019/08/03 18:49:18","新北市新店區安一路一段1-1號","121.51905","24.9609733333333","6500600","新店區"
"231055","4716-K9","2019/08/03 18:49:15","新北市新店區中華路47巷3號","121.539756666667","24.9675833333333","6500600","新店區"
"231056","4715-K9","2019/08/03 18:49:29","新北市新店區大同街8巷4號","121.539701666667","24.980155","6500600","新店區"
"231067","4772-VM","2019/08/03 18:49:31","新北市新店區安華路28-1號","121.519165","24.960715","6500600","新店區"
"231052","513-UM","2019/08/03 18:49:26","新北市新店區長興路21號","121.546611666667","24.9398616666667","6500600","新店區"
"231040","617-UM","2019/08/03 18:49:29","新北市新店區安康路一段46巷4號","121.530588333333","24.9610566666667","6500600","新店區"
"231041","619-UM","2019/08/03 18:49:22","新北市新店區安華路28-1號","121.519646666667","24.960995","6500600","新店區"
"231063","641-BX","2019/08/03 18:49:18","新北市新店區安華路28-1號","121.51978","24.9606383333333","6500600","新店區"
"231048","718-UY","2019/08/03 18:49:23","新北市新店區環河路29巷1號","121.537213333333","24.961375","6500600","新店區"
"231046","719-UM","2019/08/03 18:49:28","新北市新店區直潭路71號","121.532411666667","24.94221","6500600","新店區"
"231057","720-UM","2019/08/03 18:49:16","新北市新店區新烏路一段205-2號","121.547591666667","24.9326433333333","6500600","新店區"
"231059","897-TW","2019/08/03 18:49:21","新北市新店區安華路28-1號","121.519541666667","24.9607066666667","6500600","新店區"
"231043","899-TW","2019/08/03 18:49:30","新北市新店區安一路一段1-1號","121.519525","24.961535","6500600","新店區"
"231066","AKT-0513","2019/08/03 18:49:26","新北市新店區安華路28-1號","121.51946","24.9605466666667","6500600","新店區"
"235066","003-UY","2019/08/03 18:49:14","新北市中和區中山路二段131巷29號","121.503768333333","25.002725","6500300","中和區"
"235063","006-UY","2019/08/03 18:49:26","新北市中和區連城路319巷3弄3號","121.489303333333","24.9956416666667","6500300","中和區"
"235056","096-UM","2019/08/03 18:49:33","新北市中和區員山路466巷17弄35號","121.480431666667","25.0074983333333","6500300","中和區"
"235039","097-UM","2019/08/03 18:49:15","新北市中和區安樂路217巷40弄1號","121.513253333333","24.9978666666667","6500300","中和區"
"235065","098-UM","2019/08/03 18:49:28","新北市中和區勝利路35巷11弄1號","121.499606666667","25.0067783333333","6500300","中和區"
"235040","150-BY","2019/08/03 18:49:28","新北市中和區宜安路35號","121.512218333333","24.99612","6500300","中和區"
"235058","151-BY","2019/08/03 18:49:29","新北市中和區員山路143巷30號","121.479733333333","24.9956933333333","6500300","中和區"
"235055","183-VK","2019/08/03 18:49:29","新北市中和區民生街85巷5弄2號","121.469263333333","25.0039566666667","6500300","中和區"
"235038","185-VK","2019/08/03 18:49:18","新北市中和區大勇街31巷1號","121.517445","24.9941633333333","6500300","中和區"
"235049","186-VK","2019/08/03 18:49:26","新北市中和區景安路177巷26號","121.506496666667","24.9943333333333","6500300","中和區"
"235067","255-BX","2019/08/03 18:49:15","新北市中和區新生街189號","121.483736666667","25.0003483333333","6500300","中和區"
"235044","293-VK","2019/08/03 18:49:16","新北市中和區復興路348號","121.49992","24.99039","6500300","中和區"
"235072","301-VK","2019/08/03 18:49:32","新北市中和區中山路二段248號","121.49776","25.002495","6500300","中和區"
"235043","352-BY","2019/08/03 18:49:28","新北市中和區成功路139號","121.525863333333","24.9902983333333","6500300","中和區"
"235042","KEA-2878","2019/08/03 18:49:24","新北市中和區秀朗路三段70巷10號","121.52608","24.9945666666667","6500300","中和區"
"235050","4979-A6","2019/08/03 18:49:25","新北市中和區景新街496巷35弄2號","121.513501666667","24.9854983333333","6500300","中和區"
"235069","4980-A6","2019/08/03 18:49:32","新北市中和區南山路111巷3號","121.502593333333","24.9977316666667","6500300","中和區"
"235070","558-UM","2019/08/03 18:49:29","新北市中和區安和路216-1號","121.506033333333","24.9991083333333","6500300","中和區"
"235045","565-BX","2019/08/03 18:49:28","新北市中和區興南路一段61號","121.510471666667","24.9897633333333","6500300","中和區"
"235060","KED-0823","2019/08/03 18:49:30","新北市中和區民治街11巷2號","121.4752","25.004205","6500300","中和區"
"235054","640-BX","2019/08/03 18:49:22","新北市中和區民享街41號","121.474036666667","25.00307","6500300","中和區"
"235047","732-UM","2019/08/03 18:49:14","新北市中和區興南路二段34巷55弄1號","121.5049","24.9862366666667","6500300","中和區"
"235046","733-UM","2019/08/03 18:49:16","新北市中和區興南路一段91號","121.509808333333","24.988765","6500300","中和區"
"235071","783-BX","2019/08/03 18:49:16","新北市中和區員山路36巷16-3號","121.48522","24.9912083333333","6500300","中和區"
"235062","800-TS","2019/08/03 18:49:19","新北市中和區中山路二段389號","121.486681666667","25.0047883333333","6500300","中和區"
"235057","801-TS","2019/08/03 18:49:25","新北市中和區民安街65巷4號","121.478695","24.9994233333333","6500300","中和區"
"235052","805-TS","2019/08/03 18:49:25","新北市中和區興南路二段399巷98-1號","121.50002","24.9774716666667","6500300","中和區"
"235048","896-TW","2019/08/03 18:49:27","新北市中和區華新街32號","121.507816666667","24.9845016666667","6500300","中和區"
"235053","900-TW","2019/08/03 18:49:16","新北市中和區民德路290巷12號","121.467091666667","24.99582","6500300","中和區"
"235064","911-UM","2019/08/03 18:49:17","新北市中和區泰和街44巷27號","121.498156666667","25.00099","6500300","中和區"
"235051","157-BY","2019/08/03 18:49:28","新北市中和區忠孝街106巷9弄9號","121.512635","24.9845","6500300","中和區"
"235037","AAC-213","2019/08/03 18:49:23","新北市中和區自立路14號","121.522261666667","24.9960183333333","6500300","中和區"
"235059","AAC-215","2019/08/03 18:49:21","新北市中和區圓通路393巷8號","121.489733333333","24.98869","6500300","中和區"
"220065","072-UY","2019/08/03 18:49:27","新北市板橋區館前東路108-1號","121.463198333333","25.0075633333333","6500100","板橋區"
"220086","073-UY","2019/08/03 18:49:33","新北市板橋區南雅西路二段145巷4號","121.451645","25.0117033333333","6500100","板橋區"
"220106","075-UY","2019/08/03 18:49:27","新北市板橋區莊敬路66號","121.471595","25.0255316666667","6500100","板橋區"
"220069","AAD-861","2019/08/03 18:49:22","新北市板橋區華興街76號","121.457146666667","25.0050816666667","6500100","板橋區"
"220068","120-SR","2019/08/03 18:49:15","新北市板橋區大同街35巷21號","121.47686","25.0277283333333","6500100","板橋區"
"226004","312-R5","2019/08/03 18:49:33","新北市平溪區平溪里三坑路3號","121.737706666667","25.0281316666667","6502400","平溪區"
"235041","251-BX","2019/08/03 18:49:25","新北市中和區宜安路92巷23號","121.511385","24.9983833333333","6500300","中和區"
"228003","097-TW","2019/08/03 18:49:34","新北市貢寮區和美里龍洞街63-7號","121.917926666667","25.1189966666667","6502600","貢寮區"
"228001","212-TW","2019/08/03 18:49:29","新北市貢寮區仁理村保健街73號","121.923745","25.0516483333333","6502600","貢寮區"
"228002","663-BX","2019/08/03 18:49:22","新北市貢寮區福隆里東興街6-11號","121.950781666667","25.021075","6502600","貢寮區"
"224010","AGQ-8101","2019/08/03 18:49:15","新北市瑞芳區基山街36號","121.844818333333","25.1084033333333","6501200","瑞芳區"
"224006","676-BX","2019/08/03 18:49:25","新北市瑞芳區中正路38號","121.807085","25.107275","6501200","瑞芳區"
"224007","285-BY","2019/08/03 18:49:15","新北市瑞芳區大埔路198號","121.761706666667","25.1010316666667","6501200","瑞芳區"
"224009","275-VK","2019/08/03 18:49:18","新北市瑞芳區祈堂路8號","121.858991666667","25.11285","6501200","瑞芳區"
"224008","273-VK","2019/08/03 18:49:28","新北市瑞芳區逢甲路286號","121.803485","25.1115016666667","6501200","瑞芳區"
"224005","271-BY","2019/08/03 18:49:28","新北市瑞芳區濱二路73號","121.828881666667","25.120865","6501200","瑞芳區"
"227002","642-TC","2019/08/03 18:49:13","新北市雙溪區魚行里新店37號","121.869216666667","25.031245","6502500","雙溪區"
"227001","400-TW","2019/08/03 18:49:34","新北市雙溪區牡丹里下坑11號","121.851006666667","25.05618","6502500","雙溪區"
"253006","032-BX","2019/08/03 18:49:26","新北市石門區下員坑15-10號","121.514183333333","25.283485","6502200","石門區"
"253005","295-VK","2019/08/03 18:49:31","新北市石門區中山路28-3號","121.565798333333","25.2898583333333","6502200","石門區"
"222001","KEA-2212","2019/08/03 18:49:29","新北市深坑區松柏街30巷2號","121.638771666667","25.0111766666667","6501800","深坑區"
"208002","KEA-2872","2019/08/03 18:49:30","新北市金山區信義路61號","121.63578","25.2190066666667","6502700","金山區"
"208003","665-BX","2019/08/03 18:49:17","新北市金山區中山路393號","121.63347","25.2252633333333","6502700","金山區"
"251001","011-UM","2019/08/03 18:49:24","新北市淡水區自強路108-18號","121.461683333333","25.1310416666667","6501000","淡水區"
"251010","012-UM","2019/08/03 18:49:14","新北市淡水區沙崙路9號","121.420998333333","25.1813166666667","6501000","淡水區"
"251015","KEA-2871","2019/08/03 18:49:12","新北市淡水區興福寮88巷21號","121.486983333333","25.16367","6501000","淡水區"
"251016","179-VK","2019/08/03 18:49:18","新北市淡水區下圭柔山71-3號","121.446996666667","25.20621","6501000","淡水區"
"251008","181-VK","2019/08/03 18:49:17","新北市淡水區北投子18號","121.453936666667","25.18393","6501000","淡水區"
"251013","182-VK","2019/08/03 18:49:28","新北市淡水區安子內5號","121.48398","25.2151833333333","6501000","淡水區"
"251012","441-VK","2019/08/03 18:49:18","新北市淡水區中山北路一段158號","121.444378333333","25.17781","6501000","淡水區"
"251005","443-VK","2019/08/03 18:49:33","新北市淡水區中正路二段31號","121.419115","25.18194","6501000","淡水區"
"251014","577-R6","2019/08/03 18:49:23","新北市淡水區崙頂3號","121.490988333333","25.2239316666667","6501000","淡水區"
"251011","650-BX","2019/08/03 18:49:05","新北市淡水區平遠街11號","121.448063333333","25.1681483333333","6501000","淡水區"
"251002","672-BX","2019/08/03 18:49:16","新北市淡水區鄧公路2號","121.448608333333","25.1696516666667","6501000","淡水區"
"251003","766-UM","2019/08/03 18:49:31","新北市淡水區中山北路一段212巷38號","121.446136666667","25.1790466666667","6501000","淡水區"
"207003","550-UM","2019/08/03 18:49:17","新北市萬里區野柳里港東路160號","121.69003","25.2048566666667","6502800","萬里區"
"207004","225-TW","2019/08/03 18:49:19","新北市萬里區萬里里獅頭路23號","121.693215","25.1782783333333","6502800","萬里區"
"252002","178-VK","2019/08/03 18:49:28","新北市三芝區中正路一段112號","121.50485","25.2563616666667","6502100","三芝區"
"252003","249-BX","2019/08/03 18:49:30","新北市三芝區後厝里大片頭76號","121.459288333333","25.2456616666667","6502100","三芝區"
"208001","170-UY","2019/08/03 18:49:28","新北市金山區文化三路66巷1號","121.634181666667","25.2256183333333","6502700","金山區"
"237007","153-BY","2019/08/03 18:49:31","新北市三峽區中正路二段470巷2號","121.363598333333","24.9071133333333","6500900","三峽區"
"237013","252-BX","2019/08/03 18:49:11","新北市三峽區光明路69巷25號","121.376763333333","24.929225","6500900","三峽區"
"237012","275-BY","2019/08/03 18:49:18","新北市三峽區三樹路340號","121.383953333333","24.9433116666667","6500900","三峽區"
"237008","302-VK","2019/08/03 18:49:16","新北市三峽區白雞33-54號","121.37054","24.9126783333333","6500900","三峽區"
"237014","433-BY","2019/08/03 18:49:14","新北市三峽區隆恩街247號","121.357121666667","24.940385","6500900","三峽區"
"237006","5529-G3","2019/08/03 18:49:27","新北市三峽區溪東路211巷37號","121.405315","24.9346816666667","6500900","三峽區"
"237011","KEA-2596","2019/08/03 18:49:17","新北市三峽區溪東路135號","121.402515","24.9342883333333","6500900","三峽區"
"237015","649-BX","2019/08/03 18:49:31","新北市三峽區建安77-1號","121.451623333333","24.924245","6500900","三峽區"
"237010","706-TV","2019/08/03 18:49:34","新北市三峽區復興路487號","121.3613","24.9384266666667","6500900","三峽區"
"237004","756-BX","2019/08/03 18:49:17","新北市三峽區有木130-1號","121.43594","24.8565716666667","6500900","三峽區"
"237005","AKY-6261","2019/08/03 18:49:30","新北市三峽區中山路219巷19弄13號","121.363301666667","24.9356783333333","6500900","三峽區"
"236042","KED-0685","2019/08/03 18:49:32","新北市土城區裕民路116-1號","121.450901666667","24.9864866666667","6501300","土城區"
"220089","KED-0812","2019/08/03 18:49:34","新北市板橋區文化路二段464號","121.474945","25.0327","6500100","板橋區"
"236079","166-UM","2019/08/03 18:49:18","新北市土城區中央路四段69號","121.417815","24.9579316666667","6501300","土城區"
"236030","253-BX","2019/08/03 18:49:25","新北市土城區中央路三段61巷7號","121.4393","24.9694233333333","6501300","土城區"
"236026","269-VK","2019/08/03 18:49:17","新北市土城區興城路48號","121.44136","24.972615","6501300","土城區"
"236014","270-VK","2019/08/03 18:49:31","新北市土城區清水路235巷5弄2號","121.460825","24.98378","6501300","土城區"
"236038","271-VK","2019/08/03 18:49:26","新北市土城區仁愛路38號","121.4616","24.9794666666667","6501300","土城區"
"236070","KEA-2877","2019/08/03 18:49:25","新北市土城區延和路21巷25號","121.463816666667","24.9889633333333","6501300","土城區"
"252001","KED-0821","2019/08/03 18:49:25","新北市三芝區中正路三段9號","121.502905","25.2539833333333","6502100","三芝區"
"236021","401-BY","2019/08/03 18:49:16","新北市土城區德峰街39號","121.4674","24.9855783333333","6501300","土城區"
"236059","912-UM","2019/08/03 18:49:28","新北市土城區金城路二段12號","121.449191666667","24.9772683333333","6501300","土城區"
"236049","913-UM","2019/08/03 18:49:31","新北市土城區青雲路10-1號","121.460206666667","24.9889333333333","6501300","土城區"
"236063","915-UM","2019/08/03 18:49:19","新北市土城區延和路177巷15號","121.470028333333","24.9908366666667","6501300","土城區"
"236055","AAC-216","2019/08/03 18:49:24","新北市土城區裕民路169-1號","121.453133333333","24.9850733333333","6501300","土城區"
"242002","751-BX","2019/08/03 18:49:21","新北市樹林區中山路三段206-1號","121.384945","24.9677083333333","6500500","新莊區"
"242056","441-UM","2019/08/03 18:49:27","新北市板橋區大觀路三段6-1號","121.435201666667","24.995815","6500500","新莊區"
"242017","351-TH","2019/08/03 18:49:14","新北市板橋區金門街215巷121-1號","121.433935","24.986185","6500500","新莊區"
"238023","601-UM","2019/08/03 18:49:19","新北市樹林區工興街14巷1號","121.39897","25.013625","6500700","樹林區"
"238019","599-UM","2019/08/03 18:49:20","新北市樹林區中山路二段230號","121.408701666667","24.980065","6500700","樹林區"
"238024","5061-A6","2019/08/03 18:49:23","新北市樹林區太平路235-1號","121.419226666667","24.974175","6500700","樹林區"
"238022","KEA-2213","2019/08/03 18:49:22","新北市樹林區中華路393號","121.411438333333","24.9804033333333","6500700","樹林區"
"238021","KEA-2539","2019/08/03 18:49:27","新北市樹林區西圳街二段57巷1號","121.38744","24.9602266666667","6500700","樹林區"
"238025","303-VK","2019/08/03 18:49:30","新北市樹林區中山路三段22號","121.395571666667","24.972865","6500700","樹林區"
"238017","283-BY","2019/08/03 18:49:17","新北市樹林區光興街44號","121.409903333333","25.0026966666667","6500700","樹林區"
"238014","282-BY","2019/08/03 18:49:24","新北市樹林區潭興街93號","121.424735","24.9986533333333","6500700","樹林區"
"238020","268-VK","2019/08/03 18:49:19","新北市樹林區俊英街280號","121.423816666667","25.01315","6500700","樹林區"
"238026","172-UY","2019/08/03 18:49:15","新北市樹林區八德街1022號","121.391081666667","24.968535","6500700","樹林區"
"238016","169-UY","2019/08/03 18:49:29","新北市樹林區復興路322巷10號","121.416078333333","24.98718","6500700","樹林區"
"239007","AAC-297","2019/08/03 18:49:15","新北市鶯歌區成功街8號","121.358521666667","24.9574116666667","6500800","鶯歌區"
"239008","527-UM","2019/08/03 18:49:27","新北市鶯歌區朝陽街4號","121.336261666667","24.9765966666667","6500800","鶯歌區"
"239005","526-UM","2019/08/03 18:49:29","新北市鶯歌區鳳吉一街150號","121.32853","24.9752883333333","6500800","鶯歌區"
"239001","417-VK","2019/08/03 18:49:15","新北市鶯歌區中正二路190號","121.340618333333","24.9475416666667","6500800","鶯歌區"
"239003","360-BY","2019/08/03 18:49:32","新北市鶯歌區鶯桃路526號","121.3316","24.9668866666667","6500800","鶯歌區"
"239002","359-BY","2019/08/03 18:49:17","新北市鶯歌區中正一路245號","121.354515","24.9570383333333","6500800","鶯歌區"
"239004","193-VK","2019/08/03 18:49:19","新北市鶯歌區中正三路194巷40號","121.331081666667","24.94119","6500800","鶯歌區"
"221036","130-UY","2019/08/03 18:49:33","新北市汐止區大同路二段583號","121.663541666667","25.070175","6501100","汐止區"
"221015","131-UY","2019/08/03 18:49:30","新北市汐止區吉祥街26號","121.667795","25.0810466666667","6501100","汐止區"
"244019","KED-0667","2019/08/03 18:49:22","新北市林口區麗園二街42巷25號","121.382231666667","25.0665133333333","6501700","林口區"
"221032","280-BY","2019/08/03 18:49:23","新北市汐止區民權街二段60號","121.619345","25.0487233333333","6501100","汐止區"
"221029","298-VK","2019/08/03 18:49:17","新北市汐止區工建路66號","121.640463333333","25.0630366666667","6501100","汐止區"
"221021","299-VK","2019/08/03 18:49:21","新北市汐止區新興路83號","121.65761","25.0620583333333","6501100","汐止區"
"221031","353-TW","2019/08/03 18:49:22","新北市汐止區福德一路272巷9號","121.631956666667","25.064195","6501100","汐止區"
"221035","622-UM","2019/08/03 18:49:18","新北市汐止區大同路二段199號","121.652578333333","25.0643933333333","6501100","汐止區"
"221025","623-UM","2019/08/03 18:49:30","新北市汐止區仁愛路113巷18號","121.661961666667","25.0641","6501100","汐止區"
"221002","707-TV","2019/08/03 18:49:20","新北市汐止區大同路一段150號","121.631678333333","25.05572","6501100","汐止區"
"221018","753-BX","2019/08/03 18:49:24","新北市汐止區茄苳路282巷1號","121.67245","25.067775","6501100","汐止區"
"220079","145-BY","2019/08/03 18:49:21","新北市板橋區大智街71巷42弄16號","121.452218333333","25.0147666666667","6500100","板橋區"
"220080","200-UY","2019/08/03 18:49:29","新北市板橋區大觀路二段265巷70號","121.44244","24.9968583333333","6500100","板橋區"
"220082","610-BX","2019/08/03 18:49:08","新北市板橋區篤行路三段玉平巷76弄10號","121.42773","24.9859266666667","6500100","板橋區"
"220101","245-BX","2019/08/03 18:49:23","新北市板橋區莊敬路139號","121.47175","25.02509","6500100","板橋區"
"220084","256-TC","2019/08/03 18:49:12","新北市板橋區大觀路二段150巷63-1號","121.441398333333","25.0004716666667","6500100","板橋區"
"224002","257-TC","2019/08/03 18:49:31","新北市瑞芳區傑魚坑路60號","121.793495","25.11054","6501200","瑞芳區"
"220091","267-BY","2019/08/03 18:49:17","新北市板橋區雙十路二段47巷52號","121.4749","25.0253666666667","6500100","板橋區"
"220056","276-BY","2019/08/03 18:49:34","新北市板橋區四川路一段287號","121.458876666667","25.0005983333333","6500100","板橋區"
"220072","277-BY","2019/08/03 18:49:28","新北市板橋區大觀路三段36巷4號","121.433871666667","24.995845","6500100","板橋區"
"220088","280-UM","2019/08/03 18:49:17","新北市板橋區莒光路9號","121.46971","25.0248233333333","6500100","板橋區"
"220094","283-UM","2019/08/03 18:49:34","新北市板橋區文化路二段76號","121.469478333333","25.025055","6500100","板橋區"
"220071","283-VK","2019/08/03 18:49:23","新北市板橋區四川路一段38號","121.459521666667","25.0060583333333","6500100","板橋區"
"220053","285-VK","2019/08/03 18:49:14","新北市板橋區永豐街75巷15-2號","121.473066666667","25.018745","6500100","板橋區"
"220083","286-VK","2019/08/03 18:49:24","新北市板橋區大觀路二段22巷38-2號","121.444773333333","25.0037116666667","6500100","板橋區"
"220081","287-VK","2019/08/03 18:49:16","新北市板橋區南雅西路二段40號","121.45288","25.0100333333333","6500100","板橋區"
"220090","288-VK","2019/08/03 18:49:25","新北市板橋區四維路177巷4弄12號","121.463558333333","25.0263666666667","6500100","板橋區"
"220061","295-UM","2019/08/03 18:49:28","新北市板橋區永豐街163號","121.4755","25.020415","6500100","板橋區"
"220075","303-R5","2019/08/03 18:49:16","新北市板橋區大觀路一段28巷6弄55-3號","121.450943333333","25.0106683333333","6500100","板橋區"
"220062","305-R5","2019/08/03 18:49:15","新北市板橋區中山路二段25號","121.472455","25.0153216666667","6500100","板橋區"
"220092","307-R5","2019/08/03 18:49:25","新北市板橋區文化路一段136巷8弄3號","121.465551666667","25.01823","6500100","板橋區"
"220098","317-R6","2019/08/03 18:49:23","新北市板橋區民生路二段240巷43號","121.4696","25.0231533333333","6500100","板橋區"
"220055","461-BY","2019/08/03 18:49:29","新北市板橋區忠孝路124號","121.463095","25.0022766666667","6500100","板橋區"
"220035","560-BX","2019/08/03 18:49:36","新北市板橋區中正路275巷79弄7號","121.452131666667","25.0177283333333","6500100","板橋區"
"220103","561-BX","2019/08/03 18:49:25","新北市板橋區文化路一段188巷11弄54號","121.469061666667","25.0188","6500100","板橋區"
"220063","609-BX","2019/08/03 18:49:19","新北市板橋區民生路一段80號","121.473523333333","25.0154266666667","6500100","板橋區"
"220057","686-BX","2019/08/03 18:49:29","新北市板橋區重慶路201號","121.462888333333","25.0016966666667","6500100","板橋區"
"220077","687-BX","2019/08/03 18:49:25","新北市板橋區龍興街73巷56號","121.441783333333","25.0031183333333","6500100","板橋區"
"220093","689-BX","2019/08/03 18:49:18","新北市板橋區民生路三段232號","121.464608333333","25.0302583333333","6500100","板橋區"
"220054","741-BX","2019/08/03 18:49:24","新北市板橋區館前東路19號","121.460188333333","25.0072666666667","6500100","板橋區"
"220102","KEA-2699","2019/08/03 18:49:16","新北市板橋區萬板路476號","121.479933333333","25.0259433333333","6500100","板橋區"
"220067","829-TW","2019/08/03 18:49:29","新北市板橋區中山路二段90巷47弄16號","121.477113333333","25.0148866666667","6500100","板橋區"
"220074","895-R6","2019/08/03 18:49:21","新北市板橋區南門街9-4號","121.45763","25.0092083333333","6500100","板橋區"
"220073","985-R7","2019/08/03 18:49:16","新北市板橋區館前西路215號","121.454568333333","25.0085333333333","6500100","板橋區"
"220097","AAC-210","2019/08/03 18:49:18","新北市板橋區四維路137巷17號","121.464231666667","25.0248233333333","6500100","板橋區"
"220064","AAC-253","2019/08/03 18:49:15","新北市板橋區漢生東路123號","121.467588333333","25.014475","6500100","板橋區"
"235068","KEA-2873","2019/08/03 18:49:06","新北市中和區圓通路265巷38號","121.496108333333","24.99245","6500300","中和區"
"235061","KEA-2875","2019/08/03 18:49:02","新北市中和區民治街23巷1號","121.475375","25.0021433333333","6500300","中和區"
