"lineid","car","time","location","longitude","latitude","cityid","cityname"
"234046","148-BY","2019/08/03 19:09:26","新北市永和區永元路18巷38弄2號","121.523885","25.0002033333333","6500400","永和區"
"234081","298-R6","2019/08/03 19:09:26","新北市永和區永亨路67號","121.521275","25.005985","6500400","永和區"
"234038","336-UY","2019/08/03 19:09:22","新北市永和區民樂街73巷1號","121.527363333333","24.9973116666667","6500400","永和區"
"234064","337-UY","2019/08/03 19:09:12","新北市永和區秀朗路二段31號","121.521256666667","25.0024733333333","6500400","永和區"
"234086","338-UY","2019/08/03 19:09:29","新北市永和區永利路4巷6號","121.51749","25.0052683333333","6500400","永和區"
"234070","552-UM","2019/08/03 19:09:28","新北市永和區豫溪街137巷1弄21號","121.518593333333","25.0104066666667","6500400","永和區"
"234017","745-BX","2019/08/03 19:09:21","新北市永和區忠孝街25號","121.51402","25.01561","6500400","永和區"
"234030","746-BX","2019/08/03 19:09:19","新北市永和區民生路27號","121.522853333333","24.998655","6500400","永和區"
"234054","KEA-2590","2019/08/03 19:09:29","新北市永和區中興街133巷4號","121.518705","25.0125983333333","6500400","永和區"
"234007","KED-0605","2019/08/03 19:09:30","新北市永和區中山路一段334號","121.506126666667","25.0065","6500400","永和區"
"234013","KEA-2591","2019/08/03 19:09:21","新北市永和區中山路一段70號","121.512501666667","25.0107583333333","6500400","永和區"
"234061","AAD-866","2019/08/03 19:09:25","新北市永和區安樂路306-8號","121.514523333333","25.0053333333333","6500400","永和區"
"234042","862-TW","2019/08/03 19:09:17","新北市永和區永貞路334號","121.511216666667","25.0055333333333","6500400","永和區"
"234050","863-TW","2019/08/03 19:09:22","新北市永和區仁愛路104巷7弄58號","121.510956666667","25.014175","6500400","永和區"
"234026","9371-KE","2019/08/03 19:09:14","新北市永和區安樂路272巷9弄7號","121.51506","25.00458","6500400","永和區"
"234011","9381-KE","2019/08/03 19:09:35","新北市永和區仁愛路31巷3弄2號","121.514268333333","25.0129566666667","6500400","永和區"
"234011","9373-KE","2019/08/03 19:08:01","新北市永和區永和路二段233-1號","121.515316666667","25.01426","6500400","永和區"
"249005","172-UM","2019/08/03 19:09:23","新北市八里區中華路三段35號","121.396133333333","25.1425933333333","6502300","八里區"
"249001","173-UM","2019/08/03 19:09:29","新北市八里區龍米路二段228-7號","121.432083333333","25.158485","6502300","八里區"
"249003","593-UM","2019/08/03 19:09:30","新北市八里區博物館路105號","121.409353333333","25.15961","6502300","八里區"
"248008","KED-0815","2019/08/03 19:09:30","新北市五股區中興路一段158號","121.46431","25.0739183333333","6501500","五股區"
"248020","KED-0813","2019/08/03 19:09:31","新北市五股區凌雲路三段57號","121.425251666667","25.1249683333333","6501500","五股區"
"248012","247-BX","2019/08/03 19:09:20","新北市五股區中興路四段48巷16號","121.438641666667","25.083425","6501500","五股區"
"248014","261-SL","2019/08/03 19:09:27","新北市五股區民義路一段107巷21號","121.43301","25.0848583333333","6501500","五股區"
"248010","272-BY","2019/08/03 19:09:14","新北市五股區水碓一路23號","121.430586666667","25.0713","6501500","五股區"
"248004","677-BX","2019/08/03 19:09:25","新北市五股區民義路一段182號","121.432816666667","25.0878533333333","6501500","五股區"
"248002","678-BX","2019/08/03 19:09:17","新北市五股區凌雲路一段158巷11號","121.447766666667","25.103425","6501500","五股區"
"234023","9380-KE","2019/08/03 19:09:11","新北市永和區中興街10巷19號","121.515881666667","25.011205","6500400","永和區"
"234077","969-R7","2019/08/03 19:09:19","新北市永和區民權路34號","121.52018","24.998875","6500400","永和區"
"234074","AAC-211","2019/08/03 19:09:21","新北市永和區福和路137號","121.52121","25.007775","6500400","永和區"
"234067","AAC-212","2019/08/03 19:09:22","新北市永和區保平路21號","121.512645","25.007465","6500400","永和區"
"234003","AAC-295","2019/08/03 19:09:20","新北市永和區保福路一段79號","121.511913333333","25.0104516666667","6500400","永和區"
"244023","483-VK","2019/08/03 19:09:13","新北市林口區民權路151號","121.37389","25.0836166666667","6501700","林口區"
"244011","701-TV","2019/08/03 19:09:23","新北市林口區中正路298號","121.388395","25.0777083333333","6501700","林口區"
"244025","837-TS","2019/08/03 19:09:17","新北市林口區文化北路一段472號","121.365546666667","25.07755","6501700","林口區"
"243012","AAD-798","2019/08/03 19:09:32","新北市泰山區辭修路20號","121.429225","25.0581416666667","6501600","泰山區"
"243010","297-R6","2019/08/03 19:09:31","新北市泰山區明志路一段479號","121.43071","25.0555","6501600","泰山區"
"243014","KEA-2801","2019/08/03 19:09:16","新北市泰山區泰林路二段480號","121.425136666667","25.063985","6501600","泰山區"
"243016","421-VK","2019/08/03 19:09:19","新北市泰山區明志路二段353號","121.425501666667","25.0443566666667","6501600","泰山區"
"243009","KEA-2215","2019/08/03 19:09:27","新北市泰山區明志路一段122巷31號","121.432471666667","25.0637166666667","6501600","泰山區"
"243011","KEA-2216","2019/08/03 19:09:17","新北市泰山區明志路二段318號","121.426166666667","25.04601","6501600","泰山區"
"243013","646-TV","2019/08/03 19:09:21","新北市泰山區明志路三段277號","121.423168333333","25.0367633333333","6501600","泰山區"
"243015","680-BX","2019/08/03 19:09:30","新北市泰山區明志路一段399號","121.430836666667","25.0573516666667","6501600","泰山區"
"222003","436-BY","2019/08/03 19:09:25","新北市深坑區深南路162號","121.626143333333","25.014715","6501800","深坑區"
"222002","659-BX","2019/08/03 19:09:13","新北市深坑區北深路一段288號","121.628275","25.0077533333333","6501800","深坑區"
"231061","002-UM","2019/08/03 19:09:11","新北市新店區安康路一段353號","121.519075","24.9639116666667","6500600","新店區"
"231058","0293-UT","2019/08/03 19:09:25","新北市新店區光明街90號","121.538975","24.9602283333333","6500600","新店區"
"231044","046-UY","2019/08/03 19:09:16","新北市新店區中興路三段168號","121.544341666667","24.980815","6500600","新店區"
"231060","106-UY","2019/08/03 19:09:17","新北市新店區安康路二段226號","121.50954","24.959265","6500600","新店區"
"231051","107-UY","2019/08/03 19:09:29","新北市新店區中正路382巷15號","121.535331666667","24.9779","6500600","新店區"
"231049","108-UY","2019/08/03 19:09:24","新北市新店區二十張路25巷18弄1號","121.539283333333","24.981815","6500600","新店區"
"231065","110-UY","2019/08/03 19:09:33","新北市新店區安祥路145巷29號","121.475325","24.95663","6500600","新店區"
"231050","KEA-2219","2019/08/03 19:09:16","新北市新店區竹林路2巷27弄1號","121.550123333333","24.9507933333333","6500600","新店區"
"231062","256-BX","2019/08/03 19:09:26","新北市新店區安平路35巷10號","121.520945","24.9670783333333","6500600","新店區"
"231054","260-TV","2019/08/03 19:09:30","新北市新店區新店路157號","121.537063333333","24.9551083333333","6500600","新店區"
"231042","268-BY","2019/08/03 19:09:20","新北市新店區中興路一段167號","121.54271","24.9644","6500600","新店區"
"231064","278-BY","2019/08/03 19:09:29","新北市新店區安忠路56巷6號","121.51298","24.9594183333333","6500600","新店區"
"231045","355-BY","2019/08/03 19:09:18","新北市新店區北宜路一段66號","121.538458333333","24.9559266666667","6500600","新店區"
"231056","4715-K9","2019/08/03 19:09:29","新北市新店區吉安街39號","121.515426666667","24.9663533333333","6500600","新店區"
"231067","4772-VM","2019/08/03 19:09:11","新北市新店區安康路一段263巷33號","121.52405","24.9613616666667","6500600","新店區"
"231052","513-UM","2019/08/03 19:09:26","新北市新店區自強路23巷1號","121.546131666667","24.92662","6500600","新店區"
"231040","617-UM","2019/08/03 19:09:29","新北市新店區三民路98-3號","121.533903333333","24.97343","6500600","新店區"
"231041","619-UM","2019/08/03 19:09:22","新北市新店區中央一街22號","121.52763","24.97328","6500600","新店區"
"231063","641-BX","2019/08/03 19:09:19","新北市新店區車子路117號","121.505445","24.9516","6500600","新店區"
"231048","718-UY","2019/08/03 19:09:23","新北市新店區德正街27巷29弄60號","121.54585","24.9729","6500600","新店區"
"231046","719-UM","2019/08/03 19:09:28","新北市新店區華潭街31號","121.53004","24.95518","6500600","新店區"
"231057","720-UM","2019/08/03 19:09:15","新北市新店區百齡一路12號","121.553055","24.9324716666667","6500600","新店區"
"231059","897-TW","2019/08/03 19:09:21","新北市新店區安康路一段355號","121.519885","24.9637783333333","6500600","新店區"
"231043","899-TW","2019/08/03 19:09:30","新北市新店區寶橋路56號","121.546006666667","24.9754483333333","6500600","新店區"
"231066","AKT-0513","2019/08/03 19:09:26","新北市新店區安康路二段456巷6號","121.493638333333","24.954625","6500600","新店區"
"241035","KEA-2210","2019/08/03 19:09:14","新北市三重區新北大道一段7號","121.489633333333","25.061345","6500200","三重區"
"241026","480-VK","2019/08/03 19:09:35","新北市三重區重安街137號","121.495293333333","25.0547733333333","6500200","三重區"
"241022","KED-0820","2019/08/03 19:09:28","新北市三重區三民街155巷9號","121.48444","25.0647233333333","6500200","三重區"
"241029","942-UM","2019/08/03 19:09:15","新北市三重區重安街87巷25號","121.493153333333","25.0549916666667","6500200","三重區"
"235066","003-UY","2019/08/03 19:09:14","新北市中和區廣福路28號","121.504863333333","25.0024266666667","6500300","中和區"
"235063","006-UY","2019/08/03 19:09:26","新北市中和區連城路249巷21弄2號","121.494071666667","24.9959183333333","6500300","中和區"
"235056","096-UM","2019/08/03 19:09:33","新北市中和區中正路1161號","121.481901666667","25.0086933333333","6500300","中和區"
"235039","097-UM","2019/08/03 19:09:35","新北市中和區景平路3號","121.523703333333","24.9902683333333","6500300","中和區"
"235065","098-UM","2019/08/03 19:09:28","新北市中和區中山路二段116巷3弄9號","121.502233333333","25.0040066666667","6500300","中和區"
"235040","150-BY","2019/08/03 19:09:28","新北市中和區宜安路73號","121.511056666667","24.9973333333333","6500300","中和區"
"235058","151-BY","2019/08/03 19:09:29","新北市中和區員山路36巷16-8號","121.485388333333","24.9922666666667","6500300","中和區"
"235055","183-VK","2019/08/03 19:09:29","新北市中和區德光路100號","121.468496666667","25.0033966666667","6500300","中和區"
"235038","185-VK","2019/08/03 19:09:25","新北市中和區大仁街10巷27弄4號","121.519226666667","24.99271","6500300","中和區"
"235049","186-VK","2019/08/03 19:09:26","新北市中和區景新街205-15號","121.507306666667","24.9951","6500300","中和區"
"235067","255-BX","2019/08/03 19:09:15","新北市中和區民樂路77號","121.4845","25.0013483333333","6500300","中和區"
"235044","293-VK","2019/08/03 19:09:20","新北市中和區中興街235巷2號","121.500681666667","24.9894133333333","6500300","中和區"
"235072","301-VK","2019/08/03 19:09:32","新北市中和區連城路144巷4弄11號","121.495723333333","24.9988816666667","6500300","中和區"
"235043","352-BY","2019/08/03 19:09:28","新北市中和區景平路148號","121.518253333333","24.992145","6500300","中和區"
"235042","KEA-2878","2019/08/03 19:09:24","新北市中和區自強路11號","121.520281666667","24.993405","6500300","中和區"
"235050","4979-A6","2019/08/03 19:09:25","新北市中和區南山路403號","121.506813333333","24.9898933333333","6500300","中和區"
"235069","4980-A6","2019/08/03 19:09:12","新北市中和區廣福路63號","121.50237","25.0010916666667","6500300","中和區"
"235070","558-UM","2019/08/03 19:09:29","新北市中和區連城路72號","121.497443333333","25.0013616666667","6500300","中和區"
"235045","565-BX","2019/08/03 19:09:28","新北市中和區景新街449號","121.513458333333","24.9886516666667","6500300","中和區"
"235060","KED-0823","2019/08/03 19:09:30","新北市中和區員山路376號","121.480728333333","25.0041766666667","6500300","中和區"
"235054","640-BX","2019/08/03 19:09:22","新北市中和區國光街109巷3-4號","121.469918333333","25.0001666666667","6500300","中和區"
"235047","732-UM","2019/08/03 19:09:14","新北市中和區興南路一段54號","121.510728333333","24.9907383333333","6500300","中和區"
"235046","733-UM","2019/08/03 19:09:16","新北市中和區華新街142號","121.50787","24.9825783333333","6500300","中和區"
"235071","783-BX","2019/08/03 19:09:16","新北市中和區連城路469巷40號","121.483431666667","24.9946216666667","6500300","中和區"
"235057","801-TS","2019/08/03 19:09:25","新北市中和區員山路423巷12弄1號","121.48046","25.0031433333333","6500300","中和區"
"235052","805-TS","2019/08/03 19:09:25","新北市中和區興南路二段142巷19弄4號","121.50299","24.9834416666667","6500300","中和區"
"235048","896-TW","2019/08/03 19:09:27","新北市中和區忠孝街10號","121.51017","24.9827133333333","6500300","中和區"
"235053","900-TW","2019/08/03 19:09:16","新北市中和區民德路258號","121.467976666667","24.9969266666667","6500300","中和區"
"235064","911-UM","2019/08/03 19:09:17","新北市中和區連城路2號","121.4993","25.002345","6500300","中和區"
"235051","157-BY","2019/08/03 19:09:27","新北市中和區興南路一段79號","121.51011","24.9889983333333","6500300","中和區"
"235037","AAC-213","2019/08/03 19:09:22","新北市中和區秀朗路三段10巷37弄4號","121.524088333333","24.9957933333333","6500300","中和區"
"235059","AAC-215","2019/08/03 19:09:01","新北市中和區圓通路296巷31弄1號","121.488581666667","24.9904716666667","6500300","中和區"
"220065","072-UY","2019/08/03 19:09:27","新北市板橋區民族路219巷9號","121.469266666667","25.0079116666667","6500100","板橋區"
"220086","073-UY","2019/08/03 19:09:33","新北市板橋區中正路166號","121.456468333333","25.017035","6500100","板橋區"
"220106","075-UY","2019/08/03 19:09:27","新北市板橋區雙十路三段66巷1號","121.470526666667","25.03192","6500100","板橋區"
"220069","AAD-861","2019/08/03 19:09:22","新北市板橋區貴興路25號","121.457681666667","25.00424","6500100","板橋區"
"220068","120-SR","2019/08/03 19:09:15","新北市板橋區翠華街6巷1弄3號","121.480911666667","25.0240333333333","6500100","板橋區"
"226004","312-R5","2019/08/03 19:09:33","新北市平溪區靜安路二段551號","121.749085","25.02561","6502400","平溪區"
"235041","251-BX","2019/08/03 19:09:25","新北市中和區景安路17號","121.507876666667","24.998965","6500300","中和區"
"228003","097-TW","2019/08/03 19:09:14","新北市貢寮區和美里和美街37號","121.912275","25.0864783333333","6502600","貢寮區"
"228001","212-TW","2019/08/03 19:09:29","新北市貢寮區真理里新港街10號","121.925488333333","25.054325","6502600","貢寮區"
"228002","663-BX","2019/08/03 19:09:22","新北市貢寮區福隆里福隆街28號","121.945045","25.0172466666667","6502600","貢寮區"
"224010","AGQ-8101","2019/08/03 19:09:35","新北市瑞芳區基山街64號","121.844815","25.1084466666667","6501200","瑞芳區"
"224009","275-VK","2019/08/03 19:09:18","新北市瑞芳區洞頂路101巷41號","121.860668333333","25.1207","6501200","瑞芳區"
"224008","273-VK","2019/08/03 19:09:28","新北市瑞芳區瑞芳街86號","121.80233","25.11022","6501200","瑞芳區"
"224005","271-BY","2019/08/03 19:09:28","新北市瑞芳區中山路251號","121.797605","25.1097616666667","6501200","瑞芳區"
"227002","642-TC","2019/08/03 19:09:33","新北市雙溪區平林里外平林10-4號","121.859131666667","25.038035","6502500","雙溪區"
"227001","400-TW","2019/08/03 19:09:14","新北市雙溪區牡丹里自強路8巷5號","121.865395","25.0387816666667","6502500","雙溪區"
"253006","032-BX","2019/08/03 19:09:26","新北市石門區八甲4-6號","121.521393333333","25.2822983333333","6502200","石門區"
"253005","295-VK","2019/08/03 19:09:31","新北市石門區阿里磅1號","121.588533333333","25.2912566666667","6502200","石門區"
"222001","KEA-2212","2019/08/03 19:09:29","新北市深坑區北深路一段300號","121.624271666667","25.0057183333333","6501800","深坑區"
"208002","KEA-2872","2019/08/03 19:09:30","新北市金山區環金路251號","121.633533333333","25.221275","6502700","金山區"
"208003","665-BX","2019/08/03 19:09:17","新北市金山區中正路39號","121.634973333333","25.221995","6502700","金山區"
"251009","008-UM","2019/08/03 19:09:20","新北市淡水區重建街36號","121.43994","25.17123","6501000","淡水區"
"251001","011-UM","2019/08/03 19:09:14","新北市淡水區民權路92巷35-1號","121.4621","25.12676","6501000","淡水區"
"251010","012-UM","2019/08/03 19:09:34","新北市淡水區中正路一段156巷1號","121.421043333333","25.180275","6501000","淡水區"
"251015","KEA-2871","2019/08/03 19:09:32","新北市淡水區白石腳7-6號","121.48492","25.1742283333333","6501000","淡水區"
"251013","182-VK","2019/08/03 19:09:28","新北市淡水區安子內12-1號","121.481563333333","25.219075","6501000","淡水區"
"251007","442-VK","2019/08/03 19:09:20","新北市淡水區民生路145巷33號","121.466791666667","25.1389383333333","6501000","淡水區"
"251005","443-VK","2019/08/03 19:09:13","新北市淡水區重建街永興巷2號","121.439638333333","25.1725683333333","6501000","淡水區"
"251014","577-R6","2019/08/03 19:09:23","新北市淡水區小中寮19-7號","121.484735","25.2296316666667","6501000","淡水區"
"251002","672-BX","2019/08/03 19:09:16","新北市淡水區中山路29號","121.443963333333","25.1701816666667","6501000","淡水區"
"251003","766-UM","2019/08/03 19:09:31","新北市淡水區大義街3號","121.443848333333","25.1781533333333","6501000","淡水區"
"207003","550-UM","2019/08/03 19:09:17","新北市萬里區大鵬里頂社29號","121.65659","25.2107566666667","6502800","萬里區"
"207004","225-TW","2019/08/03 19:09:19","新北市萬里區萬里里瑪鋉下街52號","121.691643333333","25.179565","6502800","萬里區"
"252002","178-VK","2019/08/03 19:09:28","新北市三芝區埔坪里埔頭坑79號","121.509606666667","25.2543366666667","6502100","三芝區"
"252003","249-BX","2019/08/03 19:09:30","新北市三芝區錫板里南勢崗5-5號","121.480621666667","25.262795","6502100","三芝區"
"208001","170-UY","2019/08/03 19:09:28","新北市金山區福德街18號","121.639091666667","25.22158","6502700","金山區"
"237007","153-BY","2019/08/03 19:09:31","新北市三峽區麻園40號","121.363795","24.9208116666667","6500900","三峽區"
"237013","252-BX","2019/08/03 19:09:11","新北市三峽區光明路69巷25號","121.376695","24.9291566666667","6500900","三峽區"
"237012","275-BY","2019/08/03 19:09:18","新北市三峽區三樹路222巷254弄68-22號","121.394231666667","24.9445766666667","6500900","三峽區"
"237008","302-VK","2019/08/03 19:09:28","新北市三峽區光明路100-6號","121.376103333333","24.928015","6500900","三峽區"
"237014","433-BY","2019/08/03 19:09:13","新北市三峽區隆恩街232號","121.357791666667","24.9411383333333","6500900","三峽區"
"237006","5529-G3","2019/08/03 19:09:27","新北市三峽區橫溪路95號","121.398433333333","24.9354383333333","6500900","三峽區"
"237011","KEA-2596","2019/08/03 19:09:17","新北市三峽區介壽路三段107號","121.39553","24.9394833333333","6500900","三峽區"
"237015","649-BX","2019/08/03 19:09:30","新北市三峽區建安34-1號","121.446946666667","24.927485","6500900","三峽區"
"237010","706-TV","2019/08/03 19:09:14","新北市三峽區國光街340號","121.371748333333","24.9395916666667","6500900","三峽區"
"237004","756-BX","2019/08/03 19:09:17","新北市三峽區有木205-1號","121.439036666667","24.8514966666667","6500900","三峽區"
"237005","AKY-6261","2019/08/03 19:09:30","新北市三峽區中山路459巷121號","121.351866666667","24.9352583333333","6500900","三峽區"
"220089","KED-0812","2019/08/03 19:09:34","新北市板橋區漢生西路34號","121.463425","25.01831","6500100","板橋區"
"236079","166-UM","2019/08/03 19:09:32","新北市土城區龍泉路38-2號","121.412131666667","24.9457466666667","6501300","土城區"
"236026","269-VK","2019/08/03 19:09:19","新北市土城區中正路13號","121.44295","24.9753933333333","6501300","土城區"
"236014","270-VK","2019/08/03 19:09:31","新北市土城區學府路一段75巷16弄1號","121.45726","24.987595","6501300","土城區"
"236070","KEA-2877","2019/08/03 19:09:24","新北市土城區裕生路84巷1號","121.44727","24.98535","6501300","土城區"
"252001","KED-0821","2019/08/03 19:09:25","新北市三芝區長勤街82號","121.500285","25.2550733333333","6502100","三芝區"
"236021","401-BY","2019/08/03 19:09:18","新北市土城區延峰街34巷2號","121.469495","24.984905","6501300","土城區"
"236059","912-UM","2019/08/03 19:09:28","新北市土城區忠義路47號","121.44066","24.96948","6501300","土城區"
"236049","913-UM","2019/08/03 19:09:30","新北市土城區明德路一段365-1號","121.453678333333","24.9790766666667","6501300","土城區"
"236055","AAC-216","2019/08/03 19:09:35","新北市土城區學府路一段169號","121.452663333333","24.9855233333333","6501300","土城區"
"242002","751-BX","2019/08/03 19:09:21","新北市新莊區瓊林南路301巷13號","121.436251666667","25.0058616666667","6500500","新莊區"
"238015","755-BX","2019/08/03 19:09:14","新北市樹林區光明街54號","121.412673333333","24.9917233333333","6500700","樹林區"
"238023","601-UM","2019/08/03 19:09:19","新北市樹林區三興路35號","121.396183333333","25.0147166666667","6500700","樹林區"
"238019","599-UM","2019/08/03 19:09:20","新北市樹林區東華街30號","121.414748333333","24.9821616666667","6500700","樹林區"
"238022","KEA-2213","2019/08/03 19:09:36","新北市樹林區東興街16巷4弄7號","121.409198333333","24.97834","6500700","樹林區"
"238021","KEA-2539","2019/08/03 19:09:21","新北市樹林區柑園街二段453號","121.36343","24.94627","6500700","樹林區"
"238025","303-VK","2019/08/03 19:09:30","新北市樹林區民和街29號","121.384211666667","24.96933","6500700","樹林區"
"238017","283-BY","2019/08/03 19:09:17","新北市樹林區光興街44號","121.409893333333","25.002795","6500700","樹林區"
"238014","282-BY","2019/08/03 19:09:24","新北市樹林區千歲街92巷7弄17號","121.427363333333","24.997975","6500700","樹林區"
"238020","268-VK","2019/08/03 19:09:19","新北市樹林區俊英街155巷41-2號","121.422761666667","25.0121133333333","6500700","樹林區"
"238026","172-UY","2019/08/03 19:09:26","新北市樹林區佳園路一段41巷28弄8號","121.394656666667","24.97069","6500700","樹林區"
"238016","169-UY","2019/08/03 19:09:29","新北市樹林區文化街25巷8號","121.418775","24.987115","6500700","樹林區"
"239007","AAC-297","2019/08/03 19:09:15","新北市鶯歌區中山路125號","121.34975","24.9570516666667","6500800","鶯歌區"
"239006","891-R6","2019/08/03 19:09:12","新北市鶯歌區鶯桃路296巷82號","121.33678","24.96184","6500800","鶯歌區"
"239008","527-UM","2019/08/03 19:09:27","新北市鶯歌區國際二路18巷11號","121.33739","24.9751433333333","6500800","鶯歌區"
"239005","526-UM","2019/08/03 19:09:29","新北市鶯歌區大湖路361巷24弄28號","121.329718333333","24.9777416666667","6500800","鶯歌區"
"239001","417-VK","2019/08/03 19:09:35","新北市鶯歌區鶯桃路163號","121.337246666667","24.9551483333333","6500800","鶯歌區"
"239003","360-BY","2019/08/03 19:09:32","新北市鶯歌區鶯桃路385號","121.333481666667","24.9636383333333","6500800","鶯歌區"
"239002","359-BY","2019/08/03 19:09:17","新北市鶯歌區中山路80號","121.351205","24.9570216666667","6500800","鶯歌區"
"239004","193-VK","2019/08/03 19:09:19","新北市鶯歌區中正三路318巷32號","121.326315","24.9377516666667","6500800","鶯歌區"
"221008","489-VK","2019/08/03 19:09:16","新北市汐止區康寧街426號","121.630643333333","25.06811","6501100","汐止區"
"221036","130-UY","2019/08/03 19:09:31","新北市汐止區南昌街22-1號","121.663223333333","25.0683133333333","6501100","汐止區"
"221015","131-UY","2019/08/03 19:09:30","新北市汐止區大同路二段709號","121.665235","25.07283","6501100","汐止區"
"244019","KED-0667","2019/08/03 19:09:22","新北市林口區文化二路一段575號","121.375688333333","25.0783733333333","6501700","林口區"
"221031","353-TW","2019/08/03 19:09:22","新北市汐止區中興路181巷29弄8號","121.629823333333","25.0657783333333","6501100","汐止區"
"221035","622-UM","2019/08/03 19:09:18","新北市汐止區中正路295號","121.65644","25.0678283333333","6501100","汐止區"
"221002","707-TV","2019/08/03 19:09:20","新北市汐止區大同路一段203號","121.633461666667","25.057105","6501100","汐止區"
"220079","145-BY","2019/08/03 19:09:21","新北市板橋區中正路9號","121.456196666667","25.012085","6500100","板橋區"
"220080","200-UY","2019/08/03 19:09:21","新北市板橋區大觀路二段19巷126號","121.450318333333","25.002505","6500100","板橋區"
"220082","610-BX","2019/08/03 19:09:31","新北市板橋區大觀路三段263號","121.429173333333","24.9923116666667","6500100","板橋區"
"220101","245-BX","2019/08/03 19:09:23","新北市板橋區雙十路二段165號","121.474231666667","25.028435","6500100","板橋區"
"220084","256-TC","2019/08/03 19:09:32","新北市板橋區溪崑一街30巷25號","121.429083333333","24.9914733333333","6500100","板橋區"
"224002","257-TC","2019/08/03 19:09:31","新北市平溪區新寮里五分寮10-3號","121.79741","25.076615","6501200","瑞芳區"
"220091","267-BY","2019/08/03 19:09:17","新北市板橋區三民路一段1巷39號","121.48026","25.0248216666667","6500100","板橋區"
"220056","276-BY","2019/08/03 19:09:20","新北市板橋區信義路74巷3弄1號","121.457051666667","24.993035","6500100","板橋區"
"220072","277-BY","2019/08/03 19:09:28","新北市板橋區金門街260巷2-1號","121.429855","24.986855","6500100","板橋區"
"220088","280-UM","2019/08/03 19:09:17","新北市板橋區雙十路一段16號","121.47818","25.0241816666667","6500100","板橋區"
"220094","283-UM","2019/08/03 19:09:14","新北市板橋區吳鳳路23號","121.467046666667","25.03109","6500100","板橋區"
"220071","283-VK","2019/08/03 19:09:21","新北市板橋區忠孝路154巷23號","121.464258333333","25.001485","6500100","板橋區"
"220053","285-VK","2019/08/03 19:09:13","新北市板橋區懷仁街35巷4弄2號","121.477016666667","25.019755","6500100","板橋區"
"220083","286-VK","2019/08/03 19:09:24","新北市板橋區大觀路二段174巷176弄13號","121.442778333333","25.003245","6500100","板橋區"
"220081","287-VK","2019/08/03 19:09:16","新北市板橋區南雅西路二段156巷55號","121.452431666667","25.012695","6500100","板橋區"
"220090","288-VK","2019/08/03 19:09:32","新北市板橋區長江路一段106巷12弄1號","121.460003333333","25.029045","6500100","板橋區"
"220061","295-UM","2019/08/03 19:09:28","新北市板橋區中山路二段318巷20弄27號","121.481191666667","25.0193266666667","6500100","板橋區"
"220075","303-R5","2019/08/03 19:09:16","新北市板橋區南雅南路一段1巷34號","121.45724","25.00663","6500100","板橋區"
"220062","305-R5","2019/08/03 19:09:31","新北市板橋區三民路二段居仁巷1弄55-1號","121.48122","25.0135866666667","6500100","板橋區"
"220092","307-R5","2019/08/03 19:09:26","新北市板橋區松江街72巷16號","121.469306666667","25.0278766666667","6500100","板橋區"
"220098","317-R6","2019/08/03 19:09:23","新北市板橋區民有街49號","121.46552","25.0259433333333","6500100","板橋區"
"220055","461-BY","2019/08/03 19:09:14","新北市板橋區中山路一段146號","121.463805","25.01099","6500100","板橋區"
"220035","560-BX","2019/08/03 19:09:16","新北市板橋區中正路332號","121.45432","25.0221933333333","6500100","板橋區"
"220103","561-BX","2019/08/03 19:09:27","新北市板橋區文化路一段270巷1號","121.467475","25.020655","6500100","板橋區"
"220063","609-BX","2019/08/03 19:09:19","新北市板橋區三民路二段159號","121.479121666667","25.0147633333333","6500100","板橋區"
"220057","686-BX","2019/08/03 19:09:29","新北市板橋區五權街30巷1號","121.464733333333","24.9933633333333","6500100","板橋區"
"220077","687-BX","2019/08/03 19:09:25","新北市板橋區大觀路二段269號","121.44287","24.99891","6500100","板橋區"
"220093","689-BX","2019/08/03 19:09:25","新北市板橋區新海路99號","121.46126","25.02229","6500100","板橋區"
"220054","741-BX","2019/08/03 19:09:32","新北市板橋區重慶路71-5號","121.461993333333","25.006825","6500100","板橋區"
"220102","KEA-2699","2019/08/03 19:09:16","新北市板橋區田單街8號","121.48218","25.028955","6500100","板橋區"
"220067","829-TW","2019/08/03 19:09:16","新北市板橋區三民路二段正隆巷45號","121.476823333333","25.0135166666667","6500100","板橋區"
"220074","895-R6","2019/08/03 19:09:21","新北市板橋區中正路11號","121.45621","25.0121916666667","6500100","板橋區"
"220073","985-R7","2019/08/03 19:09:16","新北市板橋區中正路239巷2號","121.455698333333","25.0180633333333","6500100","板橋區"
"220097","AAC-210","2019/08/03 19:09:30","新北市板橋區幸福路60巷15號","121.460773333333","25.02069","6500100","板橋區"
"220064","AAC-253","2019/08/03 19:09:15","新北市板橋區板新路234號","121.468318333333","25.01613","6500100","板橋區"
"235068","KEA-2873","2019/08/03 19:09:06","新北市中和區連城路139巷66號","121.496855","24.9967866666667","6500300","中和區"
"235061","KEA-2875","2019/08/03 19:09:32","新北市中和區員山路238號","121.481348333333","25.001325","6500300","中和區"
