"lineid","car","time","location","longitude","latitude","cityid","cityname"
"232005","291-BY","2019/08/19 08:40:05","新北市坪林區鶯子瀨9-13號","121.709581666667","24.9149016666667","6502000","坪林區"
"232001","758-BX","2019/08/19 08:40:00","新北市坪林區粗石斛4號","121.747355","24.95354","6502000","坪林區"
"244006","080-UY","2019/08/19 08:39:50","新北市林口區林口路92-1號","121.388883333333","25.0810016666667","6501700","林口區"
"244012","KEA-2802","2019/08/19 08:39:48","新北市林口區中山路188-2號","121.38924","25.07898","6501700","林口區"
"244022","483-VK","2019/08/19 08:39:53","新北市林口區東明三街326號","121.390646666667","25.0698883333333","6501700","林口區"
"244016","485-VK","2019/08/19 08:39:57","新北市林口區文化二路一段262-8號","121.371508333333","25.0733483333333","6501700","林口區"
"244008","656-BX","2019/08/19 08:39:56","新北市林口區寶林路37號","121.38578","25.084075","6501700","林口區"
"244010","657-BX","2019/08/19 08:40:01","新北市林口區中正路32號","121.395666666667","25.0775066666667","6501700","林口區"
"244024","837-TS","2019/08/19 08:39:54","新北市林口區忠孝三路42號","121.359978333333","25.0703116666667","6501700","林口區"
"244020","838-TS","2019/08/19 08:39:57","新北市林口區自強一街47號","121.399136666667","25.0776533333333","6501700","林口區"
"222004","289-BY","2019/08/19 08:39:58","新北市深坑區深南路220號","121.624341666667","25.0170433333333","6501800","深坑區"
"231007","189-VK","2019/08/19 08:39:45","新北市新店區新潭路三段200號","121.506505","24.9043566666667","6500600","新店區"
"231008","515-UM","2019/08/19 08:39:57","新北市新店區新烏路三段266號","121.550313333333","24.9001183333333","6500600","新店區"
"226001","8452-VL","2019/08/19 08:40:04","新北市平溪區東勢里火燒寮36-1號","121.769228333333","24.9853533333333","6502400","平溪區"
"226003","AGD-0702","2019/08/19 08:39:48","新北市平溪區十分里十分街238號","121.778046666667","25.0441583333333","6502400","平溪區"
"223003","205-TH","2019/08/19 08:39:50","新北市石碇區北宜路六段直潭巷10號","121.661343333333","24.9350283333333","6501900","石碇區"
"223008","406-TH","2019/08/19 08:39:53","新北市石碇區十八重溪13號","121.677951666667","25.0112433333333","6501900","石碇區"
"223001","592-UM","2019/08/19 08:39:52","新北市石碇區北宜路六段直潭巷9號","121.661425","24.9354166666667","6501900","石碇區"
"223004","660-BX","2019/08/19 08:39:51","新北市石碇區崩山12-1號","121.674211666667","24.9732183333333","6501900","石碇區"
"223007","661-BX","2019/08/19 08:40:01","新北市石碇區十八重溪13號","121.677926666667","25.01127","6501900","石碇區"
"223005","677-TV","2019/08/19 08:40:01","新北市石碇區崩山18號","121.677953333333","24.9689483333333","6501900","石碇區"
"227003","282-VK","2019/08/19 08:39:45","新北市雙溪區外柑里三叉坑12號","121.830763333333","25.0009666666667","6502500","雙溪區"
"252006","073-UM","2019/08/19 08:39:46","新北市三芝區後厝里北勢子3-3號","121.479943333333","25.2531166666667","6502100","三芝區"
"252004","249-BX","2019/08/19 08:40:03","新北市三芝區店子里店子72號","121.500835","25.2048666666667","6502100","三芝區"
"237014","760-BX","2019/08/19 08:39:47","新北市三峽區詩朗62號","121.367765","24.8440783333333","6500900","三峽區"
"226005","ANY-2373","2019/08/19 08:40:02","新北市平溪區南山里南山坪105號","121.782175","25.043135","6502400","平溪區"
"242038","AAC-296","2019/08/19 08:39:56","新北市新莊區民安路298號","121.428221666667","25.0217833333333","6500500","新莊區"
"242059","986-R7","2019/08/19 08:39:44","新北市新莊區新樹路69-25號","121.438593333333","25.0297233333333","6500500","新莊區"
"242001","751-BX","2019/08/19 08:39:58","新北市新莊區碧江街11號","121.455818333333","25.0349333333333","6500500","新莊區"
"242028","615-BX","2019/08/19 08:39:48","新北市新莊區中平路301號","121.444713333333","25.051235","6500500","新莊區"
"242026","613-BX","2019/08/19 08:39:56","新北市新莊區幸福路585號","121.453735","25.0491883333333","6500500","新莊區"
"242057","612-BX","2019/08/19 08:39:56","新北市新莊區新北大道七段842號","121.41371","25.0236783333333","6500500","新莊區"
"242045","566-BX","2019/08/19 08:39:58","新北市新莊區福營路303號","121.42676","25.029075","6500500","新莊區"
"242049","497-BY","2019/08/19 08:39:49","新北市新莊區民本街27巷1號","121.428288333333","25.0192366666667","6500500","新莊區"
"242043","442-UM","2019/08/19 08:39:47","新北市新莊區天泉一街3號","121.414776666667","25.0240033333333","6500500","新莊區"
"242055","441-UM","2019/08/19 08:40:01","新北市新莊區豐年街豐2巷8號","121.447001666667","25.03074","6500500","新莊區"
"242003","440-UM","2019/08/19 08:39:58","新北市新莊區中華路二段9號","121.453795","25.0455366666667","6500500","新莊區"
"242040","415-TV","2019/08/19 08:39:50","新北市新莊區雙鳳路106號","121.41386","25.028135","6500500","新莊區"
"242010","413-TV","2019/08/19 08:40:03","新北市新莊區中港路591巷21號","121.450036666667","25.0523866666667","6500500","新莊區"
"242047","400-BY","2019/08/19 08:40:03","新北市新莊區富國路134號","121.422691666667","25.02503","6500500","新莊區"
"242024","362-BY","2019/08/19 08:40:03","新北市新莊區五權一路7-7號","121.458575","25.0668616666667","6500500","新莊區"
"242022","353-BY","2019/08/19 08:39:59","新北市新莊區化成路174號","121.465548333333","25.0455733333333","6500500","新莊區"
"242012","132-UY","2019/08/19 08:39:55","新北市新莊區中泰街86號","121.449588333333","25.04676","6500500","新莊區"
"242035","135-UY","2019/08/19 08:40:03","新北市新莊區後港一路49巷3弄11號","121.42516","25.0266983333333","6500500","新莊區"
"242052","172-VK","2019/08/19 08:39:53","新北市新莊區西盛街395巷25弄13號","121.42839","25.0120116666667","6500500","新莊區"
"242014","173-VK","2019/08/19 08:39:57","新北市新莊區中平路184巷10弄5號","121.445475","25.0482766666667","6500500","新莊區"
"242020","175-VK","2019/08/19 08:39:55","新北市新莊區新興街1號","121.4507","25.0361133333333","6500500","新莊區"
"242016","176-VK","2019/08/19 08:39:58","新北市新莊區中港路318號","121.452825","25.0456516666667","6500500","新莊區"
"242018","347-TH","2019/08/19 08:39:59","新北市新莊區明智街19號","121.454178333333","25.0413833333333","6500500","新莊區"
"242033","348-TH","2019/08/19 08:40:01","新北市新莊區中正路344號","121.444213333333","25.0346366666667","6500500","新莊區"
"242006","349-TH","2019/08/19 08:39:55","新北市新莊區新北大道三段5號","121.458506666667","25.060025","6500500","新莊區"
"242030","350-TH","2019/08/19 08:39:51","新北市新莊區新泰路277巷3號","121.445486666667","25.0402616666667","6500500","新莊區"
"244018","KED-0667","2019/08/19 08:39:56","新北市林口區公園路151號","121.37029","25.0713083333333","6501700","林口區"
"242008","280-VK","2019/08/19 08:39:57","新北市新莊區昌隆街10號","121.453293333333","25.0507766666667","6500500","新莊區"
"220002","833-TW","2019/08/19 08:40:00","新北市板橋區華東街1-10號","121.44858","24.9948183333333","6500100","板橋區"
