"lineid","car","time","location","longitude","latitude","cityid","cityname"
"232005","291-BY","2019/08/19 09:09:45","新北市坪林區魚堀10號","121.705808333333","24.9052783333333","6502000","坪林區"
"244006","080-UY","2019/08/19 09:09:50","新北市林口區後湖18-3號","121.387378333333","25.09776","6501700","林口區"
"244012","KEA-2802","2019/08/19 09:09:48","新北市林口區麗園一街6巷4號","121.37566","25.070095","6501700","林口區"
"244022","483-VK","2019/08/19 09:10:02","新北市林口區東湖路93巷74號","121.385545","25.070765","6501700","林口區"
"244016","485-VK","2019/08/19 09:09:57","新北市林口區八德路20巷17號","121.367378333333","25.067725","6501700","林口區"
"244008","656-BX","2019/08/19 09:09:56","新北市林口區民生路146號","121.379166666667","25.0879966666667","6501700","林口區"
"244010","657-BX","2019/08/19 09:10:01","新北市林口區中正路57巷12弄23號","121.394708333333","25.0762483333333","6501700","林口區"
"244024","837-TS","2019/08/19 09:09:54","新北市林口區南勢二街166號","121.359271666667","25.0748","6501700","林口區"
"244020","838-TS","2019/08/19 09:09:57","新北市林口區工六路19號","121.400518333333","25.077435","6501700","林口區"
"222004","289-BY","2019/08/19 09:09:58","新北市深坑區土庫尖路75-1號","121.631503333333","25.0181616666667","6501800","深坑區"
"231008","515-UM","2019/08/19 09:10:01","新北市新店區廣興路136號","121.535228333333","24.91109","6500600","新店區"
"226001","8452-VL","2019/08/19 09:10:04","新北市平溪區東勢里芊蓁林47-2號","121.75157","25.011795","6502400","平溪區"
"226003","AGD-0702","2019/08/19 09:09:48","新北市平溪區望古里望古坑19號","121.762591666667","25.03414","6502400","平溪區"
"223003","205-TH","2019/08/19 09:09:53","新北市石碇區北宜路六段十三股巷1號","121.649205","24.9472933333333","6501900","石碇區"
"223008","406-TH","2019/08/19 09:07:27","新北市石碇區光明路16號","121.683411666667","25.0330133333333","6501900","石碇區"
"223001","592-UM","2019/08/19 09:09:52","新北市石碇區北宜路六段水底寮巷3號","121.653996666667","24.9457116666667","6501900","石碇區"
"223004","660-BX","2019/08/19 09:09:51","新北市石碇區碇坪路二段81號","121.685221666667","24.964855","6501900","石碇區"
"223007","661-BX","2019/08/19 09:10:01","新北市石碇區碇南路二段鹿窟巷16號","121.665695","25.031275","6501900","石碇區"
"223005","677-TV","2019/08/19 09:09:42","新北市石碇區崩山53號","121.682378333333","24.9688883333333","6501900","石碇區"
"227003","282-VK","2019/08/19 09:09:45","新北市雙溪區泰平里泰平35號","121.826226666667","24.9707566666667","6502500","雙溪區"
"252004","249-BX","2019/08/19 09:09:43","新北市三芝區興華里車埕69-3號","121.493325","25.1936633333333","6502100","三芝區"
"237014","760-BX","2019/08/19 09:09:47","新北市三峽區詩朗17號","121.373791666667","24.8546366666667","6500900","三峽區"
"242038","AAC-296","2019/08/19 09:09:57","新北市新莊區龍安路491號","121.425808333333","25.0181216666667","6500500","新莊區"
"242059","986-R7","2019/08/19 09:10:04","新北市新莊區瓊林北路6號","121.440931666667","25.0230366666667","6500500","新莊區"
"242001","751-BX","2019/08/19 09:09:47","新北市三重區重新路五段635-1號","121.467216666667","25.0435516666667","6500500","新莊區"
"242028","615-BX","2019/08/19 09:09:48","新北市新莊區昌平街19號","121.454338333333","25.0513966666667","6500500","新莊區"
"242026","613-BX","2019/08/19 09:09:56","新北市新莊區幸福路793號","121.446481666667","25.0490316666667","6500500","新莊區"
"242057","612-BX","2019/08/19 09:09:56","新北市新莊區八德街115號","121.424026666667","25.020785","6500500","新莊區"
"242045","566-BX","2019/08/19 09:09:58","新北市新莊區富國路77巷1號","121.42021","25.026055","6500500","新莊區"
"242049","497-BY","2019/08/19 09:09:59","新北市新莊區民安西路153號","121.426196666667","25.016585","6500500","新莊區"
"242043","442-UM","2019/08/19 09:09:46","新北市新莊區新北大道七段650號","121.412068333333","25.027935","6500500","新莊區"
"242055","441-UM","2019/08/19 09:10:01","新北市新莊區景德路314號","121.447236666667","25.03379","6500500","新莊區"
"242003","440-UM","2019/08/19 09:09:58","新北市新莊區化成路212號","121.465613333333","25.0465","6500500","新莊區"
"242040","415-TV","2019/08/19 09:09:50","新北市新莊區壽山路55-3號","121.41226","25.031695","6500500","新莊區"
"242010","413-TV","2019/08/19 09:10:03","新北市新莊區中信街23巷1號","121.451073333333","25.0504883333333","6500500","新莊區"
"242047","400-BY","2019/08/19 09:10:03","新北市新莊區四維路152巷15號","121.42226","25.0229166666667","6500500","新莊區"
"242024","362-BY","2019/08/19 09:09:55","新北市新莊區五權一路12巷25弄12號","121.458251666667","25.064335","6500500","新莊區"
"242022","353-BY","2019/08/19 09:09:58","新北市新莊區化成路840號","121.46483","25.06035","6500500","新莊區"
"242012","132-UY","2019/08/19 09:09:58","新北市新莊區中平路270巷7弄35號","121.446226666667","25.0510316666667","6500500","新莊區"
"242035","135-UY","2019/08/19 09:10:03","新北市新莊區建安街9巷8號","121.429131666667","25.0265666666667","6500500","新莊區"
"242052","172-VK","2019/08/19 09:09:53","新北市新莊區西盛街390號","121.427675","25.0129333333333","6500500","新莊區"
"242014","173-VK","2019/08/19 09:10:01","新北市新莊區中平路46巷8號","121.445175","25.0438433333333","6500500","新莊區"
"242020","175-VK","2019/08/19 09:09:51","新北市新莊區和興街45號","121.44664","25.0405966666667","6500500","新莊區"
"242016","176-VK","2019/08/19 09:09:56","新北市新莊區新泰路353號","121.444556666667","25.0423666666667","6500500","新莊區"
"242018","347-TH","2019/08/19 09:10:04","新北市新莊區民樂街87巷10號","121.457373333333","25.043385","6500500","新莊區"
"242033","348-TH","2019/08/19 09:09:59","新北市新莊區華興街35號","121.445923333333","25.035925","6500500","新莊區"
"242006","349-TH","2019/08/19 09:09:58","新北市新莊區思源路287巷1弄21號","121.459375","25.04749","6500500","新莊區"
"242030","350-TH","2019/08/19 09:10:01","新北市新莊區忠孝街97號","121.443923333333","25.0370616666667","6500500","新莊區"
"244018","KED-0667","2019/08/19 09:09:56","新北市林口區忠孝路542巷5號","121.372995","25.0675183333333","6501700","林口區"
"242008","280-VK","2019/08/19 09:09:53","新北市新莊區幸福路562號","121.45454","25.0493616666667","6500500","新莊區"
"220002","833-TW","2019/08/19 09:10:00","新北市板橋區華東街1-10號","121.448583333333","24.9947933333333","6500100","板橋區"
