"lineid","car","time","location","longitude","latitude","cityid","cityname"
"231007","189-VK","2019/08/19 10:49:43","新北市新店區新潭路三段80巷3號","121.502685","24.9099666666667","6500600","新店區"
"231008","515-UM","2019/08/19 10:49:57","新北市新店區新烏路二段405號","121.551453333333","24.9094333333333","6500600","新店區"
"227003","282-VK","2019/08/19 10:49:45","新北市雙溪區泰平里溪尾寮46號","121.821876666667","24.96793","6502500","雙溪區"
"237014","760-BX","2019/08/19 10:48:01","新北市三峽區中山路459巷135號","121.348585","24.9329516666667","6500900","三峽區"
"242026","613-BX","2019/08/19 10:49:56","新北市新莊區瓊林路13-3號","121.448858333333","25.03094","6500500","新莊區"
