"lineid","car","time","location","longitude","latitude","cityid","cityname"
"234078","298-R6","2019/08/19 15:09:37","新北市八里區中山路三段382號","121.368495","25.1360266666667","6500400","永和區"
"234025","9372-KE","2019/08/19 15:09:51","新北市永和區保生路55-1號","121.504468333333","25.0109116666667","6500400","永和區"
"248007","KED-0815","2019/08/19 15:09:43","新北市五股區四維路135巷10號","121.466946666667","25.0742366666667","6501500","五股區"
"248019","KED-0813","2019/08/19 15:09:47","新北市五股區凌雲路三段24巷16-4號","121.435121666667","25.1051633333333","6501500","五股區"
"248003","677-BX","2019/08/19 15:09:48","新北市五股區成泰路二段64號","121.437353333333","25.0821166666667","6501500","五股區"
"243004","AAD-798","2019/08/19 15:09:45","新北市泰山區楓江路43號","121.435211666667","25.0627616666667","6501600","泰山區"
"243008","421-VK","2019/08/19 15:09:46","新北市泰山區文程路7號","121.427875","25.0495433333333","6501600","泰山區"
"243001","KEA-2215","2019/08/19 15:09:53","新北市泰山區憲訓路5號","121.428993333333","25.0649766666667","6501600","泰山區"
"243003","KEA-2216","2019/08/19 15:09:32","新北市泰山區新北大道六段313巷3號","121.42402","25.033485","6501600","泰山區"
"243005","646-TV","2019/08/19 15:09:47","新北市泰山區公園路60號","121.425858333333","25.0557083333333","6501600","泰山區"
"231002","001-UM","2019/08/19 15:09:41","新北市新店區中正路543-4號","121.533713333333","24.9875316666667","6500600","新店區"
"231030","002-UM","2019/08/19 15:09:39","新北市新店區安民街339號","121.51694","24.9748816666667","6500600","新店區"
"231024","0291-UT","2019/08/19 15:09:39","新北市新店區中華路42巷22號","121.54077","24.9688083333333","6500600","新店區"
"231005","046-UY","2019/08/19 15:09:41","新北市新店區北新路三段173-3號","121.540971666667","24.9840116666667","6500600","新店區"
"231029","106-UY","2019/08/19 15:09:41","新北市新店區安康路三段628號","121.478931666667","24.946005","6500600","新店區"
"231018","107-UY","2019/08/19 15:09:36","新北市新店區中央七街111號","121.525681666667","24.9777766666667","6500600","新店區"
"231036","110-UY","2019/08/19 15:09:16","新北市新店區安祥路104巷11弄3號","121.481193333333","24.9633616666667","6500600","新店區"
"231039","187-VK","2019/08/19 15:09:50","新北市新店區寶安街16巷2號","121.542065","24.981645","6500600","新店區"
"231031","256-BX","2019/08/19 15:09:51","新北市新店區安泰路60巷134弄8號","121.484123333333","24.9440883333333","6500600","新店區"
"231023","260-TV","2019/08/19 15:09:37","新北市新店區檳榔路123號","121.544715","24.9614883333333","6500600","新店區"
"231003","268-BY","2019/08/19 15:09:51","新北市新店區寶橋路221號","121.549285","24.9775116666667","6500600","新店區"
"231035","278-BY","2019/08/19 15:09:53","新北市新店區安和路三段124號","121.51675","24.985645","6500600","新店區"
"231014","AAD-862","2019/08/19 15:09:42","新北市新店區銀河路86-1號","121.58083","24.95893","6500600","新店區"
"231006","355-BY","2019/08/19 15:09:38","新北市新店區新坡一街85號","121.548906666667","24.9645216666667","6500600","新店區"
"231038","3712-VJ","2019/08/19 15:09:44","新北市新店區安華路28-1號","121.51958","24.9609","6500600","新店區"
"231025","4715-K9","2019/08/19 15:09:51","新北市新店區民權路98號","121.536306666667","24.9829266666667","6500600","新店區"
"231019","513-UM","2019/08/19 15:09:20","新北市新店區永福路38-6號","121.550976666667","24.9291683333333","6500600","新店區"
"231034","616-UM","2019/08/19 15:09:35","新北市新店區玫瑰路4-1號","121.493558333333","24.951415","6500600","新店區"
"231011","KED-0819","2019/08/19 15:09:47","新北市新店區寶元路一段65號","121.542253333333","24.985855","6500600","新店區"
"231026","720-UM","2019/08/19 15:09:41","新北市新店區建興街9巷4號","121.539778333333","24.976315","6500600","新店區"
"231028","897-TW","2019/08/19 15:09:51","新北市新店區安豐路45號","121.50008","24.955045","6500600","新店區"
"231001","898-TW","2019/08/19 15:09:39","新北市新店區中正路262巷1弄3號","121.539091666667","24.9737633333333","6500600","新店區"
"231004","899-TW","2019/08/19 15:09:47","新北市新店區建國路35巷1號","121.540366666667","24.9744516666667","6500600","新店區"
"231037","AKT-0513","2019/08/19 15:09:45","新北市新店區安民街341-1號","121.516588333333","24.9750666666667","6500600","新店區"
"241006","262-UM","2019/08/19 15:09:48","新北市三重區重新路四段121號","121.48485","25.0521783333333","6500200","三重區"
"235019","183-VK","2019/08/19 15:09:48","新北市八里區荖阡坑路15-66號","121.39867","25.140355","6500300","中和區"
"235007","352-BY","2019/08/19 15:09:51","新北市中和區興南路二段159巷7號","121.50528","24.98311","6500300","中和區"
"235014","4979-A6","2019/08/19 15:09:48","新北市中和區安樂路58號","121.512088333333","24.9932116666667","6500300","中和區"
"235033","4980-A6","2019/08/19 15:09:48","新北市中和區景新街132巷8-4號","121.504566666667","24.998145","6500300","中和區"
"235026","551-UM","2019/08/19 15:09:53","新北市中和區中正路800號","121.485283333333","25.0015033333333","6500300","中和區"
"235034","558-UM","2019/08/19 15:09:53","新北市中和區中正路414號","121.491978333333","24.994355","6500300","中和區"
"235035","783-BX","2019/08/19 15:09:46","新北市中和區中板路47巷16號","121.482083333333","25.0108866666667","6500300","中和區"
"235012","896-TW","2019/08/19 15:09:45","新北市中和區興南路一段130號","121.509338333333","24.988305","6500300","中和區"
"235030","911-UM","2019/08/19 15:09:44","新北市中和區保平路231號","121.508028333333","25.00421","6500300","中和區"
"235023","AAC-215","2019/08/19 15:09:51","新北市中和區圓通路335巷37弄12號","121.493493333333","24.988895","6500300","中和區"
"220003","015-TV","2019/08/19 15:09:50","新北市板橋區重慶路278巷18號","121.462291666667","24.9997666666667","6500100","板橋區"
"220013","072-UY","2019/08/19 15:09:37","新北市板橋區新府路1號","121.464213333333","25.01235","6500100","板橋區"
"253004","6251-TK","2019/08/19 15:09:38","新北市石門區坪林52-1號","121.595023333333","25.2719966666667","6502200","石門區"
"253002","637-UY","2019/08/19 15:09:47","新北市石門區崁子腳28-2號","121.540078333333","25.2888916666667","6502200","石門區"
"253001","KEC-0718","2019/08/19 15:09:39","新北市石門區尖子鹿103-3號","121.582178333333","25.295095","6502200","石門區"
"207002","681-TV","2019/08/19 15:09:33","新北市萬里區崁腳里內中福路87號","121.655508333333","25.16605","6502800","萬里區"
"207001","662-BX","2019/08/19 15:09:41","新北市萬里區雙興里麗水路8號","121.649675","25.1866616666667","6502800","萬里區"
"236040","KED-0685","2019/08/19 15:09:55","新北市土城區裕民路256巷2弄2號","121.454305","24.9828483333333","6501300","土城區"
"236074","166-UM","2019/08/19 15:09:50","新北市土城區中州路3巷43號","121.41336","24.956365","6501300","土城區"
"236029","253-BX","2019/08/19 15:09:41","新北市土城區中央路二段68號","121.442535","24.97915","6501300","土城區"
"236024","269-VK","2019/08/19 15:09:36","新北市土城區中央路二段236號","121.441961666667","24.97505","6501300","土城區"
"236012","270-VK","2019/08/19 15:09:41","新北市土城區學府路一段23巷26號","121.4577","24.9871783333333","6501300","土城區"
"236064","KEA-2877","2019/08/19 15:09:55","新北市土城區學成路110號","121.449863333333","24.9892783333333","6501300","土城區"
"236016","401-BY","2019/08/19 15:09:38","新北市土城區延峰街28號","121.469096666667","24.9854116666667","6501300","土城區"
"236057","912-UM","2019/08/19 15:09:36","新北市土城區金城路一段131號","121.444805","24.9737033333333","6501300","土城區"
"236045","913-UM","2019/08/19 15:09:56","新北市土城區清水路205號","121.460071666667","24.9817083333333","6501300","土城區"
"236060","915-UM","2019/08/19 15:09:42","新北市土城區延平街77號","121.467468333333","24.99341","6501300","土城區"
"236054","AAC-216","2019/08/19 15:09:42","新北市土城區學府路一段239號","121.450633333333","24.98375","6501300","土城區"
"238010","601-UM","2019/08/19 15:09:35","新北市樹林區中山路二段163號","121.406045","24.9787116666667","6500700","樹林區"
"238006","599-UM","2019/08/19 15:09:52","新北市樹林區八德街247號","121.421806666667","24.97865","6500700","樹林區"
"238011","5061-A6","2019/08/19 15:09:54","新北市樹林區鎮前街29巷2號","121.425728333333","24.9918833333333","6500700","樹林區"
"238005","KEA-2217","2019/08/19 15:09:33","新北市樹林區八德街247巷24-1號","121.420943333333","24.9739066666667","6500700","樹林區"
"238009","KEA-2213","2019/08/19 15:09:45","新北市樹林區和平街32巷24號","121.422743333333","24.9803333333333","6500700","樹林區"
"238008","KEA-2539","2019/08/19 15:09:50","新北市樹林區西圳街一段165巷20弄28號","121.39561","24.9601316666667","6500700","樹林區"
"238012","303-VK","2019/08/19 15:09:50","新北市樹林區中山路二段161號","121.406195","24.9787166666667","6500700","樹林區"
"238004","283-BY","2019/08/19 15:09:36","新北市樹林區大安路435號","121.415276666667","24.9885666666667","6500700","樹林區"
"238007","268-VK","2019/08/19 15:09:41","新北市樹林區大安路435號","121.41527","24.9884566666667","6500700","樹林區"
"238013","172-UY","2019/08/19 15:09:40","新北市樹林區東順街92號","121.408225","24.97557","6500700","樹林區"
"238003","169-UY","2019/08/19 15:09:37","新北市樹林區中山路二段34號","121.417378333333","24.9848983333333","6500700","樹林區"
"221032","280-BY","2019/08/19 15:09:50","新北市新店區溪洲路145號","121.530023333333","24.9629283333333","6501100","汐止區"
"220027","145-BY","2019/08/19 15:03:00","新北市板橋區復興街31號","121.458105","25.017465","6500100","板橋區"
"220028","200-UY","2019/08/19 15:09:51","新北市板橋區大觀路二段179巷13號","121.44543","24.9999016666667","6500100","板橋區"
"220030","610-BX","2019/08/19 15:09:46","新北市板橋區存德街83號","121.43202","24.9910933333333","6500100","板橋區"
"220050","245-BX","2019/08/19 15:09:50","新北市板橋區雙十路二段2巷21號","121.47826","25.0256033333333","6500100","板橋區"
"220020","277-BY","2019/08/19 15:09:46","新北市板橋區金門街121巷15號","121.43377","24.9915133333333","6500100","板橋區"
"220031","286-VK","2019/08/19 15:09:35","新北市板橋區僑中二街92巷10號","121.445825","25.009005","6500100","板橋區"
"220029","287-VK","2019/08/19 15:09:33","新北市板橋區僑中一街124巷20弄21號","121.447035","25.0139666666667","6500100","板橋區"
"220009","293-UM","2019/08/19 15:09:47","新北市板橋區四川路一段286巷26號","121.45786","25.001325","6500100","板橋區"
"220023","303-R5","2019/08/19 15:09:54","新北市板橋區金華街10巷48弄68號","121.459696666667","25.0202833333333","6500100","板橋區"
"220010","305-R5","2019/08/19 15:09:37","新北市板橋區中山路二段398號","121.482633333333","25.0208016666667","6500100","板橋區"
"220041","307-R5","2019/08/19 15:09:36","新北市板橋區文化路一段135號","121.462041666667","25.015115","6500100","板橋區"
"220104","461-BY","2019/08/19 15:09:50","新北市板橋區金華街69號","121.457518333333","25.0207116666667","6500100","板橋區"
"220038","487-VK","2019/08/19 15:09:41","新北市板橋區四維路253號","121.463555","25.027815","6500100","板橋區"
"220037","491-VK","2019/08/19 15:09:41","新北市板橋區懷德街80-4號","121.478808333333","25.0307283333333","6500100","板橋區"
"220052","561-BX","2019/08/19 15:09:47","新北市板橋區漢生東路41-2號","121.46572","25.0168566666667","6500100","板橋區"
"220011","609-BX","2019/08/19 15:09:39","新北市板橋區中山路二段385號","121.480158333333","25.0193466666667","6500100","板橋區"
"220040","637-BX","2019/08/19 15:09:51","新北市板橋區文化路二段419號","121.474705","25.032715","6500100","板橋區"
"220005","686-BX","2019/08/19 15:09:43","新北市板橋區四川路二段245巷52號","121.452001666667","24.9924033333333","6500100","板橋區"
"220025","687-BX","2019/08/19 15:09:45","新北市板橋區僑中一街102巷5弄15號","121.446003333333","25.0125916666667","6500100","板橋區"
"220042","689-BX","2019/08/19 15:09:50","新北市板橋區長江路二段8號","121.464733333333","25.031325","6500100","板橋區"
"220002","741-BX","2019/08/19 15:09:46","新北市板橋區忠孝路忠義巷9弄3號","121.4651","25.0047366666667","6500100","板橋區"
"220051","KEA-2699","2019/08/19 15:09:48","新北市板橋區莒光路79巷2號","121.47195","25.0242966666667","6500100","板橋區"
"220012","806-UM","2019/08/19 15:07:01","新北市板橋區華東街1-10號","121.448596666667","24.994885","6500100","板橋區"
"220014","829-TW","2019/08/19 15:09:48","新北市板橋區中山路一段206巷75號","121.471695","25.0131033333333","6500100","板橋區"
"220022","895-R6","2019/08/19 15:09:48","新北市板橋區縣民大道一段285號","121.460668333333","25.010015","6500100","板橋區"
"220021","985-R7","2019/08/19 15:09:50","新北市板橋區南雅東路89號","121.453108333333","25.0086066666667","6500100","板橋區"
"220012","AAC-253","2019/08/19 15:09:46","新北市板橋區民族路215號","121.469473333333","25.0072716666667","6500100","板橋區"
