"lineid","car","time","location","longitude","latitude","cityid","cityname"
"231030","002-UM","2019/08/19 15:39:43","新北市新店區新和街99號","121.521296666667","24.9866816666667","6500600","新店區"
"231005","046-UY","2019/08/19 15:39:38","新北市新店區民族路237號","121.53655","24.9756716666667","6500600","新店區"
"231029","106-UY","2019/08/19 15:39:41","新北市新店區安康路三段49號","121.492666666667","24.952545","6500600","新店區"
"231018","107-UY","2019/08/19 15:39:36","新北市新店區中正路663巷7弄15號","121.532901666667","24.9900683333333","6500600","新店區"
"231013","108-UY","2019/08/19 15:39:40","新北市新店區永業路81巷1弄10號","121.53011","24.9499516666667","6500600","新店區"
"231036","110-UY","2019/08/19 15:39:36","新北市新店區安祥路69巷89弄11號","121.483048333333","24.95965","6500600","新店區"
"231039","187-VK","2019/08/19 15:39:50","新北市新店區寶元路二段40號","121.546645","24.981665","6500600","新店區"
"231031","256-BX","2019/08/19 15:39:51","新北市新店區雙城路212號","121.497168333333","24.9417","6500600","新店區"
"231023","260-TV","2019/08/19 15:39:36","新北市新店區大新街7巷18號","121.54381","24.968105","6500600","新店區"
"231003","268-BY","2019/08/19 15:39:45","新北市新店區寶興路60巷4號","121.549825","24.9718683333333","6500600","新店區"
"231035","278-BY","2019/08/19 15:39:33","新北市新店區安興路81號","121.515373333333","24.975425","6500600","新店區"
"231014","AAD-862","2019/08/19 15:39:42","新北市新店區北宜路二段16號","121.547951666667","24.9517383333333","6500600","新店區"
"231038","3712-VJ","2019/08/19 15:39:44","新北市新店區安康路二段242巷13號","121.508706666667","24.95972","6500600","新店區"
"231019","513-UM","2019/08/19 15:39:39","新北市新店區湖興路128-7號","121.56052","24.93063","6500600","新店區"
"231034","616-UM","2019/08/19 15:39:35","新北市新店區如意街87號","121.49496","24.9470483333333","6500600","新店區"
"231011","KED-0819","2019/08/19 15:39:47","新北市新店區文化路33號","121.543821666667","24.9800783333333","6500600","新店區"
"231026","720-UM","2019/08/19 15:39:41","新北市新店區三民路51巷3弄2號","121.536485","24.97029","6500600","新店區"
"231028","897-TW","2019/08/19 15:39:51","新北市新店區僑義路37號","121.500551666667","24.950365","6500600","新店區"
"231037","AKT-0513","2019/08/19 15:39:44","新北市新店區安興路83號","121.515305","24.9753583333333","6500600","新店區"
"241028","022-UY","2019/08/19 15:39:42","新北市三重區捷運路30號","121.484575","25.05579","6500200","三重區"
"241015","062-VK","2019/08/19 15:39:41","新北市三重區重新路四段121號","121.485275","25.052195","6500200","三重區"
"241017","063-VK","2019/08/19 15:39:50","新北市三重區新北大道一段7號","121.489778333333","25.0613966666667","6500200","三重區"
"241024","065-VK","2019/08/19 15:39:46","新北市三重區重新路四段121號","121.484838333333","25.0524566666667","6500200","三重區"
"241020","066-VK","2019/08/19 15:39:46","新北市三重區忠孝路二段52號","121.485046666667","25.0704883333333","6500200","三重區"
"241006","262-UM","2019/08/19 15:37:29","新北市三重區重新路四段121號","121.484978333333","25.051905","6500200","三重區"
"241007","398-BY","2019/08/19 15:39:41","新北市三重區重新路四段121號","121.484916666667","25.051965","6500200","三重區"
"241023","545-UM","2019/08/19 15:39:35","新北市三重區朝陽街26巷1弄22號","121.481906666667","25.0569016666667","6500200","三重區"
"241005","AAD-863","2019/08/19 15:39:32","新北市三重區三陽路170-1號","121.481576666667","25.0576233333333","6500200","三重區"
"241022","KED-0820","2019/08/19 15:39:42","新北市三重區重新路四段121號","121.484988333333","25.0519233333333","6500200","三重區"
"241016","887-TS","2019/08/19 15:39:35","新北市三重區重新路四段121號","121.485006666667","25.0520133333333","6500200","三重區"
"241012","941-UM","2019/08/19 15:39:44","新北市三重區自強路一段62號","121.497251666667","25.0667683333333","6500200","三重區"
"241029","942-UM","2019/08/19 15:39:34","新北市三重區泉州街84巷18號","121.495766666667","25.0542733333333","6500200","三重區"
"241033","AAC-255","2019/08/19 15:39:43","新北市三重區中興南街76號","121.471041666667","25.0434466666667","6500200","三重區"
"235019","183-VK","2019/08/19 15:39:48","新北市八里區中山路三段409號","121.368771666667","25.1354966666667","6500300","中和區"
"235033","4980-A6","2019/08/19 15:39:48","新北市中和區員山路383號","121.481123333333","25.0024816666667","6500300","中和區"
"235026","551-UM","2019/08/19 15:39:33","新北市中和區永和路171巷3弄2號","121.492361666667","25.006485","6500300","中和區"
"235023","AAC-215","2019/08/19 15:39:31","新北市中和區員山路6-1號","121.484041666667","24.9832333333333","6500300","中和區"
"224007","285-BY","2019/08/19 15:39:31","新北市瑞芳區大寮路356-1號","121.785055","25.1031233333333","6501200","瑞芳區"
"224005","271-BY","2019/08/19 15:39:50","新北市瑞芳區中山路159號","121.802088333333","25.1065366666667","6501200","瑞芳區"
"236040","KED-0685","2019/08/19 15:39:35","新北市土城區學享街41號","121.451631666667","24.9871683333333","6501300","土城區"
"236074","166-UM","2019/08/19 15:39:50","新北市土城區中央路四段321巷12號","121.410795","24.9511333333333","6501300","土城區"
"236029","253-BX","2019/08/19 15:39:41","新北市土城區中央路一段145號","121.446766666667","24.98794","6501300","土城區"
"236024","269-VK","2019/08/19 15:39:36","新北市土城區明德路二段293號","121.444643333333","24.9843033333333","6501300","土城區"
"236012","270-VK","2019/08/19 15:39:51","新北市土城區四川路2號","121.45576","24.996225","6501300","土城區"
"236064","KEA-2877","2019/08/19 15:39:35","新北市土城區中央路三段134-1號","121.433625","24.96559","6501300","土城區"
"236016","401-BY","2019/08/19 15:39:38","新北市土城區延吉街111巷15號","121.471861666667","24.98596","6501300","土城區"
"236057","912-UM","2019/08/19 15:39:36","新北市土城區中央路一段260-3號","121.44405","24.98402","6501300","土城區"
"236045","913-UM","2019/08/19 15:39:36","新北市中和區連城路534巷2號","121.475328333333","24.9912633333333","6501300","土城區"
"236054","AAC-216","2019/08/19 15:39:42","新北市土城區學成路29號","121.452825","24.9869016666667","6501300","土城區"
"238002","755-BX","2019/08/19 15:39:53","新北市樹林區日新街26號","121.422965","24.9926583333333","6500700","樹林區"
"238010","601-UM","2019/08/19 15:39:35","新北市樹林區龍興街15號","121.402883333333","25.0163466666667","6500700","樹林區"
"238006","599-UM","2019/08/19 15:39:45","新北市樹林區中華路73號","121.423053333333","24.98315","6500700","樹林區"
"238011","5061-A6","2019/08/19 15:39:34","新北市樹林區中山路二段191號","121.404495","24.977555","6500700","樹林區"
"238005","KEA-2217","2019/08/19 15:39:42","新北市樹林區中華路219-1號","121.419471666667","24.9812966666667","6500700","樹林區"
"238009","KEA-2213","2019/08/19 15:39:45","新北市樹林區中華路187巷7號","121.420631666667","24.981255","6500700","樹林區"
"238008","KEA-2539","2019/08/19 15:39:50","新北市樹林區柑園街一段351號","121.390001666667","24.9562266666667","6500700","樹林區"
"238012","303-VK","2019/08/19 15:39:46","新北市樹林區中山路二段142號","121.413198333333","24.9828316666667","6500700","樹林區"
"238004","283-BY","2019/08/19 15:39:36","新北市樹林區保安街二段295巷8號","121.411626666667","25.0060483333333","6500700","樹林區"
"238001","282-BY","2019/08/19 15:39:46","新北市樹林區潭興街105號","121.425041666667","24.9989283333333","6500700","樹林區"
"238007","268-VK","2019/08/19 15:39:41","新北市樹林區三俊街318號","121.423633333333","25.0137716666667","6500700","樹林區"
"238013","172-UY","2019/08/19 15:39:40","新北市樹林區中洲街52號","121.39677","24.9709216666667","6500700","樹林區"
"238003","169-UY","2019/08/19 15:39:41","新北市樹林區復興路274號","121.4181","24.9883833333333","6500700","樹林區"
"220012","806-UM","2019/08/19 15:39:21","新北市板橋區華東街1-10號","121.448588333333","24.994715","6500100","板橋區"
