"lineid","car","time","location","longitude","latitude","cityid","cityname"
"249005","172-UM","2019/08/19 17:19:48","新北市五股區凌雲路三段118-3號","121.41986","25.1288783333333","6502300","八里區"
"249001","173-UM","2019/08/19 17:19:45","新北市八里區中華路二段165巷3號","121.407683333333","25.1508333333333","6502300","八里區"
"249004","303-UY","2019/08/19 17:19:53","新北市八里區民有街20號","121.416031666667","25.15685","6502300","八里區"
"249002","305-UY","2019/08/19 17:19:46","新北市八里區龍米路二段117巷3號","121.446745","25.142955","6502300","八里區"
"249003","593-UM","2019/08/19 17:19:53","新北市八里區中山路二段439號","121.396721666667","25.1458583333333","6502300","八里區"
"244007","080-UY","2019/08/19 17:20:01","新北市林口區湖子6號","121.390646666667","25.0924116666667","6501700","林口區"
"244019","402-UM","2019/08/19 17:19:53","新北市林口區公園路180號","121.373356666667","25.0735366666667","6501700","林口區"
"244013","KEA-2802","2019/08/19 17:19:53","新北市林口區粉寮69號","121.404746666667","25.0907683333333","6501700","林口區"
"244023","483-VK","2019/08/19 17:19:59","新北市林口區興林路6號","121.389671666667","25.0765783333333","6501700","林口區"
"244017","485-VK","2019/08/19 17:19:56","新北市林口區中山路136-1號","121.391785","25.078625","6501700","林口區"
"244009","656-BX","2019/08/19 17:19:51","新北市林口區中北一街46號","121.385901666667","25.0877166666667","6501700","林口區"
"244011","657-BX","2019/08/19 17:20:05","新北市林口區仁愛路一段288號","121.392891666667","25.0761583333333","6501700","林口區"
"244025","837-TS","2019/08/19 17:19:45","新北市林口區仁愛二路83號","121.36786","25.075905","6501700","林口區"
"244021","838-TS","2019/08/19 17:19:54","新北市林口區粉寮路二段146-3號","121.40425","25.0921183333333","6501700","林口區"
"231046","719-UM","2019/08/19 17:17:02","新北市新店區直潭六街64號","121.532225","24.940015","6500600","新店區"
"241011","013-R5","2019/08/19 17:20:02","新北市三重區龍濱路197號","121.501916666667","25.0713783333333","6500200","三重區"
"241028","022-UY","2019/08/19 17:19:42","新北市三重區仁化街107號","121.494355","25.05804","6500200","三重區"
"241008","059-VK","2019/08/19 17:19:57","新北市三重區永福街72巷37-6號","121.480655","25.076245","6500200","三重區"
"241018","060-VK","2019/08/19 17:19:53","新北市三重區安慶街187號","121.493215","25.068455","6500200","三重區"
"241015","062-VK","2019/08/19 17:20:01","新北市三重區三和路二段2-1號","121.501556666667","25.0665183333333","6500200","三重區"
"241017","063-VK","2019/08/19 17:19:51","新北市三重區大同北路91號","121.494723333333","25.0636566666667","6500200","三重區"
"241024","065-VK","2019/08/19 17:19:46","新北市三重區中正北路193巷21弄38號","121.478416666667","25.0709283333333","6500200","三重區"
"241020","066-VK","2019/08/19 17:19:46","新北市三重區忠孝路一段123號","121.488773333333","25.072085","6500200","三重區"
"241002","090-VK","2019/08/19 17:19:46","新北市三重區自強路五段117號","121.496013333333","25.0825266666667","6500200","三重區"
"241003","091-VK","2019/08/19 17:19:45","新北市三重區富福街40號","121.4909","25.0839","6500200","三重區"
"241006","262-UM","2019/08/19 17:19:48","新北市三重區車路頭街133號","121.4847","25.0763866666667","6500200","三重區"
"241032","269-UM","2019/08/19 17:19:58","新北市三重區興華街144號","121.48286","25.0597733333333","6500200","三重區"
"241013","270-UM","2019/08/19 17:19:51","新北市三重區仁昌街36號","121.496938333333","25.0742966666667","6500200","三重區"
"241025","271-UM","2019/08/19 17:19:55","新北市三重區中正北路392-1號","121.476051666667","25.0702183333333","6500200","三重區"
"241007","398-BY","2019/08/19 17:20:02","新北市三重區慈愛街30號","121.484998333333","25.0788983333333","6500200","三重區"
"241024","KEA-2210","2019/08/19 17:19:49","新北市三重區國道路一段58巷20號","121.481268333333","25.07203","6500200","三重區"
"241026","480-VK","2019/08/19 17:20:04","新北市三重區福裕街37號","121.499018333333","25.0615816666667","6500200","三重區"
"241014","543-UM","2019/08/19 17:20:04","新北市三重區長榮路6號","121.50009","25.0685916666667","6500200","三重區"
"241023","545-UM","2019/08/19 17:19:56","新北市三重區三民街148號","121.482501666667","25.0653616666667","6500200","三重區"
"241001","547-UM","2019/08/19 17:19:45","新北市三重區仁愛街269巷8號","121.493323333333","25.07907","6500200","三重區"
"241019","KEA-2593","2019/08/19 17:19:50","新北市三重區自強路二段100號","121.487383333333","25.071305","6500200","三重區"
"241005","AAD-863","2019/08/19 17:19:52","新北市三重區永安北路二段35巷35號","121.483356666667","25.0823783333333","6500200","三重區"
"241022","KED-0820","2019/08/19 17:19:42","新北市三重區重陽路二段34巷1號","121.486775","25.06312","6500200","三重區"
"241016","887-TS","2019/08/19 17:19:55","新北市三重區大同北路54巷1號","121.494171666667","25.0635416666667","6500200","三重區"
"241012","941-UM","2019/08/19 17:20:04","新北市三重區河邊北街238-1號","121.501681666667","25.0756716666667","6500200","三重區"
"241033","AAC-255","2019/08/19 17:20:03","新北市三重區光復路二段88巷63號","121.469186666667","25.0571616666667","6500200","三重區"
"247014","KEA-2869","2019/08/19 17:20:01","新北市蘆洲區中正路75號","121.470218333333","25.0831966666667","6501400","蘆洲區"
"247008","KED-0682","2019/08/19 17:19:42","新北市蘆洲區永安北路一段72巷48號","121.476196666667","25.0769416666667","6501400","蘆洲區"
"235054","640-BX","2019/08/19 16:56:40","新北市中和區員山路36巷16-2號","121.485388333333","24.991615","6500300","中和區"
"247004","893-R6","2019/08/19 17:19:57","新北市蘆洲區中原路87號","121.457908333333","25.0817216666667","6501400","蘆洲區"
"247018","546-UM","2019/08/19 17:20:01","新北市蘆洲區民權路76號","121.474768333333","25.0874666666667","6501400","蘆洲區"
"247002","500-BY","2019/08/19 17:19:44","新北市蘆洲區永樂街38巷33弄17號","121.457465","25.089625","6501400","蘆洲區"
"247006","341-TH","2019/08/19 17:20:01","新北市蘆洲區長安街78號","121.4623","25.0803166666667","6501400","蘆洲區"
"247016","337-TH","2019/08/19 17:19:56","新北市蘆洲區正和街96巷27號","121.467541666667","25.08137","6501400","蘆洲區"
"247022","057-VK","2019/08/19 17:19:46","新北市蘆洲區民義街9巷11號","121.47085","25.08913","6501400","蘆洲區"
"247012","056-VK","2019/08/19 17:19:54","新北市蘆洲區信義路319巷12號","121.477676666667","25.086285","6501400","蘆洲區"
"247020","007-UY","2019/08/19 17:19:55","新北市蘆洲區仁愛街35巷15弄2號","121.47144","25.0926183333333","6501400","蘆洲區"
"247024","001-UY","2019/08/19 17:19:59","新北市蘆洲區長榮路238號","121.460635","25.0856633333333","6501400","蘆洲區"
"228003","097-TW","2019/08/19 17:19:46","新北市貢寮區福隆里興隆街16號","121.944988333333","25.0167916666667","6502600","貢寮區"
"228001","212-TW","2019/08/19 17:19:54","新北市貢寮區仁理村尖山腳街18-3號","121.925545","25.0481733333333","6502600","貢寮區"
"228002","663-BX","2019/08/19 17:19:52","新北市貢寮區雙玉里下雙溪街24號","121.922388333333","25.0098633333333","6502600","貢寮區"
"224006","676-BX","2019/08/19 17:19:49","新北市瑞芳區大寮路2-1號","121.785653333333","25.1014016666667","6501200","瑞芳區"
"224009","275-VK","2019/08/19 17:19:31","新北市瑞芳區汽車路157號","121.83831","25.10985","6501200","瑞芳區"
"224008","273-VK","2019/08/19 17:19:51","新北市瑞芳區柴寮路34號","121.824675","25.0833533333333","6501200","瑞芳區"
"224005","271-BY","2019/08/19 17:19:48","新北市瑞芳區南雅路1號","121.892111666667","25.1192533333333","6501200","瑞芳區"
"227002","642-TC","2019/08/19 17:19:51","新北市雙溪區雙溪里大同街15號","121.864548333333","25.0351416666667","6502500","雙溪區"
"251004","009-UM","2019/08/19 17:10:44","新北市淡水區中正東路二段88巷15號","121.459048333333","25.1504966666667","6501000","淡水區"
"251005","010-UM","2019/08/19 17:19:51","新北市淡水區鄧公路19號","121.451398333333","25.1699483333333","6501000","淡水區"
"251010","012-UM","2019/08/19 17:19:51","新北市淡水區中正路一段22巷101號","121.42707","25.1864266666667","6501000","淡水區"
"251015","KEA-2871","2019/08/19 17:20:05","新北市淡水區樹林口20-6號","121.478761666667","25.1690283333333","6501000","淡水區"
"251016","179-VK","2019/08/19 17:19:55","新北市淡水區鄒厝崙7號","121.470253333333","25.1888016666667","6501000","淡水區"
"251008","181-VK","2019/08/19 17:19:59","新北市淡水區大同路283號","121.467876666667","25.1425016666667","6501000","淡水區"
"251013","182-VK","2019/08/19 17:19:56","新北市淡水區破瓦厝子3-3號","121.472313333333","25.1974833333333","6501000","淡水區"
"251007","442-VK","2019/08/19 17:19:54","新北市淡水區民生路60號","121.462081666667","25.137955","6501000","淡水區"
"251012","443-VK","2019/08/19 17:19:47","新北市淡水區中山北路一段158號","121.44418","25.1778633333333","6501000","淡水區"
"251006","561-UM","2019/08/19 17:19:46","新北市淡水區中山路190號","121.441595","25.1745666666667","6501000","淡水區"
"251009","575-R6","2019/08/19 17:20:01","新北市淡水區三民街22號","121.439051666667","25.17181","6501000","淡水區"
"251014","577-R6","2019/08/19 17:19:34","新北市淡水區公埔子43號","121.463801666667","25.229565","6501000","淡水區"
"251011","650-BX","2019/08/19 17:20:00","新北市淡水區坪頂路82號","121.461168333333","25.1635733333333","6501000","淡水區"
"251003","673-BX","2019/08/19 17:19:48","新北市淡水區中正路二段31號","121.41956","25.18153","6501000","淡水區"
"252002","178-VK","2019/08/19 17:19:52","新北市三芝區忠孝街1-14號","121.505455","25.2539116666667","6502100","三芝區"
"252001","292-VK","2019/08/19 17:20:01","新北市三芝區淡金路一段3號","121.498081666667","25.259645","6502100","三芝區"
"233002","762-BX","2019/08/19 17:19:45","新北市烏來區野要街88-1號","121.547565","24.8547666666667","6502900","烏來區"
"247010","KED-0683","2019/08/19 17:19:56","新北市蘆洲區中山一路120巷7弄4號","121.477533333333","25.0820633333333","6501400","蘆洲區"
"242039","AAC-296","2019/08/19 17:19:49","新北市新莊區新樹路207-1號","121.435876666667","25.0239783333333","6500500","新莊區"
"242060","986-R7","2019/08/19 17:19:45","新北市新莊區中正路384號","121.442011666667","25.0344216666667","6500500","新莊區"
"242002","751-BX","2019/08/19 17:19:50","新北市新莊區瓊林路46-9號","121.447153333333","25.029055","6500500","新莊區"
"242029","615-BX","2019/08/19 17:19:55","新北市新莊區幸福路70號","121.456938333333","25.049525","6500500","新莊區"
"242027","613-BX","2019/08/19 17:19:59","新北市新莊區中港路303號","121.452833333333","25.0445283333333","6500500","新莊區"
"242058","612-BX","2019/08/19 17:19:58","新北市新莊區新泰路255巷83號","121.442043333333","25.03895","6500500","新莊區"
"242046","566-BX","2019/08/19 17:19:48","新北市新莊區中正路400號","121.441931666667","25.034255","6500500","新莊區"
"242050","497-BY","2019/08/19 17:19:55","新北市新莊區瓊林南路73-26號","121.435113333333","25.01528","6500500","新莊區"
"242044","442-UM","2019/08/19 17:19:45","新北市新莊區富國路164號","121.423621666667","25.0247116666667","6500500","新莊區"
"242056","441-UM","2019/08/19 17:19:59","新北市新莊區新莊路660號","121.44244","25.0328266666667","6500500","新莊區"
"242004","440-UM","2019/08/19 17:20:03","新北市新莊區中港路278號","121.45309","25.0441216666667","6500500","新莊區"
"242042","415-TV","2019/08/19 17:19:51","新北市新莊區新樹路52-11號","121.436546666667","25.02715","6500500","新莊區"
"242011","413-TV","2019/08/19 17:19:51","新北市新莊區中港路357號","121.451988333333","25.0459966666667","6500500","新莊區"
"242048","400-BY","2019/08/19 17:19:59","新北市新莊區福營路326號","121.422018333333","25.0269966666667","6500500","新莊區"
"242025","362-BY","2019/08/19 17:19:51","新北市新莊區中和街2號","121.448475","25.042825","6500500","新莊區"
"242023","353-BY","2019/08/19 17:20:05","新北市新莊區中和街22號","121.44829","25.04351","6500500","新莊區"
"242013","132-UY","2019/08/19 17:19:49","新北市新莊區中誠街136號","121.448918333333","25.0476233333333","6500500","新莊區"
"242036","135-UY","2019/08/19 17:19:56","新北市新莊區新樹路207-1號","121.435943333333","25.0240116666667","6500500","新莊區"
"242053","172-VK","2019/08/19 17:19:57","新北市新莊區中環路一段299號","121.441905","25.032415","6500500","新莊區"
"242015","173-VK","2019/08/19 17:19:53","新北市新莊區三和路12-21號","121.442011666667","25.0386266666667","6500500","新莊區"
"242021","175-VK","2019/08/19 17:19:56","新北市新莊區中港一街88號","121.4494","25.0454033333333","6500500","新莊區"
"242017","176-VK","2019/08/19 17:19:51","新北市新莊區中平路84號","121.44481","25.0448833333333","6500500","新莊區"
"242019","347-TH","2019/08/19 17:19:47","新北市新莊區中平路82巷18號","121.445551666667","25.04493","6500500","新莊區"
"242034","348-TH","2019/08/19 17:19:59","新北市新莊區新莊路773號","121.441941666667","25.0324783333333","6500500","新莊區"
"242007","349-TH","2019/08/19 17:19:42","新北市新莊區新泰路502巷53號","121.44435","25.0464233333333","6500500","新莊區"
"242031","350-TH","2019/08/19 17:19:59","新北市新莊區新泰路462號","121.443298333333","25.0448216666667","6500500","新莊區"
"238023","601-UM","2019/08/19 17:19:55","新北市樹林區中正路433-1號","121.415038333333","25.0078683333333","6500700","樹林區"
"238019","599-UM","2019/08/19 17:19:44","新北市樹林區八德街278號","121.411173333333","24.9701266666667","6500700","樹林區"
"238024","5061-A6","2019/08/19 17:19:51","新北市樹林區樹新路79巷11號","121.427116666667","24.9955983333333","6500700","樹林區"
"238018","KEA-2217","2019/08/19 17:19:53","新北市樹林區中華路1-6號","121.425738333333","24.98448","6500700","樹林區"
"238022","KEA-2213","2019/08/19 17:19:56","新北市樹林區中華路37巷11號","121.424143333333","24.9830683333333","6500700","樹林區"
"238021","KEA-2539","2019/08/19 17:19:56","新北市樹林區西圳街一段56號","121.400705","24.962375","6500700","樹林區"
"238025","303-VK","2019/08/19 17:19:50","新北市樹林區保安二街107號","121.42363","24.9953683333333","6500700","樹林區"
"238017","283-BY","2019/08/19 17:19:56","新北市樹林區光武街28號","121.416098333333","25.0057266666667","6500700","樹林區"
"238001","282-BY","2019/08/19 17:19:46","新北市樹林區長壽街70巷35弄9號","121.421325","24.9951533333333","6500700","樹林區"
"238020","268-VK","2019/08/19 17:20:01","新北市樹林區中正路22-1號","121.427976666667","24.9992416666667","6500700","樹林區"
"238026","172-UY","2019/08/19 17:20:00","新北市樹林區東順街87號","121.409301666667","24.9762983333333","6500700","樹林區"
"238016","169-UY","2019/08/19 17:19:57","新北市樹林區中山路一段414號","121.417891666667","24.9852383333333","6500700","樹林區"
"239007","AAC-297","2019/08/19 17:20:04","新北市鶯歌區光復街68號","121.351051666667","24.9563433333333","6500800","鶯歌區"
"239006","891-R6","2019/08/19 17:19:43","新北市鶯歌區德昌街11號","121.33355","24.9602216666667","6500800","鶯歌區"
"239008","527-UM","2019/08/19 17:19:56","新北市鶯歌區中山路82號","121.351128333333","24.9570716666667","6500800","鶯歌區"
"239005","526-UM","2019/08/19 17:19:51","新北市鶯歌區福德四街8號","121.329705","24.967895","6500800","鶯歌區"
"239001","417-VK","2019/08/19 17:19:42","新北市鶯歌區尖山路181號","121.34458","24.9474333333333","6500800","鶯歌區"
"239003","360-BY","2019/08/19 17:19:52","新北市鶯歌區德昌二街70巷27弄2號","121.331631666667","24.9576933333333","6500800","鶯歌區"
"239002","359-BY","2019/08/19 17:19:52","新北市鶯歌區建國路298號","121.345148333333","24.9526583333333","6500800","鶯歌區"
"239004","193-VK","2019/08/19 17:19:48","新北市鶯歌區文化路501-6號","121.353218333333","24.94869","6500800","鶯歌區"
"233001","KEA-2870","2019/08/19 17:19:57","新北市烏來區溫泉街154號","121.551371666667","24.8575533333333","6502900","烏來區"
"220081","297-UM","2019/08/19 16:50:18","新北市板橋區華東街1-10號","121.448453333333","24.9948583333333","6500100","板橋區"
"242009","280-VK","2019/08/19 17:19:55","新北市新莊區立信三街35巷15號","121.442528333333","25.0509333333333","6500500","新莊區"
"220012","806-UM","2019/08/19 17:06:59","新北市板橋區華東街1-10號","121.448563333333","24.9947966666667","6500100","板橋區"
"235061","KEA-2875","2019/08/19 17:11:08","新北市中和區員山路36巷16-2號","121.485328333333","24.9916966666667","6500300","中和區"
