"lineid","car","time","location","longitude","latitude","cityid","cityname"
"234046","148-BY","2019/08/19 19:09:57","新北市永和區永元路18巷12弄2號","121.523041666667","25.00024","6500400","永和區"
"234081","298-R6","2019/08/19 19:09:52","新北市永和區永貞路35號","121.521026666667","25.0065166666667","6500400","永和區"
"234038","336-UY","2019/08/19 19:09:58","新北市永和區民樂街71巷2號","121.527348333333","24.997355","6500400","永和區"
"234064","337-UY","2019/08/19 19:09:43","新北市永和區秀朗路二段48號","121.521571666667","25.00218","6500400","永和區"
"234086","338-UY","2019/08/19 19:09:43","新北市永和區中正路504號","121.517346666667","25.004355","6500400","永和區"
"234070","552-UM","2019/08/19 19:09:50","新北市永和區豫溪街95巷4弄1號","121.518263333333","25.010565","6500400","永和區"
"234017","745-BX","2019/08/19 19:09:58","新北市永和區文化路90巷15弄1號","121.513791666667","25.01585","6500400","永和區"
"234030","746-BX","2019/08/19 19:09:54","新北市永和區四維街105號","121.523865","24.9982216666667","6500400","永和區"
"234054","KEA-2590","2019/08/19 19:09:56","新北市永和區竹林路72巷2號","121.519111666667","25.0129866666667","6500400","永和區"
"234007","KED-0605","2019/08/19 19:10:00","新北市永和區中山路一段263號","121.507313333333","25.00738","6500400","永和區"
"234013","KEA-2591","2019/08/19 19:09:48","新北市永和區永和路二段46號","121.514656666667","25.010695","6500400","永和區"
"234060","AAD-866","2019/08/19 19:09:50","新北市永和區安樂路304巷7號","121.514545","25.00518","6500400","永和區"
"234042","862-TW","2019/08/19 19:09:51","新北市永和區保平路196號","121.510288333333","25.0063483333333","6500400","永和區"
"234050","863-TW","2019/08/19 19:10:02","新北市永和區仁愛路104巷7弄23號","121.510953333333","25.0140933333333","6500400","永和區"
"234026","9371-KE","2019/08/19 19:10:04","新北市永和區安樂路278號","121.514516666667","25.004285","6500400","永和區"
"234011","9373-KE","2019/08/19 19:09:53","新北市永和區中山路一段72號","121.51247","25.010825","6500400","永和區"
"249005","172-UM","2019/08/19 19:09:48","新北市八里區中華路三段51號","121.395271666667","25.1415783333333","6502300","八里區"
"249001","173-UM","2019/08/19 19:09:45","新北市八里區龍米路二段236-1號","121.431043333333","25.1586733333333","6502300","八里區"
"249003","593-UM","2019/08/19 19:09:48","新北市八里區博物館路133號","121.407871666667","25.158495","6502300","八里區"
"248016","026-BX","2019/08/19 19:09:54","新北市五股區成泰路三段543巷22號","121.450811666667","25.102295","6501500","五股區"
"248008","KED-0815","2019/08/19 19:09:56","新北市五股區中興路一段118巷22號","121.466051666667","25.0744883333333","6501500","五股區"
"248019","KED-0813","2019/08/19 19:09:46","新北市五股區民義路一段220巷32號","121.428501666667","25.0939466666667","6501500","五股區"
"248012","247-BX","2019/08/19 19:09:49","新北市五股區中興路四段38巷11號","121.438731666667","25.083455","6501500","五股區"
"248004","677-BX","2019/08/19 19:09:54","新北市五股區五福路29號","121.433803333333","25.0892183333333","6501500","五股區"
"248002","678-BX","2019/08/19 19:09:51","新北市五股區凌雲路一段158巷6號","121.447825","25.102965","6501500","五股區"
"234023","9380-KE","2019/08/19 19:09:52","新北市永和區中興街17號","121.515923333333","25.0120783333333","6500400","永和區"
"234077","969-R7","2019/08/19 19:10:00","新北市永和區民權路38號","121.520133333333","24.9988533333333","6500400","永和區"
"234074","AAC-211","2019/08/19 19:10:02","新北市永和區福和路41-1號","121.523486666667","25.0080516666667","6500400","永和區"
"234067","AAC-212","2019/08/19 19:09:58","新北市永和區保平路22號","121.512253333333","25.007445","6500400","永和區"
"234003","AAC-295","2019/08/19 19:09:48","新北市永和區保福路一段55號","121.512561666667","25.009485","6500400","永和區"
"244023","483-VK","2019/08/19 19:09:59","新北市林口區民權路81號","121.372153333333","25.0810983333333","6501700","林口區"
"244011","657-BX","2019/08/19 19:09:45","新北市林口區竹林路67號","121.387771666667","25.0786366666667","6501700","林口區"
"244025","837-TS","2019/08/19 19:09:53","新北市林口區民族路86-1號","121.366221666667","25.07531","6501700","林口區"
"243010","297-R6","2019/08/19 19:09:19","新北市泰山區明志路一段483巷1弄2號","121.431188333333","25.0553266666667","6501600","泰山區"
"243014","KEA-2801","2019/08/19 19:09:49","新北市泰山區泰林路二段380號","121.42821","25.0639383333333","6501600","泰山區"
"243016","421-VK","2019/08/19 19:09:58","新北市泰山區明志路三段1號","121.424856666667","25.0434916666667","6501600","泰山區"
"243009","KEA-2215","2019/08/19 19:09:45","新北市泰山區明志路一段122巷29號","121.432483333333","25.06359","6501600","泰山區"
"243011","KEA-2216","2019/08/19 19:09:48","新北市泰山區明志路二段342號","121.425971666667","25.045405","6501600","泰山區"
"243013","646-TV","2019/08/19 19:09:48","新北市泰山區明志路三段269號","121.423168333333","25.03707","6501600","泰山區"
"243015","680-BX","2019/08/19 19:09:50","新北市泰山區明志路一段431號","121.430705","25.05655","6501600","泰山區"
"222003","436-BY","2019/08/19 19:09:48","新北市深坑區深南路162號","121.626081666667","25.0149583333333","6501800","深坑區"
"222002","659-BX","2019/08/19 19:10:01","新北市深坑區紅葉街2號","121.633236666667","25.011355","6501800","深坑區"
"231041","001-UM","2019/08/19 19:09:57","新北市新店區環河路176號","121.52521","24.975635","6500600","新店區"
"231061","002-UM","2019/08/19 19:09:45","新北市新店區安康路一段261號","121.524315","24.96336","6500600","新店區"
"231055","0291-UT","2019/08/19 19:09:50","新北市新店區環河路109-2號","121.53195","24.9709483333333","6500600","新店區"
"231044","046-UY","2019/08/19 19:09:56","新北市新店區中興路三段186號","121.544078333333","24.9815383333333","6500600","新店區"
"231060","106-UY","2019/08/19 19:10:00","新北市新店區安康路二段247號","121.507671666667","24.9583716666667","6500600","新店區"
"231051","107-UY","2019/08/19 19:09:51","新北市新店區中正路382巷30號","121.535578333333","24.97797","6500600","新店區"
"231049","108-UY","2019/08/19 19:10:00","新北市新店區二十張路25巷18弄1號","121.539315","24.9818016666667","6500600","新店區"
"231065","110-UY","2019/08/19 19:09:49","新北市新店區安祥路145巷1號","121.474763333333","24.9556233333333","6500600","新店區"
"221035","KEA-2785","2019/08/19 19:09:44","新北市汐止區大同路二段346號","121.65671","25.0670666666667","6501100","汐止區"
"231062","256-BX","2019/08/19 19:09:53","新北市新店區安平路35巷10號","121.520896666667","24.96711","6500600","新店區"
"231054","260-TV","2019/08/19 19:09:45","新北市新店區新店路185號","121.537125","24.95608","6500600","新店區"
"231042","268-BY","2019/08/19 19:09:44","新北市新店區中興路一段189號","121.543186666667","24.9649883333333","6500600","新店區"
"231064","278-BY","2019/08/19 19:09:51","新北市新店區安忠路56巷2號","121.51281","24.959265","6500600","新店區"
"231050","AAD-862","2019/08/19 19:09:48","新北市新店區竹林路2巷31號","121.550356666667","24.9501683333333","6500600","新店區"
"231045","355-BY","2019/08/19 19:09:50","新北市新店區北宜路一段116號","121.539201666667","24.95521","6500600","新店區"
"231058","3713-VJ","2019/08/19 19:09:48","新北市新店區光明街98號","121.539013333333","24.9603883333333","6500600","新店區"
"231056","4715-K9","2019/08/19 19:09:46","新北市新店區民生路145巷32號","121.530856666667","24.9799033333333","6500600","新店區"
"231067","4772-VM","2019/08/19 19:09:43","新北市新店區安康路一段263巷38號","121.523823333333","24.9616733333333","6500600","新店區"
"231063","616-UM","2019/08/19 19:09:50","新北市新店區車子路134號","121.505116666667","24.948615","6500600","新店區"
"231047","KED-0819","2019/08/19 19:09:52","新北市新店區德正街27巷29弄143號","121.545645","24.9735833333333","6500600","新店區"
"231052","718-UY","2019/08/19 19:09:55","新北市新店區櫻花街12號","121.546795","24.9267066666667","6500600","新店區"
"231046","719-UM","2019/08/19 19:09:42","新北市新店區華潭街20號","121.529338333333","24.9524833333333","6500600","新店區"
"231057","720-UM","2019/08/19 19:09:56","新北市新店區百齡一路12號","121.55306","24.9324916666667","6500600","新店區"
"231059","897-TW","2019/08/19 19:10:01","新北市新店區安康路一段300-2號","121.518718333333","24.96409","6500600","新店區"
"231040","898-TW","2019/08/19 19:09:48","新北市新店區三民路98-3號","121.533953333333","24.9734","6500600","新店區"
"231043","899-TW","2019/08/19 19:09:45","新北市新店區寶橋路78巷1-3號","121.547188333333","24.9757233333333","6500600","新店區"
"231066","AKT-0513","2019/08/19 19:09:46","新北市新店區安康路二段448號","121.495501666667","24.9547583333333","6500600","新店區"
"241020","066-VK","2019/08/19 19:09:53","新北市三重區忠孝路二段1號","121.487055","25.071495","6500200","三重區"
"241013","270-UM","2019/08/19 19:09:47","新北市三重區仁愛街97號","121.495746666667","25.0736433333333","6500200","三重區"
"241035","462-BY","2019/08/19 19:09:45","新北市三重區新北大道一段7號","121.489648333333","25.0614816666667","6500200","三重區"
"241026","480-VK","2019/08/19 19:09:43","新北市三重區泉州街63-2號","121.494696666667","25.0543333333333","6500200","三重區"
"241022","KED-0820","2019/08/19 19:09:57","新北市三重區三民街155巷9號","121.48456","25.0648433333333","6500200","三重區"
"241029","942-UM","2019/08/19 19:09:47","新北市三重區重安街87巷14號","121.49311","25.055135","6500200","三重區"
"235064","005-UY","2019/08/19 19:10:03","新北市中和區中和路38號","121.499918333333","25.0015333333333","6500300","中和區"
"235063","006-UY","2019/08/19 19:09:44","新北市中和區連城路249巷17弄1號","121.493816666667","24.99652","6500300","中和區"
"235056","096-UM","2019/08/19 19:09:52","新北市中和區中正路1155號","121.4819","25.0081866666667","6500300","中和區"
"235039","097-UM","2019/08/19 19:09:58","新北市中和區景平路4號","121.524345","24.9906516666667","6500300","中和區"
"235065","098-UM","2019/08/19 19:09:59","新北市中和區中山路二段136巷11號","121.501636666667","25.0038983333333","6500300","中和區"
"235004","150-BY","2019/08/19 19:09:59","新北市中和區宜安路20號","121.513235","24.9958033333333","6500300","中和區"
"235058","151-BY","2019/08/19 19:09:58","新北市中和區連城路523巷9弄11號","121.482235","24.9945883333333","6500300","中和區"
"235055","183-VK","2019/08/19 19:09:59","新北市中和區德光路62號","121.469638333333","25.0039383333333","6500300","中和區"
"235049","186-VK","2019/08/19 19:09:58","新北市中和區景新街205-11號","121.50759","24.99493","6500300","中和區"
"235067","255-BX","2019/08/19 19:09:48","新北市中和區新生街150號","121.483661666667","25.0006433333333","6500300","中和區"
"235044","293-VK","2019/08/19 19:09:56","新北市中和區中興街235巷1號","121.50075","24.989675","6500300","中和區"
"235072","301-VK","2019/08/19 19:09:50","新北市中和區永和路1-4號","121.499751666667","25.0031766666667","6500300","中和區"
"235043","352-BY","2019/08/19 19:09:46","新北市中和區景平路148號","121.51819","24.99206","6500300","中和區"
"235042","KEA-2878","2019/08/19 19:10:00","新北市中和區自立路117巷2弄3號","121.522393333333","24.9943333333333","6500300","中和區"
"235050","4979-A6","2019/08/19 19:09:45","新北市中和區復興路249巷11弄3-1號","121.503601666667","24.9896616666667","6500300","中和區"
"235069","4980-A6","2019/08/19 19:10:00","新北市中和區中山路二段181巷20號","121.501051666667","25.00205","6500300","中和區"
"235070","558-UM","2019/08/19 19:10:01","新北市中和區中山路二段248號","121.497715","25.0024533333333","6500300","中和區"
"235045","565-BX","2019/08/19 19:09:47","新北市中和區景新街467巷35弄13號","121.514123333333","24.9888816666667","6500300","中和區"
"235060","KED-0823","2019/08/19 19:09:53","新北市中和區台新街37號","121.479551666667","25.005015","6500300","中和區"
"235054","640-BX","2019/08/19 19:10:02","新北市中和區國光街109巷4-1號","121.4699","25.00036","6500300","中和區"
"235047","732-UM","2019/08/19 19:10:00","新北市中和區興南路一段58號","121.51085","24.99054","6500300","中和區"
"235046","733-UM","2019/08/19 19:09:35","新北市中和區華新街162號","121.507508333333","24.9824133333333","6500300","中和區"
"235071","783-BX","2019/08/19 19:09:57","新北市中和區連城路523巷9弄34號","121.482431666667","24.99452","6500300","中和區"
"235057","801-TS","2019/08/19 19:09:55","新北市中和區員山路387巷14號","121.480745","25.0031083333333","6500300","中和區"
"235052","805-TS","2019/08/19 19:09:58","新北市中和區興南路二段142巷19弄19-1號","121.50251","24.9833483333333","6500300","中和區"
"235048","896-TW","2019/08/19 19:09:52","新北市中和區忠孝街29號","121.510486666667","24.9830466666667","6500300","中和區"
"235053","900-TW","2019/08/19 19:09:51","新北市中和區華福街71號","121.467173333333","24.996635","6500300","中和區"
"235066","911-UM","2019/08/19 19:09:49","新北市中和區廣福路18號","121.505158333333","25.0026116666667","6500300","中和區"
"235051","157-BY","2019/08/19 19:09:58","新北市中和區仁愛街70號","121.511326666667","24.9877083333333","6500300","中和區"
"235037","AAC-213","2019/08/19 19:09:46","新北市中和區秀朗路三段10巷37弄6號","121.523941666667","24.9959166666667","6500300","中和區"
"235059","AAC-215","2019/08/19 19:09:52","新北市中和區圓通路294巷17-5號","121.488696666667","24.9904066666667","6500300","中和區"
"220055","015-TV","2019/08/19 19:09:44","新北市板橋區中山路一段162號","121.466645","25.01227","6500100","板橋區"
"220065","072-UY","2019/08/19 19:09:50","新北市板橋區民族路151巷55號","121.469183333333","25.0084","6500100","板橋區"
"220086","073-UY","2019/08/19 19:09:58","新北市板橋區中正路250巷20號","121.4562","25.0194266666667","6500100","板橋區"
"220106","075-UY","2019/08/19 19:09:53","新北市板橋區長江路三段24巷5號","121.47262","25.0333366666667","6500100","板橋區"
"220069","AAD-861","2019/08/19 19:10:00","新北市板橋區貴興路25號","121.457795","25.00431","6500100","板橋區"
"226004","312-R5","2019/08/19 19:09:52","新北市平溪區靜安路二段551號","121.74802","25.0249066666667","6502400","平溪區"
"235041","251-BX","2019/08/19 19:10:02","新北市中和區中和路294號","121.508601666667","24.9997883333333","6500300","中和區"
"228003","097-TW","2019/08/19 19:09:46","新北市貢寮區和美里和美街37號","121.91228","25.0863016666667","6502600","貢寮區"
"228001","212-TW","2019/08/19 19:09:54","新北市貢寮區真理里新港街10號","121.925598333333","25.054345","6502600","貢寮區"
"228002","663-BX","2019/08/19 19:09:54","新北市貢寮區福隆里福隆街28號","121.945016666667","25.0173166666667","6502600","貢寮區"
"224010","AGQ-8101","2019/08/19 19:10:03","新北市瑞芳區基山街139號","121.843938333333","25.1083566666667","6501200","瑞芳區"
"224009","275-VK","2019/08/19 19:09:50","新北市瑞芳區洞頂路101巷35號","121.860756666667","25.1201516666667","6501200","瑞芳區"
"224008","273-VK","2019/08/19 19:09:51","新北市瑞芳區瑞芳街84-1號","121.802491666667","25.1101483333333","6501200","瑞芳區"
"224005","271-BY","2019/08/19 19:09:48","新北市瑞芳區傑魚坑路38號","121.79404","25.11057","6501200","瑞芳區"
"227002","642-TC","2019/08/19 19:09:56","新北市雙溪區平林里外平林10-4號","121.859118333333","25.0381033333333","6502500","雙溪區"
"227001","400-TW","2019/08/19 19:09:43","新北市雙溪區牡丹里自強路8巷8號","121.865256666667","25.03851","6502500","雙溪區"
"253006","032-BX","2019/08/19 19:10:00","新北市石門區八甲1號","121.521445","25.2840916666667","6502200","石門區"
"253005","295-VK","2019/08/19 19:09:52","新北市石門區阿里荖42-1號","121.603755","25.2850183333333","6502200","石門區"
"222001","KEA-2212","2019/08/19 19:09:54","新北市深坑區北深路一段300號","121.62423","25.0057016666667","6501800","深坑區"
"208002","KEA-2872","2019/08/19 19:09:51","新北市金山區環金路251號","121.633521666667","25.2212516666667","6502700","金山區"
"208003","665-BX","2019/08/19 19:10:03","新北市金山區中正路135號","121.632406666667","25.221545","6502700","金山區"
"251005","010-UM","2019/08/19 19:09:51","新北市淡水區原德路13號","121.442071666667","25.1714083333333","6501000","淡水區"
"251001","011-UM","2019/08/19 19:05:25","新北市淡水區自強路31號","121.464165","25.1256166666667","6501000","淡水區"
"251010","012-UM","2019/08/19 19:09:50","新北市淡水區中正路一段156巷3號","121.421236666667","25.1802883333333","6501000","淡水區"
"251015","KEA-2871","2019/08/19 19:09:45","新北市淡水區南勢埔27-2號","121.48353","25.1806233333333","6501000","淡水區"
"251016","179-VK","2019/08/19 19:09:55","新北市淡水區淡金路三段212號","121.448913333333","25.20436","6501000","淡水區"
"251013","182-VK","2019/08/19 19:09:56","新北市淡水區安子內12-1號","121.481506666667","25.2191033333333","6501000","淡水區"
"251007","442-VK","2019/08/19 19:09:54","新北市淡水區民生路135巷24號","121.466341666667","25.1390466666667","6501000","淡水區"
"251009","575-R6","2019/08/19 19:10:01","新北市淡水區重建街36號","121.439943333333","25.1712016666667","6501000","淡水區"
"251014","577-R6","2019/08/19 19:09:54","新北市淡水區小中寮19-8號","121.486248333333","25.2279366666667","6501000","淡水區"
"251002","672-BX","2019/08/19 19:09:58","新北市淡水區長興街2巷2號","121.443816666667","25.1704483333333","6501000","淡水區"
"251003","673-BX","2019/08/19 19:09:48","新北市淡水區中山北路一段163號","121.44353","25.1776683333333","6501000","淡水區"
"207003","550-UM","2019/08/19 19:10:02","新北市萬里區大鵬里頂社44號","121.656061666667","25.211415","6502800","萬里區"
"207004","291-VK","2019/08/19 19:09:51","新北市萬里區萬里里瑪鋉下街46-1號","121.691525","25.179315","6502800","萬里區"
"252002","178-VK","2019/08/19 19:09:52","新北市三芝區埔坪里埔頭坑84號","121.508066666667","25.2542783333333","6502100","三芝區"
"252003","249-BX","2019/08/19 19:09:56","新北市三芝區錫板里南勢崗6號","121.479568333333","25.26201","6502100","三芝區"
"252001","292-VK","2019/08/19 19:10:01","新北市三芝區長勤街12號","121.501375","25.2558016666667","6502100","三芝區"
"208001","170-UY","2019/08/19 19:09:55","新北市金山區福德街14號","121.639276666667","25.2217383333333","6502700","金山區"
"237004","KEA-2597","2019/08/19 19:09:53","新北市三峽區有木206號","121.43911","24.8515083333333","6500900","三峽區"
"237007","153-BY","2019/08/19 19:09:41","新北市三峽區中正路二段42巷50號","121.364313333333","24.9205766666667","6500900","三峽區"
"237009","210-TH","2019/08/19 19:10:02","新北市三峽區文化路184巷3號","121.369536666667","24.9361233333333","6500900","三峽區"
"237013","252-BX","2019/08/19 19:09:50","新北市三峽區光明路69巷24號","121.376615","24.9291016666667","6500900","三峽區"
"237012","275-BY","2019/08/19 19:09:55","新北市三峽區三樹路222巷254弄1號","121.390546666667","24.9439166666667","6500900","三峽區"
"237008","302-VK","2019/08/19 19:09:53","新北市三峽區大同路178號","121.372511666667","24.9270216666667","6500900","三峽區"
"237014","433-BY","2019/08/19 19:09:42","新北市三峽區隆恩街242號","121.357663333333","24.9410883333333","6500900","三峽區"
"237006","5529-G3","2019/08/19 19:09:45","新北市三峽區溪東路45巷11弄14號","121.400938333333","24.9356166666667","6500900","三峽區"
"237011","KEA-2596","2019/08/19 19:09:45","新北市三峽區介壽路三段245號","121.407891666667","24.94959","6500900","三峽區"
"237015","649-BX","2019/08/19 19:09:54","新北市三峽區安坑34-1號","121.449408333333","24.9285116666667","6500900","三峽區"
"237010","706-TV","2019/08/19 19:09:45","新北市三峽區復興路174巷8號","121.370793333333","24.9389533333333","6500900","三峽區"
"237005","AKY-6261","2019/08/19 19:09:58","新北市三峽區中山路459巷104號","121.353111666667","24.9355716666667","6500900","三峽區"
"236042","KED-0685","2019/08/19 19:09:52","新北市土城區城林路6巷80號","121.438061666667","24.9797183333333","6501300","土城區"
"236078","166-UM","2019/08/19 19:09:44","新北市土城區龍泉路10-1號","121.409556666667","24.9492583333333","6501300","土城區"
"236026","269-VK","2019/08/19 19:09:57","新北市土城區中正路74巷1弄1號","121.444691666667","24.9751833333333","6501300","土城區"
"236014","270-VK","2019/08/19 19:09:59","新北市土城區學府路一段70號","121.456763333333","24.98833","6501300","土城區"
"236069","KEA-2877","2019/08/19 19:09:59","新北市土城區裕生路84巷2號","121.447325","24.9854283333333","6501300","土城區"
"236020","401-BY","2019/08/19 19:09:41","新北市土城區延峰街32巷2號","121.469365","24.98515","6501300","土城區"
"236059","912-UM","2019/08/19 19:09:51","新北市土城區金城路一段78號","121.443946666667","24.9727683333333","6501300","土城區"
"236063","915-UM","2019/08/19 19:09:58","新北市土城區金城路三段93巷6號","121.46705","24.987825","6501300","土城區"
"236055","AAC-216","2019/08/19 19:09:59","新北市土城區學府路一段210號","121.452415","24.9853133333333","6501300","土城區"
"238015","755-BX","2019/08/19 19:10:04","新北市樹林區備內街156號","121.407046666667","24.9895816666667","6500700","樹林區"
"238023","601-UM","2019/08/19 19:10:01","新北市樹林區三興路70號","121.393223333333","25.014615","6500700","樹林區"
"238019","599-UM","2019/08/19 19:09:44","新北市樹林區東榮街91巷2弄6號","121.415885","24.9822866666667","6500700","樹林區"
"238022","KEA-2213","2019/08/19 19:09:45","新北市樹林區東興街12-1號","121.40995","24.978655","6500700","樹林區"
"238021","KEA-2539","2019/08/19 19:09:56","新北市樹林區柑園街二段426號","121.364691666667","24.9473066666667","6500700","樹林區"
"238025","303-VK","2019/08/19 19:09:50","新北市樹林區民和街83巷22號","121.379625","24.9724216666667","6500700","樹林區"
"238017","283-BY","2019/08/19 19:09:56","新北市樹林區中華路190-6號","121.410213333333","24.9807083333333","6500700","樹林區"
"238014","282-BY","2019/08/19 19:09:52","新北市樹林區中正路17號","121.427685","24.9990733333333","6500700","樹林區"
"238020","268-VK","2019/08/19 19:10:01","新北市樹林區俊英街155巷9弄19號","121.423691666667","25.0118583333333","6500700","樹林區"
"238026","172-UY","2019/08/19 19:10:00","新北市樹林區中山路三段160-1號","121.389395","24.9703933333333","6500700","樹林區"
"238016","169-UY","2019/08/19 19:09:57","新北市樹林區復興路335巷2弄1號","121.41827","24.987585","6500700","樹林區"
"239007","AAC-297","2019/08/19 19:09:44","新北市鶯歌區中正一路305號","121.356458333333","24.95717","6500800","鶯歌區"
"239008","527-UM","2019/08/19 19:09:56","新北市鶯歌區國際二路70巷4號","121.335005","24.976435","6500800","鶯歌區"
"239005","526-UM","2019/08/19 19:09:45","新北市鶯歌區鳳吉一街138號","121.328201666667","24.9750933333333","6500800","鶯歌區"
"239001","417-VK","2019/08/19 19:10:02","新北市鶯歌區永明街60巷5號","121.340685","24.955475","6500800","鶯歌區"
"239003","360-BY","2019/08/19 19:09:52","新北市鶯歌區永和街94號","121.334071666667","24.96868","6500800","鶯歌區"
"239004","193-VK","2019/08/19 19:09:55","新北市鶯歌區中正三路302巷15號","121.328078333333","24.9360666666667","6500800","鶯歌區"
"221008","489-VK","2019/08/19 19:09:58","新北市汐止區康寧街426號","121.630651666667","25.06802","6501100","汐止區"
"221036","130-UY","2019/08/19 19:09:55","新北市汐止區南昌街22號","121.66312","25.0682816666667","6501100","汐止區"
"221015","131-UY","2019/08/19 19:09:51","新北市汐止區鄉長路一段55巷22號","121.66481","25.0763283333333","6501100","汐止區"
"221032","280-BY","2019/08/19 19:09:55","新北市汐止區橫科路407巷21號","121.625643333333","25.0479783333333","6501100","汐止區"
"221029","298-VK","2019/08/19 19:09:34","新北市汐止區康寧街901號","121.651678333333","25.0749566666667","6501100","汐止區"
"221031","353-TW","2019/08/19 19:09:58","新北市汐止區中興路181巷29弄8號","121.629866666667","25.065835","6501100","汐止區"
"221002","707-TV","2019/08/19 19:09:48","新北市汐止區大同路一段122號","121.630575","25.0546216666667","6501100","汐止區"
"220079","145-BY","2019/08/19 19:09:53","新北市板橋區中正路135巷12-2號","121.455888333333","25.015625","6500100","板橋區"
"220080","200-UY","2019/08/19 19:09:41","新北市板橋區大觀路二段153巷46弄60號","121.44942","25.0004","6500100","板橋區"
"220082","610-BX","2019/08/19 19:09:56","新北市板橋區溪崑二街41號","121.428368333333","24.9910016666667","6500100","板橋區"
"220101","245-BX","2019/08/19 19:09:56","新北市板橋區莊敬路25巷17號","121.474343333333","25.0270283333333","6500100","板橋區"
"220056","276-BY","2019/08/19 19:09:52","新北市板橋區信義路74巷1弄1號","121.457261666667","24.9931583333333","6500100","板橋區"
"220072","277-BY","2019/08/19 19:09:57","新北市板橋區金門街260巷2號","121.429881666667","24.98702","6500100","板橋區"
"220071","283-VK","2019/08/19 19:09:54","新北市板橋區忠孝路154巷21號","121.464295","25.0016366666667","6500100","板橋區"
"220094","285-UM","2019/08/19 19:09:46","新北市板橋區吳鳳路21巷2號","121.466945","25.0312366666667","6500100","板橋區"
"220053","285-VK","2019/08/19 19:10:00","新北市板橋區富山街53巷1弄1號","121.477511666667","25.020755","6500100","板橋區"
"220083","286-VK","2019/08/19 19:10:01","新北市板橋區龍興街95巷6號","121.443818333333","25.002565","6500100","板橋區"
"220081","287-VK","2019/08/19 19:09:57","新北市板橋區光華街37巷28號","121.452993333333","25.0127566666667","6500100","板橋區"
"220090","288-VK","2019/08/19 19:09:57","新北市板橋區長江路一段106巷13弄13號","121.460561666667","25.029375","6500100","板橋區"
"220061","293-UM","2019/08/19 19:09:45","新北市板橋區光復街18號","121.481381666667","25.0188916666667","6500100","板橋區"
"220084","296-UM","2019/08/19 19:09:55","新北市板橋區溪崑一街30巷21號","121.429233333333","24.99146","6500100","板橋區"
"242034","281-VK","2019/08/19 19:10:03","新北市新莊區三和路12-21號","121.442361666667","25.0384333333333","6500500","新莊區"
"220075","303-R5","2019/08/19 19:09:52","新北市板橋區南雅南路一段1巷21號","121.457006666667","25.0068116666667","6500100","板橋區"
"220062","305-R5","2019/08/19 19:09:56","新北市板橋區三民路二段居仁巷2弄7號","121.479511666667","25.0128933333333","6500100","板橋區"
"220092","307-R5","2019/08/19 19:09:59","新北市板橋區光武街36巷36號","121.468676666667","25.02638","6500100","板橋區"
"220098","317-R6","2019/08/19 19:09:55","新北市板橋區民有街49號","121.465611666667","25.0260283333333","6500100","板橋區"
"220089","487-VK","2019/08/19 19:09:46","新北市板橋區文化路一段241號","121.463988333333","25.0179216666667","6500100","板橋區"
"220088","491-VK","2019/08/19 19:10:03","新北市板橋區雙十路一段44巷36號","121.477276666667","25.0249633333333","6500100","板橋區"
"220103","561-BX","2019/08/19 19:09:53","新北市板橋區文化路一段188巷11號","121.466521666667","25.0194233333333","6500100","板橋區"
"220063","609-BX","2019/08/19 19:09:51","新北市板橋區三民路二段202-5號","121.479066666667","25.0145216666667","6500100","板橋區"
"220035","630-UY","2019/08/19 19:09:52","新北市板橋區中正路399巷10號","121.45357","25.0224066666667","6500100","板橋區"
"220091","637-BX","2019/08/19 19:10:01","新北市板橋區縣民大道三段191號","121.479528333333","25.0248616666667","6500100","板橋區"
"220057","686-BX","2019/08/19 19:09:43","新北市板橋區五權街77巷7-4號","121.464998333333","24.9931083333333","6500100","板橋區"
"220077","687-BX","2019/08/19 19:09:48","新北市板橋區大觀路二段138-1號","121.442818333333","24.9991566666667","6500100","板橋區"
"220093","689-BX","2019/08/19 19:09:51","新北市板橋區新海路69號","121.461795","25.02168","6500100","板橋區"
"220054","741-BX","2019/08/19 19:09:57","新北市板橋區重慶路71-11號","121.462095","25.0067483333333","6500100","板橋區"
"220102","KEA-2699","2019/08/19 19:10:01","新北市板橋區田單街32號","121.482396666667","25.0282683333333","6500100","板橋區"
"220012","806-UM","2019/08/19 19:05:26","新北市板橋區華東街1-10號","121.448591666667","24.9947783333333","6500100","板橋區"
"220067","829-TW","2019/08/19 19:09:44","新北市板橋區板新路5巷5號","121.475293333333","25.0122066666667","6500100","板橋區"
"220068","831-TW","2019/08/19 19:09:53","新北市板橋區翠華街7巷1號","121.480078333333","25.024","6500100","板橋區"
"220074","895-R6","2019/08/19 19:09:47","新北市板橋區中正路69巷1弄4號","121.455773333333","25.01368","6500100","板橋區"
"220073","985-R7","2019/08/19 19:09:54","新北市板橋區中正路237號","121.455896666667","25.0180466666667","6500100","板橋區"
"220097","AAC-210","2019/08/19 19:10:05","新北市板橋區幸福路60巷37號","121.460463333333","25.021095","6500100","板橋區"
"220064","AAC-253","2019/08/19 19:09:47","新北市板橋區板新路238號","121.468138333333","25.015995","6500100","板橋區"
"235068","KEA-2873","2019/08/19 19:09:57","新北市中和區圓通路162巷37弄3號","121.496483333333","24.99551","6500300","中和區"
"235061","KEA-2875","2019/08/19 19:09:50","新北市中和區員山路314巷10號","121.482081666667","25.0026933333333","6500300","中和區"
"235038","KEA-2876","2019/08/19 19:10:04","新北市中和區大仁街10巷27弄3號","121.519155","24.9927333333333","6500300","中和區"
