"lineid","car","time","location","longitude","latitude","cityid","cityname"
"234046","148-BY","2019/08/19 19:49:57","新北市永和區成功路一段106巷3號","121.526236666667","25.0028233333333","6500400","永和區"
"234081","298-R6","2019/08/19 19:49:52","新北市永和區林森路24號","121.525823333333","25.0052383333333","6500400","永和區"
"234038","336-UY","2019/08/19 19:49:58","新北市永和區民樂街55巷10號","121.52791","24.9985316666667","6500400","永和區"
"234064","337-UY","2019/08/19 19:49:43","新北市永和區中正路368巷29號","121.518678333333","25.0008766666667","6500400","永和區"
"234086","338-UY","2019/08/19 19:49:42","新北市永和區永亨路122號","121.524438333333","25.00407","6500400","永和區"
"234070","552-UM","2019/08/19 19:49:50","新北市永和區竹林路117-1號","121.52005","25.0114683333333","6500400","永和區"
"234017","745-BX","2019/08/19 19:49:58","新北市永和區永和路二段299號","121.515991666667","25.0162466666667","6500400","永和區"
"234030","746-BX","2019/08/19 19:49:53","新北市永和區民生路67巷58號","121.525598333333","24.9974766666667","6500400","永和區"
"234054","KEA-2590","2019/08/19 19:49:56","新北市永和區竹林路72巷6號","121.518701666667","25.0131116666667","6500400","永和區"
"234007","KED-0605","2019/08/19 19:50:00","新北市中和區中山路二段57號","121.504241666667","25.0048366666667","6500400","永和區"
"234013","KEA-2591","2019/08/19 19:50:01","新北市永和區永平路286-1號","121.507633333333","25.0119933333333","6500400","永和區"
"234060","AAD-866","2019/08/19 19:49:50","新北市永和區中正路106號","121.514486666667","24.9959666666667","6500400","永和區"
"234042","862-TW","2019/08/19 19:49:51","新北市永和區中和路389巷12號","121.508135","25.0010383333333","6500400","永和區"
"234050","863-TW","2019/08/19 19:50:02","新北市永和區保安路144號","121.508613333333","25.0149733333333","6500400","永和區"
"234026","9371-KE","2019/08/19 19:49:43","新北市永和區雙和街52巷1號","121.50907","25.0032","6500400","永和區"
"234011","9373-KE","2019/08/19 19:50:01","新北市永和區仁愛路352巷114號","121.500415","25.0082983333333","6500400","永和區"
"249005","172-UM","2019/08/19 19:49:57","新北市八里區長坑口38-8號","121.389658333333","25.128105","6502300","八里區"
"249001","173-UM","2019/08/19 19:49:58","新北市八里區中華路二段201-27號","121.405983333333","25.1500966666667","6502300","八里區"
"249004","303-UY","2019/08/19 19:49:51","新北市八里區仁愛路19號","121.413385","25.160875","6502300","八里區"
"249002","305-UY","2019/08/19 19:49:46","新北市八里區頂寮三街18號","121.45163","25.12567","6502300","八里區"
"249003","593-UM","2019/08/19 19:49:49","新北市八里區華峰三街35號","121.398556666667","25.14529","6502300","八里區"
"248014","025-BX","2019/08/19 19:49:47","新北市五股區五福路22巷4號","121.434548333333","25.0889666666667","6501500","五股區"
"248016","026-BX","2019/08/19 19:49:53","新北市五股區成泰路四段22巷22號","121.45501","25.1078016666667","6501500","五股區"
"248008","KED-0815","2019/08/19 19:49:56","新北市五股區四維路183號","121.468215","25.0758016666667","6501500","五股區"
"248019","KED-0813","2019/08/19 19:49:46","新北市五股區外寮路1-1號","121.425895","25.0768633333333","6501500","五股區"
"248012","247-BX","2019/08/19 19:50:00","新北市五股區成泰路一段237-13號","121.436735","25.08046","6501500","五股區"
"248004","677-BX","2019/08/19 19:49:54","新北市五股區成泰路一段59-1號","121.43447","25.067555","6501500","五股區"
"248002","678-BX","2019/08/19 19:49:51","新北市五股區成泰路三段643號","121.4529","25.1050016666667","6501500","五股區"
"248010","682-TV","2019/08/19 19:49:58","新北市五股區登林路貿商巷1弄2號","121.429655","25.069895","6501500","五股區"
"234023","9380-KE","2019/08/19 19:49:52","新北市永和區中山路一段10號","121.514123333333","25.0104816666667","6500400","永和區"
"234077","969-R7","2019/08/19 19:50:00","新北市永和區中正路248號","121.516576666667","24.99836","6500400","永和區"
"234074","AAC-211","2019/08/19 19:50:02","新北市永和區竹林路217號","121.520921666667","25.00875","6500400","永和區"
"234067","AAC-212","2019/08/19 19:49:50","新北市永和區中山路一段197號","121.509056666667","25.0088283333333","6500400","永和區"
"234003","AAC-295","2019/08/19 19:49:50","新北市永和區福和路327號","121.515786666667","25.0071916666667","6500400","永和區"
"244023","483-VK","2019/08/19 19:49:59","新北市林口區文化北路二段286號","121.373731666667","25.08663","6501700","林口區"
"243012","AAD-798","2019/08/19 19:49:50","新北市泰山區仁愛路85號","121.43352","25.05568","6501600","泰山區"
"243016","421-VK","2019/08/19 19:49:58","新北市泰山區新北大道六段375號","121.422151666667","25.0327666666667","6501600","泰山區"
"243009","KEA-2215","2019/08/19 19:49:45","新北市泰山區美寧街68號","121.431046666667","25.0646983333333","6501600","泰山區"
"243011","KEA-2216","2019/08/19 19:49:48","新北市泰山區明志路三段196巷21弄17號","121.422708333333","25.0385233333333","6501600","泰山區"
"222003","436-BY","2019/08/19 19:49:48","新北市深坑區深南路51-1號","121.621321666667","25.00971","6501800","深坑區"
"222002","659-BX","2019/08/19 19:50:01","新北市深坑區北深路一段361號","121.622323333333","25.00495","6501800","深坑區"
"231041","001-UM","2019/08/19 19:49:57","新北市新店區中央路153號","121.529858333333","24.9730533333333","6500600","新店區"
"231061","002-UM","2019/08/19 19:49:45","新北市新店區安民街261號","121.517396666667","24.9726866666667","6500600","新店區"
"231055","0291-UT","2019/08/19 19:49:50","新北市新店區力行路90-1號","121.538415","24.96651","6500600","新店區"
"231044","046-UY","2019/08/19 19:49:56","新北市新店區復興路67-1號","121.535308333333","24.9877333333333","6500600","新店區"
"231060","106-UY","2019/08/19 19:50:00","新北市新店區安康路二段163號","121.510093333333","24.9593033333333","6500600","新店區"
"231051","107-UY","2019/08/19 19:49:51","新北市新店區中央三街82號","121.526058333333","24.9754616666667","6500600","新店區"
"231049","108-UY","2019/08/19 19:50:00","新北市新店區民權路105號","121.53656","24.98277","6500600","新店區"
"231065","110-UY","2019/08/19 19:49:49","新北市新店區安祥路109巷151弄5號","121.478361666667","24.9587266666667","6500600","新店區"
"231068","187-VK","2019/08/19 19:49:56","新北市新店區安一路一段1-1號","121.519526666667","24.9611233333333","6500600","新店區"
"231062","256-BX","2019/08/19 19:49:53","新北市新店區永業路49巷2號","121.532191666667","24.954965","6500600","新店區"
"231054","260-TV","2019/08/19 19:50:05","新北市新店區光明街58號","121.538543333333","24.95956","6500600","新店區"
"231042","268-BY","2019/08/19 19:50:04","新北市新店區中興路一段268-3號","121.545163333333","24.9679333333333","6500600","新店區"
"231064","278-BY","2019/08/19 19:49:51","新北市新店區光華街5巷1號","121.517818333333","24.9687083333333","6500600","新店區"
"231050","AAD-862","2019/08/19 19:49:48","新北市新店區北宜路二段419-2號","121.56034","24.95453","6500600","新店區"
"231045","355-BY","2019/08/19 19:49:50","新北市新店區北宜路二段431號","121.560786666667","24.9543266666667","6500600","新店區"
"231056","4715-K9","2019/08/19 19:49:46","新北市新店區民權路42巷32號","121.539155","24.983765","6500600","新店區"
"231067","4772-VM","2019/08/19 19:50:03","新北市新店區精忠路10-1號","121.532521666667","24.9590916666667","6500600","新店區"
"231063","616-UM","2019/08/19 19:49:50","新北市新店區車子路11號","121.50303","24.9520216666667","6500600","新店區"
"231047","KED-0819","2019/08/19 19:49:52","新北市新店區寶興路58巷1號","121.54991","24.9721966666667","6500600","新店區"
"231052","718-UY","2019/08/19 19:49:55","新北市新店區新烏路三段117號","121.552168333333","24.9028183333333","6500600","新店區"
"231046","719-UM","2019/08/19 19:47:42","新北市新店區福園街10巷3號","121.532635","24.97283","6500600","新店區"
"231057","720-UM","2019/08/19 19:49:55","新北市新店區梅崗三路1號","121.557856666667","24.9311083333333","6500600","新店區"
"231059","897-TW","2019/08/19 19:50:01","新北市新店區安和路二段171號","121.518578333333","24.9744433333333","6500600","新店區"
"231040","898-TW","2019/08/19 19:49:48","新北市新店區大新街7巷1號","121.543303333333","24.9685666666667","6500600","新店區"
"231043","899-TW","2019/08/19 19:49:45","新北市新店區中正路263-1號","121.538458333333","24.973675","6500600","新店區"
"231066","AKT-0513","2019/08/19 19:49:46","新北市新店區安康路三段165巷2弄5號","121.48923","24.95125","6500600","新店區"
"241011","013-R5","2019/08/19 19:50:04","新北市三重區三和路二段171號","121.497766666667","25.0697716666667","6500200","三重區"
"241028","022-UY","2019/08/19 19:49:51","新北市三重區中正南路101號","121.494181666667","25.0578866666667","6500200","三重區"
"241008","059-VK","2019/08/19 19:49:54","新北市三重區永福街99號","121.47929","25.0775066666667","6500200","三重區"
"241018","060-VK","2019/08/19 19:49:58","新北市三重區雙園街57巷17號","121.494823333333","25.067975","6500200","三重區"
"241031","061-VK","2019/08/19 19:49:50","新北市三重區重新路四段206-2號","121.486056666667","25.05451","6500200","三重區"
"241015","062-VK","2019/08/19 19:49:46","新北市三重區重新路一段1號","121.503825","25.0643083333333","6500200","三重區"
"241017","063-VK","2019/08/19 19:49:51","新北市三重區重陽路三段5巷8弄29號","121.48957","25.0666416666667","6500200","三重區"
"241020","066-VK","2019/08/19 19:49:53","新北市三重區大智街163號","121.489808333333","25.07233","6500200","三重區"
"241003","091-VK","2019/08/19 19:49:45","新北市三重區五華街93巷64號","121.494016666667","25.085165","6500200","三重區"
"241006","262-UM","2019/08/19 19:49:48","新北市三重區永福街287-1號","121.483113333333","25.0743716666667","6500200","三重區"
"241009","267-UM","2019/08/19 19:49:55","新北市三重區三和路四段396巷2-1號","121.48138","25.0791266666667","6500200","三重區"
"241032","269-UM","2019/08/19 19:49:52","新北市三重區重陽路一段44巷9號","121.486058333333","25.057765","6500200","三重區"
"241013","270-UM","2019/08/19 19:49:47","新北市三重區仁愛街92巷13號","121.494748333333","25.0737966666667","6500200","三重區"
"241025","271-UM","2019/08/19 19:50:00","新北市三重區忠孝路三段52號","121.480691666667","25.0656433333333","6500200","三重區"
"241007","398-BY","2019/08/19 19:50:01","新北市三重區三和路四段137號","121.484393333333","25.077975","6500200","三重區"
"241030","KED-0822","2019/08/19 19:49:46","新北市三重區環河南路254巷17號","121.490346666667","25.0510766666667","6500200","三重區"
"241035","462-BY","2019/08/19 19:49:45","新北市三重區大榮街23號","121.498621666667","25.063385","6500200","三重區"
"241026","480-VK","2019/08/19 19:50:04","新北市三重區文化南路46號","121.50063","25.0600616666667","6500200","三重區"
"241014","543-UM","2019/08/19 19:49:43","新北市三重區長安街73號","121.501463333333","25.06735","6500200","三重區"
"241023","545-UM","2019/08/19 19:49:55","新北市三重區頂崁街172號","121.477606666667","25.0659216666667","6500200","三重區"
"241001","547-UM","2019/08/19 19:50:00","新北市三重區仁愛街327巷67號","121.493716666667","25.0803883333333","6500200","三重區"
"241019","KEA-2593","2019/08/19 19:49:50","新北市三重區自強路二段74巷23-1號","121.487821666667","25.06977","6500200","三重區"
"241005","AAD-863","2019/08/19 19:49:52","新北市三重區溪尾街325巷32號","121.488716666667","25.0835","6500200","三重區"
"241016","887-TS","2019/08/19 19:49:55","新北市三重區正德街67號","121.49553","25.063435","6500200","三重區"
"241012","941-UM","2019/08/19 19:49:43","新北市三重區仁興街70號","121.498763333333","25.07647","6500200","三重區"
"241029","942-UM","2019/08/19 19:49:47","新北市三重區重安街20號","121.490585","25.0582866666667","6500200","三重區"
"241033","AAC-255","2019/08/19 19:49:55","新北市三重區中興南街70號","121.470808333333","25.04403","6500200","三重區"
"235056","096-UM","2019/08/19 19:49:52","新北市板橋區漢生東路338號","121.471925","25.0076066666667","6500300","中和區"
"235039","097-UM","2019/08/19 19:49:58","新北市中和區大勇街25巷38弄7號","121.515973333333","24.993865","6500300","中和區"
"235065","098-UM","2019/08/19 19:49:59","新北市中和區福美路269號","121.498196666667","25.0050116666667","6500300","中和區"
"235004","150-BY","2019/08/19 19:49:59","新北市中和區安和路39號","121.509675","24.9949083333333","6500300","中和區"
"235058","151-BY","2019/08/19 19:49:58","新北市中和區員山路150巷2弄3號","121.481721666667","24.9982","6500300","中和區"
"235055","183-VK","2019/08/19 19:49:59","新北市中和區民生街35巷3弄2號","121.47047","25.0048416666667","6500300","中和區"
"235049","186-VK","2019/08/19 19:49:58","新北市中和區景平路385巷63號","121.501393333333","24.99428","6500300","中和區"
"235067","255-BX","2019/08/19 19:49:48","新北市中和區員山路148巷23弄30號","121.482238333333","24.9979983333333","6500300","中和區"
"235044","293-VK","2019/08/19 19:49:56","新北市中和區南山路146巷17號","121.503255","24.9923566666667","6500300","中和區"
"235043","352-BY","2019/08/19 19:49:46","新北市中和區興南路二段159巷12號","121.505211666667","24.9831283333333","6500300","中和區"
"235042","KEA-2878","2019/08/19 19:50:00","新北市中和區保健路106巷28號","121.511241666667","24.9948883333333","6500300","中和區"
"247014","KEA-2869","2019/08/19 19:49:53","新北市蘆洲區中央路91號","121.472653333333","25.0843366666667","6501400","蘆洲區"
"247008","KED-0682","2019/08/19 19:49:44","新北市蘆洲區信義路125號","121.478758333333","25.0801333333333","6501400","蘆洲區"
"235050","4979-A6","2019/08/19 19:49:45","新北市中和區景平路241巷84弄57號","121.506061666667","24.9922966666667","6500300","中和區"
"235070","558-UM","2019/08/19 19:49:47","新北市中和區中正路266-1號","121.495295","24.9940816666667","6500300","中和區"
"235045","565-BX","2019/08/19 19:49:47","新北市中和區安樂路1號","121.511633333333","24.9919433333333","6500300","中和區"
"235047","732-UM","2019/08/19 19:49:51","新北市中和區和平街74號","121.507738333333","24.9911233333333","6500300","中和區"
"235046","733-UM","2019/08/19 19:49:55","新北市中和區興南路一段93巷8弄2號","121.509853333333","24.988005","6500300","中和區"
"235071","783-BX","2019/08/19 19:49:57","新北市中和區中板路12號","121.484011666667","25.0118033333333","6500300","中和區"
"235026","800-TS","2019/08/19 19:25:55","新北市中和區員山路36巷16-3號","121.48493","24.991255","6500300","中和區"
"235052","805-TS","2019/08/19 19:49:58","新北市中和區華新街144巷8號","121.50775","24.982905","6500300","中和區"
"235048","896-TW","2019/08/19 19:49:59","新北市中和區興南路一段25號","121.511258333333","24.990885","6500300","中和區"
"235053","900-TW","2019/08/19 19:49:51","新北市中和區民德路155-2號","121.468631666667","24.9999733333333","6500300","中和區"
"235066","911-UM","2019/08/19 19:49:49","新北市中和區南工路26號","121.505631666667","25.00086","6500300","中和區"
"235051","157-BY","2019/08/19 19:50:00","新北市中和區中興街133號","121.499925","24.991485","6500300","中和區"
"235037","AAC-213","2019/08/19 19:49:46","新北市中和區自立路16-2號","121.522071666667","24.9936783333333","6500300","中和區"
"235059","AAC-215","2019/08/19 19:49:52","新北市中和區圓通路305巷21號","121.494651666667","24.9892","6500300","中和區"
"220055","015-TV","2019/08/19 19:49:44","新北市板橋區國慶路149巷31號","121.460933333333","24.997785","6500100","板橋區"
"220065","072-UY","2019/08/19 19:50:02","新北市板橋區國泰街39巷9弄6號","121.468765","25.0053166666667","6500100","板橋區"
"220086","073-UY","2019/08/19 19:50:02","新北市板橋區國光路175號","121.460591666667","25.0184116666667","6500100","板橋區"
"220106","075-UY","2019/08/19 19:50:04","新北市板橋區民治街42巷24號","121.478295","25.033085","6500100","板橋區"
"220069","AAD-861","2019/08/19 19:50:00","新北市板橋區大明街32號","121.45825","25.002665","6500100","板橋區"
"247004","893-R6","2019/08/19 19:50:05","新北市蘆洲區永安南路二段294號","121.457235","25.08178","6501400","蘆洲區"
"247002","336-TH","2019/08/19 19:50:01","新北市蘆洲區永平街27號","121.458778333333","25.0907016666667","6501400","蘆洲區"
"226004","312-R5","2019/08/19 19:49:52","新北市平溪區十分里十分街66巷17號","121.77496","25.0426916666667","6502400","平溪區"
"235041","251-BX","2019/08/19 19:50:02","新北市中和區中安街108號","121.511858333333","25.00076","6500300","中和區"
"228003","097-TW","2019/08/19 19:49:46","新北市貢寮區真理里延平街173號","121.92534","25.05902","6502600","貢寮區"
"228001","212-TW","2019/08/19 19:49:54","新北市貢寮區真理里新港街101號","121.926895","25.056625","6502600","貢寮區"
"224010","AGQ-8101","2019/08/19 19:50:03","新北市瑞芳區輕便路131號","121.843513333333","25.1087283333333","6501200","瑞芳區"
"224002","639-TC","2019/08/19 19:50:02","新北市瑞芳區三爪子坑路13巷207號","121.815673333333","25.1060833333333","6501200","瑞芳區"
"227002","642-TC","2019/08/19 19:49:56","新北市雙溪區雙溪里內挖路47號","121.863381666667","25.0367266666667","6502500","雙溪區"
"227001","400-TW","2019/08/19 19:50:03","新北市雙溪區新基里中華路55號","121.86581","25.0378616666667","6502500","雙溪區"
"222001","KEA-2212","2019/08/19 19:49:54","新北市深坑區北深路三段83號","121.606461666667","25.0014533333333","6501800","深坑區"
"208002","KEA-2872","2019/08/19 19:49:51","新北市金山區中華路182-2號","121.632773333333","25.2231866666667","6502700","金山區"
"208003","665-BX","2019/08/19 19:50:03","新北市金山區清泉里清水路60巷1號","121.62946","25.2357716666667","6502700","金山區"
"251004","009-UM","2019/08/19 19:50:01","新北市淡水區民權路185巷22號","121.460408333333","25.1337933333333","6501000","淡水區"
"251005","010-UM","2019/08/19 19:49:51","新北市淡水區中正東路6號","121.44714","25.1671383333333","6501000","淡水區"
"251001","011-UM","2019/08/19 19:49:57","新北市淡水區淡金路50號","121.456473333333","25.161355","6501000","淡水區"
"251015","KEA-2871","2019/08/19 19:49:45","新北市淡水區山子頂24-1號","121.49145","25.1871333333333","6501000","淡水區"
"251016","179-VK","2019/08/19 19:49:55","新北市淡水區三塊厝3-3號","121.45632","25.2095083333333","6501000","淡水區"
"251008","181-VK","2019/08/19 19:49:59","新北市淡水區中正路一段24巷11號","121.42676","25.177225","6501000","淡水區"
"251013","182-VK","2019/08/19 19:50:01","新北市淡水區頂田寮1-9號","121.459823333333","25.2137133333333","6501000","淡水區"
"251007","442-VK","2019/08/19 19:49:54","新北市淡水區竿蓁一街113號","121.454998333333","25.1664733333333","6501000","淡水區"
"251012","443-VK","2019/08/19 19:49:47","新北市淡水區淡金路三段66號","121.448235","25.1998933333333","6501000","淡水區"
"251006","561-UM","2019/08/19 19:49:46","新北市淡水區水碓街15號","121.443518333333","25.176975","6501000","淡水區"
"251009","575-R6","2019/08/19 19:50:01","新北市淡水區中正路38-1號","121.443761666667","25.16929","6501000","淡水區"
"251014","577-R6","2019/08/19 19:49:54","新北市淡水區番社前1-4號","121.468605","25.2366383333333","6501000","淡水區"
"251011","650-BX","2019/08/19 19:49:49","新北市淡水區紅樹林路183號","121.46067","25.1570866666667","6501000","淡水區"
"251002","672-BX","2019/08/19 19:49:58","新北市淡水區崁頂145號","121.430555","25.2059683333333","6501000","淡水區"
"207003","550-UM","2019/08/19 19:50:02","新北市萬里區大鵬里下社4號","121.647958333333","25.21686","6502800","萬里區"
"207004","291-VK","2019/08/19 19:49:49","新北市萬里區萬里里瑪鋉路146號","121.69037","25.1794616666667","6502800","萬里區"
"252002","178-VK","2019/08/19 19:49:52","新北市三芝區三民街27巷15號","121.504755","25.25823","6502100","三芝區"
"252001","292-VK","2019/08/19 19:50:01","新北市三芝區公正街9號","121.499761666667","25.25749","6502100","三芝區"
"208001","170-UY","2019/08/19 19:49:49","新北市金山區重和里六股林口13-1號","121.60286","25.2180583333333","6502700","金山區"
"237004","KEA-2597","2019/08/19 19:49:53","新北市三峽區添福263號","121.375458333333","24.893695","6500900","三峽區"
"237007","153-BY","2019/08/19 19:50:01","新北市三峽區二鬮路136巷22弄37號","121.357298333333","24.9101983333333","6500900","三峽區"
"237009","210-TH","2019/08/19 19:50:02","新北市三峽區中園街13號","121.368878333333","24.9269983333333","6500900","三峽區"
"237013","252-BX","2019/08/19 19:49:50","新北市三峽區溪北街49號","121.397145","24.93598","6500900","三峽區"
"237012","275-BY","2019/08/19 19:49:55","新北市三峽區中華路30-2號","121.373293333333","24.93192","6500900","三峽區"
"237008","302-VK","2019/08/19 19:49:53","新北市三峽區大同路154號","121.373131666667","24.926945","6500900","三峽區"
"237014","433-BY","2019/08/19 19:50:02","新北市三峽區嘉添37號","121.368701666667","24.911075","6500900","三峽區"
"237006","5529-G3","2019/08/19 19:50:05","新北市三峽區中正路一段336巷15弄2號","121.369966666667","24.9249966666667","6500900","三峽區"
"237011","KEA-2596","2019/08/19 19:49:45","新北市三峽區中正路一段290-1號","121.37156","24.9259516666667","6500900","三峽區"
"237015","649-BX","2019/08/19 19:49:55","新北市三峽區溪東路400號","121.414335","24.9278033333333","6500900","三峽區"
"237010","706-TV","2019/08/19 19:49:45","新北市三峽區復興路77號","121.372728333333","24.93751","6500900","三峽區"
"237005","AKY-6261","2019/08/19 19:49:58","新北市三峽區長泰街18巷7號","121.379451666667","24.9318283333333","6500900","三峽區"
"236042","KED-0685","2019/08/19 19:49:52","新北市土城區裕民路259巷24號","121.455206666667","24.9829266666667","6501300","土城區"
"236078","166-UM","2019/08/19 19:49:44","新北市土城區溪頭路22號","121.412673333333","24.955405","6501300","土城區"
"236030","253-BX","2019/08/19 19:49:45","新北市土城區中央路一段290號","121.443391666667","24.982415","6501300","土城區"
"236026","269-VK","2019/08/19 19:49:57","新北市土城區中央路二段61巷42號","121.443883333333","24.97846","6501300","土城區"
"236069","KEA-2877","2019/08/19 19:49:59","新北市土城區中央路二段252號","121.441668333333","24.9745916666667","6501300","土城區"
"236020","401-BY","2019/08/19 19:50:02","新北市土城區延吉街165巷7號","121.470421666667","24.985315","6501300","土城區"
"236059","912-UM","2019/08/19 19:49:51","新北市土城區中央路一段100號","121.44674","24.988405","6501300","土城區"
"236048","913-UM","2019/08/19 19:49:44","新北市土城區青雲路220號","121.458993333333","24.9813233333333","6501300","土城區"
"236063","915-UM","2019/08/19 19:49:58","新北市土城區金城路三段163巷16號","121.468898333333","24.9892033333333","6501300","土城區"
"236055","AAC-216","2019/08/19 19:49:59","新北市土城區延和路215號","121.46983","24.9897416666667","6501300","土城區"
"242039","AAC-296","2019/08/19 19:49:48","新北市新莊區民安路421號","121.433245","25.0228016666667","6500500","新莊區"
"242002","751-BX","2019/08/19 19:49:49","新北市新莊區瓊林路1-1號","121.45074","25.032325","6500500","新莊區"
"242004","440-UM","2019/08/19 19:49:51","新北市新莊區化成路63巷24弄15號","121.462706666667","25.0459333333333","6500500","新莊區"
"242048","400-BY","2019/08/19 19:49:59","新北市新莊區建安街76巷5弄15號","121.425591666667","25.0249316666667","6500500","新莊區"
"242025","362-BY","2019/08/19 19:49:46","新北市新莊區五權一路12巷21弄6號","121.457886666667","25.06458","6500500","新莊區"
"242023","353-BY","2019/08/19 19:50:00","新北市新莊區化成路69號","121.465578333333","25.0460483333333","6500500","新莊區"
"242013","132-UY","2019/08/19 19:49:44","新北市新莊區中泰街53號","121.450125","25.046755","6500500","新莊區"
"242036","135-UY","2019/08/19 19:49:56","新北市新莊區建安街74號","121.426631666667","25.0244166666667","6500500","新莊區"
"242015","173-VK","2019/08/19 19:49:56","新北市新莊區新泰路369巷24號","121.442336666667","25.0433583333333","6500500","新莊區"
"242021","175-VK","2019/08/19 19:49:55","新北市新莊區新泰路128號","121.448245","25.0368","6500500","新莊區"
"242031","350-TH","2019/08/19 19:49:46","新北市新莊區公園一路126號","121.445723333333","25.0379633333333","6500500","新莊區"
"238023","601-UM","2019/08/19 19:49:55","新北市樹林區大安路60號","121.424316666667","24.99996","6500700","樹林區"
"238019","599-UM","2019/08/19 19:49:44","新北市樹林區中華路190-16號","121.411628333333","24.9805766666667","6500700","樹林區"
"238022","KEA-2213","2019/08/19 19:49:45","新北市樹林區國凱街32-2號","121.419776666667","24.9786133333333","6500700","樹林區"
"238021","KEA-2539","2019/08/19 19:49:56","新北市樹林區佳園路三段101巷38弄6號","121.391253333333","24.950435","6500700","樹林區"
"238025","303-VK","2019/08/19 19:49:50","新北市樹林區中山路二段38號","121.417175","24.984885","6500700","樹林區"
"238017","283-BY","2019/08/19 19:49:56","新北市樹林區保安街二段167巷26號","121.414245","25.002805","6500700","樹林區"
"238014","282-BY","2019/08/19 19:49:57","新北市樹林區千歲街70巷3弄2號","121.426893333333","24.9971183333333","6500700","樹林區"
"238026","172-UY","2019/08/19 19:50:00","新北市樹林區佳園路二段10號","121.392961666667","24.96386","6500700","樹林區"
"239007","AAC-297","2019/08/19 19:49:44","新北市鶯歌區大湖路326巷27號","121.346185","24.9701633333333","6500800","鶯歌區"
"239006","891-R6","2019/08/19 19:50:03","新北市鶯歌區建國路512巷54號","121.339093333333","24.951405","6500800","鶯歌區"
"239001","417-VK","2019/08/19 19:50:03","新北市鶯歌區尖山埔路116號","121.344168333333","24.9500383333333","6500800","鶯歌區"
"239003","360-BY","2019/08/19 19:49:52","新北市鶯歌區八德路1-2號","121.339305","24.9480933333333","6500800","鶯歌區"
"239002","359-BY","2019/08/19 19:49:59","新北市鶯歌區湖山路54號","121.339536666667","24.9751016666667","6500800","鶯歌區"
"239004","193-VK","2019/08/19 19:49:47","新北市鶯歌區二甲路佳美巷16號","121.337298333333","24.9341166666667","6500800","鶯歌區"
"221008","489-VK","2019/08/19 19:49:58","新北市汐止區康寧街61巷22弄7號","121.619633333333","25.0669366666667","6501100","汐止區"
"221010","269-BY","2019/08/19 19:49:44","新北市汐止區汐萬路二段40-1號","121.649713333333","25.0810433333333","6501100","汐止區"
"221012","278-VK","2019/08/19 19:50:01","新北市汐止區大同路三段350號","121.680168333333","25.071045","6501100","汐止區"
"221023","279-VK","2019/08/19 19:49:49","新北市汐止區中興路201號","121.629185","25.0684583333333","6501100","汐止區"
"221027","281-BY","2019/08/19 19:49:57","新北市汐止區中正路7號","121.663061666667","25.070095","6501100","汐止區"
"221021","299-VK","2019/08/19 19:49:57","新北市汐止區水源路一段143號","121.65603","25.0622116666667","6501100","汐止區"
"221031","353-TW","2019/08/19 19:49:58","新北市汐止區連峰街1巷5號","121.646126666667","25.0759966666667","6501100","汐止區"
"221025","623-UM","2019/08/19 19:49:59","新北市汐止區秀峰路81巷15弄4-1號","121.660815","25.06472","6501100","汐止區"
"221038","646-BX","2019/08/19 19:49:52","新北市汐止區忠孝東路313號","121.66466","25.06927","6501100","汐止區"
"220079","145-BY","2019/08/19 19:49:48","新北市板橋區民權路202巷13弄43號","121.458366666667","25.0162083333333","6500100","板橋區"
"220080","200-UY","2019/08/19 19:49:53","新北市板橋區大觀路二段37巷66號","121.449435","25.0023483333333","6500100","板橋區"
"220082","610-BX","2019/08/19 19:49:59","新北市板橋區溪崑一街46號","121.429678333333","24.9905583333333","6500100","板橋區"
"220101","245-BX","2019/08/19 19:49:56","新北市板橋區縣民大道三段61號","121.474768333333","25.0212933333333","6500100","板橋區"
"220056","276-BY","2019/08/19 19:49:52","新北市板橋區四川路二段47巷1弄1號","121.454093333333","24.9949716666667","6500100","板橋區"
"220072","277-BY","2019/08/19 19:49:50","新北市板橋區金門街127巷17號","121.433706666667","24.9911483333333","6500100","板橋區"
"220071","283-VK","2019/08/19 19:49:54","新北市板橋區和平路174巷27號","121.464708333333","24.9944233333333","6500100","板橋區"
"220094","285-UM","2019/08/19 19:49:46","新北市板橋區雨農路13號","121.462313333333","25.02451","6500100","板橋區"
"220053","285-VK","2019/08/19 19:50:00","新北市板橋區永豐街20號","121.474766666667","25.0169933333333","6500100","板橋區"
"220083","286-VK","2019/08/19 19:50:04","新北市板橋區龍興街63巷20號","121.442701666667","25.0015716666667","6500100","板橋區"
"220081","287-VK","2019/08/19 19:50:03","新北市板橋區大觀路一段29巷179弄20號","121.449041666667","25.00475","6500100","板橋區"
"220090","288-VK","2019/08/19 19:49:57","新北市板橋區新海路72巷46弄6號","121.462325","25.0230483333333","6500100","板橋區"
"220061","293-UM","2019/08/19 19:49:57","新北市板橋區縣民大道二段200巷22號","121.470011666667","25.0172983333333","6500100","板橋區"
"220084","296-UM","2019/08/19 19:49:55","新北市板橋區滿平二街10巷2弄1號","121.425481666667","24.9868866666667","6500100","板橋區"
"220081","297-UM","2019/08/19 19:45:22","新北市板橋區華東街1-10號","121.448498333333","24.9950233333333","6500100","板橋區"
"242034","281-VK","2019/08/19 19:49:52","新北市新莊區公園一路121號","121.445385","25.03802","6500500","新莊區"
"220075","303-R5","2019/08/19 19:49:52","新北市板橋區大勇街28號","121.454171666667","25.01711","6500100","板橋區"
"220062","305-R5","2019/08/19 19:50:04","新北市板橋區光復街33巷40號","121.48269","25.0188733333333","6500100","板橋區"
"220092","307-R5","2019/08/19 19:49:54","新北市板橋區四維路259巷53號","121.461411666667","25.0270133333333","6500100","板橋區"
"220098","317-R6","2019/08/19 19:49:59","新北市板橋區四維路269巷62號","121.460778333333","25.0272016666667","6500100","板橋區"
"220089","487-VK","2019/08/19 19:49:46","新北市板橋區四維路199號","121.464093333333","25.0270116666667","6500100","板橋區"
"220088","491-VK","2019/08/19 19:50:03","新北市板橋區懷德街123號","121.478753333333","25.0310633333333","6500100","板橋區"
"220103","561-BX","2019/08/19 19:49:53","新北市板橋區自由路26巷4號","121.465876666667","25.0226616666667","6500100","板橋區"
"220063","609-BX","2019/08/19 19:49:51","新北市板橋區三民路一段3巷2號","121.479016666667","25.0234516666667","6500100","板橋區"
"220035","630-UY","2019/08/19 19:49:44","新北市板橋區新生街86號","121.458123333333","25.02151","6500100","板橋區"
"220091","637-BX","2019/08/19 19:50:02","新北市板橋區懷德街127巷23弄31號","121.480265","25.0322283333333","6500100","板橋區"
"220057","686-BX","2019/08/19 19:49:43","新北市板橋區德興街35號","121.453473333333","24.9938133333333","6500100","板橋區"
"220077","687-BX","2019/08/19 19:49:48","新北市板橋區僑中二街116巷1號","121.44557","25.00624","6500100","板橋區"
"220093","689-BX","2019/08/19 19:49:51","新北市板橋區長江路二段323號","121.471336666667","25.0334433333333","6500100","板橋區"
"220054","741-BX","2019/08/19 19:49:57","新北市板橋區忠孝路239巷14號","121.466663333333","25.003255","6500100","板橋區"
"220102","KEA-2699","2019/08/19 19:49:56","新北市板橋區文聖街59號","121.476658333333","25.0311833333333","6500100","板橋區"
"220012","806-UM","2019/08/19 19:23:54","新北市板橋區華東街1-10號","121.448616666667","24.9947","6500100","板橋區"
"220067","829-TW","2019/08/19 19:50:04","新北市板橋區長安街331巷19弄13號","121.473466666667","25.01225","6500100","板橋區"
"220068","831-TW","2019/08/19 19:49:54","新北市板橋區光復街140號","121.484433333333","25.0192466666667","6500100","板橋區"
"220074","895-R6","2019/08/19 19:49:46","新北市板橋區東門街1-1號","121.458075","25.0088266666667","6500100","板橋區"
"220073","985-R7","2019/08/19 19:49:54","新北市板橋區國光路49巷2號","121.457985","25.0181216666667","6500100","板橋區"
"220097","AAC-210","2019/08/19 19:49:45","新北市板橋區光正街18巷15號","121.462791666667","25.01779","6500100","板橋區"
"220064","AAC-253","2019/08/19 19:49:47","新北市板橋區民族路306號","121.470696666667","25.0067416666667","6500100","板橋區"
"235068","KEA-2873","2019/08/19 19:49:57","新北市中和區莊敬路16巷8號","121.49995","25.003905","6500300","中和區"
"235061","KEA-2875","2019/08/19 19:49:50","新北市中和區員山路263號","121.481201666667","24.9992916666667","6500300","中和區"
"235038","KEA-2876","2019/08/19 19:49:34","新北市中和區自立路6號","121.522428333333","24.9965433333333","6500300","中和區"
