"lineid","car","time","location","longitude","latitude","cityid","cityname"
"231051","107-UY","2019/08/19 21:19:51","台北市文山區景文街146巷36號","121.532205","24.9906816666667","6500600","新店區"
"231050","AAD-862","2019/08/19 21:19:53","新北市新店區中正路197號","121.540403333333","24.9724633333333","6500600","新店區"
"231063","616-UM","2019/08/19 21:19:50","新北市新店區吉祥街11巷1號","121.497686666667","24.9464833333333","6500600","新店區"
"231059","897-TW","2019/08/19 21:20:01","新北市新店區僑義路31號","121.50047","24.9506","6500600","新店區"
"241011","013-R5","2019/08/19 21:20:02","新北市三重區龍濱路191號","121.501975","25.07118","6500200","三重區"
"241028","022-UY","2019/08/19 21:19:51","新北市三重區中正南路157-1號","121.493643333333","25.0561366666667","6500200","三重區"
"241018","060-VK","2019/08/19 21:19:58","新北市三重區洛陽街43號","121.482098333333","25.06337","6500200","三重區"
"241031","061-VK","2019/08/19 21:19:49","新北市三重區重新路五段408巷19號","121.475723333333","25.04557","6500200","三重區"
"241015","062-VK","2019/08/19 21:19:45","新北市三重區龍濱路168-1號","121.501393333333","25.0726033333333","6500200","三重區"
"241017","063-VK","2019/08/19 21:19:51","新北市三重區中正北路25巷25弄1號","121.493196666667","25.0626133333333","6500200","三重區"
"241002","090-VK","2019/08/19 21:19:45","新北市三重區自強路五段65號","121.494773333333","25.08192","6500200","三重區"
"241003","091-VK","2019/08/19 21:20:05","新北市三重區仁義街220巷1號","121.495278333333","25.08417","6500200","三重區"
"241006","262-UM","2019/08/19 21:19:48","新北市三重區疏洪西路399號","121.469271666667","25.0637433333333","6500200","三重區"
"241009","267-UM","2019/08/19 21:19:55","新北市五股區五工一路111號","121.456243333333","25.071205","6500200","三重區"
"241032","269-UM","2019/08/19 21:19:52","新北市三重區光復路二段192號","121.470601666667","25.062995","6500200","三重區"
"241013","270-UM","2019/08/19 21:19:47","新北市三重區仁愛街66號","121.495805","25.0731483333333","6500200","三重區"
"241007","398-BY","2019/08/19 21:20:01","新北市三重區正義北路154號","121.496655","25.0663083333333","6500200","三重區"
"241030","KED-0822","2019/08/19 21:19:46","新北市三重區光復路二段170號","121.47217","25.061145","6500200","三重區"
"241026","480-VK","2019/08/19 21:19:43","新北市三重區大同南路210號","121.496721666667","25.056425","6500200","三重區"
"241014","543-UM","2019/08/19 21:19:43","新北市三重區萬全街9號","121.499368333333","25.0696833333333","6500200","三重區"
"241023","545-UM","2019/08/19 21:19:55","新北市三重區中正北路176巷27號","121.48267","25.065935","6500200","三重區"
"241001","547-UM","2019/08/19 21:20:00","新北市三重區溪尾街54號","121.490465","25.0774733333333","6500200","三重區"
"241005","AAD-863","2019/08/19 21:19:31","新北市三重區仁華街85號","121.485761666667","25.0829333333333","6500200","三重區"
"241016","887-TS","2019/08/19 21:19:54","新北市三重區自強路一段87號","121.496066666667","25.0664966666667","6500200","三重區"
"241033","AAC-255","2019/08/19 21:19:55","新北市三重區光復路二段90號","121.472156666667","25.0576366666667","6500200","三重區"
"247008","KED-0682","2019/08/19 21:19:44","新北市蘆洲區中山一路129號","121.475695","25.081285","6501400","蘆洲區"
"235018","640-BX","2019/08/19 20:56:31","新北市中和區員山路36巷16-2號","121.485226666667","24.9915683333333","6500300","中和區"
"247004","893-R6","2019/08/19 21:19:50","新北市五股區新城三路45號","121.44877","25.0927766666667","6501400","蘆洲區"
"247006","341-TH","2019/08/19 21:19:58","新北市蘆洲區中華街3號","121.464143333333","25.0818","6501400","蘆洲區"
"247002","336-TH","2019/08/19 21:20:01","新北市蘆洲區永樂街57號","121.456721666667","25.08856","6501400","蘆洲區"
"247012","056-VK","2019/08/19 21:20:01","新北市蘆洲區中興街113號","121.482125","25.088805","6501400","蘆洲區"
"247024","001-UY","2019/08/19 21:20:01","新北市蘆洲區長榮路269巷28號","121.459516666667","25.085985","6501400","蘆洲區"
"251004","009-UM","2019/08/19 21:20:01","新北市淡水區民族路33號","121.46229","25.1358466666667","6501000","淡水區"
"251005","010-UM","2019/08/19 21:19:51","新北市淡水區仁愛街18巷6號","121.446818333333","25.170175","6501000","淡水區"
"251001","011-UM","2019/08/19 21:19:57","新北市淡水區新市二路四段58號","121.441608333333","25.1926466666667","6501000","淡水區"
"251010","012-UM","2019/08/19 21:19:50","新北市淡水區中正路一段156巷51號","121.42179","25.180875","6501000","淡水區"
"251015","KEA-2871","2019/08/19 21:20:05","新北市淡水區淡金路四段546-2號","121.452346666667","25.2270233333333","6501000","淡水區"
"251016","179-VK","2019/08/19 21:19:55","新北市淡水區前洲子11號","121.441101666667","25.21934","6501000","淡水區"
"251008","181-VK","2019/08/19 21:19:59","新北市淡水區水源街二段222號","121.460128333333","25.1764616666667","6501000","淡水區"
"251013","182-VK","2019/08/19 21:19:56","新北市淡水區行忠路330號","121.460618333333","25.1998966666667","6501000","淡水區"
"251012","443-VK","2019/08/19 21:19:47","新北市淡水區淡金路五段35巷46號","121.452496666667","25.2347433333333","6501000","淡水區"
"251009","575-R6","2019/08/19 21:20:00","新北市淡水區民族路112巷1號","121.462611666667","25.1352116666667","6501000","淡水區"
"251014","577-R6","2019/08/19 21:19:54","新北市淡水區六塊厝2-1號","121.450206666667","25.2404983333333","6501000","淡水區"
"251011","650-BX","2019/08/19 21:19:49","新北市淡水區新民街152巷6弄22號","121.43881","25.17877","6501000","淡水區"
"251002","672-BX","2019/08/19 21:19:58","新北市淡水區學府路172巷21號","121.448321666667","25.174845","6501000","淡水區"
"251003","673-BX","2019/08/19 21:19:48","新北市淡水區新春街85巷25弄37號","121.438918333333","25.18454","6501000","淡水區"
"242002","751-BX","2019/08/19 21:19:49","新北市五股區中直路21號","121.420705","25.112195","6500500","新莊區"
"220012","806-UM","2019/08/19 21:19:54","新北市板橋區華東街1-10號","121.448578333333","24.99485","6500100","板橋區"
