"lineid","car","time","location","longitude","latitude","cityid","cityname"
"232006","291-BY","2019/08/20 06:59:32","新北市坪林區北宜路九段62號","121.73444","24.8955716666667","6502000","坪林區"
"232013","705-BZ","2019/08/20 06:59:56","新北市坪林區灣潭7-6號","121.678683333333","24.9344416666667","6502000","坪林區"
"232002","758-BX","2019/08/20 06:59:54","新北市坪林區下坑子口15-1號","121.717351666667","24.9484466666667","6502000","坪林區"
"244002","248-BX","2019/08/20 06:59:54","新北市林口區中山路569號","121.381253333333","25.0818483333333","6501700","林口區"
"222005","289-BY","2019/08/20 06:59:48","新北市深坑區平埔街22巷8號","121.615063333333","25.0008933333333","6501800","深坑區"
"226006","AGD-0702","2019/08/20 06:59:57","新北市平溪區石底里公園街18-3號","121.733468333333","25.02559","6502400","平溪區"
"223002","KEA-2673","2019/08/20 06:59:46","新北市石碇區半路店1-1號","121.64839","24.9699233333333","6501900","石碇區"
"223003","205-TH","2019/08/20 06:59:51","新北市石碇區石崁35-3號","121.65796","24.9928516666667","6501900","石碇區"
"223008","406-TH","2019/08/20 06:59:57","新北市深坑區文山路一段10號","121.643143333333","25.0087066666667","6501900","石碇區"
"223001","592-UM","2019/08/20 07:00:00","新北市石碇區石崁37號","121.658388333333","24.9932783333333","6501900","石碇區"
"223004","660-BX","2019/08/20 06:59:59","新北市石碇區碇坪路一段56號","121.657021666667","24.99146","6501900","石碇區"
"223007","661-BX","2019/08/20 06:59:59","新北市石碇區十八重溪52-1號","121.674568333333","25.012895","6501900","石碇區"
"227004","282-VK","2019/08/20 06:59:53","新北市雙溪區新基里自強路5號","121.86641","25.0390616666667","6502500","雙溪區"
"252004","249-BX","2019/08/20 06:59:46","新北市三芝區埔坪里埔頭坑41號","121.504525","25.26443","6502100","三芝區"
"252007","AAC-283","2019/08/20 06:59:55","新北市三芝區埔坪里埔頭坑44號","121.504543333333","25.262275","6502100","三芝區"
