"lineid","car","time","location","longitude","latitude","cityid","cityname"
"231007","189-VK","2019/08/06 09:49:44","新北市新店區新潭路三段215巷25號","121.50805","24.9040416666667","6500600","新店區"
"231009","192-VK","2019/08/06 09:49:44","新北市新店區小坑一路21-1號","121.53079","24.91325","6500600","新店區"
"227004","282-VK","2019/08/06 09:49:40","新北市雙溪區長源里柑腳52-1號","121.794828333333","25.008615","6502500","雙溪區"
"227006","030-BX","2019/08/06 09:49:37","新北市雙溪區泰平里烏山路12號","121.791375","24.946645","6502500","雙溪區"
"252007","178-VK","2019/08/06 09:49:36","新北市三芝區新庄里新庄子96-2號","121.514418333333","25.2719966666667","6502100","三芝區"
"252004","249-BX","2019/08/06 09:49:38","新北市三芝區圓山里石曹子坑64-28號","121.524438333333","25.2108","6502100","三芝區"
"237014","760-BX","2019/08/06 09:21:11","新北市三峽區中山路459巷135號","121.348551666667","24.9330083333333","6500900","三峽區"
