"lineid","car","time","location","longitude","latitude","cityid","cityname"
"231007","189-VK","2019/08/06 09:51:44","新北市新店區新潭路三段256號","121.508496666667","24.9039783333333","6500600","新店區"
"231009","192-VK","2019/08/06 10:19:24","新北市新店區松林路16巷41號","121.545465","24.9061933333333","6500600","新店區"
"227004","282-VK","2019/08/06 10:19:40","新北市雙溪區長源里盤山坑6號","121.782925","25.0022083333333","6502500","雙溪區"
"227006","030-BX","2019/08/06 10:15:36","新北市坪林區鷺鶿岫15-2號","121.790061666667","24.9494583333333","6502500","雙溪區"
"252007","178-VK","2019/08/06 10:19:36","新北市三芝區新庄里番社后29-1號","121.501431666667","25.2713566666667","6502100","三芝區"
"237014","760-BX","2019/08/06 10:19:44","新北市三峽區中山路459巷135號","121.349341666667","24.933455","6500900","三峽區"
