"lineid","car","time","location","longitude","latitude","cityid","cityname"
"231030","002-UM","2019/08/06 15:39:28","新北市新店區新和街93巷2號","121.521006666667","24.98656","6500600","新店區"
"231005","046-UY","2019/08/06 15:39:21","新北市新店區民族路193號","121.537223333333","24.9763233333333","6500600","新店區"
"231029","106-UY","2019/08/06 15:39:28","新北市新店區安康路三段27號","121.493196666667","24.9532016666667","6500600","新店區"
"231018","107-UY","2019/08/06 15:39:35","新北市新店區中正路663巷7弄15號","121.532983333333","24.9901","6500600","新店區"
"231013","108-UY","2019/08/06 15:39:35","新北市新店區永業路81巷1弄2號","121.529768333333","24.9494716666667","6500600","新店區"
"231036","110-UY","2019/08/06 15:39:30","新北市新店區安祥路70號","121.488548333333","24.9578566666667","6500600","新店區"
"231039","187-VK","2019/08/06 15:39:36","新北市新店區寶元路二段31巷2號","121.546745","24.98173","6500600","新店區"
"231015","KEA-2219","2019/08/06 15:39:34","新北市新店區北宜路二段55號","121.549031666667","24.95146","6500600","新店區"
"231032","256-BX","2019/08/06 15:39:35","新北市新店區裕合街20號","121.48945","24.9499883333333","6500600","新店區"
"231023","260-TV","2019/08/06 15:39:36","新北市新店區大新街7巷4號","121.543408333333","24.9682233333333","6500600","新店區"
"231003","268-BY","2019/08/06 15:39:30","新北市新店區寶興路60巷3號","121.549986666667","24.97196","6500600","新店區"
"231035","278-BY","2019/08/06 15:39:23","新北市新店區安興路83-5號","121.515151666667","24.9754733333333","6500600","新店區"
"231038","3712-VJ","2019/08/06 15:39:34","新北市新店區安康路二段194號","121.511108333333","24.9601066666667","6500600","新店區"
"231020","513-UM","2019/08/06 15:39:31","新北市新店區金興路40號","121.552573333333","24.9320283333333","6500600","新店區"
"231034","641-BX","2019/08/06 15:39:22","新北市新店區玫瑰路66巷1號","121.495906666667","24.9452116666667","6500600","新店區"
"231012","KED-0819","2019/08/06 15:39:23","新北市新店區文化路54號","121.544718333333","24.9808733333333","6500600","新店區"
"231026","720-UM","2019/08/06 15:39:26","新北市新店區三民路51巷3弄2號","121.536516666667","24.9703083333333","6500600","新店區"
"231028","897-TW","2019/08/06 15:39:34","新北市新店區僑義路16號","121.500501666667","24.9504416666667","6500600","新店區"
"231004","899-TW","2019/08/06 15:39:31","新北市新店區中央路175-3號","121.534765","24.9696383333333","6500600","新店區"
"231037","AKT-0513","2019/08/06 15:39:26","新北市新店區安興路69號","121.51608","24.9748183333333","6500600","新店區"
"241028","022-UY","2019/08/06 15:39:23","新北市三重區重新路三段89-5號","121.491578333333","25.0601083333333","6500200","三重區"
"241017","063-VK","2019/08/06 15:38:32","新北市三重區新北大道一段7號","121.489656666667","25.0613316666667","6500200","三重區"
"241013","270-UM","2019/08/06 15:39:38","新北市三重區忠孝路二段34號","121.485851666667","25.070955","6500200","三重區"
"241007","398-BY","2019/08/06 15:39:26","新北市三重區新北大道一段250號","121.479881666667","25.061375","6500200","三重區"
"241020","478-VK","2019/08/06 15:39:25","新北市三重區忠孝路二段63號","121.484916666667","25.0705583333333","6500200","三重區"
"241023","545-UM","2019/08/06 15:39:23","新北市三重區重新路四段121號","121.484433333333","25.05219","6500200","三重區"
"241005","AAD-863","2019/08/06 15:39:25","新北市三重區重新路四段121號","121.48462","25.0520833333333","6500200","三重區"
"241022","KED-0820","2019/08/06 15:39:39","新北市三重區重新路四段121號","121.48479","25.0518983333333","6500200","三重區"
"241012","941-UM","2019/08/06 15:39:39","新北市三重區自強路一段185號","121.492186666667","25.067985","6500200","三重區"
"241029","942-UM","2019/08/06 15:39:22","新北市三重區環河南路261號","121.49026","25.049955","6500200","三重區"
"241033","AAC-255","2019/08/06 15:39:38","新北市三重區重新路五段406號","121.475678333333","25.0477233333333","6500200","三重區"
"235004","150-BY","2019/08/06 15:39:17","新北市新店區安康路二段318-1號","121.504828333333","24.9582366666667","6500300","中和區"
"235033","4980-A6","2019/08/06 15:39:32","新北市中和區新生街170號","121.483716666667","25.000085","6500300","中和區"
"235054","640-BX","2019/08/06 15:25:15","","121.485275","24.991625","6500300","中和區"
"235026","800-TS","2019/08/06 15:39:34","新北市中和區立業路61巷3弄3號","121.492435","25.00675","6500300","中和區"
"235023","AAC-215","2019/08/06 15:39:39","新北市中和區員山路37-8號","121.48209","24.989895","6500300","中和區"
"224005","271-BY","2019/08/06 15:39:38","新北市瑞芳區傑魚坑路46號","121.7938","25.1105416666667","6501200","瑞芳區"
"227002","642-TC","2019/08/06 15:39:34","新北市雙溪區牡丹里中正路56號","121.865513333333","25.0404216666667","6502500","雙溪區"
"227001","400-TW","2019/08/06 15:39:37","新北市雙溪區牡丹里中正路54號","121.865413333333","25.04013","6502500","雙溪區"
"236074","166-UM","2019/08/06 15:39:37","新北市土城區中央路四段454號","121.410336666667","24.95106","6501300","土城區"
"236029","253-BX","2019/08/06 15:39:25","新北市土城區中央路一段45巷7號","121.448946666667","24.9900933333333","6501300","土城區"
"236024","269-VK","2019/08/06 15:39:23","新北市土城區裕生路67巷8弄1號","121.448016666667","24.9843333333333","6501300","土城區"
"236013","270-VK","2019/08/06 15:39:35","新北市土城區四川路29巷58號","121.455325","24.995135","6501300","土城區"
"236065","KEA-2877","2019/08/06 15:39:35","新北市土城區大安路22號","121.432771666667","24.9662683333333","6501300","土城區"
"236017","401-BY","2019/08/06 15:39:34","新北市土城區延吉街23巷61-1號","121.472961666667","24.9878183333333","6501300","土城區"
"236057","912-UM","2019/08/06 15:39:19","新北市土城區中央路一段254號","121.444335","24.9844666666667","6501300","土城區"
"236045","913-UM","2019/08/06 15:39:20","新北市土城區金城路三段257號","121.471836666667","24.9900216666667","6501300","土城區"
"236054","AAC-216","2019/08/06 15:39:24","新北市土城區中華路一段41-1號","121.446006666667","24.9886833333333","6501300","土城區"
"220028","200-UY","2019/08/06 15:39:34","新北市五股區新五路三段19號","121.445408333333","25.0892016666667","6500100","板橋區"
