"lineid","car","time","location","longitude","latitude","cityid","cityname"
"249001","173-UM","2019/08/06 17:29:21","新北市八里區中華路一段1-5號","121.423295","25.1586283333333","6502300","八里區"
"249004","303-UY","2019/08/06 17:29:29","新北市八里區民治街173號","121.413396666667","25.15666","6502300","八里區"
"249002","305-UY","2019/08/06 17:29:30","新北市八里區龍米路一段261號","121.448941666667","25.13354","6502300","八里區"
"249003","593-UM","2019/08/06 17:29:25","新北市八里區中山路二段398號","121.400533333333","25.147725","6502300","八里區"
"249005","759-BX","2019/08/06 17:29:34","新北市八里區荖阡坑路65-3號","121.40431","25.1310166666667","6502300","八里區"
"232011","375-UM","2019/08/06 17:29:19","新北市坪林區鶯子瀨12-1號","121.711673333333","24.9149583333333","6502000","坪林區"
"244007","080-UY","2019/08/06 17:29:27","新北市林口區菁埔1-14號","121.382703333333","25.0953166666667","6501700","林口區"
"244013","KEA-2802","2019/08/06 17:29:30","新北市林口區中山路256-1號","121.385368333333","25.079585","6501700","林口區"
"244023","483-VK","2019/08/06 17:29:28","新北市林口區東明一街15巷12號","121.393078333333","25.07204","6501700","林口區"
"244009","656-BX","2019/08/06 17:29:35","新北市林口區中北三街196號","121.382853333333","25.082195","6501700","林口區"
"244011","657-BX","2019/08/06 17:29:23","新北市林口區仁愛路一段410號","121.386643333333","25.0767","6501700","林口區"
"244025","837-TS","2019/08/06 17:29:31","新北市林口區文化二路一段241巷28號","121.36618","25.0716733333333","6501700","林口區"
"244021","838-TS","2019/08/06 17:27:06","新北市林口區粉寮路一段55號","121.396958333333","25.0778066666667","6501700","林口區"
"231046","719-UM","2019/08/06 17:04:40","新北市新店區直潭路85號","121.531608333333","24.9418883333333","6500600","新店區"
"241015","062-VK","2019/08/06 17:29:17","新北市三重區三和路一段47巷13號","121.503898333333","25.06563","6500200","三重區"
"241017","063-VK","2019/08/06 17:29:32","新北市三重區中正北路25巷9號","121.492616666667","25.0622116666667","6500200","三重區"
"241024","065-VK","2019/08/06 17:29:32","新北市三重區中正北路191巷3弄18號","121.478495","25.069705","6500200","三重區"
"241011","066-VK","2019/08/06 17:29:36","新北市三重區河邊北街124巷3號","121.50353","25.0715","6500200","三重區"
"241013","270-UM","2019/08/06 17:29:38","新北市三重區仁愛街112巷10號","121.494583333333","25.07423","6500200","三重區"
"241025","271-UM","2019/08/06 17:29:24","新北市三重區中正北路311號","121.474005","25.071455","6500200","三重區"
"241007","398-BY","2019/08/06 17:29:26","新北市三重區三和路四段145巷98號","121.48683","25.0790333333333","6500200","三重區"
"241030","KED-0822","2019/08/06 17:29:39","新北市三重區中正南路269號","121.493263333333","25.05225","6500200","三重區"
"241020","478-VK","2019/08/06 17:29:24","新北市三重區忠孝路三段84巷5號","121.48022","25.064365","6500200","三重區"
"241026","480-VK","2019/08/06 17:29:32","新北市三重區中正南路47號","121.493961666667","25.0597133333333","6500200","三重區"
"241014","543-UM","2019/08/06 17:29:31","新北市三重區安和路17號","121.501391666667","25.0685","6500200","三重區"
"241023","545-UM","2019/08/06 17:29:23","新北市三重區忠孝路三段50巷41弄3號","121.48224","25.0644483333333","6500200","三重區"
"241001","547-UM","2019/08/06 17:29:24","新北市三重區仁政街154號","121.491431666667","25.0791083333333","6500200","三重區"
"241019","KEA-2593","2019/08/06 17:29:30","新北市三重區六張街190號","121.488563333333","25.068575","6500200","三重區"
"241005","AAD-863","2019/08/06 17:29:25","新北市三重區仁愛街602號","121.48394","25.08103","6500200","三重區"
"241016","887-TS","2019/08/06 17:29:35","新北市三重區信義西街41號","121.49539","25.06403","6500200","三重區"
"241012","941-UM","2019/08/06 17:29:39","新北市三重區仁興街39巷46號","121.501048333333","25.076545","6500200","三重區"
"241033","AAC-255","2019/08/06 17:29:37","新北市三重區興德路133號","121.470136666667","25.052875","6500200","三重區"
"235064","005-UY","2019/08/06 17:28:20","新北市中和區員山路36巷16-3號","121.485076666667","24.9912583333333","6500300","中和區"
"247014","KEA-2869","2019/08/06 17:29:38","新北市蘆洲區忠孝路62號","121.471586666667","25.084895","6501400","蘆洲區"
"247008","KED-0682","2019/08/06 17:29:23","新北市蘆洲區民生街64號","121.473451666667","25.0788066666667","6501400","蘆洲區"
"247004","893-R6","2019/08/06 17:29:37","新北市蘆洲區長安街233巷6號","121.459151666667","25.0828083333333","6501400","蘆洲區"
"247024","337-TH","2019/08/06 17:29:20","新北市蘆洲區長興路393號","121.461313333333","25.091875","6501400","蘆洲區"
"247002","336-TH","2019/08/06 17:29:38","新北市蘆洲區永樂街38巷57弄10-2號","121.457861666667","25.0903966666667","6501400","蘆洲區"
"247022","057-VK","2019/08/06 17:29:33","新北市蘆洲區三民路341號","121.465061666667","25.090905","6501400","蘆洲區"
"247012","056-VK","2019/08/06 17:29:32","新北市蘆洲區民族路34號","121.476501666667","25.08426","6501400","蘆洲區"
"247016","053-VK","2019/08/06 17:29:37","新北市蘆洲區光華路22巷50號","121.468103333333","25.0851466666667","6501400","蘆洲區"
"247020","007-UY","2019/08/06 17:29:33","新北市蘆洲區水湳街172-1號","121.470313333333","25.0938433333333","6501400","蘆洲區"
"247006","002-UY","2019/08/06 17:29:31","新北市蘆洲區九芎街90巷16號","121.465411666667","25.0805666666667","6501400","蘆洲區"
"228001","212-TW","2019/08/06 17:29:29","新北市貢寮區仁理村仁愛路56號","121.925448333333","25.05331","6502600","貢寮區"
"228002","663-BX","2019/08/06 17:29:22","新北市貢寮區福隆里興隆街21-1號","121.943361666667","25.01649","6502600","貢寮區"
"228003","828-UM","2019/08/06 17:29:32","新北市貢寮區仁理村仁和路2-1號","121.923168333333","25.048635","6502600","貢寮區"
"224010","AGQ-8101","2019/08/06 17:29:29","新北市瑞芳區逢甲路66號","121.811133333333","25.1082683333333","6501200","瑞芳區"
"224006","676-BX","2019/08/06 17:29:25","新北市瑞芳區傑魚坑路95號","121.792448333333","25.1104466666667","6501200","瑞芳區"
"224009","275-VK","2019/08/06 17:29:20","新北市瑞芳區汽車路18號","121.84525","25.110065","6501200","瑞芳區"
"224008","273-VK","2019/08/06 17:29:26","新北市瑞芳區侯硐路204號","121.830425","25.088195","6501200","瑞芳區"
"224005","271-BY","2019/08/06 17:29:37","新北市瑞芳區海濱路8-6號","121.831755","25.1261183333333","6501200","瑞芳區"
"227002","642-TC","2019/08/06 17:23:58","","121.866061666667","25.0337316666667","6502500","雙溪區"
"227001","400-TW","2019/08/06 17:29:37","新北市雙溪區三貂里定福路1-2號","121.850755","25.0634016666667","6502500","雙溪區"
"251004","009-UM","2019/08/06 17:15:11","新北市淡水區中正東路二段88巷15號","121.459055","25.1504933333333","6501000","淡水區"
"251010","012-UM","2019/08/06 17:29:33","新北市淡水區中正路二段206號","121.426396666667","25.1890816666667","6501000","淡水區"
"251015","KEA-2871","2019/08/06 17:29:36","新北市淡水區三空泉21號","121.468825","25.1672233333333","6501000","淡水區"
"251016","179-VK","2019/08/06 17:29:23","新北市淡水區埤島75-1號","121.45402","25.1938883333333","6501000","淡水區"
"251013","180-VK","2019/08/06 17:29:33","新北市淡水區大竹圍5號","121.466576666667","25.1951833333333","6501000","淡水區"
"251008","181-VK","2019/08/06 17:29:24","新北市淡水區大同路79號","121.462146666667","25.1400066666667","6501000","淡水區"
"251012","441-VK","2019/08/06 17:29:31","新北市淡水區北新路111號","121.44795","25.1784316666667","6501000","淡水區"
"251007","442-VK","2019/08/06 17:29:29","新北市淡水區民生路58號","121.462093333333","25.1378716666667","6501000","淡水區"
"251005","443-VK","2019/08/06 17:29:24","新北市淡水區鄧公路31巷1號","121.451275","25.1708933333333","6501000","淡水區"
"251006","561-UM","2019/08/06 17:29:34","新北市淡水區大仁街31號","121.442565","25.175475","6501000","淡水區"
"251009","575-R6","2019/08/06 17:29:26","新北市淡水區新生街20-5號","121.438948333333","25.1738183333333","6501000","淡水區"
"251014","577-R6","2019/08/06 17:28:53","新北市淡水區北勢子16號","121.473958333333","25.227685","6501000","淡水區"
"251011","650-BX","2019/08/06 17:29:23","新北市淡水區三空泉8-1號","121.475886666667","25.1612433333333","6501000","淡水區"
"251002","672-BX","2019/08/06 17:29:30","新北市淡水區中正路一段156巷1號","121.421145","25.179645","6501000","淡水區"
"251003","766-UM","2019/08/06 17:29:22","新北市淡水區中山路158號","121.440765","25.17285","6501000","淡水區"
"207003","550-UM","2019/08/06 17:29:30","新北市萬里區龜吼里美崙路38號","121.686463333333","25.1847166666667","6502800","萬里區"
"207004","225-TW","2019/08/06 17:29:35","新北市萬里區萬里里瑪鋉路18號","121.689185","25.1751783333333","6502800","萬里區"
"252002","178-VK","2019/08/06 17:29:36","新北市三芝區忠孝街1-14號","121.50548","25.2539116666667","6502100","三芝區"
"233002","762-BX","2019/08/06 17:29:32","新北市烏來區烏來街1號","121.551183333333","24.86556","6502900","烏來區"
"247010","KED-0683","2019/08/06 17:29:39","新北市蘆洲區鷺江街12號","121.479255","25.0826666666667","6501400","蘆洲區"
"252001","KED-0821","2019/08/06 17:29:34","新北市三芝區長安街119號","121.498016666667","25.2596433333333","6502100","三芝區"
"242061","986-R7","2019/08/06 17:29:33","新北市新莊區瓊林路176-1號","121.440621666667","25.02257","6500500","新莊區"
"242002","751-BX","2019/08/06 17:29:19","新北市新莊區新莊路211號","121.455323333333","25.0354366666667","6500500","新莊區"
"242029","615-BX","2019/08/06 17:29:37","新北市新莊區復興路二段174號","121.458621666667","25.0443933333333","6500500","新莊區"
"242058","612-BX","2019/08/06 17:29:34","新北市新莊區中正路384號","121.441901666667","25.0346216666667","6500500","新莊區"
"242046","566-BX","2019/08/06 17:29:29","新北市新莊區新樹路65-5號","121.439406666667","25.0308933333333","6500500","新莊區"
"242056","441-UM","2019/08/06 17:29:24","新北市新莊區景德路208號","121.449141666667","25.033825","6500500","新莊區"
"242005","440-UM","2019/08/06 17:29:34","新北市新莊區中港路286號","121.452993333333","25.0442383333333","6500500","新莊區"
"242042","415-TV","2019/08/06 17:29:23","新北市新莊區新樹路52號","121.437225","25.02665","6500500","新莊區"
"242011","413-TV","2019/08/06 17:29:32","新北市新莊區中港路390號","121.45232","25.0493283333333","6500500","新莊區"
"242048","400-BY","2019/08/06 17:29:29","新北市新莊區四維路212巷2號","121.421261666667","25.0202266666667","6500500","新莊區"
"242025","362-BY","2019/08/06 17:29:34","新北市新莊區中港路281號","121.453118333333","25.0438366666667","6500500","新莊區"
"242023","353-BY","2019/08/06 17:29:27","新北市新莊區公園路148號","121.453063333333","25.0401066666667","6500500","新莊區"
"242013","132-UY","2019/08/06 17:29:34","新北市新莊區中誠街14號","121.451958333333","25.0482633333333","6500500","新莊區"
"242037","135-UY","2019/08/06 17:29:37","新北市新莊區建國二路1號","121.435053333333","25.0237483333333","6500500","新莊區"
"242054","172-VK","2019/08/06 17:29:34","新北市新莊區瓊林南路305巷35號","121.435943333333","25.005195","6500500","新莊區"
"242015","173-VK","2019/08/06 17:29:25","新北市新莊區新泰路159號","121.447611666667","25.0369616666667","6500500","新莊區"
"242021","175-VK","2019/08/06 17:29:24","新北市新莊區中正路134號","121.452725","25.0362583333333","6500500","新莊區"
"242039","176-VK","2019/08/06 17:29:21","新北市新莊區民安路272號","121.4276","25.0214033333333","6500500","新莊區"
"242019","KED-0687","2019/08/06 17:29:19","新北市新莊區中港路304號","121.452761666667","25.0449516666667","6500500","新莊區"
"242009","346-TH","2019/08/06 17:29:25","新北市新莊區中原路185號","121.453026666667","25.0543566666667","6500500","新莊區"
"242051","347-TH","2019/08/06 17:29:26","新北市新莊區新樹路445號","121.432961666667","25.0135816666667","6500500","新莊區"
"242034","348-TH","2019/08/06 17:29:22","新北市新莊區瓊林路38-4號","121.448453333333","25.030605","6500500","新莊區"
"242007","349-TH","2019/08/06 17:29:23","新北市新莊區自立街81號","121.454481666667","25.045445","6500500","新莊區"
"242032","350-TH","2019/08/06 17:29:35","新北市新莊區新泰路442號","121.443423333333","25.04473","6500500","新莊區"
"242017","351-TH","2019/08/06 17:29:21","新北市新莊區中港路303號","121.452895","25.04454","6500500","新莊區"
"238015","755-BX","2019/08/06 17:29:23","新北市樹林區復興路1號","121.422938333333","24.9949683333333","6500700","樹林區"
"238023","601-UM","2019/08/06 17:29:35","新北市樹林區三福街114號","121.406405","25.0163283333333","6500700","樹林區"
"238019","599-UM","2019/08/06 17:29:31","新北市樹林區八德街251巷1號","121.421895","24.9784266666667","6500700","樹林區"
"238024","5061-A6","2019/08/06 17:29:22","新北市樹林區博愛街203號","121.424225","24.9883783333333","6500700","樹林區"
"238018","KEA-2217","2019/08/06 17:29:24","新北市樹林區鎮前街165號","121.421911666667","24.9870566666667","6500700","樹林區"
"238022","KEA-2213","2019/08/06 17:29:19","新北市樹林區信義街15號","121.42271","24.9819916666667","6500700","樹林區"
"238021","KEA-2539","2019/08/06 17:29:26","新北市樹林區西圳街一段203巷10-1號","121.39275","24.960765","6500700","樹林區"
"238025","303-VK","2019/08/06 17:29:28","新北市樹林區保安街二段33號","121.416306666667","24.9998683333333","6500700","樹林區"
"238017","283-BY","2019/08/06 17:29:32","新北市樹林區中正路248巷28弄2號","121.418411666667","25.0082933333333","6500700","樹林區"
"238014","282-BY","2019/08/06 17:29:28","新北市樹林區保安街一段296號","121.41912","24.9973683333333","6500700","樹林區"
"238020","268-VK","2019/08/06 17:29:26","新北市樹林區千歲街101-2號","121.428493333333","25.0008883333333","6500700","樹林區"
"238026","172-UY","2019/08/06 17:29:21","新北市樹林區味王街12號","121.402991666667","24.9760966666667","6500700","樹林區"
"238016","169-UY","2019/08/06 17:29:39","新北市樹林區長壽街28巷4弄14號","121.42366","24.9941816666667","6500700","樹林區"
"239007","AAC-297","2019/08/06 17:29:33","新北市鶯歌區國華路2號","121.342876666667","24.9563483333333","6500800","鶯歌區"
"239006","891-R6","2019/08/06 17:29:40","新北市鶯歌區鳳鳴路63號","121.333928333333","24.9655883333333","6500800","鶯歌區"
"239008","527-UM","2019/08/06 17:29:40","新北市鶯歌區大湖路530巷2-2號","121.337523333333","24.97237","6500800","鶯歌區"
"239005","526-UM","2019/08/06 17:29:23","新北市鶯歌區福隆一街5號","121.325586666667","24.9718133333333","6500800","鶯歌區"
"239001","417-VK","2019/08/06 17:29:37","新北市鶯歌區中正三路86號","121.338276666667","24.9410066666667","6500800","鶯歌區"
"239003","360-BY","2019/08/06 17:29:21","新北市鶯歌區德昌街11號","121.333545","24.9602516666667","6500800","鶯歌區"
"239002","359-BY","2019/08/06 17:29:31","新北市鶯歌區育英街49號","121.346895","24.95366","6500800","鶯歌區"
"239004","193-VK","2019/08/06 17:29:17","新北市鶯歌區文化路220號","121.352741666667","24.9488466666667","6500800","鶯歌區"
"244019","KED-0667","2019/08/06 17:29:34","新北市林口區文化一路一段83巷14弄15號","121.371998333333","25.0714533333333","6501700","林口區"
"233001","KEA-2870","2019/08/06 17:29:31","新北市烏來區信福路169-1號","121.523641666667","24.8335416666667","6502900","烏來區"
"242044","281-VK","2019/08/06 17:29:23","新北市新莊區富國路58號","121.419021666667","25.0261483333333","6500500","新莊區"
"235061","KEA-2875","2019/08/06 17:24:37","","121.485271666667","24.991685","6500300","中和區"
