"lineid","car","time","location","longitude","latitude","cityid","cityname"
"234007","KED-0605","2019/08/06 18:19:35","新北市永和區仁愛路306巷20號","121.502108333333","25.0087166666667","6500400","永和區"
"234042","862-TW","2019/08/06 18:19:38","新北市永和區福和路1號","121.526206666667","25.0097616666667","6500400","永和區"
"234026","9372-KE","2019/08/06 18:19:38","新北市永和區保順路8號","121.503881666667","25.0109883333333","6500400","永和區"
"234026","9371-KE","2019/08/06 18:19:24","新北市永和區豫溪街42巷3號","121.515535","25.0096366666667","6500400","永和區"
"249001","173-UM","2019/08/06 18:19:41","新北市八里區龍米路一段135號","121.452135","25.1268733333333","6502300","八里區"
"249004","303-UY","2019/08/06 18:19:29","新北市八里區觀海大道36號","121.430231666667","25.1604666666667","6502300","八里區"
"249002","305-UY","2019/08/06 18:19:30","新北市八里區龍形二街20號","121.450518333333","25.13272","6502300","八里區"
"249005","759-BX","2019/08/06 18:19:34","新北市八里區荖阡坑路15-12號","121.40037","25.1403283333333","6502300","八里區"
"248014","025-BX","2019/08/06 18:19:20","新北市五股區自強路19巷5-1號","121.434571666667","25.07374","6501500","五股區"
"248016","026-BX","2019/08/06 18:19:28","新北市五股區西雲路286巷1號","121.44985","25.0988016666667","6501500","五股區"
"248006","077-UY","2019/08/06 18:19:40","新北市五股區中興路一段122號","121.465815","25.0734683333333","6501500","五股區"
"248008","KED-0815","2019/08/06 18:19:34","新北市五股區更洲路32巷8弄14號","121.459263333333","25.0796033333333","6501500","五股區"
"248020","KED-0813","2019/08/06 18:19:38","新北市五股區孝義路31號","121.454313333333","25.11009","6501500","五股區"
"248012","247-BX","2019/08/06 18:19:25","新北市五股區御史路1巷101弄4號","121.440868333333","25.09119","6501500","五股區"
"248004","677-BX","2019/08/06 18:19:26","新北市五股區成泰路二段149號","121.439103333333","25.0855016666667","6501500","五股區"
"248002","678-BX","2019/08/06 18:19:30","新北市五股區西雲路46號","121.443458333333","25.0908716666667","6501500","五股區"
"248010","682-TV","2019/08/06 18:19:23","新北市五股區成泰路一段189巷14-4號","121.433761666667","25.077555","6501500","五股區"
"232011","375-UM","2019/08/06 18:19:39","新北市坪林區坪雙路一段41號","121.711711666667","24.9424433333333","6502000","坪林區"
"244007","080-UY","2019/08/06 18:19:27","新北市林口區後湖11-63號","121.387025","25.0975316666667","6501700","林口區"
"244013","KEA-2802","2019/08/06 18:19:30","新北市林口區中山路262-1號","121.384581666667","25.0799066666667","6501700","林口區"
"244023","483-VK","2019/08/06 18:19:28","新北市林口區仁愛路二段127號","121.383361666667","25.0747616666667","6501700","林口區"
"244009","656-BX","2019/08/06 18:19:35","新北市林口區文林一街115巷7號","121.378733333333","25.0874716666667","6501700","林口區"
"244011","657-BX","2019/08/06 18:19:23","新北市林口區中正路101號","121.39414","25.0772233333333","6501700","林口區"
"244025","837-TS","2019/08/06 18:19:31","新北市林口區文化北路一段192-100號","121.357538333333","25.070615","6501700","林口區"
"244021","838-TS","2019/08/06 18:19:37","新北市林口區自強二街8號","121.39747","25.07841","6501700","林口區"
"222003","436-BY","2019/08/06 18:19:32","新北市深坑區旺耽路67號","121.626231666667","25.0029966666667","6501800","深坑區"
"222002","659-BX","2019/08/06 18:19:23","新北市深坑區雲鄉路2號","121.620865","24.9999516666667","6501800","深坑區"
"231055","0291-UT","2019/08/06 18:19:22","新北市新店區秀山路66號","121.530836666667","24.96098","6500600","新店區"
"231058","0293-UT","2019/08/06 18:19:20","新北市新店區秀山路20號","121.532456666667","24.9604066666667","6500600","新店區"
"231044","046-UY","2019/08/06 18:19:33","新北市新店區安華路28-1號","121.519251666667","24.9606733333333","6500600","新店區"
"231060","106-UY","2019/08/06 18:19:26","新北市新店區安華路28-1號","121.519788333333","24.9606816666667","6500600","新店區"
"231050","KEA-2219","2019/08/06 18:19:40","新北市新店區安一路一段1-1號","121.520055","24.9612116666667","6500600","新店區"
"231054","260-TV","2019/08/06 18:19:24","新北市新店區安一路一段1-1號","121.519208333333","24.9611583333333","6500600","新店區"
"231042","268-BY","2019/08/06 18:19:20","新北市新店區安一路一段1-1號","121.519746666667","24.961355","6500600","新店區"
"231045","355-BY","2019/08/06 18:19:21","新北市新店區安一路一段1-1號","121.519013333333","24.9610316666667","6500600","新店區"
"231056","4715-K9","2019/08/06 18:19:23","新北市新店區環河路121號","121.529883333333","24.9717166666667","6500600","新店區"
"231053","513-UM","2019/08/06 18:19:24","新北市新店區安康路一段44號","121.530678333333","24.9609983333333","6500600","新店區"
"231063","641-BX","2019/08/06 18:19:29","新北市新店區安華路28-1號","121.519685","24.9604983333333","6500600","新店區"
"231057","720-UM","2019/08/06 18:19:20","新北市新店區安一路一段1-1號","121.51901","24.9612433333333","6500600","新店區"
"241001","547-UM","2019/08/06 18:19:24","新北市三重區溪尾街123巷3號","121.489773333333","25.0791783333333","6500200","三重區"
"241033","AAC-255","2019/08/06 18:19:37","新北市三重區光復路一段47號","121.472056666667","25.0486066666667","6500200","三重區"
"235066","003-UY","2019/08/06 18:19:28","新北市中和區中山路二段120號","121.5027","25.00368","6500300","中和區"
"235064","005-UY","2019/08/06 18:19:31","新北市中和區圓通路167巷11號","121.497908333333","24.9946533333333","6500300","中和區"
"235063","006-UY","2019/08/06 18:19:29","新北市中和區中正路508號","121.488586666667","24.994485","6500300","中和區"
"235056","096-UM","2019/08/06 18:19:30","新北市中和區中山路二段586-2號","121.482325","25.00515","6500300","中和區"
"235039","097-UM","2019/08/06 18:19:24","新北市中和區安平路107號","121.51157","24.9975366666667","6500300","中和區"
"235065","098-UM","2019/08/06 18:19:20","新北市中和區中山路二段2巷45弄2號","121.50231","25.0072216666667","6500300","中和區"
"235040","150-BY","2019/08/06 18:19:32","新北市中和區景新街168-2號","121.505791666667","24.9968616666667","6500300","中和區"
"235058","151-BY","2019/08/06 18:19:35","新北市中和區圓通路369巷36弄10號","121.489986666667","24.9843116666667","6500300","中和區"
"235038","185-VK","2019/08/06 18:19:24","新北市中和區大智街42巷32號","121.522816666667","24.9920116666667","6500300","中和區"
"235049","186-VK","2019/08/06 18:19:34","新北市中和區錦和路350-1號","121.490291666667","24.9935666666667","6500300","中和區"
"235072","301-VK","2019/08/06 18:19:08","新北市中和區連城路251號","121.49281","24.9967316666667","6500300","中和區"
"235043","352-BY","2019/08/06 18:19:20","新北市中和區南山路233號","121.503758333333","24.99327","6500300","中和區"
"235042","KEA-2878","2019/08/06 18:19:34","新北市中和區和平街28-2號","121.509588333333","24.9902483333333","6500300","中和區"
"235050","4979-A6","2019/08/06 18:19:38","新北市中和區和平街33號","121.506711666667","24.99113","6500300","中和區"
"235069","4980-A6","2019/08/06 18:19:28","新北市中和區連城路237-1號","121.493753333333","24.99739","6500300","中和區"
"235070","558-UM","2019/08/06 18:19:25","新北市中和區南華路29號","121.503108333333","24.9960533333333","6500300","中和區"
"235045","565-BX","2019/08/06 18:19:18","新北市中和區景安路243號","121.504105","24.9907983333333","6500300","中和區"
"235060","KED-0823","2019/08/06 18:19:34","新北市中和區員山路395號","121.481145","25.0029316666667","6500300","中和區"
"235054","640-BX","2019/08/06 18:19:40","新北市中和區民享街99號","121.47492","24.99992","6500300","中和區"
"235047","732-UM","2019/08/06 18:19:41","新北市中和區中正路482號","121.489426666667","24.9942633333333","6500300","中和區"
"235062","800-TS","2019/08/06 18:19:27","新北市中和區景平路999巷1號","121.495411666667","25.005965","6500300","中和區"
"235057","801-TS","2019/08/06 18:19:24","新北市中和區民治街29巷26號","121.475828333333","24.999965","6500300","中和區"
"235052","805-TS","2019/08/06 18:19:27","新北市中和區興南路二段96號","121.50516","24.9842516666667","6500300","中和區"
"235048","896-TW","2019/08/06 18:19:19","新北市中和區錦和路350-1號","121.490223333333","24.9935833333333","6500300","中和區"
"235053","900-TW","2019/08/06 18:19:27","新北市中和區員山路36巷16-2號","121.485253333333","24.9913983333333","6500300","中和區"
"235051","157-BY","2019/08/06 18:19:31","新北市中和區信義街103號","121.512011666667","24.9870983333333","6500300","中和區"
"235037","AAC-213","2019/08/06 18:19:38","新北市中和區景德街86號","121.516321666667","24.991465","6500300","中和區"
"226004","312-R5","2019/08/06 18:19:29","新北市平溪區薯榔里雙菁路94號","121.713768333333","25.0211016666667","6502400","平溪區"
"235041","251-BX","2019/08/06 18:19:39","新北市中和區中正路266-1號","121.495408333333","24.9938933333333","6500300","中和區"
"228001","212-TW","2019/08/06 18:19:29","新北市貢寮區真理里新港街26巷55弄2-1號","121.92741","25.0528816666667","6502600","貢寮區"
"228002","663-BX","2019/08/06 18:19:42","新北市貢寮區福連里馬崗街1號","121.99792","25.0166116666667","6502600","貢寮區"
"228003","828-UM","2019/08/06 18:19:32","新北市貢寮區真理里美艷山街63號","121.920855","25.0720716666667","6502600","貢寮區"
"224010","AGQ-8101","2019/08/06 18:19:33","新北市瑞芳區崙頂路17號","121.845791666667","25.1064033333333","6501200","瑞芳區"
"224006","676-BX","2019/08/06 18:19:25","新北市瑞芳區三爪子坑路64-35號","121.809","25.1058033333333","6501200","瑞芳區"
"224002","639-TC","2019/08/06 18:19:22","新北市瑞芳區三爪子坑路30號","121.81052","25.1062516666667","6501200","瑞芳區"
"224007","285-BY","2019/08/06 18:19:27","新北市瑞芳區大埔路44號","121.764285","25.1019833333333","6501200","瑞芳區"
"224009","275-VK","2019/08/06 18:19:20","新北市瑞芳區祈堂路184號","121.857656666667","25.1095116666667","6501200","瑞芳區"
"224008","273-VK","2019/08/06 18:19:26","新北市瑞芳區逢甲路34號","121.811375","25.10839","6501200","瑞芳區"
"224005","271-BY","2019/08/06 18:19:37","新北市瑞芳區建基新村34號","121.812223333333","25.1302416666667","6501200","瑞芳區"
"227002","642-TC","2019/08/06 18:19:22","新北市雙溪區共和里中山路2號","121.863806666667","25.03374","6502500","雙溪區"
"227001","400-TW","2019/08/06 18:19:37","新北市雙溪區牡丹里牡丹73號","121.851703333333","25.0593583333333","6502500","雙溪區"
"253006","032-BX","2019/08/06 18:19:27","新北市石門區老梅路99號","121.546938333333","25.28925","6502200","石門區"
"253005","295-VK","2019/08/06 18:19:33","新北市石門區中央路25號","121.567975","25.2935033333333","6502200","石門區"
"222001","KEA-2212","2019/08/06 18:19:22","新北市深坑區北深路二段66號","121.61889","25.0043383333333","6501800","深坑區"
"208002","KEA-2872","2019/08/06 18:19:32","新北市金山區磺清路135號","121.639366666667","25.2276333333333","6502700","金山區"
"208003","665-BX","2019/08/06 18:19:39","新北市金山區民生路196-3號","121.646318333333","25.2222616666667","6502700","金山區"
"251004","009-UM","2019/08/06 18:19:27","新北市淡水區民權路215巷102號","121.462748333333","25.1336033333333","6501000","淡水區"
"251010","012-UM","2019/08/06 18:19:33","新北市淡水區淡海路207號","121.420328333333","25.185005","6501000","淡水區"
"251015","KEA-2871","2019/08/06 18:19:35","新北市淡水區興福寮88巷85號","121.484541666667","25.1656533333333","6501000","淡水區"
"251016","179-VK","2019/08/06 18:19:23","新北市淡水區下圭柔山33號","121.450493333333","25.2048466666667","6501000","淡水區"
"251013","180-VK","2019/08/06 18:19:32","新北市淡水區行忠路590號","121.468068333333","25.19921","6501000","淡水區"
"251008","181-VK","2019/08/06 18:19:24","新北市淡水區淡金路12-1號","121.458046666667","25.1602583333333","6501000","淡水區"
"251012","441-VK","2019/08/06 18:19:31","新北市淡水區北新路二段77-5號","121.480558333333","25.18553","6501000","淡水區"
"251005","443-VK","2019/08/06 18:19:24","新北市淡水區水源街一段122巷37號","121.4471","25.17045","6501000","淡水區"
"251001","559-UM","2019/08/06 18:19:39","新北市淡水區自強路110-6號","121.461643333333","25.1314033333333","6501000","淡水區"
"251006","561-UM","2019/08/06 18:19:34","新北市淡水區新民街30號","121.439703333333","25.1761166666667","6501000","淡水區"
"251014","577-R6","2019/08/06 18:19:33","新北市淡水區崙頂16號","121.491513333333","25.2216783333333","6501000","淡水區"
"251011","650-BX","2019/08/06 18:19:23","新北市淡水區三空泉9-2號","121.474193333333","25.1634333333333","6501000","淡水區"
"251002","672-BX","2019/08/06 18:19:30","新北市淡水區中正東路一段125號","121.455175","25.159175","6501000","淡水區"
"251003","766-UM","2019/08/06 18:19:22","新北市淡水區北新路137號","121.44943","25.1788816666667","6501000","淡水區"
"207003","550-UM","2019/08/06 18:19:34","新北市萬里區野柳里港西路74號","121.685655","25.2049816666667","6502800","萬里區"
"207004","225-TW","2019/08/06 18:19:35","新北市萬里區中幅里中福路198號","121.673473333333","25.1653016666667","6502800","萬里區"
"252002","178-VK","2019/08/06 18:19:35","新北市三芝區中山路二段41號","121.50296","25.255085","6502100","三芝區"
"252003","249-BX","2019/08/06 18:19:30","新北市三芝區錫板里南勢崗5-6號","121.479738333333","25.2624066666667","6502100","三芝區"
"208001","170-UY","2019/08/06 18:19:30","新北市金山區自強路11號","121.640383333333","25.2165416666667","6502700","金山區"
"237004","KEA-2597","2019/08/06 18:19:28","新北市三峽區五寮36-1號","121.37245","24.868215","6500900","三峽區"
"237007","153-BY","2019/08/06 18:19:21","新北市三峽區中正路二段610號","121.358706666667","24.9057733333333","6500900","三峽區"
"237009","210-TH","2019/08/06 18:19:29","新北市三峽區大勇路36巷31號","121.36507","24.93694","6500900","三峽區"
"237013","252-BX","2019/08/06 18:19:34","新北市三峽區中正路一段19巷9號","121.37645","24.9304583333333","6500900","三峽區"
"237012","275-BY","2019/08/06 18:19:27","新北市三峽區三樹路100號","121.378303333333","24.9389116666667","6500900","三峽區"
"237008","302-VK","2019/08/06 18:19:38","新北市三峽區白雞68-49號","121.39202","24.9091983333333","6500900","三峽區"
"237014","433-BY","2019/08/06 18:19:28","新北市三峽區復興路59號","121.37308","24.9372833333333","6500900","三峽區"
"237006","5529-G3","2019/08/06 18:19:38","新北市三峽區介壽路二段138巷1弄133號","121.399658333333","24.9309483333333","6500900","三峽區"
"237011","KEA-2596","2019/08/06 18:19:28","新北市三峽區溪東路47號","121.400638333333","24.9348316666667","6500900","三峽區"
"237015","649-BX","2019/08/06 18:19:38","新北市三峽區紫微路6號","121.426318333333","24.9223316666667","6500900","三峽區"
"237010","706-TV","2019/08/06 18:19:29","新北市三峽區民族街17號","121.369363333333","24.9308766666667","6500900","三峽區"
"237005","AKY-6261","2019/08/06 18:19:32","新北市三峽區長福街12號","121.370371666667","24.9337316666667","6500900","三峽區"
"236042","KED-0685","2019/08/06 18:19:34","新北市土城區樂利街3巷15號","121.448503333333","24.98652","6501300","土城區"
"233002","762-BX","2019/08/06 18:19:31","新北市烏來區金堰9-3號","121.550136666667","24.8834633333333","6502900","烏來區"
"236079","166-UM","2019/08/06 18:19:21","新北市土城區永安街115巷38弄2號","121.428753333333","24.962785","6501300","土城區"
"236030","253-BX","2019/08/06 18:19:27","新北市土城區順風路31號","121.440738333333","24.976735","6501300","土城區"
"236026","269-VK","2019/08/06 18:19:35","新北市土城區承天路18號","121.439276666667","24.963615","6501300","土城區"
"236014","270-VK","2019/08/06 18:19:27","新北市土城區青雲路39巷7號","121.460323333333","24.9874266666667","6501300","土城區"
"236038","271-VK","2019/08/06 18:19:30","新北市土城區青雲路451巷8弄12號","121.459493333333","24.9741266666667","6501300","土城區"
"236070","KEA-2877","2019/08/06 18:19:36","新北市土城區明德路一段93巷6號","121.466045","24.9833316666667","6501300","土城區"
"252001","KED-0821","2019/08/06 18:19:34","新北市三芝區中興街二段2號","121.498316666667","25.25666","6502100","三芝區"
"236021","401-BY","2019/08/06 18:19:38","新北市土城區明德路一段169號","121.464241666667","24.9793116666667","6501300","土城區"
"236059","912-UM","2019/08/06 18:19:23","新北市土城區中央路四段464號","121.409945","24.9505433333333","6501300","土城區"
"236049","913-UM","2019/08/06 18:19:26","新北市土城區明德路一段288號","121.456618333333","24.977655","6501300","土城區"
"236063","915-UM","2019/08/06 18:19:36","新北市土城區延壽路77巷4弄33號","121.4691","24.993295","6501300","土城區"
"236055","AAC-216","2019/08/06 18:19:37","新北市土城區中華路二段92號","121.438196666667","24.9745466666667","6501300","土城區"
"242061","986-R7","2019/08/06 18:19:33","新北市新莊區新樹路168號","121.434885","25.022325","6500500","新莊區"
"242002","751-BX","2019/08/06 18:19:19","新北市新莊區武前街29號","121.450281666667","25.0324533333333","6500500","新莊區"
"242058","612-BX","2019/08/06 18:19:34","新北市新莊區新北大道七段842號","121.413701666667","25.0236583333333","6500500","新莊區"
"242046","566-BX","2019/08/06 18:19:29","新北市新莊區中正路829巷22弄41號","121.420793333333","25.0267516666667","6500500","新莊區"
"242056","441-UM","2019/08/06 18:19:24","新北市新莊區瓊林路13-3號","121.448806666667","25.0308733333333","6500500","新莊區"
"242042","415-TV","2019/08/06 18:19:34","新北市新莊區天祥街135巷8弄2號","121.413733333333","25.02941","6500500","新莊區"
"242011","413-TV","2019/08/06 18:19:32","新北市新莊區中港路591巷10號","121.450895","25.052385","6500500","新莊區"
"242025","362-BY","2019/08/06 18:19:34","新北市新莊區五工一路98號","121.460425","25.067915","6500500","新莊區"
"242054","172-VK","2019/08/06 18:19:34","新北市新莊區民安西路410巷8弄1號","121.428378333333","25.0095116666667","6500500","新莊區"
"242015","173-VK","2019/08/06 18:19:25","新北市新莊區中平路184巷10弄3號","121.445476666667","25.0481866666667","6500500","新莊區"
"242021","175-VK","2019/08/06 18:19:24","新北市新莊區中正路192號","121.449505","25.03548","6500500","新莊區"
"242039","176-VK","2019/08/06 18:19:21","新北市新莊區新樹路206巷6號","121.432995","25.0209233333333","6500500","新莊區"
"242051","347-TH","2019/08/06 18:19:26","新北市新莊區民安西路71號","121.427321666667","25.0198883333333","6500500","新莊區"
"242034","348-TH","2019/08/06 18:19:22","新北市新莊區瓊林路13-2號","121.448993333333","25.0310866666667","6500500","新莊區"
"242007","349-TH","2019/08/06 18:19:23","新北市新莊區自強街69巷8號","121.454173333333","25.0473966666667","6500500","新莊區"
"242032","350-TH","2019/08/06 18:19:34","新北市新莊區新泰路255巷65號","121.443535","25.0393916666667","6500500","新莊區"
"238015","755-BX","2019/08/06 18:19:35","新北市樹林區文化街87號","121.416645","24.9892233333333","6500700","樹林區"
"238023","601-UM","2019/08/06 18:19:35","新北市樹林區中正路793號","121.409555","25.0160266666667","6500700","樹林區"
"238019","599-UM","2019/08/06 18:19:31","新北市樹林區忠孝街106號","121.42472","24.9803633333333","6500700","樹林區"
"238024","5061-A6","2019/08/06 18:19:22","新北市樹林區中山路一段233號","121.420836666667","24.9869266666667","6500700","樹林區"
"238018","KEA-2217","2019/08/06 18:19:24","新北市樹林區樹新路34巷9號","121.428185","24.994455","6500700","樹林區"
"238025","303-VK","2019/08/06 18:19:28","新北市樹林區保安街一段276號","121.419615","24.9969116666667","6500700","樹林區"
"238017","283-BY","2019/08/06 18:19:26","新北市樹林區中正路691號","121.411715","25.013635","6500700","樹林區"
"238014","282-BY","2019/08/06 18:19:28","新北市樹林區大安路111巷11號","121.423018333333","24.9976333333333","6500700","樹林區"
"238020","268-VK","2019/08/06 18:19:26","新北市樹林區三龍街94巷36號","121.414281666667","25.01718","6500700","樹林區"
"238026","172-UY","2019/08/06 18:19:41","新北市樹林區佳園路一段153號","121.39369","24.9687516666667","6500700","樹林區"
"238016","169-UY","2019/08/06 18:19:18","新北市樹林區中山路二段34號","121.417253333333","24.98504","6500700","樹林區"
"239007","AAC-297","2019/08/06 18:19:33","新北市鶯歌區中正一路55號","121.35213","24.9540666666667","6500800","鶯歌區"
"239006","891-R6","2019/08/06 18:19:40","新北市鶯歌區德昌街140巷61號","121.332568333333","24.9618733333333","6500800","鶯歌區"
"239008","527-UM","2019/08/06 18:19:20","新北市鶯歌區朝陽街4號","121.336246666667","24.9766033333333","6500800","鶯歌區"
"239005","526-UM","2019/08/06 18:19:23","新北市鶯歌區鶯桃路668巷30號","121.329051666667","24.970155","6500800","鶯歌區"
"239001","417-VK","2019/08/06 18:19:37","新北市鶯歌區國中街126號","121.339471666667","24.939825","6500800","鶯歌區"
"239003","360-BY","2019/08/06 18:19:21","新北市鶯歌區福安街58號","121.335573333333","24.9652033333333","6500800","鶯歌區"
"239002","359-BY","2019/08/06 18:19:31","新北市鶯歌區中山路329巷3號","121.343766666667","24.9565566666667","6500800","鶯歌區"
"239004","193-VK","2019/08/06 18:19:37","新北市鶯歌區尖山路174巷35弄2號","121.344296666667","24.9486166666667","6500800","鶯歌區"
"221008","489-VK","2019/08/06 18:19:31","新北市汐止區康寧街328號","121.627398333333","25.0673733333333","6501100","汐止區"
"221036","130-UY","2019/08/06 18:19:33","新北市汐止區大同路三段193號","121.671046666667","25.077345","6501100","汐止區"
"221015","131-UY","2019/08/06 18:19:34","新北市汐止區鄉長路二段29號","121.668318333333","25.0829116666667","6501100","汐止區"
"244019","KED-0667","2019/08/06 18:19:34","新北市林口區忠孝路614號","121.377208333333","25.0682366666667","6501700","林口區"
"221012","278-VK","2019/08/06 18:19:32","新北市汐止區保一街35巷3號","121.674621666667","25.0805883333333","6501100","汐止區"
"221023","279-VK","2019/08/06 18:19:37","新北市汐止區中興路201號","121.629225","25.06839","6501100","汐止區"
"221032","280-BY","2019/08/06 18:19:25","新北市汐止區力行街43號","121.616705","25.04993","6501100","汐止區"
"221010","297-VK","2019/08/06 18:19:33","新北市汐止區祥雲街18巷10號","121.64671","25.0895733333333","6501100","汐止區"
"221021","299-VK","2019/08/06 18:19:26","新北市汐止區龍安路22號","121.655531666667","25.0640733333333","6501100","汐止區"
"221031","353-TW","2019/08/06 18:19:25","新北市汐止區中興路151號","121.631303333333","25.0659533333333","6501100","汐止區"
"221035","622-UM","2019/08/06 18:19:25","新北市汐止區汐萬路一段138號","121.653256666667","25.0712383333333","6501100","汐止區"
"221025","623-UM","2019/08/06 18:19:30","新北市汐止區勤進路12巷29號","121.659283333333","25.06238","6501100","汐止區"
"221038","646-BX","2019/08/06 18:19:36","新北市汐止區仁愛路320號","121.66479","25.06751","6501100","汐止區"
"221033","647-BX","2019/08/06 18:19:30","新北市汐止區宜興街53號","121.62251","25.04284","6501100","汐止區"
"221002","707-TV","2019/08/06 18:19:19","新北市汐止區福德一路213巷27號","121.635533333333","25.0650166666667","6501100","汐止區"
"221018","753-BX","2019/08/06 18:19:29","新北市汐止區茄苳路72巷9號","121.666681666667","25.0700433333333","6501100","汐止區"
"242044","281-VK","2019/08/06 18:19:23","新北市新莊區新北大道七段339號","121.412926666667","25.0275383333333","6500500","新莊區"
"220073","985-R7","2019/08/06 18:19:33","新北市板橋區華東街1-10號","121.44828","24.994975","6500100","板橋區"
"235068","KEA-2873","2019/08/06 18:19:10","新北市中和區員山路36巷16-3號","121.485046666667","24.991325","6500300","中和區"
"235061","KEA-2875","2019/08/06 18:19:35","新北市中和區民享街103號","121.474878333333","24.999705","6500300","中和區"
