"lineid","car","time","location","longitude","latitude","cityid","cityname"
"234046","148-BY","2019/08/06 18:49:31","新北市永和區秀朗路二段151號","121.52488","25.00154","6500400","永和區"
"234081","298-R6","2019/08/06 18:49:40","新北市永和區永利路108號","121.521163333333","25.00345","6500400","永和區"
"234038","336-UY","2019/08/06 18:49:29","新北市永和區成功路一段133號","121.526818333333","25.00172","6500400","永和區"
"234064","337-UY","2019/08/06 18:49:23","新北市永和區豫溪街217巷27號","121.52463","25.010405","6500400","永和區"
"234086","338-UY","2019/08/06 18:49:31","新北市中和區安樂路101-3號","121.513495","24.9950466666667","6500400","永和區"
"234017","745-BX","2019/08/06 18:49:32","新北市永和區永和路二段299號","121.516046666667","25.01615","6500400","永和區"
"234030","746-BX","2019/08/06 18:49:28","新北市永和區得和路321號","121.523356666667","24.999645","6500400","永和區"
"234054","KEA-2590","2019/08/06 18:49:22","新北市永和區福和路1號","121.525475","25.0095066666667","6500400","永和區"
"234007","KED-0605","2019/08/06 18:49:35","新北市永和區文化路146號","121.512595","25.0152966666667","6500400","永和區"
"234013","KEA-2591","2019/08/06 18:49:28","新北市永和區保福路二段133巷32號","121.508956666667","25.0134516666667","6500400","永和區"
"234061","AAD-866","2019/08/06 18:49:34","新北市永和區福和路303號","121.516355","25.00721","6500400","永和區"
"234042","862-TW","2019/08/06 18:49:18","新北市永和區永貞路267號","121.511888333333","25.004795","6500400","永和區"
"234050","863-TW","2019/08/06 18:49:21","新北市永和區福和路1號","121.526488333333","25.010045","6500400","永和區"
"234026","9371-KE","2019/08/06 18:49:24","新北市永和區自由街58號","121.513783333333","25.0059416666667","6500400","永和區"
"234011","9373-KE","2019/08/06 18:49:39","新北市永和區文化路90巷32弄10號","121.513665","25.016415","6500400","永和區"
"249001","173-UM","2019/08/06 18:49:20","新北市八里區龍米路二段88-1號","121.447285","25.1431133333333","6502300","八里區"
"249002","305-UY","2019/08/06 18:47:21","新北市八里區頂寮二街138號","121.449315","25.1294516666667","6502300","八里區"
"249005","759-BX","2019/08/06 18:49:34","新北市八里區長道坑15號","121.394738333333","25.1184733333333","6502300","八里區"
"248016","026-BX","2019/08/06 18:49:28","新北市五股區成泰路三段543巷60號","121.449475","25.10318","6501500","五股區"
"248006","077-UY","2019/08/06 18:49:20","新北市五股區中興路一段50號","121.468081666667","25.0726783333333","6501500","五股區"
"248008","KED-0815","2019/08/06 18:49:34","新北市五股區中興路一段151巷84號","121.465126666667","25.07167","6501500","五股區"
"248020","KED-0813","2019/08/06 18:49:38","新北市五股區凌雲路三段39號","121.4318","25.1171316666667","6501500","五股區"
"248012","247-BX","2019/08/06 18:49:25","新北市五股區成泰路二段147巷17號","121.43885","25.08646","6501500","五股區"
"248004","677-BX","2019/08/06 18:49:26","新北市五股區民義路二段41-1號","121.411368333333","25.10352","6501500","五股區"
"248002","678-BX","2019/08/06 18:49:33","新北市五股區成泰路三段454號","121.451325","25.1001933333333","6501500","五股區"
"248010","682-TV","2019/08/06 18:49:35","新北市五股區水碓三路103號","121.431215","25.0726566666667","6501500","五股區"
"234023","9380-KE","2019/08/06 18:49:39","新北市永和區竹林路119巷45號","121.521976666667","25.0118066666667","6500400","永和區"
"234077","969-R7","2019/08/06 18:49:40","新北市永和區中正路2巷19號","121.513498333333","24.993395","6500400","永和區"
"234003","AAC-295","2019/08/06 18:49:31","新北市永和區永和路二段37號","121.51464","25.010695","6500400","永和區"
"232011","375-UM","2019/08/06 18:49:39","新北市坪林區坪林街60號","121.711641666667","24.937845","6502000","坪林區"
"244013","KEA-2802","2019/08/06 18:49:30","新北市林口區麗園一街11巷7號","121.378158333333","25.0704916666667","6501700","林口區"
"244023","483-VK","2019/08/06 18:49:28","新北市林口區民享路36號","121.380693333333","25.080695","6501700","林口區"
"244017","485-VK","2019/08/06 18:49:22","新北市林口區文化二路一段68巷6號","121.366545","25.06871","6501700","林口區"
"244009","656-BX","2019/08/06 18:49:35","新北市林口區竹林路358巷9號","121.392161666667","25.08415","6501700","林口區"
"244011","657-BX","2019/08/06 18:49:23","新北市林口區仁愛路一段285巷42號","121.3955","25.0748916666667","6501700","林口區"
"244025","837-TS","2019/08/06 18:49:31","新北市林口區南勢街256號","121.358438333333","25.075805","6501700","林口區"
"243010","297-R6","2019/08/06 18:49:31","新北市泰山區辭修路24號","121.429038333333","25.0582116666667","6501600","泰山區"
"243014","KEA-2801","2019/08/06 18:49:32","新北市泰山區犁頭窠3-1號","121.422178333333","25.0604316666667","6501600","泰山區"
"243016","421-VK","2019/08/06 18:49:19","新北市泰山區明志路一段519號","121.430376666667","25.0540583333333","6501600","泰山區"
"243011","KEA-2216","2019/08/06 18:49:36","新北市泰山區明志路二段31號","121.429716666667","25.0532366666667","6501600","泰山區"
"243015","680-BX","2019/08/06 18:49:30","新北市泰山區美寧街50號","121.430433333333","25.0644516666667","6501600","泰山區"
"222003","436-BY","2019/08/06 18:49:32","新北市深坑區深南路31號","121.619476666667","25.0094783333333","6501800","深坑區"
"222002","659-BX","2019/08/06 18:49:23","新北市深坑區文山路一段69號","121.62698","25.0018733333333","6501800","深坑區"
"231061","002-UM","2019/08/06 18:49:34","新北市新店區安華路28-1號","121.519775","24.9608666666667","6500600","新店區"
"231055","0291-UT","2019/08/06 18:49:22","新北市新店區新生街13巷40號","121.538795","24.966895","6500600","新店區"
"231058","0293-UT","2019/08/06 18:49:40","新北市新店區能仁街16號","121.540678333333","24.9554316666667","6500600","新店區"
"231044","046-UY","2019/08/06 18:49:33","新北市新店區北新路一段72號","121.541365","24.9670483333333","6500600","新店區"
"231060","106-UY","2019/08/06 18:49:26","新北市新店區安華路28-1號","121.519698333333","24.9609083333333","6500600","新店區"
"231051","107-UY","2019/08/06 18:49:40","新北市新店區中央路81號","121.532358333333","24.9766416666667","6500600","新店區"
"231049","108-UY","2019/08/06 18:49:24","新北市新店區中央路230號","121.529511666667","24.9726633333333","6500600","新店區"
"231065","110-UY","2019/08/06 18:49:23","新北市新店區車子路115-11號","121.506621666667","24.9546816666667","6500600","新店區"
"231050","KEA-2219","2019/08/06 18:49:40","新北市新店區安康路一段72號","121.528338333333","24.96188","6500600","新店區"
"231062","256-BX","2019/08/06 18:49:36","新北市新店區安一路一段1-1號","121.51963","24.9611316666667","6500600","新店區"
"231054","260-TV","2019/08/06 18:49:24","新北市新店區安一路一段1-1號","121.51921","24.9612266666667","6500600","新店區"
"231042","268-BY","2019/08/06 18:49:40","新北市新店區北新路一段128-1號","121.542576666667","24.969645","6500600","新店區"
"231045","355-BY","2019/08/06 18:49:21","新北市新店區安華路28-1號","121.51903","24.9608983333333","6500600","新店區"
"231056","4715-K9","2019/08/06 18:49:23","新北市新店區建國路150號","121.538801666667","24.9792233333333","6500600","新店區"
"231053","513-UM","2019/08/06 18:49:24","新北市新店區長興路28-2號","121.54693","24.9395883333333","6500600","新店區"
"231041","619-UM","2019/08/06 18:49:41","新北市新店區安華路28-1號","121.51927","24.9609166666667","6500600","新店區"
"231063","641-BX","2019/08/06 18:49:29","新北市新店區安華路28-1號","121.519678333333","24.9606266666667","6500600","新店區"
"231048","KED-0819","2019/08/06 18:49:29","新北市新店區力行路11巷57號","121.538511666667","24.9617183333333","6500600","新店區"
"231046","719-UM","2019/08/06 18:49:40","新北市新店區直潭路71號","121.532428333333","24.9422216666667","6500600","新店區"
"231057","720-UM","2019/08/06 18:49:20","新北市新店區新烏路一段215號","121.549376666667","24.9316616666667","6500600","新店區"
"231059","897-TW","2019/08/06 18:49:23","新北市新店區安華路28-1號","121.519556666667","24.960845","6500600","新店區"
"231043","899-TW","2019/08/06 18:49:38","新北市新店區安華路28-1號","121.519248333333","24.9608666666667","6500600","新店區"
"231066","AKT-0513","2019/08/06 18:49:18","新北市新店區安華路1-1號","121.519355","24.9605166666667","6500600","新店區"
"241035","462-BY","2019/08/06 18:49:26","新北市三重區重新路四段121號","121.484895","25.05201","6500200","三重區"
"241001","547-UM","2019/08/06 18:25:26","新北市三重區溪尾街123巷1號","121.489748333333","25.0791766666667","6500200","三重區"
"235066","003-UY","2019/08/06 18:49:28","新北市中和區水源路18巷9號","121.503993333333","25.0029366666667","6500300","中和區"
"235064","005-UY","2019/08/06 18:49:31","新北市中和區泰和街44巷33號","121.498041666667","25.0012283333333","6500300","中和區"
"235063","006-UY","2019/08/06 18:49:29","新北市中和區連城路319巷3弄7號","121.489515","24.9956883333333","6500300","中和區"
"235056","096-UM","2019/08/06 18:49:30","新北市中和區員山路466巷17弄35號","121.480423333333","25.0074816666667","6500300","中和區"
"235039","097-UM","2019/08/06 18:49:24","新北市中和區安樂路217巷40弄1號","121.513321666667","24.9979633333333","6500300","中和區"
"235065","098-UM","2019/08/06 18:49:40","新北市中和區勝利路35巷11弄1號","121.499611666667","25.0067583333333","6500300","中和區"
"235040","150-BY","2019/08/06 18:49:32","新北市中和區安平路78-1號","121.511226666667","24.9965533333333","6500300","中和區"
"235058","151-BY","2019/08/06 18:49:35","新北市中和區連城路532巷34弄18號","121.475196666667","24.9927783333333","6500300","中和區"
"235038","185-VK","2019/08/06 18:49:24","新北市中和區立人街22號","121.518961666667","24.99424","6500300","中和區"
"235049","186-VK","2019/08/06 18:49:34","新北市中和區景安路177巷30號","121.506656666667","24.9944583333333","6500300","中和區"
"235067","255-BX","2019/08/06 18:49:22","新北市中和區民樂路78號","121.484496666667","25.0012333333333","6500300","中和區"
"235044","293-VK","2019/08/06 18:49:25","新北市中和區中興街204號","121.499888333333","24.9902816666667","6500300","中和區"
"235072","301-VK","2019/08/06 18:49:27","新北市中和區中山路二段172號","121.501178333333","25.0028566666667","6500300","中和區"
"235043","352-BY","2019/08/06 18:49:39","新北市中和區成功路139號","121.525813333333","24.9904866666667","6500300","中和區"
"235042","KEA-2878","2019/08/06 18:49:34","新北市中和區秀朗路三段135巷8號","121.525323333333","24.9924583333333","6500300","中和區"
"235050","4979-A6","2019/08/06 18:49:38","新北市中和區忠孝街62巷7弄2號","121.512996666667","24.98371","6500300","中和區"
"235069","4980-A6","2019/08/06 18:49:27","新北市中和區南山路81巷8弄12號","121.502565","24.997705","6500300","中和區"
"235070","558-UM","2019/08/06 18:49:33","新北市中和區中和路170號","121.5046","24.99975","6500300","中和區"
"235045","565-BX","2019/08/06 18:49:39","新北市中和區南山路421巷1弄34號","121.507161666667","24.9906016666667","6500300","中和區"
"235060","KED-0823","2019/08/06 18:49:34","新北市中和區民治街16號","121.475093333333","25.004505","6500300","中和區"
"235054","640-BX","2019/08/06 18:49:40","新北市中和區民享街82號","121.474338333333","25.0013416666667","6500300","中和區"
"235047","732-UM","2019/08/06 18:49:21","新北市中和區興南路二段34巷55弄1號","121.504866666667","24.9862033333333","6500300","中和區"
"235046","733-UM","2019/08/06 18:49:30","新北市中和區興南路一段85巷2號","121.509901666667","24.9886883333333","6500300","中和區"
"235062","800-TS","2019/08/06 18:49:26","新北市中和區中山路二段356號","121.49299","25.0029283333333","6500300","中和區"
"235057","801-TS","2019/08/06 18:49:24","新北市中和區民利街40巷1弄12號","121.478908333333","24.9990466666667","6500300","中和區"
"235052","805-TS","2019/08/06 18:49:27","新北市中和區興南路二段399巷98弄48號","121.498611666667","24.9767966666667","6500300","中和區"
"235048","896-TW","2019/08/06 18:49:39","新北市中和區華新街53號","121.507911666667","24.984385","6500300","中和區"
"235053","900-TW","2019/08/06 18:49:27","新北市中和區民德路290號","121.467583333333","24.9956983333333","6500300","中和區"
"235051","157-BY","2019/08/06 18:49:31","新北市中和區忠孝街22號","121.510385","24.9828833333333","6500300","中和區"
"235037","AAC-213","2019/08/06 18:49:38","新北市中和區秀朗路三段10巷14弄41-5號","121.52411","24.996415","6500300","中和區"
"235059","AAC-215","2019/08/06 18:49:26","新北市中和區圓通路393巷8號","121.489688333333","24.988645","6500300","中和區"
"220065","072-UY","2019/08/06 18:49:25","新北市板橋區民族路61號","121.464873333333","25.0086116666667","6500100","板橋區"
"220086","073-UY","2019/08/06 18:49:28","新北市板橋區南雅西路二段145巷6號","121.451643333333","25.0117416666667","6500100","板橋區"
"220106","075-UY","2019/08/06 18:49:24","新北市板橋區莊敬路66號","121.47162","25.0255266666667","6500100","板橋區"
"220069","AAD-861","2019/08/06 18:49:31","新北市板橋區華興街76號","121.457121666667","25.0051316666667","6500100","板橋區"
"220068","120-SR","2019/08/06 18:49:29","新北市板橋區大同街35巷28號","121.477426666667","25.0278166666667","6500100","板橋區"
"226004","312-R5","2019/08/06 18:49:33","新北市平溪區平溪里平溪街58號","121.737828333333","25.027845","6502400","平溪區"
"235041","251-BX","2019/08/06 18:49:39","新北市中和區安平路109號","121.511156666667","24.9978083333333","6500300","中和區"
"228001","212-TW","2019/08/06 18:49:29","新北市貢寮區仁理村研海街12-1號","121.923826666667","25.051625","6502600","貢寮區"
"228002","663-BX","2019/08/06 18:49:42","新北市貢寮區福隆里東興街6-11號","121.95078","25.0210733333333","6502600","貢寮區"
"228003","828-UM","2019/08/06 18:49:32","新北市瑞芳區鼻頭路127號","121.917385","25.1210816666667","6502600","貢寮區"
"224010","AGQ-8101","2019/08/06 18:49:29","新北市瑞芳區基山街34號","121.844893333333","25.1083733333333","6501200","瑞芳區"
"224006","676-BX","2019/08/06 18:49:24","新北市瑞芳區中正路63-1號","121.806165","25.10747","6501200","瑞芳區"
"224002","639-TC","2019/08/06 18:49:22","新北市瑞芳區東和路9號","121.804613333333","25.1061533333333","6501200","瑞芳區"
"224007","285-BY","2019/08/06 18:49:27","新北市瑞芳區大埔路186-1號","121.76148","25.1012583333333","6501200","瑞芳區"
"224009","275-VK","2019/08/06 18:49:20","新北市瑞芳區祈堂路8號","121.858901666667","25.1134533333333","6501200","瑞芳區"
"224008","273-VK","2019/08/06 18:49:33","新北市瑞芳區裕民新城1號","121.802076666667","25.1119866666667","6501200","瑞芳區"
"224005","271-BY","2019/08/06 18:49:36","新北市瑞芳區海濱路157-2號","121.82849","25.121445","6501200","瑞芳區"
"227002","642-TC","2019/08/06 18:49:22","新北市雙溪區魚行里坤溪35號","121.87055","25.0305083333333","6502500","雙溪區"
"227001","400-TW","2019/08/06 18:49:37","新北市雙溪區牡丹里下坑11號","121.851003333333","25.0561833333333","6502500","雙溪區"
"253006","032-BX","2019/08/06 18:49:27","新北市石門區下員坑15號","121.511575","25.2849983333333","6502200","石門區"
"253005","295-VK","2019/08/06 18:49:34","新北市石門區中山路28-1號","121.565993333333","25.2900066666667","6502200","石門區"
"222001","KEA-2212","2019/08/06 18:49:22","新北市深坑區北深路一段32-5號","121.638436666667","25.010535","6501800","深坑區"
"208002","KEA-2872","2019/08/06 18:49:32","新北市金山區信義路66號","121.635595","25.219","6502700","金山區"
"208003","665-BX","2019/08/06 18:49:40","新北市金山區中山路336號","121.6336","25.22518","6502700","金山區"
"251010","012-UM","2019/08/06 18:49:33","新北市淡水區沙崙路11號","121.421061666667","25.1813383333333","6501000","淡水區"
"251015","KEA-2871","2019/08/06 18:49:35","新北市淡水區興福寮88巷1-10號","121.487213333333","25.1664133333333","6501000","淡水區"
"251016","179-VK","2019/08/06 18:49:23","新北市淡水區下圭柔山71-3號","121.447018333333","25.2061933333333","6501000","淡水區"
"251013","180-VK","2019/08/06 18:49:32","新北市淡水區安子內3-2號","121.48431","25.2148783333333","6501000","淡水區"
"251008","181-VK","2019/08/06 18:49:24","新北市淡水區北投子72號","121.453448333333","25.1824666666667","6501000","淡水區"
"251012","441-VK","2019/08/06 18:49:31","新北市淡水區中山北路一段156號","121.444096666667","25.1779683333333","6501000","淡水區"
"251001","559-UM","2019/08/06 18:49:19","新北市淡水區自強路108-17號","121.461746666667","25.13079","6501000","淡水區"
"251009","575-R6","2019/08/06 18:49:26","新北市淡水區中山北路一段76號","121.442258333333","25.17603","6501000","淡水區"
"251014","577-R6","2019/08/06 18:49:33","新北市淡水區崙頂15-1號","121.48937","25.223345","6501000","淡水區"
"251011","650-BX","2019/08/06 18:49:23","新北市淡水區平遠街3號","121.448026666667","25.1676866666667","6501000","淡水區"
"251002","672-BX","2019/08/06 18:49:30","新北市淡水區學府路75號","121.448515","25.1698866666667","6501000","淡水區"
"251003","766-UM","2019/08/06 18:49:22","新北市淡水區中山北路一段212巷38號","121.446153333333","25.1790216666667","6501000","淡水區"
"207003","550-UM","2019/08/06 18:49:30","新北市萬里區野柳里港西路48號","121.679538333333","25.2019216666667","6502800","萬里區"
"207004","225-TW","2019/08/06 18:49:35","新北市萬里區萬里里獅頭路23號","121.69323","25.1782633333333","6502800","萬里區"
"252002","178-VK","2019/08/06 18:49:35","新北市三芝區中正路一段112號","121.504831666667","25.2563583333333","6502100","三芝區"
"252003","249-BX","2019/08/06 18:49:30","新北市三芝區後厝里大片頭77-1號","121.459233333333","25.245505","6502100","三芝區"
"208001","170-UY","2019/08/06 18:49:30","新北市金山區文化三路66巷1號","121.63421","25.2256133333333","6502700","金山區"
"237004","KEA-2597","2019/08/06 18:49:28","新北市三峽區有木111-1號","121.434628333333","24.8599283333333","6500900","三峽區"
"237007","153-BY","2019/08/06 18:49:21","新北市三峽區大埔路66號","121.366385","24.9077866666667","6500900","三峽區"
"237013","252-BX","2019/08/06 18:49:34","新北市三峽區光明路69巷25號","121.376573333333","24.929155","6500900","三峽區"
"237012","275-BY","2019/08/06 18:49:27","新北市三峽區三樹路340號","121.383965","24.9433316666667","6500900","三峽區"
"237008","302-VK","2019/08/06 18:49:38","新北市三峽區正義街138號","121.368478333333","24.9166066666667","6500900","三峽區"
"237014","433-BY","2019/08/06 18:49:28","新北市三峽區隆恩街202-1號","121.359993333333","24.94197","6500900","三峽區"
"237006","5529-G3","2019/08/06 18:49:38","新北市三峽區溪東路315巷110號","121.412078333333","24.9315633333333","6500900","三峽區"
"237011","KEA-2596","2019/08/06 18:49:28","新北市三峽區溪東路201號","121.404288333333","24.9335433333333","6500900","三峽區"
"237015","649-BX","2019/08/06 18:49:38","新北市三峽區建安74-12號","121.453475","24.9233166666667","6500900","三峽區"
"237010","706-TV","2019/08/06 18:49:29","新北市三峽區復興路487號","121.36128","24.938445","6500900","三峽區"
"237005","AKY-6261","2019/08/06 18:49:32","新北市三峽區中山路219巷19弄3號","121.36268","24.93592","6500900","三峽區"
"236042","KED-0685","2019/08/06 18:49:34","新北市土城區裕民路114巷1-2號","121.45084","24.9862383333333","6501300","土城區"
"236079","166-UM","2019/08/06 18:49:41","新北市土城區中央路四段185巷23號","121.415623333333","24.95579","6501300","土城區"
"236030","253-BX","2019/08/06 18:49:29","新北市土城區中央路三段61巷2號","121.439468333333","24.9695433333333","6501300","土城區"
"236026","269-VK","2019/08/06 18:49:35","新北市土城區農豐街9-1號","121.442775","24.9740083333333","6501300","土城區"
"236014","270-VK","2019/08/06 18:49:27","新北市土城區金城路二段354巷20號","121.460738333333","24.984085","6501300","土城區"
"236038","271-VK","2019/08/06 18:49:30","新北市土城區明德路一段195巷3弄2號","121.464281666667","24.9785533333333","6501300","土城區"
"236070","KEA-2877","2019/08/06 18:49:36","新北市土城區延和路21巷1號","121.464168333333","24.9886083333333","6501300","土城區"
"252001","KED-0821","2019/08/06 18:49:34","新北市三芝區中正路三段9號","121.502828333333","25.25404","6502100","三芝區"
"236021","401-BY","2019/08/06 18:49:32","新北市土城區延吉街251號","121.467616666667","24.9848216666667","6501300","土城區"
"236059","912-UM","2019/08/06 18:49:23","新北市土城區金城路一段42號","121.441883333333","24.9700866666667","6501300","土城區"
"236049","913-UM","2019/08/06 18:49:35","新北市土城區青雲路8號","121.460231666667","24.9892883333333","6501300","土城區"
"236063","915-UM","2019/08/06 18:49:31","新北市土城區金城路三段131巷18號","121.467565","24.988915","6501300","土城區"
"236055","AAC-216","2019/08/06 18:49:25","新北市土城區裕民路175號","121.453298333333","24.9848466666667","6501300","土城區"
"242061","986-R7","2019/08/06 18:49:33","新北市新莊區民安東路37號","121.428901666667","25.0209416666667","6500500","新莊區"
"238023","601-UM","2019/08/06 18:49:35","新北市樹林區工興街14巷2號","121.39901","25.013515","6500700","樹林區"
"238024","5061-A6","2019/08/06 18:49:22","新北市樹林區太平路247巷24-4號","121.419753333333","24.97484","6500700","樹林區"
"238022","KEA-2213","2019/08/06 18:49:39","新北市樹林區中華路190-8號","121.411336666667","24.9805683333333","6500700","樹林區"
"238021","KEA-2539","2019/08/06 18:49:31","新北市樹林區西圳街二段57巷1號","121.387443333333","24.960255","6500700","樹林區"
"238025","303-VK","2019/08/06 18:49:28","新北市樹林區中山路三段22號","121.395596666667","24.9728616666667","6500700","樹林區"
"238017","283-BY","2019/08/06 18:49:24","新北市樹林區光興街50號","121.409878333333","25.002705","6500700","樹林區"
"238014","282-BY","2019/08/06 18:49:28","新北市樹林區大安路111巷11號","121.423065","24.9976116666667","6500700","樹林區"
"238020","268-VK","2019/08/06 18:49:26","新北市樹林區三俊街231號","121.421518333333","25.0148633333333","6500700","樹林區"
"238026","172-UY","2019/08/06 18:49:20","新北市樹林區中山路三段174號","121.388693333333","24.9698766666667","6500700","樹林區"
"238016","169-UY","2019/08/06 18:49:38","新北市樹林區中山路一段412號","121.41746","24.98515","6500700","樹林區"
"239007","AAC-297","2019/08/06 18:49:33","新北市鶯歌區中正一路305號","121.356466666667","24.9572283333333","6500800","鶯歌區"
"239006","891-R6","2019/08/06 18:49:20","新北市鶯歌區鶯桃路296巷53號","121.3358","24.961355","6500800","鶯歌區"
"239008","527-UM","2019/08/06 18:49:40","新北市鶯歌區朝陽街2號","121.33624","24.9765916666667","6500800","鶯歌區"
"239005","526-UM","2019/08/06 18:49:23","新北市鶯歌區鳳吉一街124號","121.327723333333","24.9749216666667","6500800","鶯歌區"
"239001","417-VK","2019/08/06 18:49:37","新北市鶯歌區鶯桃路39號","121.342726666667","24.95094","6500800","鶯歌區"
"239003","360-BY","2019/08/06 18:49:22","新北市鶯歌區鶯桃路586號","121.330431666667","24.9680916666667","6500800","鶯歌區"
"239002","359-BY","2019/08/06 18:49:31","新北市鶯歌區中正一路226號","121.353898333333","24.9569533333333","6500800","鶯歌區"
"239004","193-VK","2019/08/06 18:49:37","新北市鶯歌區中正三路156巷61號","121.331906666667","24.942105","6500800","鶯歌區"
"221008","489-VK","2019/08/06 18:49:31","新北市汐止區康寧街901號","121.651383333333","25.07505","6501100","汐止區"
"221036","130-UY","2019/08/06 18:49:33","新北市汐止區大同路二段581號","121.663461666667","25.0702116666667","6501100","汐止區"
"221015","131-UY","2019/08/06 18:49:34","新北市汐止區吉祥街11巷2號","121.667843333333","25.0807033333333","6501100","汐止區"
"244019","KED-0667","2019/08/06 18:49:34","新北市林口區麗園二街1巷5-2號","121.377623333333","25.0700866666667","6501700","林口區"
"221032","280-BY","2019/08/06 18:49:35","新北市汐止區橫科路322巷24弄6-1號","121.620525","25.0503333333333","6501100","汐止區"
"221029","298-VK","2019/08/06 18:49:29","新北市汐止區工建路66號","121.640468333333","25.0630533333333","6501100","汐止區"
"221021","299-VK","2019/08/06 18:49:26","新北市汐止區復興路63號","121.657161666667","25.0621883333333","6501100","汐止區"
"221031","353-TW","2019/08/06 18:49:25","新北市汐止區福德一路272巷16號","121.63191","25.0642816666667","6501100","汐止區"
"221035","622-UM","2019/08/06 18:49:25","新北市汐止區大同路二段105號","121.649928333333","25.0634533333333","6501100","汐止區"
"221025","623-UM","2019/08/06 18:49:30","新北市汐止區福安街20巷22號","121.661875","25.06455","6501100","汐止區"
"221002","707-TV","2019/08/06 18:49:39","新北市汐止區大同路一段149號","121.632078333333","25.056095","6501100","汐止區"
"221018","753-BX","2019/08/06 18:49:29","新北市汐止區茄苳路301號","121.67318","25.067015","6501100","汐止區"
"220079","145-BY","2019/08/06 18:49:38","新北市板橋區大智街71巷42弄15號","121.452153333333","25.014525","6500100","板橋區"
"220080","200-UY","2019/08/06 18:49:29","新北市板橋區大觀路二段265巷3號","121.442486666667","24.99658","6500100","板橋區"
"220082","610-BX","2019/08/06 18:49:35","新北市板橋區篤行路三段玉平巷76弄10號","121.427738333333","24.98588","6500100","板橋區"
"220084","256-TC","2019/08/06 18:49:34","新北市板橋區大觀路二段148巷42號","121.441983333333","25.0002116666667","6500100","板橋區"
"220056","276-BY","2019/08/06 18:49:27","新北市板橋區忠孝路2號","121.459371666667","25.00168","6500100","板橋區"
"220072","277-BY","2019/08/06 18:49:38","新北市板橋區金門街25巷1號","121.433636666667","24.994525","6500100","板橋區"
"220101","280-UM","2019/08/06 18:49:38","新北市板橋區莊敬路91號","121.47263","25.026415","6500100","板橋區"
"220071","283-VK","2019/08/06 18:49:37","新北市板橋區四川路一段20號","121.45939","25.0064383333333","6500100","板橋區"
"220094","285-UM","2019/08/06 18:49:31","新北市板橋區文化路二段76號","121.469436666667","25.0249616666667","6500100","板橋區"
"220053","285-VK","2019/08/06 18:49:32","新北市板橋區永豐街40號","121.474315","25.01764","6500100","板橋區"
"220083","286-VK","2019/08/06 18:49:21","新北市板橋區大觀路二段22巷38-2號","121.444773333333","25.00367","6500100","板橋區"
"220081","287-VK","2019/08/06 18:49:38","新北市板橋區光華街13巷47號","121.452595","25.0111583333333","6500100","板橋區"
"220090","288-VK","2019/08/06 18:49:39","新北市板橋區四維路177巷4弄4號","121.46362","25.0261433333333","6500100","板橋區"
"220061","293-UM","2019/08/06 18:49:36","新北市板橋區富山街109巷63弄27號","121.47534","25.0205833333333","6500100","板橋區"
"220075","303-R5","2019/08/06 18:49:25","新北市板橋區大觀路一段28巷96號","121.450466666667","25.011025","6500100","板橋區"
"220062","305-R5","2019/08/06 18:49:26","新北市板橋區中山路二段23號","121.47236","25.01532","6500100","板橋區"
"220092","307-R5","2019/08/06 18:49:39","新北市板橋區文化路一段136巷8弄10號","121.465581666667","25.0181416666667","6500100","板橋區"
"220098","317-R6","2019/08/06 18:49:37","新北市板橋區民生路二段234巷77號","121.470233333333","25.0225266666667","6500100","板橋區"
"220055","461-BY","2019/08/06 18:49:35","新北市板橋區忠孝路116號","121.462821666667","25.002265","6500100","板橋區"
"220089","487-VK","2019/08/06 18:49:34","新北市板橋區文化路二段464號","121.474865","25.0327433333333","6500100","板橋區"
"220088","491-VK","2019/08/06 18:49:32","新北市板橋區文化路二段26號","121.468923333333","25.024485","6500100","板橋區"
"220035","560-BX","2019/08/06 18:49:37","新北市板橋區中正路275巷73號","121.452568333333","25.0180316666667","6500100","板橋區"
"220103","561-BX","2019/08/06 18:49:22","新北市板橋區文化路一段188巷11弄54號","121.469051666667","25.0188516666667","6500100","板橋區"
"220063","609-BX","2019/08/06 18:49:12","新北市板橋區板新路2號","121.475168333333","25.013035","6500100","板橋區"
"220091","637-BX","2019/08/06 18:49:33","新北市板橋區雙十路二段47巷5-1號","121.47615","25.0260366666667","6500100","板橋區"
"220057","686-BX","2019/08/06 18:49:34","新北市板橋區重慶路173號","121.462695","25.0025916666667","6500100","板橋區"
"220077","687-BX","2019/08/06 18:49:33","新北市板橋區大觀路二段174巷138-2號","121.441506666667","25.0025966666667","6500100","板橋區"
"220093","689-BX","2019/08/06 18:49:04","新北市板橋區民生路三段120-2號","121.466425","25.026575","6500100","板橋區"
"220054","741-BX","2019/08/06 18:49:37","新北市板橋區館前東路15號","121.460051666667","25.0071816666667","6500100","板橋區"
"220102","KEA-2699","2019/08/06 18:49:25","新北市板橋區萬板路470號","121.479871666667","25.0257816666667","6500100","板橋區"
"220067","829-TW","2019/08/06 18:49:36","新北市板橋區中山路二段90巷47弄16號","121.477131666667","25.0149216666667","6500100","板橋區"
"220074","895-R6","2019/08/06 18:49:24","新北市板橋區南門街2號","121.457556666667","25.009315","6500100","板橋區"
"220073","985-R7","2019/08/06 18:49:33","新北市板橋區館前西路209號","121.454925","25.0083766666667","6500100","板橋區"
"220097","AAC-210","2019/08/06 18:49:25","新北市板橋區四維路137巷17號","121.464385","25.02492","6500100","板橋區"
"220064","AAC-253","2019/08/06 18:49:25","新北市板橋區漢生東路178號","121.467251666667","25.014385","6500100","板橋區"
"235068","KEA-2873","2019/08/06 18:49:40","新北市中和區中正路211巷36弄6號","121.49721","24.9927183333333","6500300","中和區"
"235061","KEA-2875","2019/08/06 18:49:35","新北市中和區民治街134巷4-3號","121.475186666667","25.00209","6500300","中和區"
