"lineid","car","time","location","longitude","latitude","cityid","cityname"
"234046","148-BY","2019/08/06 18:59:31","新北市永和區得和路373巷31弄9號","121.524635","25.0006816666667","6500400","永和區"
"234081","298-R6","2019/08/06 18:59:20","新北市永和區永亨路83號","121.522063333333","25.0057733333333","6500400","永和區"
"234038","336-UY","2019/08/06 18:59:29","新北市永和區成功路二段207號","121.526571666667","24.9958816666667","6500400","永和區"
"234064","337-UY","2019/08/06 18:59:23","新北市永和區秀朗路一段199號","121.517921666667","25.00353","6500400","永和區"
"234086","338-UY","2019/08/06 18:59:31","新北市永和區中正路397號","121.517245","25.004215","6500400","永和區"
"234070","552-UM","2019/08/06 18:59:21","新北市永和區竹林路96巷21號","121.518635","25.0116866666667","6500400","永和區"
"234017","745-BX","2019/08/06 18:59:32","新北市永和區永和路二段322號","121.516118333333","25.0163666666667","6500400","永和區"
"234030","746-BX","2019/08/06 18:59:28","新北市永和區得和路417號","121.525953333333","24.99928","6500400","永和區"
"234054","KEA-2590","2019/08/06 18:59:22","新北市永和區竹林路64號","121.518276666667","25.0134766666667","6500400","永和區"
"234007","KED-0605","2019/08/06 18:59:35","新北市永和區中山路一段62號","121.512868333333","25.0107433333333","6500400","永和區"
"234013","KEA-2591","2019/08/06 18:59:28","新北市永和區中山路一段60巷4號","121.513018333333","25.0109216666667","6500400","永和區"
"234061","AAD-866","2019/08/06 18:59:34","新北市永和區福和路313號","121.516091666667","25.00711","6500400","永和區"
"234042","862-TW","2019/08/06 18:59:38","新北市永和區永貞路330號","121.511291666667","25.0054766666667","6500400","永和區"
"234050","863-TW","2019/08/06 18:59:21","新北市永和區文化路147號","121.510793333333","25.0161433333333","6500400","永和區"
"234026","9371-KE","2019/08/06 18:59:37","新北市永和區安樂路461號","121.514308333333","25.0051766666667","6500400","永和區"
"234011","9373-KE","2019/08/06 18:59:39","新北市永和區仁愛路141巷3弄3號","121.511828333333","25.01248","6500400","永和區"
"249001","173-UM","2019/08/06 18:59:41","新北市八里區龍米路二段228-1號","121.432743333333","25.1584383333333","6502300","八里區"
"249002","305-UY","2019/08/06 18:47:21","新北市八里區頂寮二街138號","121.449315","25.1294516666667","6502300","八里區"
"249005","759-BX","2019/08/06 18:59:34","新北市八里區長道坑2號","121.393526666667","25.125265","6502300","八里區"
"248016","026-BX","2019/08/06 18:59:28","新北市五股區成泰路三段559巷16號","121.451436666667","25.102615","6501500","五股區"
"248006","077-UY","2019/08/06 18:59:21","新北市五股區四維路181號","121.467928333333","25.0752533333333","6501500","五股區"
"248008","KED-0815","2019/08/06 18:59:34","新北市五股區中興路一段128巷38號","121.465791666667","25.075385","6501500","五股區"
"248020","KED-0813","2019/08/06 18:59:18","新北市五股區凌雲路三段57號","121.425285","25.1249833333333","6501500","五股區"
"248012","247-BX","2019/08/06 18:59:25","新北市五股區工商路38號","121.439388333333","25.0837533333333","6501500","五股區"
"248004","677-BX","2019/08/06 18:59:26","新北市五股區民義路二段23號","121.416485","25.0994433333333","6501500","五股區"
"248002","678-BX","2019/08/06 18:59:30","新北市五股區凌雲路一段163號","121.448906666667","25.1026133333333","6501500","五股區"
"248010","682-TV","2019/08/06 18:59:23","新北市五股區水碓七路20號","121.428643333333","25.071485","6501500","五股區"
"234023","9380-KE","2019/08/06 18:59:19","新北市永和區環河東路一段158號","121.521058333333","25.0145266666667","6500400","永和區"
"234077","969-R7","2019/08/06 18:59:40","新北市永和區中正路286巷7號","121.517716666667","24.9987","6500400","永和區"
"234074","AAC-211","2019/08/06 18:59:37","新北市永和區環河東路二段98號","121.524108333333","25.0103316666667","6500400","永和區"
"234067","AAC-212","2019/08/06 18:59:37","新北市永和區自由街62號","121.513658333333","25.0057266666667","6500400","永和區"
"234003","AAC-295","2019/08/06 18:59:31","新北市永和區和平街34號","121.513156666667","25.0099316666667","6500400","永和區"
"232011","375-UM","2019/08/06 18:59:39","新北市坪林區水聳淒坑19-1號","121.712508333333","24.93481","6502000","坪林區"
"244013","KEA-2802","2019/08/06 18:59:30","新北市林口區麗園一街2巷1號","121.376031666667","25.07196","6501700","林口區"
"244023","483-VK","2019/08/06 18:59:28","新北市林口區民權路151號","121.373896666667","25.083625","6501700","林口區"
"244017","485-VK","2019/08/06 18:59:23","新北市林口區公園路133-2號","121.369383333333","25.0704466666667","6501700","林口區"
"244009","656-BX","2019/08/06 18:59:35","新北市林口區竹林路325號","121.389908333333","25.0835583333333","6501700","林口區"
"244011","657-BX","2019/08/06 18:59:23","新北市林口區中正路333號","121.388298333333","25.07763","6501700","林口區"
"244025","837-TS","2019/08/06 18:59:31","新北市林口區南勢一街20號","121.360846666667","25.0754883333333","6501700","林口區"
"243010","297-R6","2019/08/06 18:59:31","新北市泰山區辭修路24號","121.429028333333","25.0581633333333","6501600","泰山區"
"243014","KEA-2801","2019/08/06 18:59:32","新北市泰山區黎明路3號","121.421013333333","25.063275","6501600","泰山區"
"243016","421-VK","2019/08/06 18:59:40","新北市泰山區明志路二段152-1號","121.427576666667","25.05071","6501600","泰山區"
"243011","KEA-2216","2019/08/06 18:59:36","新北市泰山區明志路二段241號","121.427166666667","25.048025","6501600","泰山區"
"243015","680-BX","2019/08/06 18:59:30","新北市泰山區美寧街50號","121.43042","25.0644983333333","6501600","泰山區"
"222003","436-BY","2019/08/06 18:59:32","新北市深坑區深南路88巷1號","121.621415","25.0107833333333","6501800","深坑區"
"222002","659-BX","2019/08/06 18:59:23","新北市深坑區文山路一段31巷2號","121.629908333333","25.0033566666667","6501800","深坑區"
"231061","002-UM","2019/08/06 18:59:34","新北市新店區安華路28-1號","121.519823333333","24.96084","6500600","新店區"
"231055","0291-UT","2019/08/06 18:59:23","新北市新店區新生街13巷14號","121.539403333333","24.965945","6500600","新店區"
"231058","0293-UT","2019/08/06 18:59:40","新北市新店區中興路一段291號","121.545675","24.9688416666667","6500600","新店區"
"231044","046-UY","2019/08/06 18:59:33","新北市新店區寶中路72號","121.547876666667","24.9805933333333","6500600","新店區"
"231060","106-UY","2019/08/06 18:59:27","新北市新店區安忠路57巷13號","121.513388333333","24.9573933333333","6500600","新店區"
"231051","107-UY","2019/08/06 18:59:28","新北市新店區三民路189號","121.53532","24.9756416666667","6500600","新店區"
"231049","108-UY","2019/08/06 18:59:24","新北市新店區中正路454-5號","121.534483333333","24.97905","6500600","新店區"
"231065","110-UY","2019/08/06 18:59:23","新北市新店區安祥路190巷10號","121.479323333333","24.9572533333333","6500600","新店區"
"231050","KEA-2219","2019/08/06 18:59:20","新北市新店區新烏路一段11巷7號","121.547285","24.9513466666667","6500600","新店區"
"231062","256-BX","2019/08/06 18:59:36","新北市新店區安康路二段338號","121.50343","24.9577166666667","6500600","新店區"
"231054","260-TV","2019/08/06 18:59:24","新北市新店區新店路13號","121.540306666667","24.9528683333333","6500600","新店區"
"231042","268-BY","2019/08/06 18:59:20","新北市新店區中興路一段282號","121.54579","24.96851","6500600","新店區"
"231045","355-BY","2019/08/06 18:59:21","新北市新店區秀山路66號","121.530813333333","24.9609783333333","6500600","新店區"
"231056","4715-K9","2019/08/06 18:59:23","新北市新店區二十張路33巷11號","121.538893333333","24.9810566666667","6500600","新店區"
"231053","513-UM","2019/08/06 18:59:24","新北市新店區永興路135號","121.543743333333","24.9301066666667","6500600","新店區"
"231041","619-UM","2019/08/06 18:59:21","新北市新店區安康路一段33-1號","121.532235","24.9605","6500600","新店區"
"231063","641-BX","2019/08/06 18:59:29","新北市新店區安華路30巷1號","121.519308333333","24.9596266666667","6500600","新店區"
"231048","KED-0819","2019/08/06 18:59:29","新北市新店區德正街23巷12號","121.544533333333","24.97216","6500600","新店區"
"231046","719-UM","2019/08/06 18:59:19","新北市新店區直潭二街69號","121.534845","24.9400183333333","6500600","新店區"
"231057","720-UM","2019/08/06 18:59:40","新北市新店區百齡一路12號","121.553038333333","24.9324583333333","6500600","新店區"
"231059","897-TW","2019/08/06 18:59:23","新北市新店區安華路28-1號","121.519536666667","24.9608316666667","6500600","新店區"
"231040","898-TW","2019/08/06 18:59:37","新北市新店區中央路45號","121.532933333333","24.9775283333333","6500600","新店區"
"231043","899-TW","2019/08/06 18:59:18","新北市新店區力行路11巷57號","121.538661666667","24.9617633333333","6500600","新店區"
"231066","AKT-0513","2019/08/06 18:59:39","新北市新店區安豐路46號","121.500103333333","24.9549633333333","6500600","新店區"
"241035","462-BY","2019/08/06 18:59:26","新北市三重區重新路四段121號","121.484718333333","25.0518783333333","6500200","三重區"
"235066","003-UY","2019/08/06 18:59:28","新北市中和區中山路二段131巷5弄4號","121.502901666667","25.00284","6500300","中和區"
"235064","005-UY","2019/08/06 18:59:31","新北市中和區連城路25號","121.49878","25.0020116666667","6500300","中和區"
"235063","006-UY","2019/08/06 18:59:29","新北市中和區中正路522號","121.488071666667","24.9944116666667","6500300","中和區"
"235056","096-UM","2019/08/06 18:59:30","新北市板橋區三民路二段210號","121.478873333333","25.0119716666667","6500300","中和區"
"235039","097-UM","2019/08/06 18:59:24","新北市中和區自強路35號","121.520948333333","24.9925766666667","6500300","中和區"
"235065","098-UM","2019/08/06 18:59:40","新北市中和區中山路二段2巷45弄7號","121.502163333333","25.0067666666667","6500300","中和區"
"235040","150-BY","2019/08/06 18:59:32","新北市中和區安樂路101-3號","121.513343333333","24.995245","6500300","中和區"
"235058","151-BY","2019/08/06 18:59:35","新北市中和區連城路523巷13弄18號","121.482101666667","24.9933133333333","6500300","中和區"
"235038","185-VK","2019/08/06 18:59:24","新北市中和區立人街22號","121.518998333333","24.9941716666667","6500300","中和區"
"235049","186-VK","2019/08/06 18:59:34","新北市中和區明仁街10號","121.50608","24.9955283333333","6500300","中和區"
"235067","255-BX","2019/08/06 18:59:22","新北市中和區新生街176巷20號","121.48269","24.9999066666667","6500300","中和區"
"235044","293-VK","2019/08/06 18:59:25","新北市中和區中興街202巷37號","121.498841666667","24.9895983333333","6500300","中和區"
"235072","301-VK","2019/08/06 18:59:27","新北市中和區福美路306號","121.496938333333","25.0048833333333","6500300","中和區"
"235043","352-BY","2019/08/06 18:59:20","新北市中和區秀朗路三段52號","121.526431666667","24.9954616666667","6500300","中和區"
"235042","KEA-2878","2019/08/06 18:59:34","新北市中和區成功路6號","121.526176666667","24.9939166666667","6500300","中和區"
"235050","4979-A6","2019/08/06 18:59:26","新北市中和區華新街58號","121.508025","24.9839416666667","6500300","中和區"
"235069","4980-A6","2019/08/06 18:59:27","新北市中和區圓通路107號","121.499516666667","24.996585","6500300","中和區"
"235070","558-UM","2019/08/06 18:59:25","新北市中和區連城路2號","121.499331666667","25.00239","6500300","中和區"
"235045","565-BX","2019/08/06 18:59:38","新北市中和區景新街467巷20弄7號","121.514343333333","24.988045","6500300","中和區"
"235060","KED-0823","2019/08/06 18:59:34","新北市中和區中山路三段145號","121.473825","25.0059733333333","6500300","中和區"
"235054","640-BX","2019/08/06 18:59:40","新北市中和區民德路142號","121.468681666667","25.0004283333333","6500300","中和區"
"235047","732-UM","2019/08/06 18:59:38","新北市中和區興南路二段54巷11弄10號","121.505513333333","24.9853483333333","6500300","中和區"
"235046","733-UM","2019/08/06 18:59:30","新北市中和區興南路二段29號","121.50778","24.9858066666667","6500300","中和區"
"235062","800-TS","2019/08/06 18:59:26","新北市中和區中山路二段520號","121.486073333333","25.0049833333333","6500300","中和區"
"235057","801-TS","2019/08/06 18:59:39","新北市中和區民利街74號","121.47836","24.9983533333333","6500300","中和區"
"235052","805-TS","2019/08/06 18:59:27","新北市中和區興南路二段130號","121.504365","24.98358","6500300","中和區"
"235048","896-TW","2019/08/06 18:59:39","新北市中和區華新街137號","121.506593333333","24.9817766666667","6500300","中和區"
"235053","900-TW","2019/08/06 18:59:27","新北市板橋區和平路190巷16號","121.464676666667","24.994935","6500300","中和區"
"235051","157-BY","2019/08/06 18:59:31","新北市中和區忠孝街4號","121.510001666667","24.9827566666667","6500300","中和區"
"235037","AAC-213","2019/08/06 18:59:38","新北市中和區秀朗路三段60巷24號","121.525508333333","24.9950266666667","6500300","中和區"
"235059","AAC-215","2019/08/06 18:59:27","新北市中和區圓通路367巷20弄29號","121.491306666667","24.9882333333333","6500300","中和區"
"220065","072-UY","2019/08/06 18:59:27","新北市板橋區漢生東路340巷13號","121.471331666667","25.0072383333333","6500100","板橋區"
"220086","073-UY","2019/08/06 18:59:28","新北市板橋區大智街20號","121.455713333333","25.0149083333333","6500100","板橋區"
"220106","075-UY","2019/08/06 18:59:24","新北市板橋區雙十路三段10巷16號","121.472358333333","25.031","6500100","板橋區"
"220069","AAD-861","2019/08/06 18:59:31","新北市板橋區四川路一段114號","121.459798333333","25.0042716666667","6500100","板橋區"
"220068","120-SR","2019/08/06 18:59:29","新北市板橋區中山路二段465巷92-1號","121.481146666667","25.0224633333333","6500100","板橋區"
"226004","312-R5","2019/08/06 18:59:29","新北市平溪區靜安路二段402號","121.738915","25.0244283333333","6502400","平溪區"
"235041","251-BX","2019/08/06 18:59:39","新北市中和區景安路27號","121.50777","24.9986933333333","6500300","中和區"
"228001","212-TW","2019/08/06 18:59:29","新北市貢寮區仁理村保健街73號","121.923721666667","25.051705","6502600","貢寮區"
"228002","663-BX","2019/08/06 18:59:22","新北市貢寮區福隆里東興街106巷25弄1號","121.94642","25.0182783333333","6502600","貢寮區"
"228003","828-UM","2019/08/06 18:59:32","新北市貢寮區和美里龍洞街56-2號","121.912128333333","25.1139683333333","6502600","貢寮區"
"224006","676-BX","2019/08/06 18:59:33","新北市瑞芳區三爪子坑路118-4號","121.806633333333","25.1052683333333","6501200","瑞芳區"
"224002","639-TC","2019/08/06 18:59:22","新北市瑞芳區靜安路四段32號","121.792928333333","25.100715","6501200","瑞芳區"
"224007","285-BY","2019/08/06 18:59:27","新北市瑞芳區中央路48巷162號","121.759343333333","25.1035116666667","6501200","瑞芳區"
"224009","275-VK","2019/08/06 18:59:40","新北市瑞芳區長仁路32-2號","121.866116666667","25.11803","6501200","瑞芳區"
"224008","273-VK","2019/08/06 18:59:26","新北市瑞芳區逢甲路340-9號","121.79851","25.1169083333333","6501200","瑞芳區"
"224005","271-BY","2019/08/06 18:58:36","新北市瑞芳區瑞濱路185號","121.818863333333","25.113805","6501200","瑞芳區"
"227002","642-TC","2019/08/06 18:59:22","新北市雙溪區平林里外平林18號","121.858421666667","25.0378216666667","6502500","雙溪區"
"227001","400-TW","2019/08/06 18:59:37","新北市雙溪區牡丹里中正路60號","121.866136666667","25.04226","6502500","雙溪區"
"253006","032-BX","2019/08/06 18:59:27","新北市石門區八甲11-3號","121.522245","25.2810666666667","6502200","石門區"
"253005","295-VK","2019/08/06 18:59:33","新北市石門區中央路37-1號","121.568495","25.2944666666667","6502200","石門區"
"222001","KEA-2212","2019/08/06 18:59:42","新北市深坑區北深路一段300號","121.624215","25.00579","6501800","深坑區"
"208002","KEA-2872","2019/08/06 18:59:32","新北市金山區仁愛路69號","121.634841666667","25.221015","6502700","金山區"
"208003","665-BX","2019/08/06 18:59:38","新北市金山區中正路51號","121.634633333333","25.22197","6502700","金山區"
"251010","012-UM","2019/08/06 18:59:33","新北市淡水區淡海路69巷8弄2號","121.422595","25.181465","6501000","淡水區"
"251015","KEA-2871","2019/08/06 18:59:35","新北市淡水區糞箕湖60號","121.485165","25.1722916666667","6501000","淡水區"
"251016","179-VK","2019/08/06 18:59:37","新北市淡水區淡金路三段325號","121.448981666667","25.206075","6501000","淡水區"
"251013","180-VK","2019/08/06 18:59:32","新北市淡水區安子內3號","121.48805","25.2153266666667","6501000","淡水區"
"251012","441-VK","2019/08/06 18:59:31","新北市淡水區新春街126巷15弄17號","121.440611666667","25.181005","6501000","淡水區"
"251007","442-VK","2019/08/06 18:59:29","新北市淡水區民生路113巷1弄40號","121.463013333333","25.1386516666667","6501000","淡水區"
"251001","559-UM","2019/08/06 18:59:39","新北市淡水區自強路58-2號","121.463378333333","25.127595","6501000","淡水區"
"251009","575-R6","2019/08/06 18:59:33","新北市淡水區文化路16號","121.439831666667","25.17254","6501000","淡水區"
"251014","577-R6","2019/08/06 18:59:33","新北市淡水區小中寮30號","121.489603333333","25.228325","6501000","淡水區"
"251011","650-BX","2019/08/06 18:59:23","新北市淡水區鄧公路30巷2弄34號","121.453975","25.1690316666667","6501000","淡水區"
"251002","672-BX","2019/08/06 18:59:30","新北市淡水區中正東路55-4號","121.446793333333","25.1678766666667","6501000","淡水區"
"251003","766-UM","2019/08/06 18:59:22","新北市淡水區中山北路一段149巷24號","121.442895","25.1780033333333","6501000","淡水區"
"207003","550-UM","2019/08/06 18:59:29","新北市萬里區大鵬里頂社2-1號","121.659195","25.2078083333333","6502800","萬里區"
"207004","225-TW","2019/08/06 18:59:35","新北市萬里區萬里里獅頭路23號","121.693215","25.178265","6502800","萬里區"
"252002","178-VK","2019/08/06 18:59:35","新北市三芝區中正路一段40號","121.503316666667","25.2582683333333","6502100","三芝區"
"252003","249-BX","2019/08/06 18:59:30","新北市三芝區後厝里北勢子42-1號","121.471703333333","25.2521466666667","6502100","三芝區"
"208001","170-UY","2019/08/06 18:59:29","新北市金山區民生路51巷1-2號","121.641928333333","25.21998","6502700","金山區"
"237004","KEA-2597","2019/08/06 18:59:28","新北市三峽區有木205號","121.43903","24.851785","6500900","三峽區"
"237007","153-BY","2019/08/06 18:59:21","新北市三峽區中正路二段279號","121.366031666667","24.911325","6500900","三峽區"
"237013","252-BX","2019/08/06 18:59:34","新北市三峽區光明路69巷24號","121.376611666667","24.9290933333333","6500900","三峽區"
"237012","275-BY","2019/08/06 18:59:34","新北市三峽區三樹路222巷47號","121.382675","24.942305","6500900","三峽區"
"237008","302-VK","2019/08/06 18:59:38","新北市三峽區中正路一段191巷4號","121.37288","24.9276566666667","6500900","三峽區"
"237014","433-BY","2019/08/06 18:59:28","新北市三峽區隆恩街170號","121.363176666667","24.9430633333333","6500900","三峽區"
"237006","5529-G3","2019/08/06 18:59:39","新北市三峽區溪東路211巷18弄3號","121.406373333333","24.9341916666667","6500900","三峽區"
"237011","KEA-2596","2019/08/06 18:59:28","新北市三峽區介壽路三段132號","121.40007","24.9425683333333","6500900","三峽區"
"237015","649-BX","2019/08/06 18:59:38","新北市三峽區建安71號","121.448801666667","24.9261233333333","6500900","三峽區"
"237010","706-TV","2019/08/06 18:59:29","新北市三峽區復興路275號","121.36634","24.9388316666667","6500900","三峽區"
"237005","AKY-6261","2019/08/06 18:59:32","新北市三峽區中山路459巷135號","121.348645","24.93292","6500900","三峽區"
"236042","KED-0685","2019/08/06 18:59:34","新北市土城區學府路一段189巷15號","121.452585","24.9845083333333","6501300","土城區"
"236079","166-UM","2019/08/06 18:59:21","新北市土城區中央路四段125巷2弄1號","121.416548333333","24.9571183333333","6501300","土城區"
"236030","253-BX","2019/08/06 18:59:27","新北市土城區中央路三段1號","121.439755","24.9707566666667","6501300","土城區"
"236026","269-VK","2019/08/06 18:59:35","新北市土城區慶安街12號","121.441866666667","24.973475","6501300","土城區"
"236014","270-VK","2019/08/06 18:59:27","新北市土城區延和路1號","121.463518333333","24.9875283333333","6501300","土城區"
"236038","271-VK","2019/08/06 18:59:30","新北市土城區仁愛路17巷2號","121.460686666667","24.9803666666667","6501300","土城區"
"236070","KEA-2877","2019/08/06 18:59:36","新北市土城區清水路99巷13號","121.456708333333","24.9823466666667","6501300","土城區"
"252001","KED-0821","2019/08/06 18:59:34","新北市三芝區中興街二段260號","121.50176","25.2530316666667","6502100","三芝區"
"236021","401-BY","2019/08/06 18:59:38","新北市土城區延吉街168巷9號","121.468168333333","24.9857783333333","6501300","土城區"
"236059","912-UM","2019/08/06 18:59:23","新北市土城區金城路二段266號","121.458051666667","24.9840116666667","6501300","土城區"
"236049","913-UM","2019/08/06 18:59:25","新北市土城區青雲路322巷2弄4號","121.458366666667","24.9772283333333","6501300","土城區"
"236063","915-UM","2019/08/06 18:59:39","新北市土城區金城路三段93巷23號","121.466708333333","24.988465","6501300","土城區"
"236055","AAC-216","2019/08/06 18:59:25","新北市土城區學成路164號","121.448045","24.989105","6501300","土城區"
"238023","601-UM","2019/08/06 18:59:35","新北市樹林區大慶街61號","121.39598","25.0136983333333","6500700","樹林區"
"238019","599-UM","2019/08/06 18:59:31","新北市樹林區東榮街169號","121.413996666667","24.9813433333333","6500700","樹林區"
"238022","KEA-2213","2019/08/06 18:59:39","新北市樹林區中華路379巷40號","121.413261666667","24.97852","6500700","樹林區"
"238021","KEA-2539","2019/08/06 18:59:41","新北市樹林區柑園街二段328巷6弄24號","121.373573333333","24.95242","6500700","樹林區"
"238025","303-VK","2019/08/06 18:59:27","新北市樹林區中山路三段24號","121.395511666667","24.9728966666667","6500700","樹林區"
"238017","283-BY","2019/08/06 18:59:24","新北市樹林區光興街44號","121.409905","25.0027133333333","6500700","樹林區"
"238014","282-BY","2019/08/06 18:59:28","新北市樹林區潭興街143巷28弄2號","121.424975","24.9996816666667","6500700","樹林區"
"238020","268-VK","2019/08/06 18:59:26","新北市樹林區俊英街219巷47-1號","121.420605","25.011395","6500700","樹林區"
"238026","172-UY","2019/08/06 18:59:20","新北市樹林區中和街46號","121.389196666667","24.9739183333333","6500700","樹林區"
"238016","169-UY","2019/08/06 18:59:38","新北市樹林區復興路335巷2弄4號","121.417743333333","24.987515","6500700","樹林區"
"239007","AAC-297","2019/08/06 18:59:33","新北市鶯歌區中山路138巷17-5號","121.351256666667","24.9595916666667","6500800","鶯歌區"
"239006","891-R6","2019/08/06 18:59:20","新北市鶯歌區鶯桃路296巷53號","121.335825","24.9613433333333","6500800","鶯歌區"
"239008","527-UM","2019/08/06 18:59:20","新北市鶯歌區國際一路120巷1號","121.336693333333","24.9758366666667","6500800","鶯歌區"
"239005","526-UM","2019/08/06 18:59:23","新北市鶯歌區大湖路361巷36弄20號","121.329755","24.9773016666667","6500800","鶯歌區"
"239001","417-VK","2019/08/06 18:59:37","新北市鶯歌區永明街73-2號","121.341295","24.95597","6500800","鶯歌區"
"239003","360-BY","2019/08/06 18:59:21","新北市鶯歌區鶯桃路660號","121.329173333333","24.9692666666667","6500800","鶯歌區"
"239002","359-BY","2019/08/06 18:59:31","新北市鶯歌區中山路311號","121.344345","24.9569066666667","6500800","鶯歌區"
"239004","193-VK","2019/08/06 18:59:37","新北市鶯歌區中正三路230巷5-6號","121.330616666667","24.9385516666667","6500800","鶯歌區"
"221008","489-VK","2019/08/06 18:59:31","新北市汐止區康寧街619號","121.636646666667","25.07145","6501100","汐止區"
"221036","130-UY","2019/08/06 18:59:33","新北市汐止區忠孝東路314巷19弄14號","121.665008333333","25.068565","6501100","汐止區"
"221015","131-UY","2019/08/06 18:59:37","新北市汐止區鄉長路一段297號","121.669148333333","25.0791566666667","6501100","汐止區"
"244019","KED-0667","2019/08/06 18:59:34","新北市林口區文化一路一段166號","121.376918333333","25.0737783333333","6501700","林口區"
"221032","280-BY","2019/08/06 18:59:25","新北市汐止區橫科路407巷81弄1號","121.628176666667","25.048545","6501100","汐止區"
"221029","298-VK","2019/08/06 18:59:29","新北市汐止區樟樹一路228號","121.642301666667","25.06665","6501100","汐止區"
"221031","353-TW","2019/08/06 18:59:25","新北市汐止區福德一路300巷39號","121.630368333333","25.0644416666667","6501100","汐止區"
"221035","622-UM","2019/08/06 18:59:25","新北市汐止區大同路二段257號","121.653608333333","25.06541","6501100","汐止區"
"221002","707-TV","2019/08/06 18:59:39","新北市汐止區大同路一段2號","121.621038333333","25.0550566666667","6501100","汐止區"
"220079","145-BY","2019/08/06 18:59:18","新北市板橋區大智街71巷7弄1號","121.45313","25.0147016666667","6500100","板橋區"
"220080","200-UY","2019/08/06 18:59:30","新北市板橋區大觀路二段265巷3弄3號","121.442978333333","24.9983083333333","6500100","板橋區"
"220082","610-BX","2019/08/06 18:59:32","新北市板橋區篤行路二段136號","121.429831666667","24.9885233333333","6500100","板橋區"
"220084","256-TC","2019/08/06 18:59:34","新北市板橋區龍興街63巷2號","121.443025","25.001315","6500100","板橋區"
"220056","276-BY","2019/08/06 18:59:27","新北市板橋區信義路112號","121.458321666667","24.9925933333333","6500100","板橋區"
"220072","277-BY","2019/08/06 18:59:24","新北市樹林區樹新路108號","121.429773333333","24.99788","6500100","板橋區"
"220101","280-UM","2019/08/06 18:59:38","新北市板橋區民生路二段188號","121.470053333333","25.0206733333333","6500100","板橋區"
"220071","283-VK","2019/08/06 18:59:37","新北市板橋區忠孝路196巷43號","121.465603333333","25.00168","6500100","板橋區"
"220094","285-UM","2019/08/06 18:59:31","新北市板橋區光武街167號","121.465296666667","25.0299683333333","6500100","板橋區"
"220053","285-VK","2019/08/06 18:59:32","新北市板橋區永豐街89巷5弄2號","121.473101666667","25.0196383333333","6500100","板橋區"
"220083","286-VK","2019/08/06 18:59:31","新北市板橋區大觀路一段38巷156弄77號","121.443095","25.0068416666667","6500100","板橋區"
"220081","287-VK","2019/08/06 18:59:38","新北市板橋區南雅西路二段102號","121.452343333333","25.0117783333333","6500100","板橋區"
"220090","288-VK","2019/08/06 18:59:39","新北市板橋區裕民街23-3號","121.462086666667","25.0289633333333","6500100","板橋區"
"220061","293-UM","2019/08/06 18:59:36","新北市板橋區中山路二段295巷10號","121.477895","25.0187683333333","6500100","板橋區"
"220075","303-R5","2019/08/06 18:59:25","新北市板橋區館前西路213巷7號","121.454461666667","25.008295","6500100","板橋區"
"220062","305-R5","2019/08/06 18:59:26","新北市板橋區民享街117號","121.477831666667","25.0164","6500100","板橋區"
"220092","307-R5","2019/08/06 18:59:32","新北市板橋區文化路二段225巷60弄52號","121.469093333333","25.0295983333333","6500100","板橋區"
"220098","317-R6","2019/08/06 18:59:32","新北市板橋區民生路二段226巷14號","121.470811666667","25.02186","6500100","板橋區"
"220055","461-BY","2019/08/06 18:59:25","新北市板橋區新站路12號","121.465868333333","25.0122133333333","6500100","板橋區"
"220089","487-VK","2019/08/06 18:59:34","新北市板橋區文化路二段145號","121.47019","25.0269633333333","6500100","板橋區"
"220088","491-VK","2019/08/06 18:59:32","新北市板橋區文化路二段182巷7弄9號","121.472265","25.02734","6500100","板橋區"
"220035","560-BX","2019/08/06 18:59:37","新北市板橋區中正路277號","121.455586666667","25.0190116666667","6500100","板橋區"
"220103","561-BX","2019/08/06 18:59:38","新北市板橋區介壽街57號","121.469165","25.0196433333333","6500100","板橋區"
"220063","609-BX","2019/08/06 18:59:26","新北市板橋區中山路二段307號","121.478821666667","25.0184716666667","6500100","板橋區"
"220091","637-BX","2019/08/06 18:59:37","新北市板橋區大同街50巷49號","121.4789","25.0263916666667","6500100","板橋區"
"220057","686-BX","2019/08/06 18:59:34","新北市板橋區重慶路346巷2號","121.463975","24.997215","6500100","板橋區"
"220077","687-BX","2019/08/06 18:59:34","新北市板橋區龍興街71巷1號","121.443778333333","25.0017766666667","6500100","板橋區"
"220093","689-BX","2019/08/06 18:59:24","新北市板橋區民生路三段179號","121.46546","25.027235","6500100","板橋區"
"220054","741-BX","2019/08/06 18:59:37","新北市板橋區重慶路127巷15-2號","121.46338","25.0049133333333","6500100","板橋區"
"220102","KEA-2699","2019/08/06 18:59:26","新北市板橋區萬板路810-1號","121.482781666667","25.02733","6500100","板橋區"
"220067","829-TW","2019/08/06 18:59:32","新北市板橋區民享街116巷16號","121.478721666667","25.0152816666667","6500100","板橋區"
"220074","895-R6","2019/08/06 18:59:38","新北市板橋區林園街53號","121.453663333333","25.0101416666667","6500100","板橋區"
"220073","985-R7","2019/08/06 18:59:36","新北市板橋區中正路163-1號","121.456575","25.0160483333333","6500100","板橋區"
"220097","AAC-210","2019/08/06 18:59:25","新北市板橋區新海路135巷37號","121.459548333333","25.0227533333333","6500100","板橋區"
"220064","AAC-253","2019/08/06 18:59:25","新北市板橋區板新路6號","121.474876666667","25.0129833333333","6500100","板橋區"
"235068","KEA-2873","2019/08/06 18:59:40","新北市中和區圓通路208號","121.496036666667","24.9939216666667","6500300","中和區"
"235061","KEA-2875","2019/08/06 18:59:35","新北市中和區民有街73號","121.476536666667","25.0030933333333","6500300","中和區"
