"lineid","car","time","location","longitude","latitude","cityid","cityname"
"234046","148-BY","2019/08/06 19:09:31","新北市永和區永元路18巷38弄1號","121.524046666667","25.0002616666667","6500400","永和區"
"234081","298-R6","2019/08/06 19:09:33","新北市永和區永亨路61號","121.521083333333","25.0060466666667","6500400","永和區"
"234038","336-UY","2019/08/06 19:09:29","新北市永和區民樂街73巷1號","121.52741","24.9972833333333","6500400","永和區"
"234064","337-UY","2019/08/06 19:09:23","新北市永和區秀朗路二段17號","121.521025","25.0026533333333","6500400","永和區"
"234086","338-UY","2019/08/06 19:09:35","新北市永和區永貞路102號","121.519146666667","25.0044516666667","6500400","永和區"
"234070","552-UM","2019/08/06 19:09:41","新北市永和區豫溪街137巷1弄21號","121.518616666667","25.0103933333333","6500400","永和區"
"234017","745-BX","2019/08/06 19:09:32","新北市永和區文化路90巷8號","121.513905","25.01568","6500400","永和區"
"234030","746-BX","2019/08/06 19:09:28","新北市永和區四維街62號","121.524355","24.9983433333333","6500400","永和區"
"234054","KEA-2590","2019/08/06 19:09:24","新北市永和區中興街133巷8號","121.518575","25.01257","6500400","永和區"
"234007","KED-0605","2019/08/06 19:09:35","新北市永和區中山路一段212號","121.508576666667","25.0084966666667","6500400","永和區"
"234013","KEA-2591","2019/08/06 19:09:28","新北市永和區中山路一段27號","121.51353","25.0104366666667","6500400","永和區"
"234061","AAD-866","2019/08/06 19:09:34","新北市永和區安樂路300號","121.514403333333","25.0049133333333","6500400","永和區"
"234042","862-TW","2019/08/06 19:09:38","新北市永和區保平路135號","121.510408333333","25.0062233333333","6500400","永和區"
"234050","863-TW","2019/08/06 19:09:21","新北市永和區仁愛路104巷7弄23號","121.510983333333","25.0140683333333","6500400","永和區"
"234026","9371-KE","2019/08/06 19:09:38","新北市永和區安樂路274號","121.514711666667","25.0042583333333","6500400","永和區"
"234011","9373-KE","2019/08/06 19:09:39","新北市永和區中山路一段60巷9弄6號","121.513035","25.01127","6500400","永和區"
"249001","173-UM","2019/08/06 19:09:20","新北市八里區龍米路二段228-2號","121.432513333333","25.15842","6502300","八里區"
"249002","305-UY","2019/08/06 18:47:21","新北市八里區頂寮二街138號","121.449315","25.1294516666667","6502300","八里區"
"249003","593-UM","2019/08/06 19:09:29","新北市八里區博物館路23號","121.41444","25.1630933333333","6502300","八里區"
"249005","759-BX","2019/08/06 19:09:34","新北市八里區中華路三段35號","121.39607","25.142705","6502300","八里區"
"248016","026-BX","2019/08/06 19:09:28","新北市五股區凌雲路一段156巷19號","121.449511666667","25.1030333333333","6501500","五股區"
"248008","KED-0815","2019/08/06 19:09:34","新北市五股區中興路一段118巷2號","121.465988333333","25.0738133333333","6501500","五股區"
"248020","KED-0813","2019/08/06 19:09:38","新北市五股區凌雲路三段57號","121.425286666667","25.12499","6501500","五股區"
"248012","247-BX","2019/08/06 19:09:25","新北市五股區中興路四段48巷16號","121.438686666667","25.08342","6501500","五股區"
"248004","677-BX","2019/08/06 19:09:26","新北市五股區五福路16號","121.434265","25.08866","6501500","五股區"
"248002","678-BX","2019/08/06 19:09:30","新北市五股區凌雲路一段158巷6號","121.447803333333","25.1029583333333","6501500","五股區"
"248010","682-TV","2019/08/06 19:09:23","新北市五股區水碓一路23號","121.430618333333","25.071285","6501500","五股區"
"234023","9380-KE","2019/08/06 19:09:19","新北市永和區勵行街72巷21號","121.516351666667","25.0124866666667","6500400","永和區"
"234077","969-R7","2019/08/06 19:09:20","新北市永和區民權路34號","121.520141666667","24.9988716666667","6500400","永和區"
"234074","AAC-211","2019/08/06 19:09:38","新北市永和區竹林路211號","121.520603333333","25.0088133333333","6500400","永和區"
"234067","AAC-212","2019/08/06 19:09:37","新北市永和區保平路30巷2號","121.511983333333","25.007285","6500400","永和區"
"234003","AAC-295","2019/08/06 19:09:31","新北市永和區保福路一段84號","121.512276666667","25.010265","6500400","永和區"
"244023","483-VK","2019/08/06 19:09:28","新北市林口區文林六街19號","121.371051666667","25.080665","6501700","林口區"
"244011","657-BX","2019/08/06 19:09:23","新北市林口區竹林路63號","121.387745","25.078505","6501700","林口區"
"244025","837-TS","2019/08/06 19:09:31","新北市林口區文化北路一段436號","121.365455","25.077085","6501700","林口區"
"243012","AAD-798","2019/08/06 19:09:24","新北市泰山區辭修路14號","121.429366666667","25.0581116666667","6501600","泰山區"
"243010","297-R6","2019/08/06 19:09:31","新北市泰山區明志路一段483巷1弄1號","121.431066666667","25.055445","6501600","泰山區"
"243014","KEA-2801","2019/08/06 19:09:32","新北市泰山區泰林路二段440號","121.426456666667","25.064155","6501600","泰山區"
"243016","421-VK","2019/08/06 19:09:39","新北市泰山區明志路二段341號","121.425498333333","25.044635","6501600","泰山區"
"243009","KEA-2215","2019/08/06 19:09:21","新北市泰山區明志路一段122巷31號","121.432463333333","25.0636583333333","6501600","泰山區"
"243011","KEA-2216","2019/08/06 19:09:36","新北市泰山區明志路二段324號","121.426141666667","25.0459216666667","6501600","泰山區"
"243013","646-TV","2019/08/06 19:09:31","新北市泰山區明志路三段277號","121.423123333333","25.0367966666667","6501600","泰山區"
"243015","680-BX","2019/08/06 19:09:10","新北市泰山區明志路一段353號","121.430991666667","25.0584016666667","6501600","泰山區"
"222003","436-BY","2019/08/06 19:09:32","新北市深坑區深南路162號","121.6261","25.0149966666667","6501800","深坑區"
"222002","659-BX","2019/08/06 19:09:23","新北市深坑區北深路一段199號","121.630506666667","25.009035","6501800","深坑區"
"231061","002-UM","2019/08/06 19:09:34","新北市新店區安康路一段299-3號","121.52087","24.9637533333333","6500600","新店區"
"231055","0291-UT","2019/08/06 19:09:23","新北市新店區溪園路365-8號","121.521415","24.9808283333333","6500600","新店區"
"231058","0293-UT","2019/08/06 19:09:20","新北市新店區光明街94號","121.538826666667","24.9603266666667","6500600","新店區"
"231044","046-UY","2019/08/06 19:09:33","新北市新店區中興路三段160號","121.54435","24.9807983333333","6500600","新店區"
"231060","106-UY","2019/08/06 19:09:26","新北市新店區安康路二段316號","121.505275","24.95802","6500600","新店區"
"231051","107-UY","2019/08/06 19:09:40","新北市新店區中正路382巷28號","121.535531666667","24.9779333333333","6500600","新店區"
"231049","108-UY","2019/08/06 19:09:30","新北市新店區二十張路25巷3號","121.539028333333","24.9821483333333","6500600","新店區"
"231065","110-UY","2019/08/06 19:09:23","新北市新店區安祥路145巷31號","121.475428333333","24.9566483333333","6500600","新店區"
"231050","KEA-2219","2019/08/06 19:09:20","新北市新店區竹林路2巷34弄2號","121.550281666667","24.95019","6500600","新店區"
"231062","256-BX","2019/08/06 19:09:36","新北市新店區安平路35巷10號","121.521006666667","24.96701","6500600","新店區"
"231054","260-TV","2019/08/06 19:09:24","新北市新店區新店路162-1號","121.53714","24.9556233333333","6500600","新店區"
"231042","268-BY","2019/08/06 19:09:40","新北市新店區中興路一段167號","121.542665","24.9644233333333","6500600","新店區"
"231064","278-BY","2019/08/06 19:09:24","新北市新店區安忠路56巷6號","121.512903333333","24.95942","6500600","新店區"
"231045","355-BY","2019/08/06 19:09:21","新北市新店區北宜路一段140巷15號","121.539988333333","24.954265","6500600","新店區"
"231056","4715-K9","2019/08/06 19:09:23","新北市新店區民權路107號","121.536573333333","24.9822516666667","6500600","新店區"
"231067","4772-VM","2019/08/06 19:09:38","新北市新店區安康路一段281巷10號","121.523753333333","24.9623033333333","6500600","新店區"
"231053","513-UM","2019/08/06 19:09:24","新北市新店區新烏路二段50巷22號","121.547388333333","24.9270766666667","6500600","新店區"
"231041","619-UM","2019/08/06 19:09:21","新北市新店區中央一街16號","121.528391666667","24.9726916666667","6500600","新店區"
"231063","641-BX","2019/08/06 19:09:29","新北市新店區車子路134號","121.505255","24.9499833333333","6500600","新店區"
"231048","KED-0819","2019/08/06 19:09:29","新北市新店區德正街27巷29弄60號","121.545798333333","24.972915","6500600","新店區"
"231046","719-UM","2019/08/06 19:09:19","新北市新店區華城路16-1號","121.529183333333","24.9574933333333","6500600","新店區"
"231057","720-UM","2019/08/06 19:09:20","新北市新店區百齡一路12號","121.553","24.9324416666667","6500600","新店區"
"231059","897-TW","2019/08/06 19:09:23","新北市新店區安康路一段351-1號","121.519506666667","24.9640566666667","6500600","新店區"
"231040","898-TW","2019/08/06 19:09:37","新北市新店區三民路98-3號","121.533923333333","24.9734266666667","6500600","新店區"
"231043","899-TW","2019/08/06 19:09:19","新北市新店區寶橋路61號","121.545283333333","24.97491","6500600","新店區"
"231066","AKT-0513","2019/08/06 19:09:39","新北市新店區安祥路35-1號","121.49168","24.9559983333333","6500600","新店區"
"241035","462-BY","2019/08/06 19:09:26","新北市三重區中正北路2號","121.489316666667","25.0629083333333","6500200","三重區"
"241026","480-VK","2019/08/06 19:09:36","新北市三重區重安街139號","121.495428333333","25.0546966666667","6500200","三重區"
"241022","KED-0820","2019/08/06 19:09:22","新北市三重區三民街155巷5號","121.484365","25.064635","6500200","三重區"
"241029","942-UM","2019/08/06 19:09:27","新北市三重區集美街263號","121.492483333333","25.0557166666667","6500200","三重區"
"235066","003-UY","2019/08/06 19:09:28","新北市中和區廣福路32號","121.504618333333","25.0022866666667","6500300","中和區"
"235064","005-UY","2019/08/06 19:09:31","新北市中和區連城路2號","121.499238333333","25.002445","6500300","中和區"
"235063","006-UY","2019/08/06 19:09:29","新北市中和區建一路198號","121.487695","24.9964266666667","6500300","中和區"
"235056","096-UM","2019/08/06 19:09:37","新北市中和區中正路1161號","121.481946666667","25.0088266666667","6500300","中和區"
"235039","097-UM","2019/08/06 19:09:24","新北市中和區秀朗路三段179號","121.524403333333","24.9906566666667","6500300","中和區"
"235065","098-UM","2019/08/06 19:09:20","新北市中和區中山路二段64巷8號","121.503683333333","25.005005","6500300","中和區"
"235040","150-BY","2019/08/06 19:09:32","新北市中和區宜安路98號","121.510493333333","24.9977216666667","6500300","中和區"
"235058","151-BY","2019/08/06 19:09:35","新北市中和區連城路469巷14號","121.483516666667","24.9953333333333","6500300","中和區"
"235038","185-VK","2019/08/06 19:09:24","新北市中和區大仁街20巷22號","121.518665","24.9931883333333","6500300","中和區"
"235049","186-VK","2019/08/06 19:09:34","新北市中和區景新街218號","121.507151666667","24.9951416666667","6500300","中和區"
"235067","255-BX","2019/08/06 19:09:22","新北市中和區民樂路48號","121.482998333333","25.0007366666667","6500300","中和區"
"235044","293-VK","2019/08/06 19:09:25","新北市中和區中興街263巷2號","121.500321666667","24.98893","6500300","中和區"
"235072","301-VK","2019/08/06 19:09:27","新北市中和區連城路80號","121.497285","25.001135","6500300","中和區"
"235043","352-BY","2019/08/06 19:09:20","新北市中和區景平路116號","121.519433333333","24.9917233333333","6500300","中和區"
"235042","KEA-2878","2019/08/06 19:09:34","新北市中和區自立路115號","121.522091666667","24.99446","6500300","中和區"
"235050","4979-A6","2019/08/06 19:09:38","新北市中和區復興路263巷9弄11-4號","121.503403333333","24.9898216666667","6500300","中和區"
"235069","4980-A6","2019/08/06 19:09:27","新北市中和區中和路165巷21號","121.503278333333","25.0005516666667","6500300","中和區"
"235070","558-UM","2019/08/06 19:09:24","新北市中和區中和路10號","121.499698333333","25.0022266666667","6500300","中和區"
"235045","565-BX","2019/08/06 19:09:38","新北市中和區景新街467巷15弄12號","121.513766666667","24.9887633333333","6500300","中和區"
"235060","KED-0823","2019/08/06 19:09:34","新北市中和區中山路三段92號","121.477548333333","25.00562","6500300","中和區"
"235054","640-BX","2019/08/06 19:09:40","新北市中和區國光街109巷9號","121.469841666667","24.9999716666667","6500300","中和區"
"235047","732-UM","2019/08/06 19:09:21","新北市中和區興南路一段56巷4號","121.510715","24.990855","6500300","中和區"
"235046","733-UM","2019/08/06 19:09:30","新北市中和區華新街156號","121.507628333333","24.9824133333333","6500300","中和區"
"235071","783-BX","2019/08/06 19:09:32","新北市中和區連城路469巷22弄16號","121.483213333333","24.9946566666667","6500300","中和區"
"235057","801-TS","2019/08/06 19:09:24","新北市中和區員山路423巷9號","121.480513333333","25.0031416666667","6500300","中和區"
"235052","805-TS","2019/08/06 19:09:27","新北市中和區興南路二段142巷31弄85號","121.50164","24.9837166666667","6500300","中和區"
"235048","896-TW","2019/08/06 19:09:39","新北市中和區忠孝街24號","121.510486666667","24.982945","6500300","中和區"
"235053","900-TW","2019/08/06 19:09:07","新北市中和區華福街71巷32號","121.467645","24.996955","6500300","中和區"
"235051","157-BY","2019/08/06 19:09:31","新北市中和區仁愛街128號","121.511928333333","24.9865683333333","6500300","中和區"
"235037","AAC-213","2019/08/06 19:09:38","新北市中和區秀朗路三段50巷29弄1號","121.524053333333","24.9952166666667","6500300","中和區"
"235059","AAC-215","2019/08/06 19:09:26","新北市中和區圓通路294巷17-5號","121.488608333333","24.9904416666667","6500300","中和區"
"220065","072-UY","2019/08/06 19:08:25","新北市板橋區民族路229號","121.469718333333","25.0072066666667","6500100","板橋區"
"220086","073-UY","2019/08/06 19:09:40","新北市板橋區中正路250巷17號","121.456421666667","25.0194066666667","6500100","板橋區"
"220106","075-UY","2019/08/06 19:09:24","新北市板橋區江寧路三段85巷14號","121.472366666667","25.0332166666667","6500100","板橋區"
"220069","AAD-861","2019/08/06 19:09:31","新北市板橋區華興街46號","121.458396666667","25.00474","6500100","板橋區"
"220068","120-SR","2019/08/06 19:09:36","新北市板橋區中山路二段443巷61號","121.480823333333","25.0220433333333","6500100","板橋區"
"226004","312-R5","2019/08/06 19:09:29","新北市平溪區靜安路二段551號","121.748008333333","25.024905","6502400","平溪區"
"235041","251-BX","2019/08/06 19:09:19","新北市中和區中和路260-1號","121.50811","24.9993583333333","6500300","中和區"
"228001","212-TW","2019/08/06 19:09:29","新北市貢寮區真理里新港街10號","121.925483333333","25.0543316666667","6502600","貢寮區"
"228002","663-BX","2019/08/06 19:09:22","新北市貢寮區福隆里福隆街32-1號","121.9451","25.017415","6502600","貢寮區"
"228003","828-UM","2019/08/06 19:09:32","新北市貢寮區和美里和美街36號","121.912471666667","25.0850066666667","6502600","貢寮區"
"224010","AGQ-8101","2019/08/06 19:09:29","新北市瑞芳區基山街121號","121.84421","25.1086133333333","6501200","瑞芳區"
"224002","639-TC","2019/08/06 19:09:22","新北市瑞芳區靜安路四段3號","121.793586666667","25.0808016666667","6501200","瑞芳區"
"224009","275-VK","2019/08/06 19:09:20","新北市瑞芳區洞頂路81號","121.861518333333","25.1191583333333","6501200","瑞芳區"
"224008","273-VK","2019/08/06 19:09:26","新北市瑞芳區瑞芳街118號","121.801505","25.1108733333333","6501200","瑞芳區"
"224005","271-BY","2019/08/06 19:09:36","新北市瑞芳區傑魚坑路319-1號","121.785656666667","25.1035966666667","6501200","瑞芳區"
"227002","642-TC","2019/08/06 19:09:22","新北市雙溪區平林里外平林10-4號","121.859123333333","25.0380533333333","6502500","雙溪區"
"227001","400-TW","2019/08/06 19:09:37","新北市雙溪區牡丹里中正路24號","121.864676666667","25.0376233333333","6502500","雙溪區"
"253006","032-BX","2019/08/06 19:09:27","新北市石門區海灣新城17號","121.525796666667","25.28476","6502200","石門區"
"253005","295-VK","2019/08/06 19:09:33","新北市石門區阿里荖35-2號","121.606455","25.2806866666667","6502200","石門區"
"222001","KEA-2212","2019/08/06 19:09:22","新北市深坑區北深路一段300號","121.624245","25.005685","6501800","深坑區"
"208002","KEA-2872","2019/08/06 19:09:32","新北市金山區中正路73號","121.633843333333","25.2217116666667","6502700","金山區"
"208003","665-BX","2019/08/06 19:09:20","新北市金山區中正路51號","121.63465","25.2219766666667","6502700","金山區"
"251010","012-UM","2019/08/06 19:09:33","新北市淡水區中正路一段156巷3號","121.42113","25.1803366666667","6501000","淡水區"
"251015","KEA-2871","2019/08/06 19:09:35","新北市淡水區南勢埔30-2號","121.483851666667","25.180345","6501000","淡水區"
"251016","179-VK","2019/08/06 19:09:23","新北市淡水區淡金路三段352號","121.449265","25.20889","6501000","淡水區"
"251013","180-VK","2019/08/06 19:09:32","新北市淡水區安子內12-1號","121.481573333333","25.2190416666667","6501000","淡水區"
"251007","442-VK","2019/08/06 19:09:29","新北市淡水區民生路135巷30號","121.466653333333","25.1391116666667","6501000","淡水區"
"251005","443-VK","2019/08/06 19:09:23","新北市淡水區原德路11號","121.442146666667","25.171225","6501000","淡水區"
"251001","559-UM","2019/08/06 19:09:39","新北市淡水區自強路201巷39號","121.462088333333","25.1268066666667","6501000","淡水區"
"251009","575-R6","2019/08/06 19:09:26","新北市淡水區重建街36號","121.439985","25.1712433333333","6501000","淡水區"
"251014","577-R6","2019/08/06 19:09:33","新北市淡水區小中寮19-7號","121.484751666667","25.2296433333333","6501000","淡水區"
"251002","672-BX","2019/08/06 19:09:30","新北市淡水區中山路31號","121.44393","25.1702816666667","6501000","淡水區"
"251003","766-UM","2019/08/06 19:09:22","新北市淡水區大義街3號","121.443681666667","25.17825","6501000","淡水區"
"207003","550-UM","2019/08/06 19:09:29","新北市萬里區大鵬里頂社24-1號","121.657308333333","25.2103833333333","6502800","萬里區"
"207004","225-TW","2019/08/06 19:09:35","新北市萬里區萬里里瑪鋉下街58-1號","121.69163","25.1796133333333","6502800","萬里區"
"252002","178-VK","2019/08/06 19:09:36","新北市三芝區埔坪里埔頭坑88-7號","121.506691666667","25.2549516666667","6502100","三芝區"
"252003","249-BX","2019/08/06 19:09:30","新北市三芝區錫板里南勢崗6號","121.479528333333","25.2619366666667","6502100","三芝區"
"208001","170-UY","2019/08/06 19:09:29","新北市金山區金包里街68號","121.639055","25.2213783333333","6502700","金山區"
"237004","KEA-2597","2019/08/06 19:09:28","新北市三峽區有木205-1號","121.439038333333","24.8516116666667","6500900","三峽區"
"237007","153-BY","2019/08/06 19:09:21","新北市三峽區中正路二段42巷12-1號","121.364211666667","24.9206166666667","6500900","三峽區"
"237013","252-BX","2019/08/06 19:09:34","新北市三峽區大同路48巷17弄8-1號","121.376623333333","24.9289566666667","6500900","三峽區"
"237012","275-BY","2019/08/06 19:09:27","新北市三峽區三樹路222巷254弄15號","121.392145","24.9440866666667","6500900","三峽區"
"237008","302-VK","2019/08/06 19:09:38","新北市三峽區大同路84號","121.375961666667","24.927875","6500900","三峽區"
"237014","433-BY","2019/08/06 19:09:28","新北市三峽區復興路457號","121.362123333333","24.938495","6500900","三峽區"
"237006","5529-G3","2019/08/06 19:09:38","新北市三峽區溪東路233巷47弄2號","121.410601666667","24.93457","6500900","三峽區"
"237011","KEA-2596","2019/08/06 19:09:28","新北市三峽區介壽路三段168號","121.402041666667","24.9438966666667","6500900","三峽區"
"237015","649-BX","2019/08/06 19:09:38","新北市三峽區安坑38號","121.454785","24.93212","6500900","三峽區"
"237010","706-TV","2019/08/06 19:09:29","新北市三峽區國光街322號","121.371966666667","24.9394166666667","6500900","三峽區"
"237005","AKY-6261","2019/08/06 19:09:39","新北市三峽區中山路459巷24號","121.357538333333","24.9388416666667","6500900","三峽區"
"236079","166-UM","2019/08/06 19:09:21","新北市土城區龍泉路23-3號","121.411941666667","24.9461033333333","6501300","土城區"
"236026","269-VK","2019/08/06 19:09:35","新北市土城區中正路74巷3弄1號","121.444761666667","24.9749183333333","6501300","土城區"
"236014","270-VK","2019/08/06 19:09:27","新北市土城區學府路一段33號","121.458061666667","24.9884233333333","6501300","土城區"
"236038","271-VK","2019/08/06 19:09:30","新北市土城區清水路32巷16號","121.45737","24.9810983333333","6501300","土城區"
"236070","KEA-2877","2019/08/06 19:09:38","新北市土城區裕生路86巷2號","121.447271666667","24.9851016666667","6501300","土城區"
"252001","KED-0821","2019/08/06 19:09:34","新北市三芝區長勤街45巷2號","121.500321666667","25.2550866666667","6502100","三芝區"
"236021","401-BY","2019/08/06 19:09:18","新北市土城區延峰街36巷2號","121.469641666667","24.9846683333333","6501300","土城區"
"236059","912-UM","2019/08/06 19:09:23","新北市土城區金城路一段131號","121.44486","24.9737283333333","6501300","土城區"
"236055","AAC-216","2019/08/06 19:09:28","新北市土城區學府路一段211號","121.45159","24.9844833333333","6501300","土城區"
"238015","755-BX","2019/08/06 19:08:42","新北市樹林區光明街28號","121.41147","24.99026","6500700","樹林區"
"238023","601-UM","2019/08/06 19:09:35","新北市樹林區三興路47號","121.395541666667","25.0145283333333","6500700","樹林區"
"238019","599-UM","2019/08/06 19:09:31","新北市樹林區東華街33號","121.415081666667","24.98176","6500700","樹林區"
"238022","KEA-2213","2019/08/06 19:09:19","新北市樹林區東興街8-2號","121.409663333333","24.9787783333333","6500700","樹林區"
"238021","KEA-2539","2019/08/06 19:09:21","新北市樹林區柑園街二段453號","121.363338333333","24.9462516666667","6500700","樹林區"
"238025","303-VK","2019/08/06 19:09:27","新北市樹林區民和街83巷10號","121.37869","24.9730416666667","6500700","樹林區"
"238017","283-BY","2019/08/06 19:09:24","新北市樹林區光興街44號","121.4099","25.00271","6500700","樹林區"
"238014","282-BY","2019/08/06 19:06:09","新北市樹林區千歲街71號","121.427308333333","24.99899","6500700","樹林區"
"238020","268-VK","2019/08/06 19:09:26","新北市樹林區俊英街155巷9弄27號","121.42331","25.011765","6500700","樹林區"
"238026","172-UY","2019/08/06 19:09:20","新北市樹林區信和街136-2號","121.390688333333","24.97215","6500700","樹林區"
"238016","169-UY","2019/08/06 19:07:18","新北市樹林區備前街42號","121.417131666667","24.98616","6500700","樹林區"
"239007","AAC-297","2019/08/06 19:09:33","新北市鶯歌區大湖路余厝巷11號","121.34194","24.9610966666667","6500800","鶯歌區"
"239006","891-R6","2019/08/06 19:09:20","新北市鶯歌區鶯桃路296巷98號","121.336921666667","24.962175","6500800","鶯歌區"
"239008","527-UM","2019/08/06 19:09:20","新北市鶯歌區國際二路16巷7號","121.337661666667","24.97489","6500800","鶯歌區"
"239005","526-UM","2019/08/06 19:09:23","新北市鶯歌區中湖街23號","121.347285","24.9728116666667","6500800","鶯歌區"
"239001","417-VK","2019/08/06 19:09:37","新北市鶯歌區永智街10號","121.33697","24.9549216666667","6500800","鶯歌區"
"239003","360-BY","2019/08/06 19:09:21","新北市鶯歌區鶯桃路334號","121.333881666667","24.9621166666667","6500800","鶯歌區"
"239002","359-BY","2019/08/06 19:09:31","新北市鶯歌區中山路118號","121.350565","24.95701","6500800","鶯歌區"
"239004","193-VK","2019/08/06 19:09:37","新北市鶯歌區中正三路318巷39號","121.327218333333","24.936495","6500800","鶯歌區"
"221008","489-VK","2019/08/06 19:09:31","新北市汐止區康寧街464號","121.631776666667","25.0682066666667","6501100","汐止區"
"221036","130-UY","2019/08/06 19:09:33","新北市汐止區南昌街22-1號","121.663248333333","25.0683116666667","6501100","汐止區"
"244019","KED-0667","2019/08/06 19:09:34","新北市林口區文化一路一段237號","121.37974","25.0768066666667","6501700","林口區"
"221032","280-BY","2019/08/06 19:09:25","新北市汐止區橫科路241-1號","121.621978333333","25.049225","6501100","汐止區"
"221031","353-TW","2019/08/06 19:09:25","新北市汐止區中興路181巷16弄12號","121.629485","25.0667133333333","6501100","汐止區"
"221035","622-UM","2019/08/06 19:09:25","新北市汐止區禮門街3號","121.656676666667","25.0672783333333","6501100","汐止區"
"221002","707-TV","2019/08/06 19:09:19","新北市汐止區大同路一段154-1號","121.632201666667","25.0560733333333","6501100","汐止區"
"220079","145-BY","2019/08/06 19:09:38","新北市板橋區中正路101號","121.45634","25.014755","6500100","板橋區"
"220080","200-UY","2019/08/06 19:09:29","新北市板橋區合安一路95-5號","121.44873","24.9992366666667","6500100","板橋區"
"220082","610-BX","2019/08/06 19:09:32","新北市板橋區溪崑二街9-2號","121.429103333333","24.991835","6500100","板橋區"
"220084","256-TC","2019/08/06 19:09:34","新北市板橋區溪崑一街47巷2號","121.430423333333","24.9907866666667","6500100","板橋區"
"220056","276-BY","2019/08/06 19:09:27","新北市板橋區信義路74巷2弄1號","121.457073333333","24.9931","6500100","板橋區"
"220072","277-BY","2019/08/06 19:09:37","新北市板橋區金門街369巷18號","121.428656666667","24.983395","6500100","板橋區"
"220101","280-UM","2019/08/06 19:09:38","新北市板橋區莊敬路25巷17號","121.474416666667","25.0270766666667","6500100","板橋區"
"220071","283-VK","2019/08/06 19:09:37","新北市板橋區忠孝路154巷22號","121.464031666667","25.0019383333333","6500100","板橋區"
"220094","285-UM","2019/08/06 19:09:31","新北市板橋區吳鳳路19巷20號","121.46675","25.0307183333333","6500100","板橋區"
"220053","285-VK","2019/08/06 19:09:32","新北市板橋區懷仁街25巷14號","121.476841666667","25.0199533333333","6500100","板橋區"
"220083","286-VK","2019/08/06 19:09:41","新北市板橋區龍興街99巷2號","121.4443","25.00291","6500100","板橋區"
"220081","287-VK","2019/08/06 19:09:38","新北市板橋區南雅西路二段110巷32號","121.452958333333","25.0126716666667","6500100","板橋區"
"220090","288-VK","2019/08/06 19:09:19","新北市板橋區長江路一段106巷13弄18號","121.460763333333","25.0294116666667","6500100","板橋區"
"220061","293-UM","2019/08/06 19:09:36","新北市板橋區三民路二段21巷40號","121.480611666667","25.0182116666667","6500100","板橋區"
"220075","303-R5","2019/08/06 19:09:25","新北市板橋區南雅南路一段1巷21號","121.45702","25.0067966666667","6500100","板橋區"
"220062","305-R5","2019/08/06 19:09:25","新北市板橋區三民路二段245巷69弄2號","121.481115","25.012885","6500100","板橋區"
"220092","307-R5","2019/08/06 19:09:19","新北市板橋區松江街72巷12號","121.469196666667","25.02787","6500100","板橋區"
"220098","317-R6","2019/08/06 19:09:32","新北市板橋區民有街45-1號","121.465661666667","25.0258866666667","6500100","板橋區"
"220055","461-BY","2019/08/06 19:09:38","新北市板橋區新民街39號","121.46395","25.0106016666667","6500100","板橋區"
"220089","487-VK","2019/08/06 19:09:34","新北市板橋區文化路一段305號","121.465285","25.0193616666667","6500100","板橋區"
"220088","491-VK","2019/08/06 19:09:38","新北市板橋區雙十路二段39-1號","121.476755","25.0260283333333","6500100","板橋區"
"220035","560-BX","2019/08/06 19:09:37","新北市板橋區中正路399巷11號","121.453521666667","25.02242","6500100","板橋區"
"220103","561-BX","2019/08/06 19:09:38","新北市板橋區文化路一段270巷2號","121.467343333333","25.020505","6500100","板橋區"
"220063","609-BX","2019/08/06 19:09:41","新北市板橋區三民路二段209號","121.479053333333","25.013","6500100","板橋區"
"220091","637-BX","2019/08/06 19:09:33","新北市板橋區萬板路520號","121.480838333333","25.0263866666667","6500100","板橋區"
"220057","686-BX","2019/08/06 19:09:34","新北市板橋區五權街30巷1號","121.464723333333","24.9933833333333","6500100","板橋區"
"220077","687-BX","2019/08/06 19:09:34","新北市板橋區大觀路二段279號","121.442608333333","24.9988466666667","6500100","板橋區"
"220093","689-BX","2019/08/06 19:09:24","新北市板橋區文化路一段309-1號","121.465993333333","25.0200683333333","6500100","板橋區"
"220054","741-BX","2019/08/06 19:09:17","新北市板橋區重慶路69巷14號","121.46263","25.0068883333333","6500100","板橋區"
"220102","KEA-2699","2019/08/06 19:09:25","新北市板橋區文聖街207號","121.479685","25.0263833333333","6500100","板橋區"
"220067","829-TW","2019/08/06 19:09:30","新北市板橋區長安街230-2號","121.475115","25.0123766666667","6500100","板橋區"
"220074","895-R6","2019/08/06 19:09:24","新北市板橋區北門街58號","121.456608333333","25.011335","6500100","板橋區"
"220073","985-R7","2019/08/06 19:09:33","新北市板橋區中正路251號","121.455801666667","25.01831","6500100","板橋區"
"220097","AAC-210","2019/08/06 19:09:26","新北市板橋區幸福路60巷15號","121.460753333333","25.0206866666667","6500100","板橋區"
"220064","AAC-253","2019/08/06 19:09:25","新北市板橋區板新路234號","121.468321666667","25.0160916666667","6500100","板橋區"
"235068","KEA-2873","2019/08/06 19:09:40","新北市中和區圓通路176-1號","121.497116666667","24.9946866666667","6500300","中和區"
"235061","KEA-2875","2019/08/06 19:09:35","新北市中和區員山路271-1號","121.481225","24.9994683333333","6500300","中和區"
