"lineid","car","time","location","longitude","latitude","cityid","cityname"
"234046","148-BY","2019/08/06 20:09:51","新北市永和區得和路372號","121.524483333333","24.9993116666667","6500400","永和區"
"234081","298-R6","2019/08/06 20:10:00","新北市永和區國中路33號","121.52455","25.0055033333333","6500400","永和區"
"234038","336-UY","2019/08/06 20:09:49","新北市永和區成功路一段47巷8號","121.527571666667","25.0039716666667","6500400","永和區"
"234064","337-UY","2019/08/06 20:09:43","新北市永和區永利路96號","121.520835","25.0036466666667","6500400","永和區"
"234086","338-UY","2019/08/06 20:09:51","新北市永和區福和路284號","121.517641666667","25.0074683333333","6500400","永和區"
"234070","552-UM","2019/08/06 20:09:41","新北市永和區永貞路10巷9號","121.520006666667","25.007215","6500400","永和區"
"234017","745-BX","2019/08/06 20:09:53","新北市永和區文化路111號","121.512803333333","25.0152566666667","6500400","永和區"
"234030","746-BX","2019/08/06 20:09:49","新北市永和區民權路49巷37號","121.521966666667","24.9975916666667","6500400","永和區"
"234054","KEA-2590","2019/08/06 20:10:02","新北市永和區博愛街18巷1號","121.517666666667","25.0158116666667","6500400","永和區"
"234013","KEA-2591","2019/08/06 20:09:48","新北市永和區保順路11號","121.504453333333","25.0094566666667","6500400","永和區"
"234061","AAD-866","2019/08/06 20:09:54","新北市永和區中正路151巷5弄1號","121.516025","24.998515","6500400","永和區"
"234042","862-TW","2019/08/06 20:09:58","新北市永和區雙和街16巷5號","121.509581666667","25.002135","6500400","永和區"
"234050","863-TW","2019/08/06 20:10:01","新北市永和區環河西路二段125號","121.506075","25.0144433333333","6500400","永和區"
"249001","173-UM","2019/08/06 20:09:48","新北市八里區中華路二段305-7號","121.403538333333","25.14785","6502300","八里區"
"249004","303-UY","2019/08/06 20:09:59","新北市八里區中山路一段189巷3號","121.411843333333","25.1581866666667","6502300","八里區"
"249002","305-UY","2019/08/06 20:09:55","新北市五股區成泰路四段40號","121.45568","25.1098466666667","6502300","八里區"
"249003","593-UM","2019/08/06 20:09:49","新北市八里區中山路二段540巷9弄19號","121.39661","25.1466966666667","6502300","八里區"
"249005","759-BX","2019/08/06 20:09:54","新北市八里區下罟子58-4號","121.388328333333","25.1386516666667","6502300","八里區"
"248016","026-BX","2019/08/06 20:09:47","新北市五股區成泰路三段577巷80弄72號","121.448956666667","25.1048083333333","6501500","五股區"
"248008","KED-0815","2019/08/06 20:09:54","新北市五股區中興路一段3號","121.469621666667","25.07224","6501500","五股區"
"248020","KED-0813","2019/08/06 20:09:58","新北市五股區凌雲路二段10號","121.445623333333","25.102475","6501500","五股區"
"248012","247-BX","2019/08/06 20:09:45","新北市五股區六合街70號","121.431858333333","25.0900683333333","6501500","五股區"
"248004","677-BX","2019/08/06 20:09:46","新北市五股區成泰路一段142號","121.43502","25.0759133333333","6501500","五股區"
"248002","678-BX","2019/08/06 20:10:01","新北市五股區成泰路三段323-1號","121.448081666667","25.0951566666667","6501500","五股區"
"248010","682-TV","2019/08/06 20:09:44","新北市五股區成泰路一段7巷28號","121.43293","25.0669433333333","6501500","五股區"
"234023","9380-KE","2019/08/06 20:09:59","新北市永和區中正路662巷29號","121.517856666667","25.0088266666667","6500400","永和區"
"234077","969-R7","2019/08/06 20:09:40","新北市永和區民光街20巷1號","121.515803333333","24.9958566666667","6500400","永和區"
"234074","AAC-211","2019/08/06 20:09:57","新北市永和區豫溪街136巷1號","121.521268333333","25.0103466666667","6500400","永和區"
"234067","AAC-212","2019/08/06 20:09:57","新北市永和區保平路212號","121.509736666667","25.0059766666667","6500400","永和區"
"234003","AAC-295","2019/08/06 20:10:00","新北市永和區中正路624巷2號","121.517133333333","25.007825","6500400","永和區"
"243012","AAD-798","2019/08/06 20:09:44","新北市泰山區楓江路36-2號","121.434555","25.0624983333333","6501600","泰山區"
"243010","297-R6","2019/08/06 20:09:51","新北市泰山區明志路二段136巷21弄2號","121.426026666667","25.0519866666667","6501600","泰山區"
"243014","KEA-2801","2019/08/06 20:09:52","新北市泰山區明志路一段46號","121.433446666667","25.0650966666667","6501600","泰山區"
"243016","421-VK","2019/08/06 20:09:59","新北市泰山區明志路三段409號","121.42121","25.0339983333333","6501600","泰山區"
"243009","KEA-2215","2019/08/06 20:10:01","新北市泰山區泰林路二段115號","121.434393333333","25.0594016666667","6501600","泰山區"
"243011","KEA-2216","2019/08/06 20:09:56","新北市新莊區丹鳳街36號","121.421601666667","25.0295483333333","6501600","泰山區"
"243015","680-BX","2019/08/06 20:09:50","新北市泰山區明志路二段52號","121.429168333333","25.0528283333333","6501600","泰山區"
"222003","436-BY","2019/08/06 20:09:52","新北市深坑區埔新街67號","121.620096666667","25.0023","6501800","深坑區"
"222002","659-BX","2019/08/06 20:10:03","新北市深坑區北深路三段192巷9號","121.601866666667","25.0041516666667","6501800","深坑區"
"231061","002-UM","2019/08/06 20:09:54","新北市新店區安民街277號","121.517518333333","24.9732016666667","6500600","新店區"
"231055","0291-UT","2019/08/06 20:09:42","新北市新店區中華路48巷36號","121.54108","24.969385","6500600","新店區"
"231044","046-UY","2019/08/06 20:09:53","新北市新店區寶慶街66號","121.542016666667","24.9868333333333","6500600","新店區"
"231060","106-UY","2019/08/06 20:09:46","新北市新店區安康路三段195號","121.488035","24.9517166666667","6500600","新店區"
"231051","107-UY","2019/08/06 20:10:00","新北市新店區中央五街5號","121.530106666667","24.9742383333333","6500600","新店區"
"231049","108-UY","2019/08/06 20:09:44","新北市新店區北新路二段139巷12弄3號","121.542013333333","24.9760683333333","6500600","新店區"
"231065","110-UY","2019/08/06 20:09:43","新北市新店區安祥路106巷159號","121.473683333333","24.9591283333333","6500600","新店區"
"231068","187-VK","2019/08/06 20:09:48","新北市新店區中興路三段204號","121.543858333333","24.9820466666667","6500600","新店區"
"231050","KEA-2219","2019/08/06 20:10:00","新北市新店區北新路一段333號","121.541813333333","24.9686066666667","6500600","新店區"
"231062","256-BX","2019/08/06 20:09:55","新北市新店區安康路一段355-10號","121.520583333333","24.9639","6500600","新店區"
"231054","260-TV","2019/08/06 20:09:59","新北市新店區檳榔路27號","121.541723333333","24.9636966666667","6500600","新店區"
"231042","268-BY","2019/08/06 20:10:00","新北市新店區中興路二段55號","121.546473333333","24.9702033333333","6500600","新店區"
"231064","278-BY","2019/08/06 20:09:44","新北市新店區安光路15巷15號","121.512285","24.963355","6500600","新店區"
"231045","355-BY","2019/08/06 20:10:01","新北市新店區北宜路二段69號","121.549535","24.95151","6500600","新店區"
"231056","4715-K9","2019/08/06 20:10:03","新北市新店區中正路275巷31號","121.53686","24.9730133333333","6500600","新店區"
"231067","4772-VM","2019/08/06 20:10:01","新北市新店區溪洲路6巷2-2號","121.533896666667","24.9610083333333","6500600","新店區"
"231053","513-UM","2019/08/06 20:09:43","新北市新店區新烏路三段寶島巷2弄3號","121.552018333333","24.898645","6500600","新店區"
"231041","619-UM","2019/08/06 20:10:01","新北市新店區中正路389號","121.53462","24.977155","6500600","新店區"
"231063","641-BX","2019/08/06 20:09:48","新北市新店區黎明路55巷1號","121.502398333333","24.94823","6500600","新店區"
"231048","KED-0819","2019/08/06 20:09:48","新北市新店區中興路三段1號","121.546283333333","24.977485","6500600","新店區"
"231057","720-UM","2019/08/06 20:10:00","新北市新店區百齡一路12號","121.553081666667","24.9324483333333","6500600","新店區"
"231059","897-TW","2019/08/06 20:10:03","新北市新店區安成街38號","121.509916666667","24.9612716666667","6500600","新店區"
"231040","898-TW","2019/08/06 20:09:56","新北市新店區中正路51號","121.54465","24.9698816666667","6500600","新店區"
"231043","899-TW","2019/08/06 20:09:58","新北市新店區中正路309號","121.536558333333","24.9749933333333","6500600","新店區"
"241028","022-UY","2019/08/06 20:10:01","新北市三重區大同南路162號","121.49664","25.057445","6500200","三重區"
"241008","059-VK","2019/08/06 20:09:56","新北市三重區永福街132號","121.47953","25.074785","6500200","三重區"
"241002","060-VK","2019/08/06 20:09:50","新北市三重區仁忠街11號","121.49729","25.0828633333333","6500200","三重區"
"241031","061-VK","2019/08/06 20:09:47","新北市三重區過圳街9-1號","121.488775","25.0599266666667","6500200","三重區"
"241015","062-VK","2019/08/06 20:09:46","新北市三重區福德北路47號","121.502248333333","25.0650383333333","6500200","三重區"
"241017","063-VK","2019/08/06 20:09:52","新北市三重區大同北路221巷62號","121.492846666667","25.0666533333333","6500200","三重區"
"241024","065-VK","2019/08/06 20:09:46","新北市三重區力行路一段178巷7號","121.481631666667","25.0714866666667","6500200","三重區"
"241011","066-VK","2019/08/06 20:09:56","新北市三重區三和路三段47巷14號","121.496075","25.0717566666667","6500200","三重區"
"241003","091-VK","2019/08/06 20:09:56","新北市三重區仁愛街442號","121.489278333333","25.0819566666667","6500200","三重區"
"241006","262-UM","2019/08/06 20:09:43","新北市三重區車路頭街139巷12號","121.484231666667","25.0763283333333","6500200","三重區"
"241009","267-UM","2019/08/06 20:09:51","新北市三重區三和路四段382巷133號","121.479518333333","25.0781266666667","6500200","三重區"
"241018","268-UM","2019/08/06 20:09:54","新北市三重區正義北路256巷147號","121.493026666667","25.0677516666667","6500200","三重區"
"241032","269-UM","2019/08/06 20:09:53","新北市三重區捷運路65號","121.483453333333","25.0556366666667","6500200","三重區"
"241013","270-UM","2019/08/06 20:09:46","新北市三重區三和路三段151巷39號","121.493666666667","25.0742883333333","6500200","三重區"
"241025","271-UM","2019/08/06 20:09:53","新北市三重區中正北路253號","121.475651666667","25.0709383333333","6500200","三重區"
"241007","398-BY","2019/08/06 20:09:45","新北市三重區仁美街48號","121.487208333333","25.0777616666667","6500200","三重區"
"241030","KED-0822","2019/08/06 20:09:58","新北市三重區成功路145巷42號","121.487766666667","25.05335","6500200","三重區"
"241035","462-BY","2019/08/06 20:09:46","新北市三重區大榮街46號","121.498883333333","25.0635466666667","6500200","三重區"
"241004","475-VK","2019/08/06 20:09:45","新北市三重區自強路四段112號","121.491605","25.0801483333333","6500200","三重區"
"241020","478-VK","2019/08/06 20:09:55","新北市三重區三和路三段188號","121.49195","25.0735933333333","6500200","三重區"
"241026","480-VK","2019/08/06 20:09:47","新北市三重區中央南路116號","121.501621666667","25.06017","6500200","三重區"
"241014","543-UM","2019/08/06 20:09:51","新北市三重區長樂街88號","121.501245","25.06951","6500200","三重區"
"241023","545-UM","2019/08/06 20:09:53","新北市三重區頂崁街229號","121.477105","25.0682666666667","6500200","三重區"
"241001","547-UM","2019/08/06 20:09:56","新北市三重區自強路四段1號","121.488518333333","25.075765","6500200","三重區"
"241019","KEA-2593","2019/08/06 20:09:57","新北市三重區自強路二段47巷41號","121.490208333333","25.0700966666667","6500200","三重區"
"241005","AAD-863","2019/08/06 20:09:57","新北市三重區碧華街246號","121.4876","25.0827966666667","6500200","三重區"
"241022","KED-0820","2019/08/06 20:10:02","新北市三重區重陽路二段25號","121.48701","25.06266","6500200","三重區"
"241016","887-TS","2019/08/06 20:09:55","新北市三重區大同北路97-2號","121.494496666667","25.0634983333333","6500200","三重區"
"241012","941-UM","2019/08/06 20:09:59","新北市三重區仁義街22號","121.49949","25.0765766666667","6500200","三重區"
"241029","942-UM","2019/08/06 20:09:51","新北市三重區光明路32巷12弄2-1號","121.491601666667","25.05861","6500200","三重區"
"241033","AAC-255","2019/08/06 20:09:53","新北市三重區光復路一段61巷23號","121.473441666667","25.0492366666667","6500200","三重區"
"235066","003-UY","2019/08/06 20:09:48","新北市中和區水源路127巷2弄2號","121.50813","25.00408","6500300","中和區"
"235039","097-UM","2019/08/06 20:09:43","新北市中和區大勇街32號","121.51729","24.9932116666667","6500300","中和區"
"235065","098-UM","2019/08/06 20:10:00","新北市中和區永和路69-6號","121.49641","25.006055","6500300","中和區"
"235040","150-BY","2019/08/06 20:09:52","新北市中和區保健路61巷5弄4號","121.50949","24.9976416666667","6500300","中和區"
"247014","KEA-2869","2019/08/06 20:09:38","新北市蘆洲區中山二路265巷35號","121.471165","25.0795866666667","6501400","蘆洲區"
"247008","KED-0682","2019/08/06 20:09:59","新北市蘆洲區中山一路199號","121.474438333333","25.0808716666667","6501400","蘆洲區"
"235050","4979-A6","2019/08/06 20:09:58","新北市中和區安樂路66號","121.51216","24.9932333333333","6500300","中和區"
"235069","4980-A6","2019/08/06 20:09:47","新北市中和區景新街34巷18弄2號","121.503363333333","24.9985833333333","6500300","中和區"
"235026","800-TS","2019/08/06 19:56:33","新北市中和區員山路36巷16-3號","121.485131666667","24.9914016666667","6500300","中和區"
"235051","157-BY","2019/08/06 20:09:51","新北市中和區景安路220巷20號","121.502743333333","24.9914283333333","6500300","中和區"
"235037","AAC-213","2019/08/06 20:09:58","新北市中和區中正路1155號","121.482485","25.0085183333333","6500300","中和區"
"235059","AAC-215","2019/08/06 20:09:47","新北市中和區圓通路335巷37弄4號","121.49386","24.9891283333333","6500300","中和區"
"220065","072-UY","2019/08/06 20:09:45","新北市板橋區中山路一段154巷21號","121.465361666667","25.01055","6500100","板橋區"
"220086","073-UY","2019/08/06 20:09:47","新北市板橋區大觀路一段43號","121.44808","25.0078483333333","6500100","板橋區"
"247004","893-R6","2019/08/06 20:09:46","新北市蘆洲區永安南路二段328巷17弄1號","121.45658","25.0839933333333","6501400","蘆洲區"
"247018","546-UM","2019/08/06 20:09:55","新北市蘆洲區民族路314巷23號","121.477983333333","25.0907483333333","6501400","蘆洲區"
"247002","500-BY","2019/08/06 20:09:53","新北市蘆洲區永康街8號","121.45923","25.0858233333333","6501400","蘆洲區"
"247024","337-TH","2019/08/06 20:07:49","新北市蘆洲區光榮路118-2號","121.465051666667","25.0889916666667","6501400","蘆洲區"
"247022","057-VK","2019/08/06 20:10:02","新北市蘆洲區三民路171巷2號","121.470805","25.087065","6501400","蘆洲區"
"247012","056-VK","2019/08/06 20:10:04","新北市蘆洲區民族路250巷13號","121.479991666667","25.0890666666667","6501400","蘆洲區"
"247016","053-VK","2019/08/06 20:09:59","新北市蘆洲區光華路178號","121.465028333333","25.0820533333333","6501400","蘆洲區"
"247020","007-UY","2019/08/06 20:09:54","新北市蘆洲區民義街68巷30號","121.4742","25.0892","6501400","蘆洲區"
"247006","002-UY","2019/08/06 20:09:48","新北市蘆洲區永安南路二段16巷8號","121.467776666667","25.077335","6501400","蘆洲區"
"226004","312-R5","2019/08/06 20:09:49","新北市平溪區嶺腳里嶺腳寮1-5號","121.745686666667","25.028185","6502400","平溪區"
"228003","828-UM","2019/08/06 20:09:52","新北市貢寮區仁理村研海街20號","121.928291666667","25.037925","6502600","貢寮區"
"224002","639-TC","2019/08/06 20:10:02","新北市瑞芳區員山子路員山巷22號","121.816963333333","25.10444","6501200","瑞芳區"
"224008","273-VK","2019/08/06 20:09:51","新北市瑞芳區靜安路四段35巷1號","121.795166666667","25.0981766666667","6501200","瑞芳區"
"222001","KEA-2212","2019/08/06 20:09:42","新北市深坑區北深路三段191號","121.6012","25.00369","6501800","深坑區"
"251004","009-UM","2019/08/06 20:10:01","新北市淡水區民族路31-12號","121.46152","25.13664","6501000","淡水區"
"251010","012-UM","2019/08/06 20:09:53","新北市淡水區新市三路一段312號","121.430703333333","25.1970233333333","6501000","淡水區"
"251015","KEA-2871","2019/08/06 20:09:55","新北市淡水區泉洲厝25-2號","121.484615","25.1895866666667","6501000","淡水區"
"251016","179-VK","2019/08/06 20:10:03","新北市淡水區番子田19號","121.457418333333","25.228975","6501000","淡水區"
"251013","180-VK","2019/08/06 20:09:52","新北市淡水區奎柔山路578號","121.468508333333","25.205115","6501000","淡水區"
"251008","181-VK","2019/08/06 20:10:03","新北市淡水區淡海路72巷30弄18號","121.425256666667","25.1826083333333","6501000","淡水區"
"251012","441-VK","2019/08/06 20:09:57","新北市淡水區淡金路三段230號","121.449005","25.20527","6501000","淡水區"
"251005","443-VK","2019/08/06 20:09:43","新北市淡水區學府路136巷36號","121.451926666667","25.1725416666667","6501000","淡水區"
"251001","559-UM","2019/08/06 20:09:59","新北市淡水區淡金路二段15號","121.44637","25.1891783333333","6501000","淡水區"
"251006","561-UM","2019/08/06 20:09:53","新北市淡水區北新路141巷60弄13號","121.448111666667","25.17987","6501000","淡水區"
"251009","575-R6","2019/08/06 20:09:46","新北市淡水區英專路28巷5號","121.446076666667","25.169965","6501000","淡水區"
"251014","577-R6","2019/08/06 20:09:53","新北市淡水區石頭厝2-1號","121.458181666667","25.2357266666667","6501000","淡水區"
"251011","650-BX","2019/08/06 20:09:52","新北市淡水區崁頂57號","121.442586666667","25.197115","6501000","淡水區"
"251002","672-BX","2019/08/06 20:09:50","新北市淡水區中正路332-1號","121.435878333333","25.1731233333333","6501000","淡水區"
"251003","766-UM","2019/08/06 20:09:48","新北市淡水區中山北路二段1號","121.444291666667","25.18299","6501000","淡水區"
"207003","550-UM","2019/08/06 20:09:59","新北市萬里區大鵬里萬里加投205-1號","121.643621666667","25.2152516666667","6502800","萬里區"
"207004","225-TW","2019/08/06 20:09:55","新北市萬里區北基里孝七街29號","121.68249","25.1766566666667","6502800","萬里區"
"252002","178-VK","2019/08/06 20:09:56","新北市三芝區三民街2號","121.504063333333","25.258035","6502100","三芝區"
"237012","275-BY","2019/08/06 20:09:47","新北市三峽區中華路31號","121.372845","24.9312866666667","6500900","三峽區"
"237014","433-BY","2019/08/06 20:10:00","新北市三峽區介壽路一段15號","121.375386666667","24.933635","6500900","三峽區"
"237006","5529-G3","2019/08/06 20:09:58","新北市三峽區嘉添79號","121.368721666667","24.9100683333333","6500900","三峽區"
"237015","649-BX","2019/08/06 20:09:58","新北市三峽區介壽路二段138巷9號","121.395795","24.9340516666667","6500900","三峽區"
"237005","AKY-6261","2019/08/06 20:09:52","新北市三峽區三樹路98巷74弄91號","121.38506","24.93848","6500900","三峽區"
"236042","KED-0685","2019/08/06 20:09:54","新北市土城區學享街41號","121.451676666667","24.9872083333333","6501300","土城區"
"236079","166-UM","2019/08/06 20:10:01","新北市土城區福安街2號","121.42036","24.9652466666667","6501300","土城區"
"236030","253-BX","2019/08/06 20:09:47","新北市土城區中央路一段118巷1弄11號","121.445845","24.9878316666667","6501300","土城區"
"236026","269-VK","2019/08/06 20:10:00","新北市土城區裕生路102巷19號","121.445776666667","24.9848866666667","6501300","土城區"
"236014","270-VK","2019/08/06 20:09:47","新北市土城區廣明街1號","121.455888333333","24.99171","6501300","土城區"
"236038","271-VK","2019/08/06 20:09:53","新北市土城區延吉街296巷1弄2號","121.464438333333","24.9845116666667","6501300","土城區"
"247010","KED-0683","2019/08/06 20:09:55","新北市蘆洲區信義路128號","121.479733333333","25.0825566666667","6501400","蘆洲區"
"236070","KEA-2877","2019/08/06 20:09:56","新北市土城區中央路三段149號","121.432185","24.965505","6501300","土城區"
"252001","KED-0821","2019/08/06 20:09:54","新北市三芝區公正街22號","121.499693333333","25.2580583333333","6502100","三芝區"
"236021","401-BY","2019/08/06 20:09:58","新北市土城區金城路三段208號","121.47179","24.9896716666667","6501300","土城區"
"236059","912-UM","2019/08/06 20:09:43","新北市土城區中央路二段378號","121.439851666667","24.9712983333333","6501300","土城區"
"236049","913-UM","2019/08/06 20:09:45","新北市土城區金城路三段27號","121.4654","24.986525","6501300","土城區"
"242061","986-R7","2019/08/06 20:09:59","新北市新莊區瓊林路98號","121.443701666667","25.02674","6500500","新莊區"
"242002","751-BX","2019/08/06 20:09:59","新北市新莊區中正路147-16號","121.45733","25.0369333333333","6500500","新莊區"
"242029","615-BX","2019/08/06 20:09:57","新北市新莊區中原路305號","121.447211666667","25.0545533333333","6500500","新莊區"
"242058","612-BX","2019/08/06 20:09:54","新北市新莊區八德街125號","121.423961666667","25.0206433333333","6500500","新莊區"
"242046","566-BX","2019/08/06 20:09:49","新北市新莊區裕民街85巷11號","121.41927","25.023505","6500500","新莊區"
"242056","441-UM","2019/08/06 20:10:00","新北市新莊區新莊路649巷13弄14號","121.445561666667","25.0318166666667","6500500","新莊區"
"242005","440-UM","2019/08/06 20:09:52","新北市新莊區中原東路89巷5號","121.46354","25.0536833333333","6500500","新莊區"
"242042","415-TV","2019/08/06 20:09:53","新北市新莊區青山路一段177號","121.400833333333","25.0299683333333","6500500","新莊區"
"242011","413-TV","2019/08/06 20:09:52","新北市新莊區中信街67巷8號","121.44859","25.0507766666667","6500500","新莊區"
"242048","400-BY","2019/08/06 20:09:49","新北市新莊區四維路152巷23號","121.422133333333","25.0225716666667","6500500","新莊區"
"242025","362-BY","2019/08/06 20:09:53","新北市新莊區五工三路80號","121.45892","25.064995","6500500","新莊區"
"242023","353-BY","2019/08/06 20:09:51","新北市新莊區化成路568號","121.46621","25.0541033333333","6500500","新莊區"
"242013","132-UY","2019/08/06 20:09:54","新北市新莊區中港路483巷10號","121.45155","25.0497083333333","6500500","新莊區"
"242037","135-UY","2019/08/06 20:09:48","新北市新莊區建安街5號","121.428821666667","25.02675","6500500","新莊區"
"242054","172-VK","2019/08/06 20:09:54","新北市新莊區西盛街385號","121.427965","25.0130266666667","6500500","新莊區"
"242015","173-VK","2019/08/06 20:09:51","新北市新莊區中平路26巷32號","121.446151666667","25.0432666666667","6500500","新莊區"
"242021","175-VK","2019/08/06 20:10:04","新北市新莊區中興街13號","121.449193333333","25.03618","6500500","新莊區"
"242039","176-VK","2019/08/06 20:09:41","新北市新莊區民安西路105號","121.426935","25.0185816666667","6500500","新莊區"
"242019","KED-0687","2019/08/06 20:09:58","新北市新莊區民樂街63號","121.457696666667","25.0418016666667","6500500","新莊區"
"242009","346-TH","2019/08/06 20:09:55","新北市新莊區昌盛街35巷2弄1號","121.45411","25.05038","6500500","新莊區"
"242051","347-TH","2019/08/06 20:09:46","新北市新莊區民安西路176號","121.425918333333","25.0158833333333","6500500","新莊區"
"242034","348-TH","2019/08/06 20:09:42","新北市新莊區中正路318巷6號","121.44641","25.0352083333333","6500500","新莊區"
"242007","349-TH","2019/08/06 20:09:43","新北市新莊區思源路451號","121.459556666667","25.053345","6500500","新莊區"
"242032","350-TH","2019/08/06 20:09:52","新北市新莊區忠孝街29巷40號","121.443641666667","25.0373066666667","6500500","新莊區"
"242017","351-TH","2019/08/06 20:09:57","新北市新莊區中港路407號","121.452081666667","25.0471466666667","6500500","新莊區"
"238021","KEA-2539","2019/08/06 20:09:41","新北市樹林區八德街648號","121.396501666667","24.969115","6500700","樹林區"
"221008","489-VK","2019/08/06 20:09:51","台北市內湖區康樂街125巷2號","121.619513333333","25.0734416666667","6501100","汐止區"
"221036","130-UY","2019/08/06 20:09:53","新北市汐止區新台五路二段39號","121.663188333333","25.0663433333333","6501100","汐止區"
"221015","131-UY","2019/08/06 20:09:53","新北市汐止區建成路13號","121.664535","25.0725333333333","6501100","汐止區"
"221012","278-VK","2019/08/06 20:09:52","新北市汐止區大同路三段457號","121.678781666667","25.071255","6501100","汐止區"
"221023","279-VK","2019/08/06 20:09:47","新北市汐止區明峰街216號","121.627098333333","25.0689066666667","6501100","汐止區"
"221032","280-BY","2019/08/06 20:09:45","新北市汐止區力行街59巷9弄6號","121.617245","25.0498233333333","6501100","汐止區"
"221027","281-BY","2019/08/06 20:09:52","新北市汐止區民生街11號","121.660141666667","25.068825","6501100","汐止區"
"221010","297-VK","2019/08/06 20:09:53","新北市汐止區連峰街270號","121.644378333333","25.0816433333333","6501100","汐止區"
"221029","298-VK","2019/08/06 20:09:49","新北市汐止區樟樹一路119巷12號","121.641196666667","25.0643833333333","6501100","汐止區"
"221021","299-VK","2019/08/06 20:09:46","新北市汐止區新台五路一段159號","121.653923333333","25.0625116666667","6501100","汐止區"
"221031","353-TW","2019/08/06 20:09:45","新北市汐止區福德一路260號","121.63316","25.0644116666667","6501100","汐止區"
"221035","622-UM","2019/08/06 20:09:45","新北市汐止區長江街39巷21號","121.6553","25.0720983333333","6501100","汐止區"
"221025","623-UM","2019/08/06 20:09:50","新北市汐止區秀峰路74號","121.659786666667","25.0643183333333","6501100","汐止區"
"221038","646-BX","2019/08/06 20:09:56","新北市汐止區忠孝東路512號","121.666896666667","25.0754883333333","6501100","汐止區"
"221033","647-BX","2019/08/06 20:09:50","新北市汐止區東勢街201巷104號","121.633468333333","25.0429283333333","6501100","汐止區"
"221002","707-TV","2019/08/06 20:09:59","新北市汐止區伯爵街2巷7號","121.642331666667","25.0754","6501100","汐止區"
"221018","753-BX","2019/08/06 20:09:49","新北市汐止區茄苳路322號","121.673606666667","25.0664783333333","6501100","汐止區"
"220079","145-BY","2019/08/06 20:09:58","新北市板橋區建國街127號","121.460975","25.0177566666667","6500100","板橋區"
"220080","200-UY","2019/08/06 20:09:50","新北市板橋區大觀路二段153巷14號","121.446308333333","25.0004616666667","6500100","板橋區"
"220082","610-BX","2019/08/06 20:09:53","新北市板橋區篤行路二段116-3號","121.43136","24.9910566666667","6500100","板橋區"
"220101","280-UM","2019/08/06 20:09:58","新北市板橋區雙十路二段71號","121.476281666667","25.02676","6500100","板橋區"
"220083","286-VK","2019/08/06 20:10:01","新北市板橋區僑中二街48巷12號","121.445821666667","25.0103083333333","6500100","板橋區"
"220081","287-VK","2019/08/06 20:09:58","新北市板橋區僑中一街124巷20弄20號","121.446951666667","25.0138866666667","6500100","板橋區"
"220061","293-UM","2019/08/06 20:09:56","新北市板橋區中山路一段131號","121.462328333333","25.0104883333333","6500100","板橋區"
"242044","281-VK","2019/08/06 20:09:56","新北市新莊區中正路895-45號","121.412256666667","25.021315","6500500","新莊區"
"220075","303-R5","2019/08/06 20:09:45","新北市板橋區金華街10巷48弄75號","121.459731666667","25.0203866666667","6500100","板橋區"
"220062","305-R5","2019/08/06 20:09:46","新北市板橋區中山路二段337號","121.479448333333","25.0189166666667","6500100","板橋區"
"220055","461-BY","2019/08/06 20:09:45","新北市板橋區仁愛路86巷6號","121.460978333333","24.9992783333333","6500100","板橋區"
"220035","560-BX","2019/08/06 20:09:57","新北市板橋區新生街29巷15弄5號","121.456346666667","25.0219966666667","6500100","板橋區"
"220103","561-BX","2019/08/06 20:09:58","新北市板橋區漢生東路43巷2號","121.465773333333","25.016885","6500100","板橋區"
"220077","687-BX","2019/08/06 20:09:53","新北市板橋區僑中一街124巷22號","121.446235","25.01424","6500100","板橋區"
"220054","741-BX","2019/08/06 20:09:37","新北市板橋區實踐路93巷2號","121.464273333333","25.005225","6500100","板橋區"
"220074","895-R6","2019/08/06 20:10:04","新北市板橋區縣民大道一段275號","121.460488333333","25.0099533333333","6500100","板橋區"
"220073","985-R7","2019/08/06 20:10:00","新北市板橋區館前西路162號","121.452781666667","25.0085483333333","6500100","板橋區"
"220064","AAC-253","2019/08/06 20:09:45","新北市板橋區中山路一段206巷131號","121.472771666667","25.013205","6500100","板橋區"
"235068","KEA-2873","2019/08/06 20:09:40","新北市中和區福祥路85巷2弄6號","121.498713333333","25.0059083333333","6500300","中和區"
