"lineid","car","time","location","longitude","latitude","cityid","cityname"
"232018","290-BY","2019/08/01 07:39:39","新北市坪林區坪雙路二段18號","121.732665","24.9648933333333","6502000","坪林區"
"232007","291-BY","2019/08/01 07:39:42","新北市坪林區魚堀49號","121.701401666667","24.929885","6502000","坪林區"
"232010","375-UM","2019/08/01 07:39:31","新北市坪林區磨壁潭7號","121.721993333333","24.9384883333333","6502000","坪林區"
"232014","705-BZ","2019/08/01 07:39:33","新北市坪林區九芎根1號","121.673105","24.894045","6502000","坪林區"
"232001","758-BX","2019/08/01 07:39:44","新北市坪林區上坑子口23號","121.702645","24.9512383333333","6502000","坪林區"
"244003","248-BX","2019/08/01 07:39:26","新北市林口區頂福里53-1號","121.341875","25.0875416666667","6501700","林口區"
"244008","656-BX","2019/08/01 07:39:46","新北市林口區粉寮69號","121.405008333333","25.0908533333333","6501700","林口區"
"222006","289-BY","2019/08/01 07:39:30","新北市深坑區平埔街22巷19號","121.614653333333","25.001065","6501800","深坑區"
"226007","8452-VL","2019/08/01 07:39:25","新北市平溪區平湖里大厝6號","121.78004","25.0383516666667","6502400","平溪區"
"226003","AGD-0702","2019/08/01 07:27:19","新北市平溪區嶺腳里嶺腳寮83-2號","121.750168333333","25.0351183333333","6502400","平溪區"
"223003","205-TH","2019/08/01 07:38:32","新北市石碇區內楒仔腳4-1號","121.643168333333","24.9707233333333","6501900","石碇區"
"223008","406-TH","2019/08/01 07:36:07","新北市石碇區靜安路一段337號","121.698843333333","25.014655","6501900","石碇區"
"223001","592-UM","2019/08/01 07:39:43","新北市石碇區蓬菜寮7-2號","121.652718333333","24.97414","6501900","石碇區"
"223004","660-BX","2019/08/01 07:39:40","新北市石碇區八分寮55-2號","121.64456","25.01742","6501900","石碇區"
"223007","661-BX","2019/08/01 07:39:09","新北市石碇區靜安路一段337號","121.698888333333","25.014475","6501900","石碇區"
"227005","282-VK","2019/08/01 07:39:31","新北市雙溪區雙溪里太平路54號","121.864823333333","25.035425","6502500","雙溪區"
"252004","249-BX","2019/08/01 07:39:32","新北市三芝區店子里菜公坑75號","121.509436666667","25.2058283333333","6502100","三芝區"
"252007","AAC-283","2019/08/01 07:39:33","新北市三芝區古庄里古庄83號","121.488975","25.27025","6502100","三芝區"
"237014","760-BX","2019/08/01 07:39:42","新北市三峽區東眼7-1號","121.407478333333","24.86383","6500900","三峽區"
"226005","ANY-2373","2019/08/01 07:39:40","新北市平溪區石底里公園街18-3號","121.733476666667","25.0256566666667","6502400","平溪區"
"242038","AAC-296","2019/08/01 07:39:40","新北市新莊區三和路12-21號","121.442251666667","25.0379316666667","6500500","新莊區"
"242001","751-BX","2019/08/01 07:39:35","新北市新莊區新泰路357巷3弄1號","121.442376666667","25.041525","6500500","新莊區"
"242028","615-BX","2019/08/01 07:39:31","新北市新莊區新泰路357巷3弄57號","121.442086666667","25.0393216666667","6500500","新莊區"
"242057","612-BX","2019/08/01 07:39:29","新北市新莊區新泰路357巷3弄57號","121.442171666667","25.0392416666667","6500500","新莊區"
"242049","497-BY","2019/08/01 07:39:43","新北市新莊區三和路10號","121.442083333333","25.0360116666667","6500500","新莊區"
"242055","441-UM","2019/08/01 07:39:40","新北市新莊區新泰路357巷3弄55號","121.44239","25.03985","6500500","新莊區"
"242010","413-TV","2019/08/01 07:39:26","新北市新莊區三和路12-21號","121.442286666667","25.0381416666667","6500500","新莊區"
"242047","400-BY","2019/08/01 07:39:43","新北市新莊區新泰路357巷3弄49號","121.44209","25.04012","6500500","新莊區"
"242024","362-BY","2019/08/01 07:39:29","新北市新莊區新泰路357巷3弄57號","121.442026666667","25.039035","6500500","新莊區"
"242022","353-BY","2019/08/01 07:39:28","新北市新莊區新泰路357巷3弄57號","121.442085","25.0392266666667","6500500","新莊區"
"242012","132-UY","2019/08/01 07:39:45","新北市新莊區三和路12-21號","121.441941666667","25.03885","6500500","新莊區"
"242035","135-UY","2019/08/01 07:39:41","新北市新莊區三和路12-21號","121.442081666667","25.0387283333333","6500500","新莊區"
"242014","173-VK","2019/08/01 07:39:36","新北市新莊區三和路12-21號","121.441928333333","25.0387266666667","6500500","新莊區"
"242020","175-VK","2019/08/01 07:39:34","新北市新莊區三和路12-21號","121.441953333333","25.0387133333333","6500500","新莊區"
"242018","KED-0687","2019/08/01 07:39:33","新北市新莊區三和路12-21號","121.442356666667","25.0382283333333","6500500","新莊區"
"242033","348-TH","2019/08/01 07:39:30","新北市新莊區新泰路255巷83號","121.44207","25.03884","6500500","新莊區"
"242030","350-TH","2019/08/01 07:39:38","新北市新莊區新泰路255巷83號","121.44212","25.0389016666667","6500500","新莊區"
"242016","351-TH","2019/08/01 07:39:25","新北市新莊區新泰路357巷3弄57號","121.442028333333","25.0395583333333","6500500","新莊區"
"242008","280-VK","2019/08/01 07:39:30","新北市新莊區三和路12-21號","121.442065","25.03834","6500500","新莊區"
