"lineid","car","time","location","longitude","latitude","cityid","cityname"
"232010","375-UM","2019/08/01 07:49:31","新北市坪林區厚德岡坑3號","121.731205","24.9404133333333","6502000","坪林區"
"232014","705-BZ","2019/08/01 07:49:33","新北市坪林區九芎根10號","121.66448","24.8814983333333","6502000","坪林區"
"232001","758-BX","2019/08/01 07:49:24","新北市坪林區下坑子口6-15號","121.711003333333","24.944205","6502000","坪林區"
"244003","248-BX","2019/08/01 07:49:25","新北市林口區頂福20號","121.353133333333","25.093405","6501700","林口區"
"244012","KEA-2802","2019/08/01 07:49:37","新北市林口區粉寮69號","121.404758333333","25.0907883333333","6501700","林口區"
"244008","656-BX","2019/08/01 07:49:24","新北市林口區粉寮69號","121.405071666667","25.0908583333333","6501700","林口區"
"222006","289-BY","2019/08/01 07:49:30","新北市深坑區平埔街22巷19號","121.614618333333","25.0010583333333","6501800","深坑區"
"231008","192-VK","2019/08/01 07:49:40","新北市新店區安康路一段119號","121.528355","24.96178","6500600","新店區"
"226007","8452-VL","2019/08/01 07:49:44","新北市平溪區平湖里大厝31號","121.780426666667","25.0288366666667","6502400","平溪區"
"226003","AGD-0702","2019/08/01 07:49:39","新北市平溪區新寮里頂寮子4號","121.77382","25.051755","6502400","平溪區"
"223003","205-TH","2019/08/01 07:49:12","新北市石碇區蛇舌子6-3號","121.664926666667","24.96821","6501900","石碇區"
"223008","406-TH","2019/08/01 07:36:07","新北市石碇區靜安路一段337號","121.698843333333","25.014655","6501900","石碇區"
"223001","592-UM","2019/08/01 07:49:03","新北市石碇區蛇舌子3號","121.665008333333","24.9677833333333","6501900","石碇區"
"223004","660-BX","2019/08/01 07:49:40","新北市石碇區靜安路一段28號","121.642373333333","25.01157","6501900","石碇區"
"223007","661-BX","2019/08/01 07:39:09","新北市石碇區靜安路一段337號","121.698888333333","25.014475","6501900","石碇區"
"227005","282-VK","2019/08/01 07:49:31","新北市雙溪區雙溪里太平路54號","121.86481","25.03546","6502500","雙溪區"
"252004","249-BX","2019/08/01 07:49:32","新北市三芝區店子里菜公坑99-4號","121.514025","25.207445","6502100","三芝區"
"252007","AAC-283","2019/08/01 07:49:33","新北市三芝區後厝里北勢子41-7號","121.472536666667","25.2530366666667","6502100","三芝區"
"237014","760-BX","2019/08/01 07:40:42","新北市三峽區東眼10號","121.405341666667","24.8615733333333","6500900","三峽區"
"226005","ANY-2373","2019/08/01 07:49:40","新北市平溪區嶺腳里中華街15號","121.739878333333","25.02524","6502400","平溪區"
"242038","AAC-296","2019/08/01 07:49:40","新北市新莊區民安路445號","121.434328333333","25.022535","6500500","新莊區"
"242059","986-R7","2019/08/01 07:49:35","新北市新莊區中正路400號","121.441988333333","25.034285","6500500","新莊區"
"242001","751-BX","2019/08/01 07:49:35","新北市新莊區瓊林路104-18號","121.443151666667","25.0261466666667","6500500","新莊區"
"242028","615-BX","2019/08/01 07:49:31","新北市新莊區幸福路602號","121.452113333333","25.0493016666667","6500500","新莊區"
"242057","612-BX","2019/08/01 07:49:29","新北市新莊區新泰路357巷3弄57號","121.442178333333","25.0392416666667","6500500","新莊區"
"242049","497-BY","2019/08/01 07:49:43","新北市新莊區瓊林路172-6號","121.440955","25.0230883333333","6500500","新莊區"
"242006","442-UM","2019/08/01 07:49:27","新北市新莊區新泰路357巷3弄57號","121.44247","25.0397716666667","6500500","新莊區"
"242055","441-UM","2019/08/01 07:49:40","新北市新莊區新莊路664-2號","121.442386666667","25.03291","6500500","新莊區"
"242003","440-UM","2019/08/01 07:49:35","新北市新莊區中和街50號","121.448136666667","25.0444783333333","6500500","新莊區"
"242040","415-TV","2019/08/01 07:49:30","新北市新莊區新樹路52-9號","121.436655","25.02716","6500500","新莊區"
"242010","413-TV","2019/08/01 07:49:26","新北市新莊區中港路397號","121.451943333333","25.04695","6500500","新莊區"
"242047","400-BY","2019/08/01 07:49:43","新北市新莊區裕民街19巷6號","121.420013333333","25.0251883333333","6500500","新莊區"
"242024","362-BY","2019/08/01 07:49:29","新北市新莊區復興路一段89號","121.448553333333","25.0426616666667","6500500","新莊區"
"242022","353-BY","2019/08/01 07:49:28","新北市新莊區中和街6號","121.44847","25.042995","6500500","新莊區"
"242012","132-UY","2019/08/01 07:49:24","新北市新莊區新泰路500號","121.442438333333","25.045995","6500500","新莊區"
"242035","135-UY","2019/08/01 07:49:41","新北市新莊區新樹路19號","121.440491666667","25.03256","6500500","新莊區"
"242052","172-VK","2019/08/01 07:49:29","新北市新莊區中正路471號","121.44204","25.0333683333333","6500500","新莊區"
"242014","173-VK","2019/08/01 07:49:36","新北市新莊區三和路12-9號","121.442106666667","25.0367","6500500","新莊區"
"242020","175-VK","2019/08/01 07:49:34","新北市新莊區中港一街41號","121.450773333333","25.045515","6500500","新莊區"
"242018","KED-0687","2019/08/01 07:49:33","新北市新莊區新泰路357巷3弄57號","121.442401666667","25.0398016666667","6500500","新莊區"
"242033","348-TH","2019/08/01 07:49:30","新北市新莊區中正路400號","121.442028333333","25.03424","6500500","新莊區"
"242030","350-TH","2019/08/01 07:49:19","新北市新莊區新泰路500號","121.442373333333","25.046","6500500","新莊區"
"242016","351-TH","2019/08/01 07:49:45","新北市新莊區新泰路502巷18號","121.443013333333","25.0464733333333","6500500","新莊區"
"242043","281-VK","2019/08/01 07:49:27","新北市新莊區中正路466號","121.43909","25.0333983333333","6500500","新莊區"
"242008","280-VK","2019/08/01 07:49:30","新北市新莊區新泰路500號","121.442446666667","25.0461583333333","6500500","新莊區"
