"lineid","car","time","location","longitude","latitude","cityid","cityname"
"244018","402-UM","2019/09/12 10:29:45","新北市林口區粉寮69號","121.405016666667","25.09079","6501700","林口區"
"244022","483-VK","2019/09/12 10:29:24","新北市林口區文林六街27巷36號","121.370593333333","25.0814233333333","6501700","林口區"
"222006","016-RS","2019/09/12 10:29:37","新北市深坑區大崙腳8-1號","121.619756666667","24.99197","6501800","深坑區"
"231069","189-VK","2019/09/12 10:29:40","新北市新店區新潭路三段181-1號","121.509738333333","24.906775","6500600","新店區"
"231008","192-VK","2019/09/12 10:29:41","新北市新店區松林路83號","121.54768","24.9079866666667","6500600","新店區"
"252007","AAC-283","2019/09/12 10:29:44","新北市三芝區埔頭里埔頭47號","121.500996666667","25.2625983333333","6502100","三芝區"
"242003","751-BX","2019/09/12 10:29:23","新北市八里區中山路三段390號","121.368163333333","25.135275","6500500","新莊區"
"242008","349-TH","2019/09/12 10:29:34","新北市新莊區瓊林南路77-41號","121.437616666667","25.0125316666667","6500500","新莊區"
"233003","KEA-2870","2019/09/12 10:29:34","新北市新店區新烏路二段315號","121.549725","24.91105","6502900","烏來區"
