"lineid","car","time","location","longitude","latitude","cityid","cityname"
"234044","148-BY","2019/09/12 14:09:35","新北市永和區得和路394號","121.525375","24.9992283333333","6500400","永和區"
"234078","298-R6","2019/09/12 14:09:43","新北市永和區國中路96號","121.524325","25.0062916666667","6500400","永和區"
"234062","337-UY","2019/09/12 14:09:34","新北市永和區永元路95巷3號","121.522201666667","25.001925","6500400","永和區"
"234084","338-UY","2019/09/12 14:09:43","新北市永和區中正路618號","121.517068333333","25.00772","6500400","永和區"
"234068","552-UM","2019/09/12 14:09:41","新北市永和區永貞路10巷14號","121.520106666667","25.007295","6500400","永和區"
"234036","553-UM","2019/09/12 14:09:39","新北市永和區民樂街39巷18弄2號","121.528526666667","24.99954","6500400","永和區"
"234015","745-BX","2019/09/12 14:09:40","新北市永和區文化路10號","121.515478333333","25.0150216666667","6500400","永和區"
"234028","746-BX","2019/09/12 14:09:31","新北市永和區民權路84號","121.51991","24.9970366666667","6500400","永和區"
"234052","KEA-2590","2019/09/12 14:09:22","新北市永和區竹林路39巷46號","121.520341666667","25.015245","6500400","永和區"
"234005","KED-0605","2019/09/12 14:09:33","新北市永和區中和路429-1號","121.509338333333","25.00094","6500400","永和區"
"234012","KEA-2591","2019/09/12 14:09:30","新北市永和區仁愛路273號","121.505988333333","25.0098683333333","6500400","永和區"
"234060","AAD-866","2019/09/12 14:09:40","新北市中和區安平路222號","121.514073333333","25.0002333333333","6500400","永和區"
"234040","862-TW","2019/09/12 14:09:40","新北市永和區雙和街43號","121.508893333333","25.0028416666667","6500400","永和區"
"234048","863-TW","2019/09/12 14:09:30","新北市永和區環河西路二段91號","121.506551666667","25.0149283333333","6500400","永和區"
"234025","9371-KE","2019/09/12 14:09:36","新北市永和區安樂路423號","121.514435","25.004105","6500400","永和區"
"248015","026-BX","2019/09/12 14:09:35","新北市五股區成泰路三段543巷27號","121.450311666667","25.10261","6501500","五股區"
"248007","KED-0815","2019/09/12 14:09:27","新北市五股區中興路一段118巷17號","121.465931666667","25.0742616666667","6501500","五股區"
"248017","KED-0813","2019/09/12 14:09:31","新北市五股區民義路一段256號","121.426263333333","25.0924766666667","6501500","五股區"
"248011","247-BX","2019/09/12 14:09:28","新北市五股區工商路36巷9號","121.439748333333","25.0842666666667","6501500","五股區"
"248003","677-BX","2019/09/12 14:09:39","新北市五股區工商路148號","121.433741666667","25.0870966666667","6501500","五股區"
"248001","678-BX","2019/09/12 14:09:32","新北市五股區成泰路三段577巷77號","121.449675","25.1037266666667","6501500","五股區"
"234022","9380-KE","2019/09/12 14:09:44","新北市永和區竹林路39巷19弄4號","121.518721666667","25.0149633333333","6500400","永和區"
"234076","969-R7","2019/09/12 14:09:29","新北市永和區民族街67巷18號","121.519505","24.9971133333333","6500400","永和區"
"234072","AAC-211","2019/09/12 14:09:37","新北市永和區豫溪街156-1號","121.522768333333","25.0096983333333","6500400","永和區"
"234066","AAC-212","2019/09/12 14:09:25","新北市永和區保平路236巷15弄1號","121.508523333333","25.00624","6500400","永和區"
"234001","AAC-295","2019/09/12 14:09:36","新北市永和區中正路720號","121.515846666667","25.01003","6500400","永和區"
"243004","AAD-798","2019/09/12 14:09:41","新北市泰山區辭修路10-11號","121.429616666667","25.05804","6501600","泰山區"
"243002","297-R6","2019/09/12 14:09:39","新北市泰山區明志路一段458巷11號","121.43002","25.05581","6501600","泰山區"
"243006","KEA-2801","2019/09/12 14:09:31","新北市泰山區泰林路二段478號","121.425235","25.0642233333333","6501600","泰山區"
"243008","421-VK","2019/09/12 14:09:43","新北市泰山區明志路二段353號","121.42538","25.044405","6501600","泰山區"
"243001","KEA-2215","2019/09/12 14:09:44","新北市泰山區楓樹街15巷5號","121.43476","25.063065","6501600","泰山區"
"243003","KEA-2216","2019/09/12 14:09:32","新北市泰山區明志路二段325號","121.425848333333","25.0450366666667","6501600","泰山區"
"243005","646-TV","2019/09/12 14:09:41","新北市泰山區明志路三段277號","121.42312","25.0368983333333","6501600","泰山區"
"243007","680-BX","2019/09/12 14:09:43","新北市泰山區明志路一段384號","121.430703333333","25.0574566666667","6501600","泰山區"
"231030","002-UM","2019/09/12 14:09:32","新北市新店區安興路7號","121.514946666667","24.968315","6500600","新店區"
"231024","0291-UT","2019/09/12 14:09:44","新北市新店區中央路151號","121.529265","24.9720233333333","6500600","新店區"
"231027","0293-UT","2019/09/12 14:09:32","新北市新店區中興路一段34號","121.538723333333","24.95873","6500600","新店區"
"231005","046-UY","2019/09/12 14:09:30","新北市新店區中興路三段309-1號","121.541886666667","24.9859266666667","6500600","新店區"
"231029","106-UY","2019/09/12 14:09:29","新北市新店區安康路二段125號","121.512415","24.9612733333333","6500600","新店區"
"231013","108-UY","2019/09/12 14:09:33","新北市新店區北新路三段65巷34弄18號","121.540106666667","24.981685","6500600","新店區"
"231036","110-UY","2019/09/12 14:09:36","新北市新店區安祥路109巷1弄51號","121.477436666667","24.9606766666667","6500600","新店區"
"231031","256-BX","2019/09/12 14:09:36","新北市新店區碧潭路42號","121.534315","24.9565583333333","6500600","新店區"
"231023","260-TV","2019/09/12 14:09:43","新北市新店區文中路37號","121.539261666667","24.956795","6500600","新店區"
"231003","268-BY","2019/09/12 14:09:22","新北市新店區中興路一段29號","121.53897","24.9594233333333","6500600","新店區"
"231035","278-BY","2019/09/12 14:09:32","新北市新店區安和路二段115號","121.518681666667","24.9704","6500600","新店區"
"231017","AAD-862","2019/09/12 14:09:30","新北市新店區郵政路99號","121.55441","24.9513483333333","6500600","新店區"
"231006","355-BY","2019/09/12 14:09:45","新北市新店區北宜路二段209號","121.553158333333","24.9533083333333","6500600","新店區"
"231038","3712-VJ","2019/09/12 14:09:40","新北市新店區安康路一段17號","121.53332","24.9602933333333","6500600","新店區"
"231025","4715-K9","2019/09/12 14:09:30","新北市新店區自立街23號","121.537591666667","24.9794816666667","6500600","新店區"
"231021","515-UM","2019/09/12 14:09:42","新北市新店區湖子內路22號","121.542465","24.9308133333333","6500600","新店區"
"231034","616-UM","2019/09/12 14:09:30","新北市新店區車子路11號","121.503055","24.9520583333333","6500600","新店區"
"231002","618-UM","2019/09/12 14:09:29","新北市新店區中正路558號","121.533636666667","24.987245","6500600","新店區"
"231011","KED-0819","2019/09/12 14:09:40","新北市新店區大新街9巷28號","121.54428","24.9665983333333","6500600","新店區"
"231018","718-UY","2019/09/12 14:09:28","新北市新店區中央五街32號","121.528731666667","24.9748433333333","6500600","新店區"
"231028","897-TW","2019/09/12 14:09:31","新北市新店區安和路三段61號","121.517983333333","24.98317","6500600","新店區"
"231001","898-TW","2019/09/12 14:09:38","新北市新店區中華路70巷1號","121.538893333333","24.9693416666667","6500600","新店區"
"231004","899-TW","2019/09/12 14:09:34","新北市新店區北新路二段226號","121.542868333333","24.97725","6500600","新店區"
"231037","AKT-0513","2019/09/12 14:09:38","新北市新店區安康路三段165巷2弄7號","121.48915","24.9513016666667","6500600","新店區"
"235030","003-UY","2019/09/12 14:09:39","新北市中和區廣福路48號","121.504143333333","25.0019566666667","6500300","中和區"
"235027","006-UY","2019/09/12 14:09:34","新北市中和區連勝街121巷16號","121.495088333333","24.9944466666667","6500300","中和區"
"235020","096-UM","2019/09/12 14:09:36","新北市中和區員山路534號","121.478711666667","25.0098516666667","6500300","中和區"
"235003","097-UM","2019/09/12 14:09:28","新北市中和區秀峰街119巷6弄2號","121.519718333333","24.990055","6500300","中和區"
"235029","098-UM","2019/09/12 14:09:43","新北市中和區中山路二段64巷12弄13號","121.504125","25.0055783333333","6500300","中和區"
"235004","150-BY","2019/09/12 14:09:30","新北市中和區宜安路121號","121.509951666667","24.9978933333333","6500300","中和區"
"235022","151-BY","2019/09/12 14:09:32","新北市中和區連城路477巷6弄18號","121.482501666667","24.9950433333333","6500300","中和區"
"235019","183-VK","2019/09/12 14:09:27","新北市中和區中山路三段177號","121.472888333333","25.006095","6500300","中和區"
"235002","185-VK","2019/09/12 14:09:45","新北市中和區大仁街10巷27弄4號","121.519203333333","24.992755","6500300","中和區"
"235013","186-VK","2019/09/12 14:09:34","新北市中和區景新街176號","121.506193333333","24.9964216666667","6500300","中和區"
"235031","255-BX","2019/09/12 14:09:28","新北市中和區中正路683號","121.48507","24.9976883333333","6500300","中和區"
"235008","293-VK","2019/09/12 14:09:38","新北市中和區復興路327巷4號","121.500668333333","24.98984","6500300","中和區"
"235036","301-VK","2019/09/12 14:09:40","新北市中和區中山路二段258號","121.4976","25.0025083333333","6500300","中和區"
"235007","352-BY","2019/09/12 14:09:43","新北市中和區景平路116號","121.519393333333","24.99167","6500300","中和區"
"235006","KEA-2878","2019/09/12 14:09:30","新北市中和區秀朗路三段22巷15號","121.525476666667","24.9960666666667","6500300","中和區"
"247015","KEA-2869","2019/09/12 14:09:44","新北市蘆洲區光華路46巷37號","121.467731666667","25.0843166666667","6501400","蘆洲區"
"247009","KED-0682","2019/09/12 14:09:37","新北市蘆洲區信義路184號","121.479188333333","25.0842116666667","6501400","蘆洲區"
"235014","4979-A6","2019/09/12 14:09:45","新北市中和區復興路249巷11弄3號","121.503553333333","24.989705","6500300","中和區"
"235033","4980-A6","2019/09/12 14:09:42","新北市中和區中山路二段181巷24號","121.501076666667","25.0019133333333","6500300","中和區"
"235034","558-UM","2019/09/12 14:09:28","新北市中和區中和路10號","121.499661666667","25.0022266666667","6500300","中和區"
"235009","565-BX","2019/09/12 14:09:29","新北市中和區景新街437巷18號","121.514246666667","24.9892916666667","6500300","中和區"
"235024","KED-0823","2019/09/12 14:09:31","新北市中和區新生街114巷1號","121.483381666667","25.00238","6500300","中和區"
"235018","640-BX","2019/09/12 14:09:43","新北市中和區國光街114號","121.469891666667","25.000695","6500300","中和區"
"235011","732-UM","2019/09/12 14:09:43","新北市中和區興南路一段58號","121.510858333333","24.9904666666667","6500300","中和區"
"235010","733-UM","2019/09/12 14:09:43","新北市中和區工專路111號","121.507465","24.9821733333333","6500300","中和區"
"235035","783-BX","2019/09/12 14:09:45","新北市中和區立德街98巷105號","121.48878","25.0083283333333","6500300","中和區"
"235021","801-TS","2019/09/12 14:09:29","新北市中和區員山路423巷16號","121.480296666667","25.0027916666667","6500300","中和區"
"235005","802-TS","2019/09/12 14:09:44","新北市中和區中安街178巷3弄4號","121.510596666667","24.9989766666667","6500300","中和區"
"235016","805-TS","2019/09/12 14:09:30","新北市中和區興南路二段261巷6-30號","121.503045","24.980075","6500300","中和區"
"235012","896-TW","2019/09/12 14:09:40","新北市中和區工專路147號","121.508363333333","24.9787766666667","6500300","中和區"
"235017","900-TW","2019/09/12 14:09:34","新北市中和區華福街71巷2號","121.467253333333","24.9969033333333","6500300","中和區"
"235028","911-UM","2019/09/12 14:09:35","新北市中和區連城路5號","121.499291666667","25.0023083333333","6500300","中和區"
"235015","157-BY","2019/09/12 14:09:29","新北市中和區興南路一段77號","121.510148333333","24.98907","6500300","中和區"
"235001","AAC-213","2019/09/12 14:09:26","新北市中和區秀朗路三段50巷12弄6號","121.524046666667","24.9952833333333","6500300","中和區"
"235023","AAC-215","2019/09/12 14:09:42","新北市中和區圓通路294巷1號","121.488853333333","24.9895133333333","6500300","中和區"
"220013","072-UY","2019/09/12 14:09:28","新北市板橋區民族路247巷3弄2號","121.470375","25.007685","6500100","板橋區"
"220034","073-UY","2019/09/12 14:09:33","新北市板橋區中正路249號","121.45585","25.0182833333333","6500100","板橋區"
"220105","075-UY","2019/09/12 14:09:34","新北市板橋區雙十路三段66巷1號","121.470505","25.031965","6500100","板橋區"
"220017","AAD-861","2019/09/12 14:09:43","新北市板橋區華興街48號","121.458326666667","25.0047","6500100","板橋區"
"220016","120-SR","2019/09/12 14:09:34","新北市板橋區翠華街6巷13號","121.48095","25.0242983333333","6500100","板橋區"
"247005","893-R6","2019/09/12 14:09:45","新北市蘆洲區九芎街62號","121.466816666667","25.0790733333333","6501400","蘆洲區"
"247019","546-UM","2019/09/12 14:09:26","新北市蘆洲區民族路426巷19號","121.472928333333","25.09306","6501400","蘆洲區"
"247017","500-BY","2019/09/12 14:09:26","新北市蘆洲區民族路227巷18號","121.477001666667","25.08922","6501400","蘆洲區"
"247011","337-TH","2019/09/12 14:09:10","新北市蘆洲區信義路298號","121.477598333333","25.087595","6501400","蘆洲區"
"247003","336-TH","2019/09/12 14:09:33","新北市蘆洲區中華街6巷5號","121.462268333333","25.08251","6501400","蘆洲區"
"247023","057-VK","2019/09/12 14:09:38","新北市蘆洲區光榮路70號","121.463266666667","25.0887266666667","6501400","蘆洲區"
"247013","056-VK","2019/09/12 14:09:40","新北市蘆洲區三民路155號","121.4714","25.0867883333333","6501400","蘆洲區"
"247021","007-UY","2019/09/12 14:09:35","新北市蘆洲區三民路165號","121.47139","25.0869583333333","6501400","蘆洲區"
"247001","001-UY","2019/09/12 14:09:29","新北市蘆洲區永平街63號","121.457418333333","25.09153","6501400","蘆洲區"
"223004","660-BX","2019/09/12 14:09:36","新北市石碇區小粗坑(潭邊里)9-2號","121.679095","24.9861516666667","6501900","石碇區"
"228005","097-TW","2019/09/12 14:09:36","新北市雙溪區三港里雙澳路91號","121.888898333333","25.05763","6502600","貢寮區"
"228004","212-TW","2019/09/12 14:09:38","新北市貢寮區雙玉里下雙溪街6-2號","121.914673333333","25.0150683333333","6502600","貢寮區"
"253003","6232-TK","2019/09/12 14:09:39","新北市石門區內石門62號","121.577956666667","25.2659133333333","6502200","石門區"
"253004","6251-TK","2019/09/12 14:09:37","新北市石門區坪林21號","121.593193333333","25.2686783333333","6502200","石門區"
"253002","637-UY","2019/09/12 14:09:30","新北市石門區七股33-1號","121.553441666667","25.2614033333333","6502200","石門區"
"253001","KEC-0718","2019/09/12 14:08:39","新北市石門區八甲40號","121.532033333333","25.26906","6502200","石門區"
"207002","749-BX","2019/09/12 14:09:45","新北市萬里區溪底里瑞泉路13號","121.604146666667","25.1452616666667","6502800","萬里區"
"207001","662-BX","2019/09/12 14:09:41","新北市萬里區磺潭里清水18號","121.637863333333","25.197715","6502800","萬里區"
"252005","AAC-283","2019/09/12 14:09:39","新北市三芝區橫山里橫山21號","121.54021","25.2627316666667","6502100","三芝區"
"236040","KED-0685","2019/09/12 14:09:33","新北市土城區城林路6巷80號","121.438533333333","24.97965","6501300","土城區"
"236029","253-BX","2019/09/12 14:09:40","新北市土城區城林路6巷80號","121.43821","24.9795533333333","6501300","土城區"
"236024","269-VK","2019/09/12 14:09:27","新北市土城區承天路24號","121.43945","24.96309","6501300","土城區"
"236012","270-VK","2019/09/12 14:09:31","新北市土城區青雲路39巷7號","121.460331666667","24.9875533333333","6501300","土城區"
"236032","271-VK","2019/09/12 14:09:45","新北市土城區青雲路449-1號","121.458815","24.9747683333333","6501300","土城區"
"247007","KED-0683","2019/09/12 14:09:38","新北市三重區三和路四段420-1號","121.480493333333","25.07997","6501400","蘆洲區"
"236068","KEA-2877","2019/09/12 14:09:40","新北市土城區明德路一段201號","121.463671666667","24.978835","6501300","土城區"
"236017","752-BX","2019/09/12 14:09:35","新北市土城區中正路82號","121.445141666667","24.9756366666667","6501300","土城區"
"236057","912-UM","2019/09/12 14:09:43","新北市土城區中央路四段218號","121.41567","24.957265","6501300","土城區"
"236045","913-UM","2019/09/12 14:09:43","新北市土城區明德路一段365-1號","121.453541666667","24.979035","6501300","土城區"
"236060","915-UM","2019/09/12 14:09:39","新北市土城區中正路82號","121.445205","24.9756733333333","6501300","土城區"
"236054","AAC-216","2019/09/12 14:09:34","新北市土城區中華路二段92號","121.438205","24.97474","6501300","土城區"
"220027","145-BY","2019/09/12 14:09:24","新北市板橋區中正路43號","121.456266666667","25.0134033333333","6500100","板橋區"
"220028","200-UY","2019/09/12 14:09:42","新北市板橋區大觀路二段7巷17號","121.447615","25.0034716666667","6500100","板橋區"
"220030","610-BX","2019/09/12 14:09:30","新北市板橋區溪北路2號","121.42647","24.9905683333333","6500100","板橋區"
"220050","245-BX","2019/09/12 14:09:40","新北市板橋區莊敬路25巷17號","121.474423333333","25.0270633333333","6500100","板橋區"
"220004","276-BY","2019/09/12 14:09:40","新北市土城區廣福街120號","121.456535","24.992705","6500100","板橋區"
"220020","277-BY","2019/09/12 14:09:30","新北市板橋區溪北路168號","121.430815","24.9880116666667","6500100","板橋區"
"220043","283-UM","2019/09/12 14:09:30","新北市板橋區吳鳳路19巷20號","121.466775","25.03072","6500100","板橋區"
"220019","283-VK","2019/09/12 14:09:34","新北市板橋區忠孝路136號","121.463503333333","25.0023533333333","6500100","板橋區"
"220001","285-VK","2019/09/12 14:09:31","新北市板橋區懷仁街35巷2弄1號","121.47693","25.019685","6500100","板橋區"
"220031","286-VK","2019/09/12 14:09:37","新北市板橋區龍興街97巷2號","121.444056666667","25.0027066666667","6500100","板橋區"
"220029","287-VK","2019/09/12 14:09:34","新北市板橋區南雅西路二段156巷2號","121.451796666667","25.0133766666667","6500100","板橋區"
"220009","293-UM","2019/09/12 14:09:30","新北市板橋區中山路二段318巷20弄19號","121.480933333333","25.0188433333333","6500100","板橋區"
"220010","295-UM","2019/09/12 14:09:34","新北市板橋區三民路二段居仁巷2弄25號","121.479981666667","25.01302","6500100","板橋區"
"220032","296-UM","2019/09/12 14:09:32","新北市板橋區溪崑一街47巷7號","121.430505","24.9908633333333","6500100","板橋區"
"220023","303-R5","2019/09/12 14:09:41","新北市板橋區林園街6號","121.454226666667","25.0095366666667","6500100","板橋區"
"220041","307-R5","2019/09/12 14:09:44","新北市板橋區松江街72巷1號","121.469006666667","25.0278633333333","6500100","板橋區"
"220047","317-R6","2019/09/12 14:09:38","新北市板橋區民有街47號","121.465531666667","25.02595","6500100","板橋區"
"220038","487-VK","2019/09/12 14:09:27","新北市板橋區文化路一段339號","121.466421666667","25.0206216666667","6500100","板橋區"
"220037","491-VK","2019/09/12 14:09:27","新北市板橋區莊敬路48-1號","121.472561666667","25.0271366666667","6500100","板橋區"
"220104","560-BX","2019/09/12 14:09:43","新北市板橋區中正路379巷1弄32號","121.453111666667","25.0218433333333","6500100","板橋區"
"220052","561-BX","2019/09/12 14:09:34","新北市板橋區文化路一段188巷1弄3號","121.466595","25.0198583333333","6500100","板橋區"
"220011","609-BX","2019/09/12 14:09:43","新北市板橋區三民路二段203-4號","121.479098333333","25.0135533333333","6500100","板橋區"
"220040","637-BX","2019/09/12 14:09:27","新北市板橋區文聖街206號","121.480298333333","25.0257883333333","6500100","板橋區"
"220005","686-BX","2019/09/12 14:09:33","新北市板橋區和平路143巷10號","121.463201666667","24.99595","6500100","板橋區"
"220025","687-BX","2019/09/12 14:09:27","新北市板橋區僑中二街156號","121.44467","25.0043366666667","6500100","板橋區"
"220002","741-BX","2019/09/12 14:09:26","新北市板橋區重慶路93巷32號","121.463355","25.00594","6500100","板橋區"
"220051","KEA-2699","2019/09/12 14:09:37","新北市板橋區田單街44號","121.482546666667","25.02776","6500100","板橋區"
"220003","827-TW","2019/09/12 14:09:41","新北市板橋區中山路一段158巷8-3號","121.466168333333","25.0116583333333","6500100","板橋區"
"220014","829-TW","2019/09/12 14:09:41","新北市板橋區民享街116巷2弄5號","121.477648333333","25.01562","6500100","板橋區"
"220039","831-TW","2019/09/12 14:09:45","新北市板橋區長江路一段106巷20弄11號","121.460165","25.028235","6500100","板橋區"
"220022","895-R6","2019/09/12 14:09:42","新北市板橋區林園街32號","121.453776666667","25.0101183333333","6500100","板橋區"
"220021","985-R7","2019/09/12 14:09:32","新北市板橋區中正路163號","121.456471666667","25.0160583333333","6500100","板橋區"
"220046","AAC-210","2019/09/12 14:09:41","新北市板橋區幸福路49號","121.461193333333","25.019935","6500100","板橋區"
"220012","AAC-253","2019/09/12 14:09:31","新北市板橋區漢生東路83巷2號","121.46696","25.0157333333333","6500100","板橋區"
"235032","KEA-2873","2019/09/12 14:09:24","新北市中和區景平路493巷3號","121.499853333333","24.9975933333333","6500300","中和區"
"235025","KEA-2875","2019/09/12 14:09:23","新北市中和區民利街61巷15號","121.478808333333","24.9981916666667","6500300","中和區"
"235026","KEA-2876","2019/09/12 14:09:40","新北市中和區中山路二段366巷13-1號","121.491733333333","25.0044516666667","6500300","中和區"
