"lineid","car","time","location","longitude","latitude","cityid","cityname"
"231030","002-UM","2019/09/12 15:59:29","新北市新店區永平街56號","121.516218333333","24.9846333333333","6500600","新店區"
"231013","108-UY","2019/09/12 15:59:33","新北市新店區安康路一段302-2號","121.5175","24.9639983333333","6500600","新店區"
"231039","187-VK","2019/09/12 15:59:31","新北市新店區吉安街2-1號","121.517098333333","24.9656733333333","6500600","新店區"
"231021","KEA-2219","2019/09/12 15:59:37","新北市新店區新烏路一段85巷5號","121.547755","24.9419716666667","6500600","新店區"
"231003","268-BY","2019/09/12 15:59:42","新北市新店區中興路二段234號","121.547721666667","24.9753933333333","6500600","新店區"
"231035","278-BY","2019/09/12 15:59:32","新北市新店區安民街251巷10弄1號","121.516781666667","24.97279","6500600","新店區"
"231017","AAD-862","2019/09/12 15:59:30","新北市新店區中正路265-2號","121.537951666667","24.9741583333333","6500600","新店區"
"231034","616-UM","2019/09/12 15:59:29","新北市新店區富貴街20巷17號","121.493205","24.94764","6500600","新店區"
"231018","718-UY","2019/09/12 15:59:28","新北市新店區中正路686號","121.534055","24.9902183333333","6500600","新店區"
"231046","719-UM","2019/09/12 15:59:21","新北市新店區安一路一段1-1號","121.519941666667","24.961095","6500600","新店區"
"231026","720-UM","2019/09/12 15:59:26","新北市新店區民生路45-1號","121.531891666667","24.9853766666667","6500600","新店區"
"231037","AKT-0513","2019/09/12 15:59:38","新北市新店區柴埕路59號","121.513603333333","24.9648283333333","6500600","新店區"
"241011","013-R5","2019/09/12 15:59:40","新北市三重區正義北路187號","121.496455","25.0679416666667","6500200","三重區"
"241028","022-UY","2019/09/12 15:59:35","新北市三重區正義南路111號","121.498263333333","25.0585716666667","6500200","三重區"
"241008","059-VK","2019/09/12 15:59:46","新北市三重區名源街29巷2號","121.48009","25.0606266666667","6500200","三重區"
"241015","062-VK","2019/09/12 15:59:45","新北市三重區重新路四段121號","121.485128333333","25.0518533333333","6500200","三重區"
"241017","063-VK","2019/09/12 15:59:36","新北市三重區大仁街48巷26號","121.490828333333","25.0644","6500200","三重區"
"241024","065-VK","2019/09/12 15:59:41","新北市三重區力行路一段38巷27號","121.485431666667","25.0670066666667","6500200","三重區"
"241007","066-VK","2019/09/12 15:59:34","新北市三重區慈愛街8號","121.484373333333","25.0784983333333","6500200","三重區"
"241002","090-VK","2019/09/12 15:59:42","新北市三重區重新路四段121號","121.484945","25.0518433333333","6500200","三重區"
"241018","268-UM","2019/09/12 15:59:43","新北市三重區中正北路27-1號","121.49201","25.0622383333333","6500200","三重區"
"241032","269-UM","2019/09/12 15:59:35","新北市三重區三陽路100巷3弄13號","121.483048333333","25.05815","6500200","三重區"
"241013","270-UM","2019/09/12 15:59:42","新北市三重區文化北路246號","121.497403333333","25.069825","6500200","三重區"
"241025","271-UM","2019/09/12 15:59:42","新北市三重區三民街193號","121.482165","25.0656666666667","6500200","三重區"
"241004","475-VK","2019/09/12 15:59:29","新北市三重區重新路四段121號","121.484911666667","25.0518816666667","6500200","三重區"
"241020","478-VK","2019/09/12 15:59:37","新北市三重區力行路一段189號","121.48355","25.0699033333333","6500200","三重區"
"241026","480-VK","2019/09/12 15:59:29","新北市三重區重新路三段42-1號","121.494235","25.0613133333333","6500200","三重區"
"241014","543-UM","2019/09/12 15:59:45","新北市三重區重新路四段121號","121.485026666667","25.0518283333333","6500200","三重區"
"241023","545-UM","2019/09/12 15:59:27","新北市三重區中正北路166號","121.484251666667","25.0661533333333","6500200","三重區"
"241005","AAD-863","2019/09/12 15:59:25","新北市三重區車路頭街135號","121.484161666667","25.0759166666667","6500200","三重區"
"241022","KED-0820","2019/09/12 15:59:40","新北市三重區中正北路166號","121.484146666667","25.06601","6500200","三重區"
"241016","887-TS","2019/09/12 15:59:47","新北市三重區重新路四段121號","121.485263333333","25.0522266666667","6500200","三重區"
"241012","941-UM","2019/09/12 15:59:29","新北市三重區文化北路116號","121.498266666667","25.06637","6500200","三重區"
"241029","942-UM","2019/09/12 15:59:43","新北市三重區大同南路212巷51號","121.498131666667","25.0566383333333","6500200","三重區"
"241033","AAC-255","2019/09/12 15:59:41","新北市三重區重新路五段506號","121.47305","25.04677","6500200","三重區"
"235029","098-UM","2019/09/12 15:59:21","新北市新店區安興路105-1號","121.514701666667","24.9778883333333","6500300","中和區"
"235019","183-VK","2019/09/12 15:59:27","新北市板橋區文化路二段652號","121.477751666667","25.0377766666667","6500300","中和區"
"235033","4980-A6","2019/09/12 15:59:13","新北市中和區連城路469巷33號","121.4837","24.9946433333333","6500300","中和區"
"235046","733-UM","2019/09/12 15:59:01","新北市中和區員山路36巷13號","121.484405","24.9905716666667","6500300","中和區"
"235035","783-BX","2019/09/12 15:59:45","新北市中和區員山路72號","121.481","24.9935766666667","6500300","中和區"
"235023","AAC-215","2019/09/12 15:59:42","新北市中和區員山路49-7號","121.480641666667","24.99144","6500300","中和區"
"224007","285-BY","2019/09/12 15:59:34","新北市瑞芳區大埔路52號","121.769126666667","25.1042716666667","6501200","瑞芳區"
"224005","271-BY","2019/09/12 15:51:08","新北市瑞芳區明燈路二段66號","121.809368333333","25.1075533333333","6501200","瑞芳區"
"227001","642-TC","2019/09/12 15:59:38","新北市雙溪區三港里雙澳路81號","121.88497","25.054195","6502500","雙溪區"
"227002","400-TW","2019/09/12 15:59:45","新北市雙溪區上林里內平林24號","121.834085","25.0315883333333","6502500","雙溪區"
"251013","180-VK","2019/09/12 15:59:36","新北市淡水區中正路二段31號","121.419505","25.181555","6501000","淡水區"
"236057","912-UM","2019/09/12 15:59:43","新北市土城區中央路一段299號","121.444043333333","24.9837083333333","6501300","土城區"
"238002","755-BX","2019/09/12 15:59:32","新北市樹林區大安路307巷2弄10號","121.417915","24.99177","6500700","樹林區"
"238010","601-UM","2019/09/12 15:59:43","新北市樹林區三寶街14號","121.40634","25.0153433333333","6500700","樹林區"
"238006","599-UM","2019/09/12 15:59:32","新北市樹林區國凱街136巷26號","121.423658333333","24.9796166666667","6500700","樹林區"
"238011","5061-A6","2019/09/12 15:59:40","新北市樹林區山佳街57-1號","121.392913333333","24.97246","6500700","樹林區"
"238005","KEA-2217","2019/09/12 15:59:34","新北市樹林區博愛街29巷10號","121.427423333333","24.9924866666667","6500700","樹林區"
"238009","KEA-2213","2019/09/12 15:59:28","新北市樹林區太元街53號","121.41873","24.97919","6500700","樹林區"
"238012","303-VK","2019/09/12 15:59:45","新北市樹林區保安二街47號","121.424845","24.994225","6500700","樹林區"
"238004","283-BY","2019/09/12 15:59:41","新北市樹林區中正路266號","121.417088333333","25.0077966666667","6500700","樹林區"
"238001","282-BY","2019/09/12 15:59:39","新北市樹林區千歲街61巷2號","121.426505","24.9980233333333","6500700","樹林區"
"238007","268-VK","2019/09/12 15:59:41","新北市樹林區三俊街171號","121.41939","25.0156316666667","6500700","樹林區"
"238013","172-UY","2019/09/12 15:59:37","新北市樹林區佳園路一段92號","121.39351","24.9692","6500700","樹林區"
"238003","169-UY","2019/09/12 15:59:43","新北市樹林區文化街18號","121.419641666667","24.9875233333333","6500700","樹林區"
"220104","560-BX","2019/09/12 15:59:43","新北市土城區自由街17號","121.423723333333","24.96735","6500100","板橋區"
"235026","KEA-2876","2019/09/12 15:59:39","新北市中和區板南路472-1號","121.488721666667","25.0062816666667","6500300","中和區"
