"lineid","car","time","location","longitude","latitude","cityid","cityname"
"249005","172-UM","2019/09/12 16:39:42","新北市八里區仁愛路10號","121.413158333333","25.162205","6502300","八里區"
"249003","593-UM","2019/09/12 16:39:36","新北市八里區中山路二段166號","121.40452","25.153875","6502300","八里區"
"244007","080-UY","2019/09/12 16:39:43","新北市林口區粉寮69號","121.404975","25.090915","6501700","林口區"
"231046","719-UM","2019/09/12 16:39:21","新北市新店區灣潭路3-3號","121.538166666667","24.9508183333333","6500600","新店區"
"241011","013-R5","2019/09/12 16:39:40","新北市三重區秀江街239號","121.496863333333","25.071675","6500200","三重區"
"241028","022-UY","2019/09/12 16:39:35","新北市三重區重新路三段82號","121.493148333333","25.0609966666667","6500200","三重區"
"241008","059-VK","2019/09/12 16:39:26","新北市三重區永福街177巷17號","121.47805","25.075365","6500200","三重區"
"241031","061-VK","2019/09/12 16:39:43","新北市三重區重陽路一段43巷8號","121.487285","25.0581383333333","6500200","三重區"
"241015","062-VK","2019/09/12 16:39:45","新北市三重區文化北路41號","121.499016666667","25.0652266666667","6500200","三重區"
"241017","063-VK","2019/09/12 16:39:36","新北市三重區中正北路25巷9號","121.49264","25.0621983333333","6500200","三重區"
"241024","065-VK","2019/09/12 16:39:41","新北市三重區中正北路315巷8號","121.47454","25.0718216666667","6500200","三重區"
"241007","066-VK","2019/09/12 16:39:34","新北市三重區慈愛街9號","121.48504","25.078655","6500200","三重區"
"241002","090-VK","2019/09/12 16:39:42","新北市三重區仁義街241巷34號","121.497105","25.083085","6500200","三重區"
"241003","091-VK","2019/09/12 16:39:38","新北市三重區五華街71巷106號","121.494721666667","25.08416","6500200","三重區"
"241006","262-UM","2019/09/12 16:39:44","新北市三重區力行路二段123號","121.483256666667","25.0766366666667","6500200","三重區"
"241009","267-UM","2019/09/12 16:39:42","新北市三重區三和路四段203巷95號","121.484208333333","25.080005","6500200","三重區"
"241018","268-UM","2019/09/12 16:39:43","新北市三重區六張街85-1號","121.493008333333","25.0702183333333","6500200","三重區"
"241032","269-UM","2019/09/12 16:39:35","新北市三重區中華路3號","121.483513333333","25.0606916666667","6500200","三重區"
"241013","270-UM","2019/09/12 16:39:42","新北市三重區三和路三段99號","121.494406666667","25.0724416666667","6500200","三重區"
"241025","271-UM","2019/09/12 16:39:42","新北市三重區中正北路311號","121.473963333333","25.0714483333333","6500200","三重區"
"241030","KED-0822","2019/09/12 16:39:37","新北市三重區環河南路253號","121.491278333333","25.0505216666667","6500200","三重區"
"241004","475-VK","2019/09/12 16:39:29","新北市三重區五福街22號","121.49261","25.0813483333333","6500200","三重區"
"241020","478-VK","2019/09/12 16:39:36","新北市三重區後竹圍街195號","121.485291666667","25.0714466666667","6500200","三重區"
"241026","480-VK","2019/09/12 16:39:29","新北市三重區中央南路11號","121.501248333333","25.0626016666667","6500200","三重區"
"241014","543-UM","2019/09/12 16:39:44","新北市三重區龍濱路21號","121.502975","25.0679533333333","6500200","三重區"
"241023","545-UM","2019/09/12 16:39:27","新北市三重區忠孝路三段50巷43號","121.482813333333","25.0643266666667","6500200","三重區"
"241001","547-UM","2019/09/12 16:39:26","新北市三重區仁愛街264巷12號","121.49273","25.0780483333333","6500200","三重區"
"241019","KEA-2593","2019/09/12 16:39:35","新北市三重區力行路一段137號","121.485791666667","25.0684166666667","6500200","三重區"
"241005","AAD-863","2019/09/12 16:39:25","新北市三重區仁華街80巷9號","121.484671666667","25.0833083333333","6500200","三重區"
"241022","KED-0820","2019/09/12 16:39:36","新北市三重區貴陽街20號","121.48425","25.0620366666667","6500200","三重區"
"241016","887-TS","2019/09/12 16:39:27","新北市三重區大智街17號","121.494498333333","25.0652233333333","6500200","三重區"
"241012","941-UM","2019/09/12 16:39:29","新北市三重區三和路三段101巷152號","121.498931666667","25.0738216666667","6500200","三重區"
"241029","942-UM","2019/09/12 16:39:43","新北市三重區集美街112巷13號","121.48946","25.0541283333333","6500200","三重區"
"241033","AAC-255","2019/09/12 16:39:27","新北市三重區光復路二段49號","121.47211","25.055725","6500200","三重區"
"224007","285-BY","2019/09/12 16:39:37","新北市瑞芳區瑞竹路128號","121.761758333333","25.104085","6501200","瑞芳區"
"224009","275-VK","2019/09/12 16:39:46","新北市瑞芳區明燈路二段89號","121.809871666667","25.1082466666667","6501200","瑞芳區"
"224005","271-BY","2019/09/12 16:39:31","新北市瑞芳區洞頂路158-1號","121.861113333333","25.118645","6501200","瑞芳區"
"227001","642-TC","2019/09/12 16:39:38","新北市雙溪區牡丹里石5-2號","121.862226666667","25.050325","6502500","雙溪區"
"227002","400-TW","2019/09/12 16:39:25","新北市雙溪區長源里內柑腳11號","121.802598333333","25.0151183333333","6502500","雙溪區"
"251015","KEA-2871","2019/09/12 16:39:37","新北市淡水區水源街一段57號","121.444083333333","25.1723183333333","6501000","淡水區"
"251016","179-VK","2019/09/12 16:39:29","新北市淡水區淡金路一段571號","121.45295","25.18066","6501000","淡水區"
"251013","180-VK","2019/09/12 16:39:36","新北市淡水區大溪8號","121.49585","25.1903233333333","6501000","淡水區"
"251008","181-VK","2019/09/12 16:39:27","新北市淡水區樹梅坑6-1號","121.472605","25.1432933333333","6501000","淡水區"
"251014","577-R6","2019/09/12 16:39:43","新北市淡水區淡金路四段478號","121.452433333333","25.2239266666667","6501000","淡水區"
"251011","650-BX","2019/09/12 16:39:42","新北市淡水區中正路二段31號","121.41943","25.1818516666667","6501000","淡水區"
"252002","178-VK","2019/09/12 16:39:33","新北市三芝區迎旭街71號","121.510286666667","25.2581166666667","6502100","三芝區"
"233002","762-BX","2019/09/12 16:39:46","新北市烏來區啦卡路70-1號","121.565201666667","24.8559233333333","6502900","烏來區"
"252001","KED-0821","2019/09/12 16:39:26","新北市三芝區埔坪里埔頭坑57號","121.507866666667","25.2646316666667","6502100","三芝區"
"236057","913-UM","2019/09/12 16:39:42","新北市土城區中央路三段119-1號","121.434363333333","24.9657366666667","6501300","土城區"
"238023","601-UM","2019/09/12 16:39:28","新北市樹林區東和街2號","121.405418333333","24.9803183333333","6500700","樹林區"
"238018","KEA-2217","2019/09/12 16:39:34","新北市樹林區育德街78-1號","121.388021666667","24.9681166666667","6500700","樹林區"
"238025","303-VK","2019/09/12 16:39:25","新北市樹林區中正路22-1號","121.427916666667","24.999255","6500700","樹林區"
"238004","283-BY","2019/09/12 16:39:41","新北市樹林區中正路433-2號","121.414961666667","25.0081716666667","6500700","樹林區"
"238001","282-BY","2019/09/12 16:39:39","新北市樹林區大慶街99-1號","121.427636666667","24.9998466666667","6500700","樹林區"
"238003","169-UY","2019/09/12 16:39:43","新北市樹林區中山路二段230號","121.408745","24.98008","6500700","樹林區"
"233001","KEA-2870","2019/09/12 16:39:33","新北市烏來區啦卡路70-1號","121.565153333333","24.8560366666667","6502900","烏來區"
"235026","KEA-2876","2019/09/12 16:39:39","新北市中和區建八路139巷9弄1號","121.490271666667","24.999645","6500300","中和區"
