"lineid","car","time","location","longitude","latitude","cityid","cityname"
"249005","172-UM","2019/09/12 16:49:41","新北市八里區大堀湖2-3號","121.422628333333","25.1537583333333","6502300","八里區"
"249004","303-UY","2019/09/12 16:49:27","新北市八里區挖子尾街97號","121.413088333333","25.1661833333333","6502300","八里區"
"249002","305-UY","2019/09/12 16:49:36","新北市八里區牛寮埔33號","121.429918333333","25.1457","6502300","八里區"
"249003","593-UM","2019/09/12 16:49:36","新北市八里區中山路二段283號","121.40159","25.1486583333333","6502300","八里區"
"244007","080-UY","2019/09/12 16:49:43","新北市林口區林口路187巷31弄19號","121.387801666667","25.081235","6501700","林口區"
"231046","719-UM","2019/09/12 16:43:02","新北市新店區灣潭路3-3號","121.538161666667","24.9508183333333","6500600","新店區"
"241011","013-R5","2019/09/12 16:49:40","新北市三重區仁愛街53巷172號","121.500013333333","25.0728983333333","6500200","三重區"
"241028","022-UY","2019/09/12 16:49:35","新北市三重區光興街89號","121.497478333333","25.0599933333333","6500200","三重區"
"241008","059-VK","2019/09/12 16:49:26","新北市三重區永福街179巷42號","121.477398333333","25.07473","6500200","三重區"
"241031","061-VK","2019/09/12 16:49:23","新北市三重區重新路四段2號","121.489228333333","25.0583516666667","6500200","三重區"
"241015","062-VK","2019/09/12 16:49:45","新北市三重區長元街2-2號","121.498895","25.06575","6500200","三重區"
"241017","063-VK","2019/09/12 16:49:48","新北市三重區國隆路8巷35號","121.492618333333","25.0635233333333","6500200","三重區"
"241024","065-VK","2019/09/12 16:49:41","新北市三重區中正北路315巷6弄45號","121.476241666667","25.0721716666667","6500200","三重區"
"241007","066-VK","2019/09/12 16:49:34","新北市三重區三和路四段181巷96號","121.484695","25.0796183333333","6500200","三重區"
"241002","090-VK","2019/09/12 16:49:42","新北市三重區仁義街143巷20號","121.497738333333","25.08078","6500200","三重區"
"241003","091-VK","2019/09/12 16:49:38","新北市三重區五華街85號","121.492105","25.0832166666667","6500200","三重區"
"241006","262-UM","2019/09/12 16:49:44","新北市三重區力行路二段182-3號","121.48337","25.07751","6500200","三重區"
"241009","267-UM","2019/09/12 16:49:42","新北市三重區溪尾街229號","121.488275","25.081225","6500200","三重區"
"241018","268-UM","2019/09/12 16:49:43","新北市三重區正義北路269號","121.495383333333","25.069905","6500200","三重區"
"241032","269-UM","2019/09/12 16:49:35","新北市三重區重陽路一段126號","121.486701666667","25.0603066666667","6500200","三重區"
"241013","270-UM","2019/09/12 16:49:42","新北市三重區三和路三段101巷110號","121.49763","25.0734366666667","6500200","三重區"
"241025","271-UM","2019/09/12 16:49:41","新北市三重區中正北路361-1號","121.472628333333","25.0717533333333","6500200","三重區"
"241030","KED-0822","2019/09/12 16:49:41","新北市三重區昌隆街11號","121.492081666667","25.0527016666667","6500200","三重區"
"241004","475-VK","2019/09/12 16:49:29","新北市三重區仁愛街397巷5號","121.491556666667","25.0811666666667","6500200","三重區"
"241020","478-VK","2019/09/12 16:49:36","新北市三重區忠孝路二段34號","121.485768333333","25.0710533333333","6500200","三重區"
"241026","480-VK","2019/09/12 16:49:29","新北市三重區中央南路35號","121.501315","25.0621066666667","6500200","三重區"
"241014","543-UM","2019/09/12 16:49:44","新北市三重區龍濱路64號","121.502571666667","25.069235","6500200","三重區"
"241023","545-UM","2019/09/12 16:49:27","新北市三重區新北大道一段206巷15號","121.4825","25.0625633333333","6500200","三重區"
"241001","547-UM","2019/09/12 16:49:26","新北市三重區仁政街54巷13號","121.492575","25.0768766666667","6500200","三重區"
"241019","KEA-2593","2019/09/12 16:49:35","新北市三重區三張街149巷10弄1號","121.486336666667","25.06994","6500200","三重區"
"241005","AAD-863","2019/09/12 16:49:45","新北市三重區仁華街73號","121.485398333333","25.0831","6500200","三重區"
"241022","KED-0820","2019/09/12 16:49:36","新北市三重區貴陽街47巷17號","121.484785","25.062415","6500200","三重區"
"241016","887-TS","2019/09/12 16:49:47","新北市三重區大同北路135巷27號","121.493755","25.0647316666667","6500200","三重區"
"241012","941-UM","2019/09/12 16:49:39","新北市三重區河邊北街228號","121.502213333333","25.0752066666667","6500200","三重區"
"241029","942-UM","2019/09/12 16:49:43","新北市三重區集美街207巷12號","121.492093333333","25.0542833333333","6500200","三重區"
"241033","AAC-255","2019/09/12 16:49:27","新北市三重區新北大道二段139巷13號","121.466535","25.0606883333333","6500200","三重區"
"247024","057-VK","2019/09/12 16:49:35","新北市蘆洲區長興路255號","121.460518333333","25.0875583333333","6501400","蘆洲區"
"247002","001-UY","2019/09/12 16:49:43","新北市五股區成泰路三段544-18號","121.452965","25.1034483333333","6501400","蘆洲區"
"228003","097-TW","2019/09/12 16:49:25","新北市貢寮區貢寮里朝陽街1-2號","121.912431666667","25.0212666666667","6502600","貢寮區"
"228002","663-BX","2019/09/12 16:49:27","新北市貢寮區貢寮里朝陽街120巷28號","121.907981666667","25.0230666666667","6502600","貢寮區"
"224007","285-BY","2019/09/12 16:49:33","新北市瑞芳區中央路48巷166號","121.759201666667","25.1033316666667","6501200","瑞芳區"
"224009","275-VK","2019/09/12 16:49:26","新北市瑞芳區明燈路二段89號","121.80987","25.10825","6501200","瑞芳區"
"224005","271-BY","2019/09/12 16:49:31","新北市瑞芳區明里路54號","121.869848333333","25.1228183333333","6501200","瑞芳區"
"227001","642-TC","2019/09/12 16:49:38","新北市雙溪區三貂里子崙坑1-6號","121.8499","25.0574716666667","6502500","雙溪區"
"251004","009-UM","2019/09/12 16:49:43","新北市淡水區中正路二段31號","121.419341666667","25.1817166666667","6501000","淡水區"
"251015","KEA-2871","2019/09/12 16:49:37","新北市淡水區忠愛街6號","121.460736666667","25.1715533333333","6501000","淡水區"
"251016","179-VK","2019/09/12 16:49:29","新北市淡水區水頭41號","121.478083333333","25.1850883333333","6501000","淡水區"
"251013","180-VK","2019/09/12 16:49:36","新北市淡水區泉洲厝32號","121.489266666667","25.19263","6501000","淡水區"
"251008","181-VK","2019/09/12 16:49:27","新北市淡水區樹梅坑9號","121.47286","25.142605","6501000","淡水區"
"251007","442-VK","2019/09/12 16:49:35","新北市淡水區中正路382號","121.429781666667","25.1752933333333","6501000","淡水區"
"251014","577-R6","2019/09/12 16:49:43","新北市淡水區淡金路四段478號","121.452448333333","25.2239166666667","6501000","淡水區"
"251011","650-BX","2019/09/12 16:49:42","新北市淡水區中山路128號","121.441695","25.171075","6501000","淡水區"
"252002","178-VK","2019/09/12 16:49:33","新北市三芝區忠孝街37號","121.506158333333","25.2557333333333","6502100","三芝區"
"233002","762-BX","2019/09/12 16:49:34","新北市烏來區啦卡路15巷6-2號","121.556603333333","24.859485","6502900","烏來區"
"247008","KED-0683","2019/09/12 16:49:32","新北市蘆洲區中山一路176號","121.474175","25.0811816666667","6501400","蘆洲區"
"252001","KED-0821","2019/09/12 16:49:26","新北市三芝區淡金路二段76-1號","121.50393","25.2608583333333","6502100","三芝區"
"242025","362-BY","2019/09/12 16:49:33","新北市新莊區新泰路255巷83號","121.44206","25.0390216666667","6500500","新莊區"
"238023","601-UM","2019/09/12 16:49:28","新北市樹林區三多路88號","121.414956666667","25.0059133333333","6500700","樹林區"
"238018","KEA-2217","2019/09/12 16:49:34","新北市樹林區育德街78-1號","121.388011666667","24.968195","6500700","樹林區"
"238025","303-VK","2019/09/12 16:49:45","新北市樹林區中正路22-1號","121.427851666667","24.999265","6500700","樹林區"
"238004","283-BY","2019/09/12 16:49:41","新北市樹林區中正路433-2號","121.41493","25.0081966666667","6500700","樹林區"
"238001","282-BY","2019/09/12 16:49:39","新北市樹林區大慶街99-1號","121.427753333333","24.9997566666667","6500700","樹林區"
"238003","169-UY","2019/09/12 16:44:39","新北市樹林區東榮街91巷3弄1號","121.416396666667","24.9819733333333","6500700","樹林區"
"239007","AAC-297","2019/09/12 16:49:45","新北市鶯歌區二甲路13-16號","121.345083333333","24.9350433333333","6500800","鶯歌區"
"233001","KEA-2870","2019/09/12 16:49:33","新北市烏來區烏來街45-1號","121.551811666667","24.8649766666667","6502900","烏來區"
"242011","280-VK","2019/09/12 16:49:33","新北市新莊區三和路12-21號","121.44181","25.0382766666667","6500500","新莊區"
"235026","KEA-2876","2019/09/12 16:49:39","新北市中和區連城路222巷2弄2號","121.491246666667","24.9968283333333","6500300","中和區"
