"lineid","car","time","location","longitude","latitude","cityid","cityname"
"249005","172-UM","2019/09/12 17:19:41","新北市五股區中直路69-6號","121.413916666667","25.1229733333333","6502300","八里區"
"249001","173-UM","2019/09/12 17:19:40","新北市八里區中華路二段165巷3號","121.407668333333","25.15089","6502300","八里區"
"249004","303-UY","2019/09/12 17:19:47","新北市八里區賢三街30號","121.418541666667","25.1587733333333","6502300","八里區"
"249002","305-UY","2019/09/12 17:19:36","新北市八里區龍米路二段117巷29-1號","121.44642","25.1428333333333","6502300","八里區"
"249003","593-UM","2019/09/12 17:19:36","新北市八里區中山路二段439號","121.396746666667","25.1458133333333","6502300","八里區"
"244007","080-UY","2019/09/12 17:19:43","新北市林口區湖子15-3號","121.385986666667","25.0907933333333","6501700","林口區"
"244019","402-UM","2019/09/12 17:19:35","新北市林口區公園路193號","121.372015","25.0723233333333","6501700","林口區"
"244023","483-VK","2019/09/12 17:19:35","新北市林口區隆林街25號","121.388506666667","25.0753783333333","6501700","林口區"
"244017","485-VK","2019/09/12 17:19:47","新北市林口區粉寮1號","121.397395","25.07986","6501700","林口區"
"244009","656-BX","2019/09/12 17:19:29","新北市林口區中華路219-1號","121.385645","25.089735","6501700","林口區"
"244011","701-TV","2019/09/12 17:19:38","新北市林口區粉寮路一段77號","121.396948333333","25.0789366666667","6501700","林口區"
"244025","837-TS","2019/09/12 17:19:35","新北市林口區民族路157號","121.367048333333","25.0764316666667","6501700","林口區"
"244021","838-TS","2019/09/12 17:19:35","新北市林口區粉寮路89-1號","121.405421666667","25.0979116666667","6501700","林口區"
"231046","719-UM","2019/09/12 17:19:01","新北市新店區直潭六街64號","121.532223333333","24.94005","6500600","新店區"
"241011","013-R5","2019/09/12 17:19:40","新北市三重區介壽路39巷168號","121.502016666667","25.070895","6500200","三重區"
"241028","022-UY","2019/09/12 17:19:35","新北市三重區中正南路18號","121.493545","25.0604466666667","6500200","三重區"
"241008","059-VK","2019/09/12 17:19:46","新北市三重區永福街72巷25號","121.479948333333","25.07642","6500200","三重區"
"241015","062-VK","2019/09/12 17:19:25","新北市三重區長元街82-1號","121.50182","25.06636","6500200","三重區"
"241017","063-VK","2019/09/12 17:19:36","新北市三重區大同北路52號","121.495198333333","25.0631283333333","6500200","三重區"
"241024","065-VK","2019/09/12 17:19:41","新北市三重區中正北路173號","121.478018333333","25.0693616666667","6500200","三重區"
"241007","066-VK","2019/09/12 17:19:34","新北市三重區慈愛街8號","121.484528333333","25.0783733333333","6500200","三重區"
"241002","090-VK","2019/09/12 17:19:42","新北市三重區仁義街218號","121.49573","25.0825983333333","6500200","三重區"
"241003","091-VK","2019/09/12 17:19:38","新北市三重區五華街146號","121.491275","25.0840233333333","6500200","三重區"
"241006","262-UM","2019/09/12 17:19:44","新北市三重區三和路四段218巷17號","121.48542","25.0765033333333","6500200","三重區"
"241009","267-UM","2019/09/12 17:19:42","新北市三重區仁愛街600巷5號","121.484023333333","25.0807283333333","6500200","三重區"
"241018","268-UM","2019/09/12 17:19:43","新北市三重區安慶街123號","121.49484","25.06898","6500200","三重區"
"241032","269-UM","2019/09/12 17:19:35","新北市三重區興華街130號","121.483323333333","25.059685","6500200","三重區"
"241013","270-UM","2019/09/12 17:19:41","新北市三重區仁福街26號","121.496713333333","25.0746366666667","6500200","三重區"
"241025","271-UM","2019/09/12 17:19:41","新北市三重區中正北路380號","121.476623333333","25.0697783333333","6500200","三重區"
"241030","KED-0822","2019/09/12 17:19:37","新北市三重區成功路73巷6號","121.489293333333","25.051735","6500200","三重區"
"241004","475-VK","2019/09/12 17:19:29","新北市三重區五華街83號","121.492221666667","25.0831233333333","6500200","三重區"
"241020","478-VK","2019/09/12 17:19:36","新北市三重區自強路三段7巷46號","121.48841","25.0723816666667","6500200","三重區"
"241026","480-VK","2019/09/12 17:19:29","新北市三重區正義南路10號","121.498253333333","25.0615766666667","6500200","三重區"
"241014","543-UM","2019/09/12 17:19:24","新北市三重區三和路二段83號","121.500131666667","25.06843","6500200","三重區"
"241023","545-UM","2019/09/12 17:19:27","新北市三重區忠孝路三段50巷21號","121.481556666667","25.065195","6500200","三重區"
"241001","547-UM","2019/09/12 17:19:47","新北市三重區仁愛街269巷8號","121.493345","25.0790016666667","6500200","三重區"
"241019","KEA-2593","2019/09/12 17:19:35","新北市三重區忠孝路二段13號","121.486756666667","25.0714183333333","6500200","三重區"
"241005","AAD-863","2019/09/12 17:19:45","新北市三重區永安北路二段33號","121.482403333333","25.0822416666667","6500200","三重區"
"241022","KED-0820","2019/09/12 17:19:36","新北市三重區重陽路二段34巷24號","121.486268333333","25.0634466666667","6500200","三重區"
"241016","887-TS","2019/09/12 17:19:27","新北市三重區大同北路54巷1號","121.494261666667","25.06353","6500200","三重區"
"241012","941-UM","2019/09/12 17:19:29","新北市三重區仁昌街112號","121.500183333333","25.07526","6500200","三重區"
"241029","942-UM","2019/09/12 17:19:43","新北市三重區重新路四段65-1號","121.487253333333","25.0571966666667","6500200","三重區"
"241033","AAC-255","2019/09/12 17:19:48","新北市三重區中興北街176號","121.468965","25.057575","6500200","三重區"
"247016","KEA-2869","2019/09/12 17:19:41","新北市蘆洲區正和街104號","121.467913333333","25.08066","6501400","蘆洲區"
"247010","KED-0682","2019/09/12 17:19:40","新北市蘆洲區中山一路120巷7弄26號","121.477368333333","25.0818833333333","6501400","蘆洲區"
"235064","911-UM","2019/09/12 17:19:38","新北市中和區員山路36巷16-3號","121.485026666667","24.9913066666667","6500300","中和區"
"247006","893-R6","2019/09/12 17:19:30","新北市蘆洲區長安街97號","121.46179","25.08066","6501400","蘆洲區"
"247020","546-UM","2019/09/12 17:19:41","新北市蘆洲區仁愛街35巷15弄1號","121.471673333333","25.0925616666667","6501400","蘆洲區"
"247018","500-BY","2019/09/12 17:19:34","新北市蘆洲區民權路70號","121.474943333333","25.0873866666667","6501400","蘆洲區"
"247012","337-TH","2019/09/12 17:19:43","新北市蘆洲區信義路319巷10弄3號","121.477505","25.0864266666667","6501400","蘆洲區"
"247004","336-TH","2019/09/12 17:19:30","新北市蘆洲區中原路60號","121.458781666667","25.082325","6501400","蘆洲區"
"247024","057-VK","2019/09/12 17:19:35","新北市蘆洲區光榮路2號","121.460351666667","25.08617","6501400","蘆洲區"
"247014","056-VK","2019/09/12 17:19:40","新北市蘆洲區得勝街163號","121.471421666667","25.08302","6501400","蘆洲區"
"247022","007-UY","2019/09/12 17:19:46","新北市蘆洲區三民路128巷82弄6號","121.469858333333","25.0898483333333","6501400","蘆洲區"
"247002","001-UY","2019/09/12 17:19:43","新北市蘆洲區永樂街38巷33弄3號","121.457955","25.0894033333333","6501400","蘆洲區"
"228003","097-TW","2019/09/12 17:19:25","新北市貢寮區福隆里興隆街12號","121.94512","25.0167766666667","6502600","貢寮區"
"228001","212-TW","2019/09/12 17:19:35","新北市貢寮區仁理村尖山腳街18-3號","121.925543333333","25.0482433333333","6502600","貢寮區"
"228002","663-BX","2019/09/12 17:19:27","新北市貢寮區雙玉里下雙溪街21號","121.919235","25.010505","6502600","貢寮區"
"224006","676-BX","2019/09/12 17:19:43","新北市瑞芳區大寮路2-1號","121.785721666667","25.10135","6501200","瑞芳區"
"224009","275-VK","2019/09/12 17:19:26","新北市瑞芳區汽車路102號","121.840998333333","25.1088083333333","6501200","瑞芳區"
"224008","273-VK","2019/09/12 17:19:27","新北市瑞芳區侯硐路146號","121.82628","25.083885","6501200","瑞芳區"
"224005","271-BY","2019/09/12 17:19:31","新北市瑞芳區鼻頭路247號","121.911448333333","25.12297","6501200","瑞芳區"
"227001","642-TC","2019/09/12 17:19:38","新北市雙溪區三貂里十三層5號","121.850533333333","25.0645483333333","6502500","雙溪區"
"227002","400-TW","2019/09/12 17:19:25","新北市雙溪區雙溪里太平路2號","121.863603333333","25.0348783333333","6502500","雙溪區"
"251004","009-UM","2019/09/12 17:16:33","新北市淡水區中正東路二段88巷15號","121.459056666667","25.150525","6501000","淡水區"
"251015","KEA-2871","2019/09/12 17:19:37","新北市淡水區樹林口20-1號","121.478675","25.170005","6501000","淡水區"
"251016","179-VK","2019/09/12 17:19:29","新北市淡水區鄒厝崙5號","121.469153333333","25.1888066666667","6501000","淡水區"
"251013","180-VK","2019/09/12 17:19:36","新北市淡水區演戲埔腳9-1號","121.472768333333","25.1963916666667","6501000","淡水區"
"251008","181-VK","2019/09/12 17:19:27","新北市淡水區大同路283號","121.467885","25.1424983333333","6501000","淡水區"
"251010","413-VK","2019/09/12 17:19:40","新北市淡水區沙崙路172號","121.424273333333","25.183635","6501000","淡水區"
"251012","441-VK","2019/09/12 17:19:37","新北市淡水區中山北路一段158號","121.444203333333","25.1778816666667","6501000","淡水區"
"251007","442-VK","2019/09/12 17:19:41","新北市淡水區民生路54號","121.461933333333","25.1379716666667","6501000","淡水區"
"251005","443-VK","2019/09/12 17:19:36","新北市淡水區鄧公路19號","121.451425","25.17","6501000","淡水區"
"251006","561-UM","2019/09/12 17:19:43","新北市淡水區新生街124號","121.440971666667","25.174575","6501000","淡水區"
"251009","575-R6","2019/09/12 17:19:33","新北市淡水區三民街19號","121.439013333333","25.171855","6501000","淡水區"
"251014","577-R6","2019/09/12 17:19:43","新北市淡水區公埔子5-1號","121.464645","25.2267766666667","6501000","淡水區"
"251011","650-BX","2019/09/12 17:19:42","新北市淡水區坪頂路70巷1號","121.459931666667","25.16306","6501000","淡水區"
"251002","672-BX","2019/09/12 17:19:40","新北市淡水區中正路二段31號","121.419215","25.1816633333333","6501000","淡水區"
"251003","673-BX","2019/09/12 17:19:41","新北市淡水區沙崙路1號","121.420376666667","25.180825","6501000","淡水區"
"207003","550-UM","2019/09/12 17:19:37","新北市萬里區萬里里獅頭路23號","121.693268333333","25.1783416666667","6502800","萬里區"
"252002","178-VK","2019/09/12 17:19:33","新北市三芝區忠孝街1-14號","121.505601666667","25.2539783333333","6502100","三芝區"
"233002","762-BX","2019/09/12 17:19:26","新北市烏來區環山路82巷19號","121.548071666667","24.8633683333333","6502900","烏來區"
"247008","KED-0683","2019/09/12 17:19:33","新北市蘆洲區信義路34巷122-1號","121.475708333333","25.07677","6501400","蘆洲區"
"242042","AAC-296","2019/09/12 17:19:29","新北市新莊區新樹路69-25號","121.438606666667","25.0296016666667","6500500","新莊區"
"242061","986-R7","2019/09/12 17:19:28","新北市新莊區中正路384號","121.441971666667","25.03482","6500500","新莊區"
"242004","751-BX","2019/09/12 17:19:38","新北市新莊區新泰路421-7號","121.44257","25.0452466666667","6500500","新莊區"
"242029","615-BX","2019/09/12 17:19:40","新北市新莊區幸福路602號","121.45209","25.0492383333333","6500500","新莊區"
"242027","613-BX","2019/09/12 17:19:32","新北市新莊區中平路82巷26號","121.445906666667","25.0448716666667","6500500","新莊區"
"242058","612-BX","2019/09/12 17:19:32","新北市新莊區新泰路255巷83號","121.442256666667","25.0389916666667","6500500","新莊區"
"242048","566-BX","2019/09/12 17:19:28","新北市新莊區福營路371號","121.423531666667","25.0275933333333","6500500","新莊區"
"242053","497-BY","2019/09/12 17:19:47","新北市新莊區環河路636-7號","121.436725","25.0108333333333","6500500","新莊區"
"242002","442-UM","2019/09/12 17:19:45","新北市新莊區瓊林路50號","121.446173333333","25.0289316666667","6500500","新莊區"
"242007","440-UM","2019/09/12 17:19:24","新北市新莊區新泰路480號","121.442715","25.0456783333333","6500500","新莊區"
"242044","415-TV","2019/09/12 17:19:40","新北市新莊區福營路305號","121.426723333333","25.02904","6500500","新莊區"
"242013","413-TV","2019/09/12 17:19:32","新北市新莊區新泰路500號","121.44249","25.0459216666667","6500500","新莊區"
"242051","400-BY","2019/09/12 17:19:28","新北市新莊區瓊林路61號","121.439295","25.0206866666667","6500500","新莊區"
"242025","362-BY","2019/09/12 17:19:33","新北市新莊區中平路82巷20號","121.445706666667","25.044885","6500500","新莊區"
"242023","353-BY","2019/09/12 17:19:42","新北市新莊區中平路82巷22號","121.445718333333","25.0448983333333","6500500","新莊區"
"242015","132-UY","2019/09/12 17:19:31","新北市新莊區新泰路275號","121.445708333333","25.040355","6500500","新莊區"
"242039","135-UY","2019/09/12 17:19:41","新北市新莊區民安路305號","121.429678333333","25.0225283333333","6500500","新莊區"
"242056","172-VK","2019/09/12 17:19:32","新北市新莊區新莊路664-2號","121.442226666667","25.0329083333333","6500500","新莊區"
"242031","175-VK","2019/09/12 17:19:32","新北市新莊區新泰路464號","121.443198333333","25.0448633333333","6500500","新莊區"
"242021","176-VK","2019/09/12 17:19:47","新北市新莊區新泰路502巷20號","121.443108333333","25.0464833333333","6500500","新莊區"
"242017","347-TH","2019/09/12 17:19:30","新北市新莊區新泰路421-9號","121.442483333333","25.044835","6500500","新莊區"
"242036","348-TH","2019/09/12 17:19:44","新北市新莊區新樹路69-31號","121.438423333333","25.0292833333333","6500500","新莊區"
"242009","349-TH","2019/09/12 17:19:33","新北市新莊區新泰路502巷2號","121.442485","25.0465783333333","6500500","新莊區"
"242034","350-TH","2019/09/12 17:19:37","新北市新莊區瓊林路50號","121.446186666667","25.028805","6500500","新莊區"
"242019","351-TH","2019/09/12 17:19:42","新北市新莊區新泰路208號","121.446831666667","25.03863","6500500","新莊區"
"238023","601-UM","2019/09/12 17:19:28","新北市樹林區中正路433-1號","121.414935","25.0079033333333","6500700","樹林區"
"238019","599-UM","2019/09/12 17:19:32","新北市樹林區八德街282號","121.410641666667","24.970015","6500700","樹林區"
"238024","5061-A6","2019/09/12 17:19:40","新北市樹林區鎮前街4號","121.426495","24.9936666666667","6500700","樹林區"
"238018","KEA-2217","2019/09/12 17:19:34","新北市樹林區博愛街248號","121.422688333333","24.9847716666667","6500700","樹林區"
"238022","KEA-2213","2019/09/12 17:19:28","新北市樹林區仁愛街73巷1號","121.42362","24.9828183333333","6500700","樹林區"
"238021","KEA-2539","2019/09/12 17:19:34","新北市樹林區西圳街一段56號","121.400728333333","24.9621983333333","6500700","樹林區"
"238025","303-VK","2019/09/12 17:19:25","新北市樹林區保安二街163號","121.422133333333","24.995605","6500700","樹林區"
"238017","283-BY","2019/09/12 17:19:41","新北市樹林區光武街32-2號","121.41663","25.0062483333333","6500700","樹林區"
"238014","282-BY","2019/09/12 17:19:39","新北市樹林區長壽街70巷35弄9號","121.421338333333","24.9951833333333","6500700","樹林區"
"238020","268-VK","2019/09/12 17:19:41","新北市樹林區中正路22-1號","121.427823333333","24.9993366666667","6500700","樹林區"
"238026","172-UY","2019/09/12 17:19:37","新北市樹林區味王街42號","121.404493333333","24.9737533333333","6500700","樹林區"
"238003","169-UY","2019/09/12 17:19:41","新北市樹林區日新街63號","121.4223","24.991165","6500700","樹林區"
"239007","AAC-297","2019/09/12 17:19:45","新北市鶯歌區行政路3號","121.35097","24.9553833333333","6500800","鶯歌區"
"239006","891-R6","2019/09/12 17:19:41","新北市鶯歌區八德路37號","121.334798333333","24.95284","6500800","鶯歌區"
"239008","527-UM","2019/09/12 17:19:38","新北市鶯歌區中山路112號","121.350633333333","24.9571166666667","6500800","鶯歌區"
"239005","526-UM","2019/09/12 17:19:41","新北市鶯歌區福德四街17號","121.329428333333","24.9676616666667","6500800","鶯歌區"
"239001","417-VK","2019/09/12 17:19:27","新北市鶯歌區尖山路186號","121.344353333333","24.9473866666667","6500800","鶯歌區"
"239003","360-BY","2019/09/12 17:19:43","新北市鶯歌區德昌二街70巷32弄1號","121.332005","24.9581933333333","6500800","鶯歌區"
"239002","359-BY","2019/09/12 17:19:46","新北市鶯歌區建國路310號","121.344513333333","24.9526","6500800","鶯歌區"
"239004","193-VK","2019/09/12 17:19:35","新北市鶯歌區文化路417-17號","121.353723333333","24.9493716666667","6500800","鶯歌區"
"233001","KEA-2870","2019/09/12 17:19:33","新北市烏來區溫泉街99號","121.55162","24.85635","6502900","烏來區"
"242046","281-VK","2019/09/12 17:19:33","新北市新莊區新樹路65-5號","121.439421666667","25.0308133333333","6500500","新莊區"
"242011","280-VK","2019/09/12 17:19:33","新北市新莊區中環路二段392-1號","121.442416666667","25.0454783333333","6500500","新莊區"
"235061","KEA-2875","2019/09/12 17:14:16","新北市中和區員山路36巷16-2號","121.485328333333","24.9916366666667","6500300","中和區"
"235062","KEA-2876","2019/09/12 17:00:51","新北市中和區員山路36巷16-3號","121.485031666667","24.99141","6500300","中和區"
