"lineid","car","time","location","longitude","latitude","cityid","cityname"
"249005","172-UM","2019/09/12 17:29:41","新北市八里區荖阡坑路69號","121.40667","25.1263516666667","6502300","八里區"
"249001","173-UM","2019/09/12 17:29:40","新北市八里區中華路一段1-5號","121.423273333333","25.1586283333333","6502300","八里區"
"249004","303-UY","2019/09/12 17:29:27","新北市八里區民有街78號","121.414983333333","25.15621","6502300","八里區"
"249002","305-UY","2019/09/12 17:29:36","新北市八里區龍米路二段65巷15弄1號","121.447258333333","25.140595","6502300","八里區"
"249003","593-UM","2019/09/12 17:29:36","新北市八里區中山路二段398號","121.400576666667","25.147805","6502300","八里區"
"232011","375-UM","2019/09/12 17:29:06","新北市坪林區鶯子瀨12-1號","121.713808333333","24.9136733333333","6502000","坪林區"
"244007","080-UY","2019/09/12 17:29:43","新北市林口區菁埔1-14號","121.382708333333","25.09531","6501700","林口區"
"244019","402-UM","2019/09/12 17:29:35","新北市林口區文化一路一段83巷14弄60-1號","121.372136666667","25.0715416666667","6501700","林口區"
"244013","KEA-2802","2019/09/12 17:29:41","新北市林口區中山路37號","121.394973333333","25.0784683333333","6501700","林口區"
"244023","483-VK","2019/09/12 17:29:35","新北市林口區興林一街96巷33號","121.391431666667","25.0714783333333","6501700","林口區"
"244017","485-VK","2019/09/12 17:29:27","新北市林口區文化一路一段207號","121.378996666667","25.07565","6501700","林口區"
"244009","656-BX","2019/09/12 17:29:29","新北市林口區中北三街268號","121.382088333333","25.0824","6501700","林口區"
"244011","701-TV","2019/09/12 17:29:38","新北市林口區仁愛路一段398號","121.38705","25.0766966666667","6501700","林口區"
"244025","837-TS","2019/09/12 17:29:34","新北市林口區文化三路一段368號","121.36476","25.0724366666667","6501700","林口區"
"244021","838-TS","2019/09/12 17:29:35","新北市林口區粉寮路一段105號","121.39782","25.0803033333333","6501700","林口區"
"222002","659-BX","2019/09/12 17:29:43","新北市深坑區深南路88巷1號","121.621265","25.0112533333333","6501800","深坑區"
"231046","719-UM","2019/09/12 17:19:01","新北市新店區直潭六街64號","121.532223333333","24.94005","6500600","新店區"
"241015","062-VK","2019/09/12 17:29:45","新北市三重區長元街75-4號","121.503265","25.0666016666667","6500200","三重區"
"241017","063-VK","2019/09/12 17:29:36","新北市三重區大同北路34巷52號","121.493498333333","25.0619183333333","6500200","三重區"
"241024","065-VK","2019/09/12 17:29:41","新北市三重區中正北路193巷21弄48號","121.479136666667","25.0712466666667","6500200","三重區"
"241007","066-VK","2019/09/12 17:29:34","新北市三重區三和路四段145巷138號","121.487806666667","25.0793066666667","6500200","三重區"
"241003","091-VK","2019/09/12 17:29:38","新北市三重區集賢路35-1號","121.495441666667","25.08631","6500200","三重區"
"241009","267-UM","2019/09/12 17:29:42","新北市三重區車路頭街139巷14號","121.48433","25.0761583333333","6500200","三重區"
"241018","268-UM","2019/09/12 17:29:43","新北市三重區中正北路25巷9-1號","121.49277","25.0623566666667","6500200","三重區"
"241032","269-UM","2019/09/12 17:29:35","新北市三重區名源街49號","121.482183333333","25.0597816666667","6500200","三重區"
"241013","270-UM","2019/09/12 17:29:41","新北市三重區仁愛街141巷18號","121.4964","25.075715","6500200","三重區"
"241025","271-UM","2019/09/12 17:29:42","新北市三重區中正北路311號","121.473973333333","25.0714616666667","6500200","三重區"
"241030","KED-0822","2019/09/12 17:29:37","新北市三重區集美街178號","121.49066","25.053335","6500200","三重區"
"241024","462-BY","2019/09/12 17:29:32","新北市三重區大勇街51號","121.481301666667","25.0719","6500200","三重區"
"241020","478-VK","2019/09/12 17:29:36","新北市三重區忠孝路二段34號","121.485771666667","25.0710583333333","6500200","三重區"
"241014","543-UM","2019/09/12 17:29:44","新北市三重區安和路17號","121.501311666667","25.0684433333333","6500200","三重區"
"241023","545-UM","2019/09/12 17:29:47","新北市三重區忠孝路三段50巷41弄4號","121.482426666667","25.0645183333333","6500200","三重區"
"241019","KEA-2593","2019/09/12 17:29:35","新北市三重區自強路二段26巷11號","121.488993333333","25.0690883333333","6500200","三重區"
"241005","AAD-863","2019/09/12 17:29:45","新北市三重區碧華街71號","121.485001666667","25.081465","6500200","三重區"
"241016","887-TS","2019/09/12 17:29:27","新北市三重區大同北路71號","121.49521","25.0638166666667","6500200","三重區"
"241012","941-UM","2019/09/12 17:29:29","新北市三重區仁興街39巷3號","121.499088333333","25.07563","6500200","三重區"
"241033","AAC-255","2019/09/12 17:29:35","新北市三重區中興北街161號","121.469038333333","25.0551666666667","6500200","三重區"
"247016","KEA-2869","2019/09/12 17:29:31","新北市蘆洲區光華路20號","121.469505","25.0835066666667","6501400","蘆洲區"
"247010","KED-0682","2019/09/12 17:29:40","新北市蘆洲區中山一路120巷42號","121.478433333333","25.0821266666667","6501400","蘆洲區"
"235064","911-UM","2019/09/12 17:21:23","新北市中和區員山路36巷16-3號","121.485106666667","24.9911333333333","6500300","中和區"
"247006","893-R6","2019/09/12 17:29:30","新北市蘆洲區長安街44號","121.463483333333","25.0796216666667","6501400","蘆洲區"
"247018","500-BY","2019/09/12 17:29:34","新北市蘆洲區民權路94號","121.474198333333","25.0879516666667","6501400","蘆洲區"
"247012","337-TH","2019/09/12 17:29:43","新北市蘆洲區三民路75號","121.474855","25.0839716666667","6501400","蘆洲區"
"247004","336-TH","2019/09/12 17:29:30","新北市蘆洲區長安街231號","121.459315","25.082895","6501400","蘆洲區"
"247024","057-VK","2019/09/12 17:29:35","新北市蘆洲區長興路318號","121.461758333333","25.0923166666667","6501400","蘆洲區"
"247014","056-VK","2019/09/12 17:29:40","新北市蘆洲區三民路101號","121.472345","25.0854783333333","6501400","蘆洲區"
"247022","007-UY","2019/09/12 17:29:26","新北市蘆洲區三民路262號","121.467516666667","25.0902266666667","6501400","蘆洲區"
"247002","001-UY","2019/09/12 17:29:43","新北市蘆洲區永樂街38巷67弄3號","121.458171666667","25.090475","6501400","蘆洲區"
"228003","097-TW","2019/09/12 17:29:45","新北市貢寮區仁理村研海街62-2號","121.925526666667","25.045545","6502600","貢寮區"
"228001","212-TW","2019/09/12 17:29:35","新北市貢寮區仁理村仁愛路42號","121.925125","25.0532266666667","6502600","貢寮區"
"228002","663-BX","2019/09/12 17:29:27","新北市貢寮區福隆里興隆街100巷7號","121.935698333333","25.01823","6502600","貢寮區"
"224010","AGQ-8101","2019/09/12 17:29:28","新北市瑞芳區逢甲路80號","121.809873333333","25.1087","6501200","瑞芳區"
"224006","676-BX","2019/09/12 17:29:43","新北市瑞芳區傑魚坑路90號","121.792433333333","25.1104816666667","6501200","瑞芳區"
"224009","275-VK","2019/09/12 17:29:26","新北市瑞芳區汽車路21-5號","121.845188333333","25.11063","6501200","瑞芳區"
"224008","273-VK","2019/09/12 17:29:27","新北市瑞芳區侯硐路298號","121.831668333333","25.0891816666667","6501200","瑞芳區"
"224005","271-BY","2019/09/12 17:29:31","新北市瑞芳區海濱路2巷1號","121.835088333333","25.1271716666667","6501200","瑞芳區"
"227001","642-TC","2019/09/12 17:23:38","新北市雙溪區三貂里定福路1-2號","121.850781666667","25.0634083333333","6502500","雙溪區"
"227002","400-TW","2019/09/12 17:29:45","新北市雙溪區共和里東榮街52號","121.866331666667","25.0336433333333","6502500","雙溪區"
"251004","009-UM","2019/09/12 17:16:33","新北市淡水區中正東路二段88巷15號","121.459056666667","25.150525","6501000","淡水區"
"251015","KEA-2871","2019/09/12 17:29:37","新北市淡水區三空泉21號","121.468703333333","25.1669766666667","6501000","淡水區"
"251016","179-VK","2019/09/12 17:29:29","新北市淡水區埤島75-1號","121.453241666667","25.1949333333333","6501000","淡水區"
"251013","180-VK","2019/09/12 17:29:36","新北市淡水區大竹圍5號","121.466581666667","25.195205","6501000","淡水區"
"251008","181-VK","2019/09/12 17:29:33","新北市淡水區大同路100巷1號","121.462235","25.1396533333333","6501000","淡水區"
"251010","413-VK","2019/09/12 17:29:40","新北市淡水區中正路二段206號","121.42624","25.18901","6501000","淡水區"
"251012","441-VK","2019/09/12 17:29:37","新北市淡水區北新路100號","121.447478333333","25.17845","6501000","淡水區"
"251007","442-VK","2019/09/12 17:29:41","新北市淡水區民生路47-4號","121.461945","25.138005","6501000","淡水區"
"251005","443-VK","2019/09/12 17:29:36","新北市淡水區鄧公路31巷1號","121.451335","25.1709","6501000","淡水區"
"251006","561-UM","2019/09/12 17:29:43","新北市淡水區大仁街17號","121.44243","25.1750683333333","6501000","淡水區"
"251009","575-R6","2019/09/12 17:29:33","新北市淡水區新生街68號","121.438975","25.1744133333333","6501000","淡水區"
"251014","577-R6","2019/09/12 17:29:43","新北市淡水區公埔子14號","121.477588333333","25.2261266666667","6501000","淡水區"
"251011","650-BX","2019/09/12 17:29:42","新北市淡水區三空泉8-1號","121.475875","25.1612416666667","6501000","淡水區"
"251002","672-BX","2019/09/12 17:29:39","新北市淡水區中正路一段49號","121.424455","25.1775083333333","6501000","淡水區"
"251003","673-BX","2019/09/12 17:29:41","新北市淡水區中山路159-1號","121.440798333333","25.17291","6501000","淡水區"
"207003","550-UM","2019/09/12 17:29:40","新北市萬里區龜吼里美崙路93號","121.685286666667","25.1850616666667","6502800","萬里區"
"207004","291-VK","2019/09/12 17:29:40","新北市萬里區萬里里成功新村44號","121.687433333333","25.1745016666667","6502800","萬里區"
"252002","178-VK","2019/09/12 17:29:33","新北市三芝區忠孝街1-15號","121.505546666667","25.2539266666667","6502100","三芝區"
"233002","762-BX","2019/09/12 17:29:31","新北市烏來區環山路18號","121.549305","24.8684516666667","6502900","烏來區"
"247008","KED-0683","2019/09/12 17:29:32","新北市蘆洲區信義路34巷62號","121.475186666667","25.0778483333333","6501400","蘆洲區"
"242042","AAC-296","2019/09/12 17:29:47","新北市新莊區新樹路113巷19號","121.439178333333","25.0264133333333","6500500","新莊區"
"242061","986-R7","2019/09/12 17:29:28","新北市新莊區瓊林路182-1號","121.440241666667","25.0219183333333","6500500","新莊區"
"242004","751-BX","2019/09/12 17:29:38","新北市新莊區中港路286號","121.452955","25.044305","6500500","新莊區"
"242029","615-BX","2019/09/12 17:29:42","新北市新莊區復興路二段188號","121.459095","25.0444333333333","6500500","新莊區"
"242027","613-BX","2019/09/12 17:29:32","新北市新莊區思源路153號","121.459808333333","25.0443033333333","6500500","新莊區"
"242058","612-BX","2019/09/12 17:29:32","新北市新莊區中正路384號","121.441935","25.034755","6500500","新莊區"
"242048","566-BX","2019/09/12 17:29:28","新北市新莊區四維路210號","121.421366666667","25.020075","6500500","新莊區"
"242053","497-BY","2019/09/12 17:29:26","新北市新莊區新樹路607號","121.433383333333","25.0054983333333","6500500","新莊區"
"242002","442-UM","2019/09/12 17:29:45","新北市新莊區新莊路154號","121.45522","25.0354683333333","6500500","新莊區"
"242007","440-UM","2019/09/12 17:29:44","新北市新莊區自強街32號","121.454893333333","25.0462383333333","6500500","新莊區"
"242044","415-TV","2019/09/12 17:29:40","新北市新莊區富國路101-1號","121.42125","25.0255583333333","6500500","新莊區"
"242013","413-TV","2019/09/12 17:29:12","新北市新莊區中誠街16巷2號","121.45202","25.0483033333333","6500500","新莊區"
"242051","400-BY","2019/09/12 17:29:41","新北市新莊區新樹路447號","121.432736666667","25.013515","6500500","新莊區"
"242025","362-BY","2019/09/12 17:29:33","新北市新莊區中港路276號","121.453183333333","25.04404","6500500","新莊區"
"242023","353-BY","2019/09/12 17:29:42","新北市新莊區公園路37號","121.453111666667","25.0401483333333","6500500","新莊區"
"242015","132-UY","2019/09/12 17:29:19","新北市新莊區新泰路161號","121.447786666667","25.03704","6500500","新莊區"
"242039","135-UY","2019/09/12 17:29:41","新北市新莊區民安東路32號","121.42877","25.0208416666667","6500500","新莊區"
"242056","172-VK","2019/09/12 17:29:35","新北市新莊區新泰路25號","121.449525","25.0328033333333","6500500","新莊區"
"242031","175-VK","2019/09/12 17:29:32","新北市新莊區新泰路434號","121.443353333333","25.0444966666667","6500500","新莊區"
"242021","176-VK","2019/09/12 17:29:27","新北市新莊區中港路38號","121.455156666667","25.037605","6500500","新莊區"
"242017","347-TH","2019/09/12 17:29:30","新北市新莊區中港路292號","121.452943333333","25.04466","6500500","新莊區"
"242036","348-TH","2019/09/12 17:29:24","新北市新莊區建國二路11號","121.434565","25.0238616666667","6500500","新莊區"
"242009","349-TH","2019/09/12 17:29:33","新北市新莊區中原路240號","121.452561666667","25.05458","6500500","新莊區"
"242034","350-TH","2019/09/12 17:29:37","新北市新莊區瓊林路46-2號","121.447341666667","25.0294166666667","6500500","新莊區"
"242019","351-TH","2019/09/12 17:29:42","新北市新莊區中港路54號","121.45544","25.038515","6500500","新莊區"
"238015","755-BX","2019/09/12 17:29:35","新北市樹林區大安路267號","121.419021666667","24.993685","6500700","樹林區"
"238023","601-UM","2019/09/12 17:29:28","新北市樹林區三福街114號","121.40642","25.0163033333333","6500700","樹林區"
"238019","599-UM","2019/09/12 17:29:31","新北市樹林區八德街130號","121.421386666667","24.978985","6500700","樹林區"
"238024","5061-A6","2019/09/12 17:29:40","新北市樹林區鎮前街70-2號","121.425165","24.9921683333333","6500700","樹林區"
"238018","KEA-2217","2019/09/12 17:29:34","新北市樹林區鎮前街267號","121.42006","24.9859633333333","6500700","樹林區"
"238022","KEA-2213","2019/09/12 17:29:28","新北市樹林區仁愛街45號","121.422281666667","24.9820883333333","6500700","樹林區"
"238021","KEA-2539","2019/09/12 17:29:43","新北市樹林區西圳街一段203巷23-2號","121.394593333333","24.9583083333333","6500700","樹林區"
"238025","303-VK","2019/09/12 17:29:25","新北市樹林區保安街二段37-1號","121.416155","25.000035","6500700","樹林區"
"238017","283-BY","2019/09/12 17:29:41","新北市樹林區中正路236號","121.418275","25.00698","6500700","樹林區"
"238014","282-BY","2019/09/12 17:29:42","新北市樹林區保安街一段294巷3號","121.419273333333","24.9975716666667","6500700","樹林區"
"238020","268-VK","2019/09/12 17:29:41","新北市樹林區千歲街184號","121.428968333333","25.0011416666667","6500700","樹林區"
"238026","172-UY","2019/09/12 17:29:37","新北市樹林區味王街46巷9號","121.403771666667","24.9737583333333","6500700","樹林區"
"238016","169-UY","2019/09/12 17:29:41","新北市樹林區中山路一段4號","121.424243333333","24.99311","6500700","樹林區"
"239007","AAC-297","2019/09/12 17:29:25","新北市鶯歌區忠孝街22號","121.355065","24.9560866666667","6500800","鶯歌區"
"239006","891-R6","2019/09/12 17:29:41","新北市鶯歌區鶯桃路301號","121.333675","24.9606083333333","6500800","鶯歌區"
"239008","527-UM","2019/09/12 17:29:38","新北市鶯歌區大湖路532號","121.337465","24.972445","6500800","鶯歌區"
"239005","526-UM","2019/09/12 17:29:34","桃園市八德區桃鶯路86號","121.327695","24.9704516666667","6500800","鶯歌區"
"239001","417-VK","2019/09/12 17:29:27","新北市鶯歌區尖山路235號","121.33993","24.94366","6500800","鶯歌區"
"239003","360-BY","2019/09/12 17:29:43","新北市鶯歌區德昌街201號","121.330061666667","24.960305","6500800","鶯歌區"
"239002","359-BY","2019/09/12 17:29:27","新北市鶯歌區南雅路55號","121.348146666667","24.9542","6500800","鶯歌區"
"239004","193-VK","2019/09/12 17:29:35","新北市鶯歌區文化路226巷16號","121.352128333333","24.9487933333333","6500800","鶯歌區"
"233001","KEA-2870","2019/09/12 17:29:33","新北市烏來區信福路75號","121.526198333333","24.8371633333333","6502900","烏來區"
"242046","281-VK","2019/09/12 17:29:33","新北市新莊區新樹路49號","121.440161666667","25.032015","6500500","新莊區"
"242011","280-VK","2019/09/12 17:29:33","新北市新莊區中港路380號","121.452506666667","25.04787","6500500","新莊區"
"235061","KEA-2875","2019/09/12 17:14:16","新北市中和區員山路36巷16-2號","121.485328333333","24.9916366666667","6500300","中和區"
"235062","KEA-2876","2019/09/12 17:29:47","新北市中和區員山路36巷16-3號","121.485058333333","24.9914383333333","6500300","中和區"
