"lineid","car","time","location","longitude","latitude","cityid","cityname"
"234026","9371-KE","2019/09/12 17:49:39","新北市永和區中山路一段102-1號","121.511116666667","25.0105233333333","6500400","永和區"
"249005","172-UM","2019/09/12 17:49:41","新北市八里區荖阡里41-1號","121.402433333333","25.1336283333333","6502300","八里區"
"249001","173-UM","2019/09/12 17:49:40","新北市八里區龍米路二段108號","121.443591666667","25.1497083333333","6502300","八里區"
"249004","303-UY","2019/09/12 17:49:47","新北市八里區中華路一段79巷9號","121.420995","25.1564016666667","6502300","八里區"
"249002","305-UY","2019/09/12 17:49:36","新北市八里區龍形五街37巷3-1號","121.448731666667","25.1326","6502300","八里區"
"249003","593-UM","2019/09/12 17:49:36","新北市八里區中山路二段56巷1號","121.40711","25.1540566666667","6502300","八里區"
"248014","025-BX","2019/09/12 17:49:32","新北市五股區中興路二段83巷26-3號","121.460065","25.0753916666667","6501500","五股區"
"248016","026-BX","2019/09/12 17:49:40","新北市五股區中興路二段83巷26-6號","121.460145","25.0751383333333","6501500","五股區"
"248008","KED-0815","2019/09/12 17:49:44","新北市五股區中興路二段83巷26-6號","121.46019","25.0752583333333","6501500","五股區"
"248002","678-BX","2019/09/12 17:49:32","新北市五股區中興路二段83巷26-6號","121.460026666667","25.0752166666667","6501500","五股區"
"232011","375-UM","2019/09/12 17:49:26","新北市坪林區北宜路八段148號","121.706901666667","24.9344466666667","6502000","坪林區"
"244007","080-UY","2019/09/12 17:49:43","新北市林口區林口路125號","121.388765","25.0809983333333","6501700","林口區"
"244019","402-UM","2019/09/12 17:49:35","新北市林口區文化一路一段36號","121.370955","25.0693233333333","6501700","林口區"
"244013","KEA-2802","2019/09/12 17:49:41","新北市林口區中山路164號","121.390291666667","25.0788416666667","6501700","林口區"
"244023","483-VK","2019/09/12 17:49:35","新北市林口區東明二街101號","121.388743333333","25.0705333333333","6501700","林口區"
"244017","485-VK","2019/09/12 17:49:47","新北市林口區文化二路一段230巷22弄1-1號","121.370463333333","25.0718766666667","6501700","林口區"
"244009","656-BX","2019/09/12 17:49:29","新北市林口區竹林路582巷19號","121.385983333333","25.0833666666667","6501700","林口區"
"244011","701-TV","2019/09/12 17:49:38","新北市林口區中正路283號","121.389793333333","25.0777083333333","6501700","林口區"
"244025","837-TS","2019/09/12 17:49:34","新北市林口區三民路185號","121.360931666667","25.0711133333333","6501700","林口區"
"244021","838-TS","2019/09/12 17:49:35","新北市林口區仁愛路一段123巷48號","121.397045","25.0706933333333","6501700","林口區"
"222003","436-BY","2019/09/12 17:49:29","新北市深坑區阿柔洋60-1號","121.608628333333","24.9985433333333","6501800","深坑區"
"222002","659-BX","2019/09/12 17:49:43","新北市深坑區平埔街22巷17弄1號","121.61489","25.0008416666667","6501800","深坑區"
"241024","462-BY","2019/09/12 17:49:32","新北市三重區大勇街19號","121.48304","25.071605","6500200","三重區"
"241016","887-TS","2019/09/12 17:49:47","新北市三重區新北大道一段3-1號","121.490056666667","25.0614316666667","6500200","三重區"
"241033","AAC-255","2019/09/12 17:49:27","新北市三重區光復路一段47號","121.47214","25.048625","6500200","三重區"
"235065","098-UM","2019/09/12 17:49:30","新北市中和區員山路36巷16-8號","121.48549","24.9924266666667","6500300","中和區"
"235058","151-BY","2019/09/12 17:49:33","新北市中和區員山路36巷16-2號","121.485286666667","24.9915766666667","6500300","中和區"
"247016","KEA-2869","2019/09/12 17:49:30","新北市蘆洲區中正路185巷31弄3號","121.466505","25.0842883333333","6501400","蘆洲區"
"247010","KED-0682","2019/09/12 17:49:43","新北市蘆洲區三民路2號","121.47593","25.081965","6501400","蘆洲區"
"235057","801-TS","2019/09/12 17:49:29","新北市中和區員山路36巷16號","121.484491666667","24.9913133333333","6500300","中和區"
"235064","911-UM","2019/09/12 17:49:38","新北市中和區員山路36巷16-3號","121.485051666667","24.9912633333333","6500300","中和區"
"235037","AAC-213","2019/09/12 17:49:36","新北市中和區錦和路350-1號","121.49002","24.99354","6500300","中和區"
"247006","893-R6","2019/09/12 17:49:30","新北市蘆洲區長安街4號","121.464563333333","25.0788416666667","6501400","蘆洲區"
"247020","546-UM","2019/09/12 17:49:41","新北市蘆洲區民義街71巷31號","121.472066666667","25.091135","6501400","蘆洲區"
"247018","500-BY","2019/09/12 17:49:34","新北市蘆洲區復興路100號","121.475863333333","25.0870616666667","6501400","蘆洲區"
"247012","337-TH","2019/09/12 17:49:43","新北市蘆洲區復興路77號","121.476188333333","25.0874616666667","6501400","蘆洲區"
"247004","336-TH","2019/09/12 17:49:30","新北市蘆洲區長榮路207號","121.46102","25.0848583333333","6501400","蘆洲區"
"247024","057-VK","2019/09/12 17:49:35","新北市蘆洲區長興路298巷10號","121.461115","25.08982","6501400","蘆洲區"
"247014","056-VK","2019/09/12 17:49:40","新北市蘆洲區中正路187號","121.468595","25.085685","6501400","蘆洲區"
"247022","007-UY","2019/09/12 17:49:46","新北市蘆洲區中正路355號","121.465416666667","25.089775","6501400","蘆洲區"
"247002","001-UY","2019/09/12 17:49:43","新北市蘆洲區永平街32巷33弄19號","121.458636666667","25.0923366666667","6501400","蘆洲區"
"228003","097-TW","2019/09/12 17:49:45","新北市貢寮區真理里延平街36號","121.924478333333","25.056425","6502600","貢寮區"
"228001","212-TW","2019/09/12 17:49:35","新北市貢寮區仁理村仁愛路95-1號","121.927625","25.055465","6502600","貢寮區"
"228002","663-BX","2019/09/12 17:49:27","新北市貢寮區福隆里外隆林街16-4號","121.957801666667","25.00524","6502600","貢寮區"
"224006","676-BX","2019/09/12 17:49:42","新北市瑞芳區傑魚坑路183號","121.788488333333","25.1083","6501200","瑞芳區"
"224009","275-VK","2019/09/12 17:49:46","新北市瑞芳區山尖路209號","121.849838333333","25.1119533333333","6501200","瑞芳區"
"224008","273-VK","2019/09/12 17:49:27","新北市瑞芳區明燈路一段45巷2號","121.820973333333","25.1069133333333","6501200","瑞芳區"
"224005","271-BY","2019/09/12 17:49:31","新北市瑞芳區瑞濱路67號","121.822191666667","25.1209666666667","6501200","瑞芳區"
"227001","642-TC","2019/09/12 17:23:38","新北市雙溪區三貂里定福路1-2號","121.850781666667","25.0634083333333","6502500","雙溪區"
"227002","400-TW","2019/09/12 17:49:45","新北市雙溪區共和里東榮街52號","121.866398333333","25.033675","6502500","雙溪區"
"253006","295-VK","2019/09/12 17:49:42","新北市石門區老崩山10-3號","121.552748333333","25.2911933333333","6502200","石門區"
"208002","KEA-2872","2019/09/12 17:49:40","新北市金山區磺清路135號","121.639528333333","25.2277333333333","6502700","金山區"
"251004","009-UM","2019/09/12 17:49:28","新北市淡水區民權一街17巷1號","121.458706666667","25.13664","6501000","淡水區"
"251015","KEA-2871","2019/09/12 17:49:17","新北市淡水區興福寮1-15號","121.490108333333","25.1650316666667","6501000","淡水區"
"251016","179-VK","2019/09/12 17:49:29","新北市淡水區埤島39-15號","121.45275","25.1957866666667","6501000","淡水區"
"251013","180-VK","2019/09/12 17:49:36","新北市淡水區泉洲厝31號","121.47956","25.19104","6501000","淡水區"
"251008","181-VK","2019/09/12 17:49:27","新北市淡水區八勢路一段123巷7弄3號","121.465928333333","25.157075","6501000","淡水區"
"251010","413-VK","2019/09/12 17:49:42","新北市淡水區淡海路165巷6號","121.420501666667","25.1835933333333","6501000","淡水區"
"251012","441-VK","2019/09/12 17:49:37","新北市淡水區北新路一段339號","121.466465","25.1822483333333","6501000","淡水區"
"251007","442-VK","2019/09/12 17:49:41","新北市淡水區民生路16巷30號","121.461696666667","25.1374766666667","6501000","淡水區"
"251005","443-VK","2019/09/12 17:49:36","新北市淡水區學府路102巷4號","121.450496666667","25.1719066666667","6501000","淡水區"
"251006","561-UM","2019/09/12 17:49:43","新北市淡水區中山北路一段53號","121.441425","25.1760466666667","6501000","淡水區"
"251009","575-R6","2019/09/12 17:49:33","新北市淡水區長興街16-3號","121.443936666667","25.1708483333333","6501000","淡水區"
"251014","577-R6","2019/09/12 17:49:43","新北市淡水區公埔子16-6號","121.481033333333","25.22455","6501000","淡水區"
"251011","650-BX","2019/09/12 17:49:42","新北市淡水區小坪頂13-3號","121.486561666667","25.156185","6501000","淡水區"
"251002","672-BX","2019/09/12 17:49:39","新北市淡水區中山路104號","121.442361666667","25.1706266666667","6501000","淡水區"
"251003","673-BX","2019/09/12 17:49:41","新北市淡水區大忠街5巷1號","121.443113333333","25.1764233333333","6501000","淡水區"
"207003","550-UM","2019/09/12 17:49:37","新北市萬里區野柳里東澳路66號","121.692826666667","25.20097","6502800","萬里區"
"207004","291-VK","2019/09/12 17:49:43","新北市萬里區萬里里瑪鋉路12-4號","121.68775","25.1756816666667","6502800","萬里區"
"252002","178-VK","2019/09/12 17:49:33","新北市三芝區智成街33號","121.503781666667","25.256595","6502100","三芝區"
"237004","KEA-2597","2019/09/12 17:49:27","新北市三峽區民權街132號","121.368566666667","24.9319983333333","6500900","三峽區"
"237009","210-TH","2019/09/12 17:49:28","新北市三峽區大勇路3巷34號","121.367531666667","24.9368316666667","6500900","三峽區"
"237013","252-BX","2019/09/12 17:49:35","新北市三峽區安溪路309巷5號","121.373406666667","24.9334416666667","6500900","三峽區"
"237012","275-BY","2019/09/12 17:49:44","新北市三峽區文化路41號","121.372463333333","24.9359933333333","6500900","三峽區"
"237008","302-VK","2019/09/12 17:49:44","新北市三峽區中園街156-7號","121.36677","24.9194083333333","6500900","三峽區"
"237014","433-BY","2019/09/12 17:49:29","新北市三峽區和平街36巷13號","121.371195","24.9369933333333","6500900","三峽區"
"237006","5529-G3","2019/09/12 17:49:36","新北市三峽區介壽路二段38巷22號","121.391796666667","24.9349366666667","6500900","三峽區"
"237011","KEA-2596","2019/09/12 17:49:40","新北市三峽區大同路64號","121.376523333333","24.9284066666667","6500900","三峽區"
"237015","649-BX","2019/09/12 17:49:35","新北市三峽區白雞149-2號","121.400106666667","24.9055016666667","6500900","三峽區"
"237010","706-TV","2019/09/12 17:49:27","新北市三峽區復興路235號","121.36822","24.9386883333333","6500900","三峽區"
"237005","AKY-6261","2019/09/12 17:49:29","新北市三峽區中山路331號","121.36041","24.9380416666667","6500900","三峽區"
"236042","KED-0685","2019/09/12 17:49:33","新北市土城區城林路6巷80號","121.43852","24.9797283333333","6501300","土城區"
"236030","253-BX","2019/09/12 17:49:38","新北市土城區城林路6巷80號","121.438658333333","24.9796616666667","6501300","土城區"
"236014","270-VK","2019/09/12 17:49:45","新北市土城區城林路6巷80號","121.438573333333","24.97961","6501300","土城區"
"236038","271-VK","2019/09/12 17:49:40","新北市土城區城林路6巷80號","121.438475","24.9797466666667","6501300","土城區"
"247008","KED-0683","2019/09/12 17:49:32","新北市蘆洲區和平路31號","121.47189","25.07908","6501400","蘆洲區"
"236070","KEA-2877","2019/09/12 17:49:43","新北市土城區青雲路364-1號","121.458146666667","24.9739816666667","6501300","土城區"
"236059","912-UM","2019/09/12 17:49:30","新北市土城區中華路二段168-1號","121.437415","24.97236","6501300","土城區"
"236049","913-UM","2019/09/12 17:49:45","新北市土城區城林路6巷80號","121.438488333333","24.979755","6501300","土城區"
"236063","915-UM","2019/09/12 17:49:38","新北市土城區城林路6巷80號","121.438451666667","24.979815","6501300","土城區"
"236055","AAC-216","2019/09/12 17:49:29","新北市土城區城林路6巷80號","121.438516666667","24.9795816666667","6501300","土城區"
"242042","AAC-296","2019/09/12 17:49:29","新北市泰山區漢口街32號","121.426","25.0353616666667","6500500","新莊區"
"242061","986-R7","2019/09/12 17:49:28","新北市新莊區瓊林南路103巷8弄43號","121.435088333333","25.0112066666667","6500500","新莊區"
"242004","751-BX","2019/09/12 17:49:38","新北市新莊區思源路177巷5弄12號","121.458796666667","25.045095","6500500","新莊區"
"242029","615-BX","2019/09/12 17:49:40","新北市新莊區復興路一段13號","121.445861666667","25.0416133333333","6500500","新莊區"
"242027","613-BX","2019/09/12 17:49:44","新北市新莊區福壽街140號","121.457846666667","25.0519116666667","6500500","新莊區"
"242058","612-BX","2019/09/12 17:49:32","新北市新莊區中正路618號","121.42372","25.0293783333333","6500500","新莊區"
"242048","566-BX","2019/09/12 17:49:41","新北市新莊區萬安街60巷5號","121.420681666667","25.02348","6500500","新莊區"
"242053","497-BY","2019/09/12 17:49:26","新北市新莊區民安西路468-1號","121.431653333333","25.0078766666667","6500500","新莊區"
"242002","442-UM","2019/09/12 17:49:25","新北市新莊區景德路140號","121.451046666667","25.0342116666667","6500500","新莊區"
"242007","440-UM","2019/09/12 17:49:24","新北市新莊區福樂街108巷1號","121.457498333333","25.0478533333333","6500500","新莊區"
"242044","415-TV","2019/09/12 17:49:40","新北市新莊區富國路32號","121.418925","25.02622","6500500","新莊區"
"242013","413-TV","2019/09/12 17:49:32","新北市新莊區中泰街104巷5弄8號","121.448275","25.046845","6500500","新莊區"
"242051","400-BY","2019/09/12 17:49:28","新北市新莊區西盛街321號","121.42809","25.01487","6500500","新莊區"
"242025","362-BY","2019/09/12 17:49:38","新北市新莊區新北大道二段239號","121.46108","25.0606983333333","6500500","新莊區"
"242023","353-BY","2019/09/12 17:49:42","新北市新莊區福樂街64號","121.457736666667","25.0462483333333","6500500","新莊區"
"242015","132-UY","2019/09/12 17:49:31","新北市新莊區新泰路417-2號","121.443111666667","25.0446433333333","6500500","新莊區"
"242039","135-UY","2019/09/12 17:49:41","新北市新莊區民安路138號","121.424233333333","25.0255116666667","6500500","新莊區"
"242056","172-VK","2019/09/12 17:49:33","新北市新莊區瓊林路40巷20-3號","121.447101666667","25.0303116666667","6500500","新莊區"
"242031","175-VK","2019/09/12 17:49:32","新北市新莊區新泰路321巷13號","121.444013333333","25.04125","6500500","新莊區"
"242021","176-VK","2019/09/12 17:49:27","新北市新莊區復興路一段220號","121.45304","25.0437666666667","6500500","新莊區"
"242017","347-TH","2019/09/12 17:49:30","新北市新莊區永安街93號","121.450573333333","25.0445283333333","6500500","新莊區"
"242036","348-TH","2019/09/12 17:49:31","新北市新莊區建福路62號","121.426733333333","25.0271066666667","6500500","新莊區"
"242009","349-TH","2019/09/12 17:49:43","新北市新莊區昌明街48號","121.456031666667","25.0521566666667","6500500","新莊區"
"242034","350-TH","2019/09/12 17:49:37","新北市新莊區新莊路682-6號","121.441041666667","25.03274","6500500","新莊區"
"242019","351-TH","2019/09/12 17:49:42","新北市新莊區長青街16號","121.456726666667","25.0423283333333","6500500","新莊區"
"238015","755-BX","2019/09/12 17:49:43","新北市樹林區復興路67號","121.42158","24.9931166666667","6500700","樹林區"
"238023","601-UM","2019/09/12 17:49:28","新北市樹林區龍興街32巷20號","121.402145","25.0156433333333","6500700","樹林區"
"238019","599-UM","2019/09/12 17:49:31","新北市樹林區太平路82號","121.41906","24.9802033333333","6500700","樹林區"
"238024","5061-A6","2019/09/12 17:49:40","新北市樹林區育德街78-1號","121.38733","24.9681516666667","6500700","樹林區"
"238018","KEA-2217","2019/09/12 17:49:34","新北市樹林區博愛街90號","121.427005","24.9918866666667","6500700","樹林區"
"238022","KEA-2213","2019/09/12 17:49:29","新北市樹林區太順街62巷3弄30號","121.416588333333","24.9792966666667","6500700","樹林區"
"238021","KEA-2539","2019/09/12 17:49:34","新北市樹林區柑園街一段68號","121.402298333333","24.96029","6500700","樹林區"
"238025","303-VK","2019/09/12 17:49:45","新北市樹林區三俊街121號","121.417615","25.0155766666667","6500700","樹林區"
"238017","283-BY","2019/09/12 17:49:41","新北市樹林區三德街38號","121.415448333333","25.0132116666667","6500700","樹林區"
"238014","282-BY","2019/09/12 17:49:39","新北市樹林區保安街一段293號","121.41798","24.9972483333333","6500700","樹林區"
"238020","268-VK","2019/09/12 17:49:41","新北市樹林區俊英街155巷1號","121.424318333333","25.01228","6500700","樹林區"
"238026","172-UY","2019/09/12 17:49:37","新北市樹林區新興街19巷34弄21號","121.402276666667","24.9727433333333","6500700","樹林區"
"238016","169-UY","2019/09/12 17:49:41","新北市樹林區啟智街173巷10號","121.416068333333","24.9872333333333","6500700","樹林區"
"239007","AAC-297","2019/09/12 17:49:45","新北市鶯歌區鶯桃路184號","121.336953333333","24.95543","6500800","鶯歌區"
"239006","891-R6","2019/09/12 17:49:41","新北市鶯歌區永和街34巷24號","121.333765","24.967","6500800","鶯歌區"
"239008","527-UM","2019/09/12 17:49:38","新北市鶯歌區大湖路700巷22弄11號","121.333653333333","24.977315","6500800","鶯歌區"
"239005","526-UM","2019/09/12 17:49:34","新北市鶯歌區鳳吉五街41號","121.327628333333","24.9729033333333","6500800","鶯歌區"
"239001","417-VK","2019/09/12 17:49:27","新北市鶯歌區中正三路154號","121.335353333333","24.9394266666667","6500800","鶯歌區"
"239003","360-BY","2019/09/12 17:49:43","新北市鶯歌區鶯桃路206巷34號","121.337828333333","24.9598383333333","6500800","鶯歌區"
"239002","359-BY","2019/09/12 17:49:46","新北市鶯歌區育智路22號","121.345025","24.9552533333333","6500800","鶯歌區"
"239004","193-VK","2019/09/12 17:49:35","新北市鶯歌區三鶯路31巷1號","121.355108333333","24.9425933333333","6500800","鶯歌區"
"221008","489-VK","2019/09/12 17:49:33","新北市汐止區康寧街901號","121.651405","25.0750483333333","6501100","汐止區"
"221010","269-BY","2019/09/12 17:49:35","新北市汐止區汐萬路二段54號","121.649473333333","25.0819683333333","6501100","汐止區"
"221029","298-VK","2019/09/12 17:49:34","新北市汐止區汐萬路一段256巷3號","121.652811666667","25.0743166666667","6501100","汐止區"
"221031","353-TW","2019/09/12 17:49:29","新北市汐止區連峰街1巷1號","121.646508333333","25.0760183333333","6501100","汐止區"
"233001","KEA-2870","2019/09/12 17:49:32","新北市烏來區瀑布路24號","121.545996666667","24.8465866666667","6502900","烏來區"
"242046","281-VK","2019/09/12 17:49:33","新北市新莊區福營路97巷26號","121.434881666667","25.0316633333333","6500500","新莊區"
"242011","280-VK","2019/09/12 17:49:33","新北市新莊區中港路646號","121.450871666667","25.055685","6500500","新莊區"
"235062","KEA-2876","2019/09/12 17:49:15","新北市中和區員山路36巷16-3號","121.485041666667","24.9914583333333","6500300","中和區"
