"lineid","car","time","location","longitude","latitude","cityid","cityname"
"251004","009-UM","2019/09/12 22:19:31","新北市淡水區民族路33號","121.462306666667","25.1358016666667","6501000","淡水區"
"251008","181-VK","2019/09/12 22:19:27","新北市淡水區學府路104號","121.449881666667","25.1717716666667","6501000","淡水區"
"251010","413-VK","2019/09/12 22:19:40","新北市淡水區沙崙路200號","121.424741666667","25.1839066666667","6501000","淡水區"
"251007","442-VK","2019/09/12 22:19:40","新北市淡水區北新路184巷1號","121.449543333333","25.17864","6501000","淡水區"
"251011","650-BX","2019/09/12 22:19:38","新北市淡水區水碓街7號","121.443176666667","25.1770783333333","6501000","淡水區"
