"lineid","car","time","location","longitude","latitude","cityid","cityname"
"232008","291-BY","2019/09/13 06:39:40","新北市坪林區北宜路八段558號","121.718015","24.9092633333333","6502000","坪林區"
"232003","758-BX","2019/09/13 06:39:30","新北市坪林區北宜路八段558號","121.71798","24.909295","6502000","坪林區"
"244004","248-BX","2019/09/13 06:39:34","新北市林口區粉寮路二段160巷28號","121.405158333333","25.0907433333333","6501700","林口區"
"231052","512-UM","2019/09/13 06:39:41","新北市新店區新和街33號","121.518978333333","24.984735","6500600","新店區"
"226005","5620-A6","2019/09/13 06:39:44","新北市平溪區石底里公園街18-3號","121.73384","25.0252783333333","6502400","平溪區"
"223006","022-BY","2019/09/13 06:39:34","新北市石碇區楓子林1-2號","121.642585","25.0087266666667","6501900","石碇區"
"223002","KEA-2673","2019/09/13 06:39:38","新北市石碇區石碇東街135號","121.659196666667","24.9897566666667","6501900","石碇區"
"223003","205-TH","2019/09/13 06:39:32","新北市石碇區碇坪路一段111號","121.664075","24.988455","6501900","石碇區"
"223008","406-TH","2019/09/13 06:39:31","新北市石碇區碇坪路一段186號","121.667656666667","24.9842433333333","6501900","石碇區"
"223001","592-UM","2019/09/13 06:39:33","新北市石碇區碇坪路一段107號","121.663476666667","24.9890583333333","6501900","石碇區"
"223007","661-BX","2019/09/13 06:39:43","新北市石碇區靜安路一段81號","121.652028333333","25.0068133333333","6501900","石碇區"
"227003","282-VK","2019/09/13 06:39:30","新北市雙溪區牡丹里聖南8號","121.859116666667","25.052465","6502500","雙溪區"
