"lineid","car","time","location","longitude","latitude","cityid","cityname"
"232001","758-BX","2019/12/26 08:13:33","新北市坪林區坪雙路一段117號","121.733731666667","24.9516416666667","6502000","坪林區"
"244006","080-UY","2019/12/26 08:13:45","新北市林口區中湖52-1號","121.376005","25.09143","6501700","林口區"
"244003","248-BX","2019/12/26 08:13:31","新北市林口區頂福66號","121.332113333333","25.1051183333333","6501700","林口區"
"244018","402-UM","2019/12/26 08:13:30","新北市林口區文化一路一段190巷7弄2-1號","121.38028","25.074895","6501700","林口區"
"244012","KEA-2802","2019/12/26 08:13:28","新北市林口區中正路525巷5號","121.38283","25.0770383333333","6501700","林口區"
"244022","483-VK","2019/12/26 08:13:27","新北市林口區仁愛路一段665號","121.387748333333","25.076425","6501700","林口區"
"244016","485-VK","2019/12/26 08:13:42","新北市林口區中山路130-1號","121.392098333333","25.0785866666667","6501700","林口區"
"244008","656-BX","2019/12/26 08:13:44","新北市林口區中北一街17巷19號","121.385181666667","25.0872633333333","6501700","林口區"
"244010","701-TV","2019/12/26 08:13:30","新北市林口區仁愛路一段641號","121.388916666667","25.0766433333333","6501700","林口區"
"244024","837-TS","2019/12/26 08:13:29","新北市林口區文化三路一段453號","121.368265","25.0745266666667","6501700","林口區"
"244020","838-TS","2019/12/26 08:13:33","新北市林口區粉寮路二段457號","121.404303333333","25.0987383333333","6501700","林口區"
"222006","289-BY","2019/12/26 08:13:38","新北市深坑區北深路三段20號","121.609451666667","25.0010816666667","6501800","深坑區"
"231069","189-VK","2019/12/26 08:13:40","新北市新店區華潭街1巷49號","121.52609","24.94666","6500600","新店區"
"231008","192-VK","2019/12/26 08:13:27","新北市新店區新烏路三段1號","121.551811666667","24.9067033333333","6500600","新店區"
"223003","205-TH","2019/12/26 08:13:24","新北市石碇區北宜路六段塗潭巷7號","121.646131666667","24.9340533333333","6501900","石碇區"
"223008","406-TH","2019/12/26 08:13:30","新北市石碇區靜安路一段266號","121.683825","25.0091266666667","6501900","石碇區"
"223001","592-UM","2019/12/26 08:13:33","新北市石碇區北宜路六段塗潭巷7號","121.64623","24.9339733333333","6501900","石碇區"
"223004","660-BX","2019/12/26 08:13:34","新北市石碇區外按16-1號","121.650818333333","24.9974133333333","6501900","石碇區"
"223007","661-BX","2019/12/26 08:13:29","新北市石碇區蚯蚓坑61-1號","121.683576666667","25.010075","6501900","石碇區"
"252004","249-BX","2019/12/26 08:13:36","新北市三芝區興華里車埕31-3號","121.503433333333","25.1945133333333","6502100","三芝區"
"252007","AAC-283","2019/12/26 08:13:24","新北市三芝區後厝里大片頭87-1號","121.456258333333","25.2456933333333","6502100","三芝區"
"242040","AAC-296","2019/12/26 08:13:36","新北市泰山區新北大道六段347號","121.422823333333","25.03331","6500500","新莊區"
"242059","986-R7","2019/12/26 08:13:39","新北市新莊區瓊林南路108號","121.433968333333","25.0118083333333","6500500","新莊區"
"242003","751-BX","2019/12/26 08:13:36","新北市新莊區自立街214巷9弄5號","121.457528333333","25.0451266666667","6500500","新莊區"
"242024","705-TV","2019/12/26 08:13:35","新北市新莊區思源路269號","121.46007","25.047775","6500500","新莊區"
"242028","615-BX","2019/12/26 08:13:40","新北市新莊區復興路一段53號","121.447248333333","25.0423033333333","6500500","新莊區"
"242026","613-BX","2019/12/26 08:13:40","新北市新莊區福壽街128號","121.45767","25.0513183333333","6500500","新莊區"
"242057","612-BX","2019/12/26 08:13:39","新北市新莊區中正路726-4號","121.416271666667","25.0244116666667","6500500","新莊區"
"242047","566-BX","2019/12/26 08:13:42","新北市新莊區萬安街105號","121.420895","25.0230233333333","6500500","新莊區"
"242052","497-BY","2019/12/26 08:13:26","新北市新莊區樹新路120巷24號","121.430316666667","24.9963283333333","6500500","新莊區"
"242001","441-UM","2019/12/26 08:13:25","新北市新莊區景德路174號","121.450183333333","25.0342183333333","6500500","新莊區"
"242006","440-UM","2019/12/26 08:13:37","新北市新莊區福樂街156巷12弄3號","121.45631","25.0489066666667","6500500","新莊區"
"242043","415-TV","2019/12/26 08:13:37","新北市新莊區中正路871巷18號","121.41914","25.0265916666667","6500500","新莊區"
"242012","413-TV","2019/12/26 08:13:36","新北市新莊區中誠街142巷13弄2號","121.448615","25.04813","6500500","新莊區"
"242049","400-BY","2019/12/26 08:13:36","新北市新莊區西盛街311巷7號","121.428323333333","25.0152483333333","6500500","新莊區"
"242022","353-BY","2019/12/26 08:13:39","新北市新莊區民樂街76號","121.457945","25.0435816666667","6500500","新莊區"
"242038","135-UY","2019/12/26 08:13:38","新北市新莊區民安路170號","121.425068333333","25.0240633333333","6500500","新莊區"
"242016","173-VK","2019/12/26 08:13:36","新北市新莊區永安街178號","121.448663333333","25.044375","6500500","新莊區"
"242030","175-VK","2019/12/26 08:13:43","新北市新莊區新泰路321巷20號","121.443863333333","25.0412933333333","6500500","新莊區"
"242055","176-VK","2019/12/26 08:13:28","新北市新莊區瓊林路38-9號","121.448088333333","25.0302533333333","6500500","新莊區"
"242020","KED-0687","2019/12/26 08:13:39","新北市新莊區中港路176號","121.454963333333","25.0419916666667","6500500","新莊區"
"242014","347-TH","2019/12/26 08:13:38","新北市新莊區新泰路406巷1弄2號","121.444326666667","25.0440183333333","6500500","新莊區"
"242035","348-TH","2019/12/26 08:13:39","新北市新莊區建福路69巷30號","121.428218333333","25.0272333333333","6500500","新莊區"
"242008","349-TH","2019/12/26 08:13:38","新北市新莊區福壽街169巷30號","121.456653333333","25.053765","6500500","新莊區"
"242033","350-TH","2019/12/26 08:13:39","新北市新莊區新莊路595號","121.446253333333","25.0332383333333","6500500","新莊區"
"242018","351-TH","2019/12/26 08:13:36","新北市新莊區中港路271號","121.453531666667","25.0434983333333","6500500","新莊區"
"233003","KEA-2870","2019/12/26 08:13:40","新北市烏來區啦卡路26號","121.555533333333","24.8604616666667","6502900","烏來區"
"242045","281-VK","2019/12/26 08:13:33","新北市新莊區建國一路94號","121.434473333333","25.0299383333333","6500500","新莊區"
"242010","280-VK","2019/12/26 08:13:41","新北市新莊區中港路684號","121.450835","25.0567016666667","6500500","新莊區"
