"lineid","car","time","location","longitude","latitude","cityid","cityname"
"244006","080-UY","2019/12/26 09:13:25","新北市林口區後湖13-1號","121.387911666667","25.0980466666667","6501700","林口區"
"244018","402-UM","2019/12/26 09:13:30","新北市林口區忠孝路604巷18號","121.376596666667","25.0671833333333","6501700","林口區"
"244012","KEA-2802","2019/12/26 09:13:28","新北市林口區麗園一街11巷3號","121.377521666667","25.0704583333333","6501700","林口區"
"244022","483-VK","2019/12/26 09:13:31","新北市林口區隆林街127號","121.384078333333","25.0744233333333","6501700","林口區"
"244016","485-VK","2019/12/26 09:13:42","新北市林口區文化二路一段269號","121.367418333333","25.07074","6501700","林口區"
"244008","656-BX","2019/12/26 09:13:33","新北市林口區中山路596號","121.37578","25.0857533333333","6501700","林口區"
"244010","701-TV","2019/12/26 09:13:29","新北市林口區中正路57巷7弄2號","121.39529","25.076635","6501700","林口區"
"244024","837-TS","2019/12/26 09:13:40","新北市林口區文化北路一段406-1號","121.364433333333","25.076065","6501700","林口區"
"244020","838-TS","2019/12/26 09:13:33","新北市林口區工八路1-1號","121.401671666667","25.078655","6501700","林口區"
"222006","289-BY","2019/12/26 09:13:38","新北市深坑區土庫尖路26號","121.640208333333","25.0134033333333","6501800","深坑區"
"231069","189-VK","2019/12/26 09:13:40","新北市新店區平廣路二段160-1號","121.495726666667","24.8949483333333","6500600","新店區"
"231008","192-VK","2019/12/26 09:13:27","新北市新店區平廣路一段63號","121.532453333333","24.8994966666667","6500600","新店區"
"223003","205-TH","2019/12/26 09:13:24","新北市石碇區北宜路五段坑內巷2號","121.636236666667","24.9527066666667","6501900","石碇區"
"223008","406-TH","2019/12/26 09:08:29","新北市石碇區光明路13號","121.680005","25.0335766666667","6501900","石碇區"
"223001","592-UM","2019/12/26 09:13:33","新北市石碇區北宜路五段77號","121.645656666667","24.9521166666667","6501900","石碇區"
"223004","660-BX","2019/12/26 09:13:33","新北市石碇區磨石坑24-1號","121.689861666667","24.97227","6501900","石碇區"
"223007","661-BX","2019/12/26 09:13:29","新北市石碇區碇南路二段7號","121.670493333333","25.0311","6501900","石碇區"
"223005","677-TV","2019/12/26 09:13:40","新北市石碇區磨石坑24-1號","121.689875","24.9721616666667","6501900","石碇區"
"252004","249-BX","2019/12/26 09:13:36","新北市三芝區興華里車埕72-1號","121.493018333333","25.1963533333333","6502100","三芝區"
"252007","AAC-283","2019/12/26 09:13:24","新北市三芝區古庄里四棧橋18號","121.489636666667","25.2602766666667","6502100","三芝區"
"242040","AAC-296","2019/12/26 09:13:36","新北市新莊區壽山路45號","121.414788333333","25.0309566666667","6500500","新莊區"
"242059","986-R7","2019/12/26 09:13:29","新北市新莊區民安東路122號","121.430473333333","25.02071","6500500","新莊區"
"242003","751-BX","2019/12/26 09:13:36","新北市新莊區化成路316號","121.465765","25.0483416666667","6500500","新莊區"
"242024","705-TV","2019/12/26 09:13:35","新北市新莊區五工三路78巷15號","121.45939","25.065675","6500500","新莊區"
"242028","615-BX","2019/12/26 09:13:36","新北市新莊區中華路二段91號","121.452641666667","25.049425","6500500","新莊區"
"242026","613-BX","2019/12/26 09:13:40","新北市新莊區幸福路602-1號","121.452231666667","25.0492783333333","6500500","新莊區"
"242057","612-BX","2019/12/26 09:13:34","新北市新莊區龍安路357號","121.423453333333","25.0190916666667","6500500","新莊區"
"242047","566-BX","2019/12/26 09:13:41","新北市新莊區四維路152巷34號","121.42195","25.0223916666667","6500500","新莊區"
"242052","497-BY","2019/12/26 09:13:36","新北市新莊區民安西路310號","121.426456666667","25.0119366666667","6500500","新莊區"
"242001","441-UM","2019/12/26 09:13:25","新北市新莊區中正路56巷12弄1號","121.461296666667","25.0411133333333","6500500","新莊區"
"242006","440-UM","2019/12/26 09:13:37","新北市新莊區思源路287巷19號","121.458783333333","25.0481616666667","6500500","新莊區"
"242043","415-TV","2019/12/26 09:13:37","新北市新莊區中正路929巷19號","121.411105","25.0202866666667","6500500","新莊區"
"242012","413-TV","2019/12/26 09:13:36","新北市新莊區中和街175巷10號","121.4473","25.0506633333333","6500500","新莊區"
"242049","400-BY","2019/12/26 09:13:30","新北市新莊區西盛街259號","121.428108333333","25.0158483333333","6500500","新莊區"
"242022","353-BY","2019/12/26 09:13:45","新北市新莊區化成路493-2號","121.464901666667","25.0631016666667","6500500","新莊區"
"242038","135-UY","2019/12/26 09:13:43","新北市新莊區民安路344號","121.4294","25.02237","6500500","新莊區"
"242016","173-VK","2019/12/26 09:13:36","新北市新莊區中平路110巷18號","121.44562","25.045435","6500500","新莊區"
"242030","175-VK","2019/12/26 09:13:40","新北市新莊區公園一路51號","121.443171666667","25.0359116666667","6500500","新莊區"
"242055","176-VK","2019/12/26 09:13:28","新北市新莊區新莊路591號","121.446355","25.0331616666667","6500500","新莊區"
"242020","KED-0687","2019/12/26 09:13:33","新北市新莊區復興路一段7號","121.445633333333","25.04161","6500500","新莊區"
"242014","347-TH","2019/12/26 09:13:38","新北市新莊區中平路36巷22號","121.445683333333","25.043505","6500500","新莊區"
"242035","348-TH","2019/12/26 09:13:39","新北市新莊區建安街9巷10號","121.429236666667","25.0266266666667","6500500","新莊區"
"242008","349-TH","2019/12/26 09:13:38","新北市新莊區幸福路566號","121.45438","25.0493733333333","6500500","新莊區"
"242033","350-TH","2019/12/26 09:13:39","新北市新莊區建中街77號","121.447346666667","25.0366983333333","6500500","新莊區"
"242018","351-TH","2019/12/26 09:13:36","新北市新莊區銘德街49巷4弄2號","121.457291666667","25.043155","6500500","新莊區"
"233003","KEA-2870","2019/12/26 09:13:40","新北市烏來區卡拉模基9號","121.502871666667","24.7800783333333","6502900","烏來區"
"242045","281-VK","2019/12/26 09:13:39","新北市新莊區裕民街126號","121.418098333333","25.0223533333333","6500500","新莊區"
"242010","280-VK","2019/12/26 09:13:41","新北市新莊區中港路525號","121.451761666667","25.0511883333333","6500500","新莊區"
"220005","686-BX","2019/12/26 09:13:35","新北市樹林區中正路7-1號","121.430338333333","24.997455","6500100","板橋區"
