"lineid","car","time","location","longitude","latitude","cityid","cityname"
"234044","148-BY","2019/12/26 12:59:44","新北市永和區得和路373巷16弄2號","121.525231666667","25.0001233333333","6500400","永和區"
"234078","298-R6","2019/12/26 12:59:39","新北市永和區永亨路59號","121.520905","25.0063133333333","6500400","永和區"
"234036","336-UY","2019/12/26 12:59:29","新北市永和區成功路二段203號","121.526611666667","24.99603","6500400","永和區"
"234062","337-UY","2019/12/26 12:59:30","新北市永和區秀朗路一段146號","121.518185","25.0033566666667","6500400","永和區"
"234084","338-UY","2019/12/26 12:59:28","新北市永和區永利路20號","121.518065","25.005815","6500400","永和區"
"234068","552-UM","2019/12/26 12:59:38","新北市永和區中興街84巷1號","121.518576666667","25.0119283333333","6500400","永和區"
"234015","745-BX","2019/12/26 12:59:37","新北市永和區永和路二段310號","121.516141666667","25.0160166666667","6500400","永和區"
"234028","746-BX","2019/12/26 12:59:40","新北市永和區得和路417號","121.525906666667","24.9992183333333","6500400","永和區"
"234052","KEA-2590","2019/12/26 12:59:32","新北市永和區竹林路66巷2號","121.51824","25.0134316666667","6500400","永和區"
"234005","KED-0605","2019/12/26 12:59:36","新北市永和區永和路二段50號","121.514816666667","25.0109016666667","6500400","永和區"
"234012","KEA-2591","2019/12/26 12:59:32","新北市永和區信義路17巷20號","121.51327","25.0111466666667","6500400","永和區"
"234060","AAD-866","2019/12/26 12:59:24","新北市永和區福和路309巷3號","121.516345","25.0069616666667","6500400","永和區"
"234040","862-TW","2019/12/26 12:59:25","新北市永和區永貞路267號","121.51178","25.0048416666667","6500400","永和區"
"234048","863-TW","2019/12/26 12:59:40","新北市永和區保安路23號","121.510305","25.0166933333333","6500400","永和區"
"234025","9371-KE","2019/12/26 12:59:11","新北市永和區水源街4號","121.512693333333","25.0051833333333","6500400","永和區"
"234010","9373-KE","2019/12/26 12:59:43","新北市永和區文化路113巷23弄11號","121.513548333333","25.0139866666667","6500400","永和區"
"248013","025-BX","2019/12/26 12:59:32","新北市五股區中興路四段38巷11號","121.438913333333","25.083275","6501500","五股區"
"248015","026-BX","2019/12/26 12:59:26","新北市五股區中興路二段63巷17號","121.460288333333","25.0752533333333","6501500","五股區"
"248007","KED-0815","2019/12/26 12:59:40","新北市五股區中興路二段174號","121.45792","25.0778816666667","6501500","五股區"
"248017","KED-0813","2019/12/26 12:59:27","新北市五股區中興路二段57-6號","121.460375","25.0753","6501500","五股區"
"248009","272-BY","2019/12/26 12:59:32","新北市五股區中興路二段103巷16號","121.458883333333","25.0758883333333","6501500","五股區"
"248003","677-BX","2019/12/26 12:59:39","新北市五股區中興路二段182巷3號","121.4565","25.078085","6501500","五股區"
"248001","678-BX","2019/12/26 12:59:39","新北市五股區中興路二段37巷26號","121.460448333333","25.075045","6501500","五股區"
"234022","9380-KE","2019/12/26 12:59:32","新北市永和區竹林路75巷33弄1號","121.520623333333","25.01432","6500400","永和區"
"234076","969-R7","2019/12/26 12:59:24","新北市永和區智光街128號","121.514975","24.995635","6500400","永和區"
"234072","AAC-211","2019/12/26 12:59:25","新北市永和區福和路8巷3號","121.524975","25.0091383333333","6500400","永和區"
"234066","AAC-212","2019/12/26 12:59:39","新北市永和區自由街47號","121.513965","25.005975","6500400","永和區"
"234001","AAC-295","2019/12/26 12:59:41","新北市永和區永平路29號","121.513213333333","25.00876","6500400","永和區"
"243005","646-TV","2019/12/26 12:59:28","新北市泰山區黎明路25號","121.422095","25.0607266666667","6501600","泰山區"
"231030","002-UM","2019/12/26 12:59:33","新北市新店區安一路一段1-1號","121.519965","24.96109","6500600","新店區"
"231029","106-UY","2019/12/26 12:59:39","新北市新店區安華路3號","121.519235","24.9597483333333","6500600","新店區"
"231036","110-UY","2019/12/26 12:59:28","新北市新店區安華路28-1號","121.519535","24.96073","6500600","新店區"
"231017","KEA-2219","2019/12/26 12:59:32","新北市新店區安一路一段1-1號","121.51994","24.9612966666667","6500600","新店區"
"231031","256-BX","2019/12/26 12:59:30","新北市新店區安一路一段1-1號","121.519663333333","24.961255","6500600","新店區"
"231023","260-TV","2019/12/26 12:59:43","新北市新店區安一路一段1-1號","121.519275","24.9612383333333","6500600","新店區"
"231035","278-BY","2019/12/26 12:59:26","新北市新店區安一路一段1-1號","121.519776666667","24.9612016666667","6500600","新店區"
"231025","4715-K9","2019/12/26 12:59:29","新北市新店區安華路28-1號","121.519335","24.960555","6500600","新店區"
"231034","616-UM","2019/12/26 12:59:28","新北市新店區安華路1-1號","121.519438333333","24.9605266666667","6500600","新店區"
"231002","619-UM","2019/12/26 12:59:43","新北市新店區安華路28-1號","121.519488333333","24.9608733333333","6500600","新店區"
"231011","KED-0819","2019/12/26 12:59:35","新北市新店區安一路一段1-1號","121.519755","24.9613233333333","6500600","新店區"
"231010","719-UM","2019/12/26 12:59:30","新北市新店區安一路一段1-1號","121.519496666667","24.9612033333333","6500600","新店區"
"231026","720-UM","2019/12/26 12:59:29","新北市新店區安一路一段1-1號","121.519368333333","24.9612733333333","6500600","新店區"
"231028","897-TW","2019/12/26 12:59:43","新北市新店區安華路1-1號","121.519536666667","24.9601333333333","6500600","新店區"
"231001","898-TW","2019/12/26 12:59:36","新北市新店區安華路28-1號","121.519401666667","24.9608583333333","6500600","新店區"
"231004","899-TW","2019/12/26 12:59:35","新北市新店區安華路28-1號","121.519325","24.9609033333333","6500600","新店區"
"235028","005-UY","2019/12/26 12:59:31","新北市中和區中正路271號","121.495853333333","24.9938416666667","6500300","中和區"
"235029","098-UM","2019/12/26 12:59:30","新北市中和區景平路997巷2號","121.495766666667","25.0057716666667","6500300","中和區"
"235004","150-BY","2019/12/26 12:59:28","新北市中和區和城路一段271巷1號","121.485545","24.9916333333333","6500300","中和區"
"235022","151-BY","2019/12/26 12:59:39","新北市中和區圓通路367巷33弄23號","121.494886666667","24.98546","6500300","中和區"
"235002","185-VK","2019/12/26 12:59:43","新北市中和區秀朗路三段10巷14弄26-6號","121.524913333333","24.99709","6500300","中和區"
"235031","255-BX","2019/12/26 12:59:38","新北市中和區中正路891號","121.484188333333","25.0045116666667","6500300","中和區"
"235035","301-VK","2019/12/26 12:59:42","新北市中和區新生街136號","121.48353","25.0009366666667","6500300","中和區"
"235006","KEA-2878","2019/12/26 12:59:40","新北市中和區錦和路350-1號","121.490313333333","24.99356","6500300","中和區"
"235033","4980-A6","2019/12/26 12:59:40","新北市中和區員山路36巷16-2號","121.485335","24.9912616666667","6500300","中和區"
"235034","558-UM","2019/12/26 12:59:38","新北市中和區員山路36巷16-2號","121.485241666667","24.99156","6500300","中和區"
"235009","565-BX","2019/12/26 12:59:24","新北市中和區中正路637巷60弄61號","121.485376666667","24.9931933333333","6500300","中和區"
"235024","KED-0823","2019/12/26 12:59:30","新北市中和區中正路637巷52弄3號","121.485291666667","24.993525","6500300","中和區"
"235018","640-BX","2019/12/26 12:59:37","新北市中和區連城路607號","121.477826666667","24.9930816666667","6500300","中和區"
"235021","801-TS","2019/12/26 12:59:28","新北市中和區員山路135號","121.480998333333","24.9959333333333","6500300","中和區"
"235005","802-TS","2019/12/26 12:59:32","新北市中和區和城路一段271巷1號","121.485436666667","24.9917383333333","6500300","中和區"
"235015","157-BY","2019/12/26 12:59:36","新北市中和區中正路395號","121.489563333333","24.993545","6500300","中和區"
"235001","AAC-213","2019/12/26 12:59:45","新北市中和區中正路2-1號","121.50305","24.993585","6500300","中和區"
"228005","097-TW","2019/12/26 12:59:40","新北市貢寮區福隆里桂安街18號","121.958258333333","25.0198483333333","6502600","貢寮區"
"228004","212-TW","2019/12/26 12:59:37","新北市貢寮區吉林里內寮街10號","121.88834","24.9903516666667","6502600","貢寮區"
"253004","6251-TK","2019/12/26 12:59:42","新北市石門區中央路16-19號","121.567731666667","25.2903","6502200","石門區"
"253001","KEC-0718","2019/12/26 12:59:28","新北市石門區中央路6號","121.566495","25.29139","6502200","石門區"
"207002","749-BX","2019/12/26 12:59:37","新北市萬里區雙興里大坪路39號","121.625328333333","25.1714366666667","6502800","萬里區"
"252005","073-UM","2019/12/26 12:59:27","新北市三芝區埔坪里埔頭坑41號","121.504553333333","25.2646366666667","6502100","三芝區"
"207001","662-BX","2019/12/26 12:59:28","新北市萬里區萬里里獅頭路22-1號","121.69311","25.1782616666667","6502800","萬里區"
"220021","985-R7","2019/12/26 12:59:28","新北市板橋區華東街1-10號","121.448286666667","24.9949666666667","6500100","板橋區"
"235025","KEA-2875","2019/12/26 12:59:34","新北市中和區員山路72號","121.480956666667","24.9935816666667","6500300","中和區"
