"lineid","car","time","location","longitude","latitude","cityid","cityname"
"234044","148-BY","2019/12/26 14:13:44","新北市永和區得和路322號","121.523088333333","24.99964","6500400","永和區"
"234078","298-R6","2019/12/26 14:13:39","新北市永和區永亨路90號","121.522733333333","25.005115","6500400","永和區"
"234036","336-UY","2019/12/26 14:13:29","新北市永和區成功路一段47巷8號","121.527545","25.0039733333333","6500400","永和區"
"234062","337-UY","2019/12/26 14:13:41","新北市永和區得和路271號","121.521751666667","24.9997916666667","6500400","永和區"
"234084","338-UY","2019/12/26 14:13:35","新北市永和區福和路167號","121.520108333333","25.007695","6500400","永和區"
"234068","552-UM","2019/12/26 14:13:39","新北市永和區永亨路44號","121.519991666667","25.00627","6500400","永和區"
"234015","745-BX","2019/12/26 14:13:37","新北市永和區仁愛路89號","121.513013333333","25.0132166666667","6500400","永和區"
"234028","746-BX","2019/12/26 14:13:39","新北市永和區民權路1巷34號","121.521916666667","24.997905","6500400","永和區"
"234052","KEA-2590","2019/12/26 14:13:32","新北市永和區永和路二段304號","121.516295","25.0158483333333","6500400","永和區"
"234005","KED-0605","2019/12/26 14:13:36","新北市中和區南工路20號","121.505491666667","25.0004583333333","6500400","永和區"
"234012","KEA-2591","2019/12/26 14:13:25","新北市永和區永貞路415號","121.507488333333","25.0093816666667","6500400","永和區"
"234060","AAD-866","2019/12/26 14:13:44","新北市永和區得和路29號","121.515806666667","25.000245","6500400","永和區"
"234040","862-TW","2019/12/26 14:13:45","新北市永和區中和路463號","121.509946666667","25.0016583333333","6500400","永和區"
"234048","863-TW","2019/12/26 14:13:28","新北市永和區環河西路二段101號","121.506453333333","25.0147366666667","6500400","永和區"
"234025","9371-KE","2019/12/26 14:13:32","新北市永和區安樂路198巷安和二弄2號","121.515513333333","25.0018316666667","6500400","永和區"
"248007","KED-0815","2019/12/26 14:13:40","新北市五股區中興路二段57-6號","121.460376666667","25.0754016666667","6501500","五股區"
"248017","KED-0813","2019/12/26 14:13:27","新北市五股區民義路一段316號","121.42176","25.09593","6501500","五股區"
"248011","247-BX","2019/12/26 14:13:34","新北市五股區工商路63號","121.438973333333","25.08433","6501500","五股區"
"248009","272-BY","2019/12/26 14:13:32","新北市五股區水碓一路23號","121.430543333333","25.0712933333333","6501500","五股區"
"248003","677-BX","2019/12/26 14:13:39","新北市五股區五福路102號","121.432366666667","25.0904933333333","6501500","五股區"
"248001","678-BX","2019/12/26 14:13:39","新北市五股區成泰路三段577巷17號","121.451621666667","25.1027783333333","6501500","五股區"
"234022","9380-KE","2019/12/26 14:13:31","新北市永和區保安路132號","121.508806666667","25.0152","6500400","永和區"
"234076","969-R7","2019/12/26 14:13:24","新北市永和區民有街75巷10弄16號","121.518903333333","24.9961083333333","6500400","永和區"
"234072","AAC-211","2019/12/26 14:13:27","新北市永和區竹林路201巷1號","121.52097","25.0092216666667","6500400","永和區"
"234066","AAC-212","2019/12/26 14:13:39","新北市永和區保平路268巷29號","121.50788","25.0060183333333","6500400","永和區"
"234001","AAC-295","2019/12/26 14:13:41","新北市永和區中正路577巷5號","121.516303333333","25.00883","6500400","永和區"
"244003","248-BX","2019/12/26 14:13:42","新北市林口區後坑26-1號","121.348868333333","25.1267","6501700","林口區"
"243004","AAD-798","2019/12/26 14:13:28","新北市泰山區明志路一段374號","121.430585","25.0577266666667","6501600","泰山區"
"243002","297-R6","2019/12/26 14:13:29","新北市泰山區明志路一段458巷11號","121.429978333333","25.0557183333333","6501600","泰山區"
"243006","KEA-2801","2019/12/26 14:13:23","新北市泰山區泰林路二段304號","121.430785","25.0628483333333","6501600","泰山區"
"243008","421-VK","2019/12/26 14:13:34","新北市泰山區明志路三段98號","121.425023333333","25.0411633333333","6501600","泰山區"
"243003","KEA-2216","2019/12/26 14:13:34","新北市泰山區新民路26號","121.426775","25.044595","6501600","泰山區"
"243005","646-TV","2019/12/26 14:13:32","新北市泰山區明志路三段209號","121.424136666667","25.0383433333333","6501600","泰山區"
"243007","680-BX","2019/12/26 14:13:27","新北市泰山區明志路一段453-1號","121.43077","25.056225","6501600","泰山區"
"231030","002-UM","2019/12/26 14:13:33","新北市新店區安民街65巷21-2號","121.515083333333","24.967475","6500600","新店區"
"231027","0291-UT","2019/12/26 14:13:39","新北市新店區北宜路一段3號","121.538523333333","24.95861","6500600","新店區"
"231005","046-UY","2019/12/26 14:13:33","新北市新店區中興路三段255號","121.542495","24.98436","6500600","新店區"
"231029","106-UY","2019/12/26 14:13:39","新北市新店區安康路二段159巷2號","121.510343333333","24.9593766666667","6500600","新店區"
"231018","107-UY","2019/12/26 14:13:43","新北市新店區中央四街47號","121.527995","24.975045","6500600","新店區"
"231013","108-UY","2019/12/26 14:13:38","新北市新店區北新路三段49號","121.541911666667","24.9805533333333","6500600","新店區"
"231036","110-UY","2019/12/26 14:13:30","新北市新店區安祥路109巷85弄1號","121.477856666667","24.9603466666667","6500600","新店區"
"231021","189-VK","2019/12/26 14:13:36","新北市新店區屈尺路83-1號","121.544521666667","24.92241","6500600","新店區"
"231017","KEA-2219","2019/12/26 14:13:31","新北市新店區中生路165-1號","121.57395","24.94894","6500600","新店區"
"231031","256-BX","2019/12/26 14:13:30","新北市新店區華城路6號","121.530186666667","24.960505","6500600","新店區"
"231023","260-TV","2019/12/26 14:13:23","新北市新店區文中路40號","121.53965","24.9566083333333","6500600","新店區"
"231003","268-BY","2019/12/26 14:13:36","新北市新店區中興路一段136號","121.54203","24.9633016666667","6500600","新店區"
"231035","278-BY","2019/12/26 14:13:26","新北市新店區安和路二段115號","121.518621666667","24.9704333333333","6500600","新店區"
"231006","355-BY","2019/12/26 14:13:43","新北市新店區北宜路二段82-12號","121.55462","24.9535183333333","6500600","新店區"
"231038","3712-VJ","2019/12/26 14:13:40","新北市新店區溪洲路6巷28號","121.533941666667","24.9623716666667","6500600","新店區"
"231024","4716-K9","2019/12/26 14:13:29","新北市新店區安和路三段1號","121.51761","24.9798833333333","6500600","新店區"
"231025","4715-K9","2019/12/26 14:13:29","新北市新店區自立街3號","121.53876","24.97822","6500600","新店區"
"231034","616-UM","2019/12/26 14:13:28","新北市新店區車子路11號","121.503035","24.952015","6500600","新店區"
"231002","619-UM","2019/12/26 14:13:43","新北市新店區中正路487號","121.53376","24.9821216666667","6500600","新店區"
"231011","KED-0819","2019/12/26 14:13:35","新北市新店區五峰路63巷8弄44號","121.548006666667","24.9685666666667","6500600","新店區"
"231026","720-UM","2019/12/26 14:13:29","新北市新店區安康路一段240-1號","121.521653333333","24.96384","6500600","新店區"
"231028","897-TW","2019/12/26 14:13:43","新北市新店區安和路三段153號","121.516535","24.9856783333333","6500600","新店區"
"231001","898-TW","2019/12/26 14:13:42","新北市新店區中華路71號","121.539698333333","24.96835","6500600","新店區"
"231004","899-TW","2019/12/26 14:13:35","新北市新店區北新路二段91號","121.542806666667","24.974145","6500600","新店區"
"231037","AKT-0513","2019/12/26 14:13:35","新北市新店區安康路二段341巷4號","121.496831666667","24.9550416666667","6500600","新店區"
"235030","003-UY","2019/12/26 14:13:39","新北市中和區廣福路63號","121.502548333333","25.0011316666667","6500300","中和區"
"235028","005-UY","2019/12/26 14:13:31","新北市中和區南山路28號","121.501966666667","24.998005","6500300","中和區"
"235027","006-UY","2019/12/26 14:13:29","新北市中和區連城路249巷28弄1號","121.494815","24.9949333333333","6500300","中和區"
"235036","KEE-1103","2019/12/26 14:13:26","新北市中和區中山路二段228號","121.498913333333","25.002665","6500300","中和區"
"235020","096-UM","2019/12/26 14:13:35","新北市中和區員山路509號","121.479825","25.00644","6500300","中和區"
"235003","097-UM","2019/12/26 14:13:28","新北市中和區秀峰街119巷6弄4號","121.51959","24.9900466666667","6500300","中和區"
"235029","098-UM","2019/12/26 14:13:30","","121.503981666667","25.0053283333333","6500300","中和區"
"235004","150-BY","2019/12/26 14:13:29","新北市中和區宜安路117號","121.510098333333","24.9978966666667","6500300","中和區"
"235022","151-BY","2019/12/26 14:13:39","新北市中和區連城路469巷20號","121.483566666667","24.9950733333333","6500300","中和區"
"235019","183-VK","2019/12/26 14:13:33","新北市中和區中山路三段209號","121.471916666667","25.0062916666667","6500300","中和區"
"235002","185-VK","2019/12/26 14:13:43","新北市中和區大仁街8號","121.51778","24.9926616666667","6500300","中和區"
"235031","255-BX","2019/12/26 14:13:38","新北市中和區連城路316號","121.483488333333","24.996125","6500300","中和區"
"235008","293-VK","2019/12/26 14:13:33","新北市中和區中興街235巷2號","121.500683333333","24.9895166666667","6500300","中和區"
"235035","301-VK","2019/12/26 14:13:42","新北市中和區立德街98巷74號","121.488611666667","25.0086","6500300","中和區"
"235007","352-BY","2019/12/26 14:13:28","新北市中和區景平路278巷4號","121.514095","24.9926366666667","6500300","中和區"
"235006","KEA-2878","2019/12/26 14:13:40","新北市永和區中正路226號","121.516063333333","24.99791","6500300","中和區"
"247015","KEA-2869","2019/12/26 14:13:36","新北市蘆洲區光華路46巷23號","121.468195","25.08365","6501400","蘆洲區"
"247009","KED-0682","2019/12/26 14:13:44","新北市蘆洲區信義路172號","121.479318333333","25.083945","6501400","蘆洲區"
"235014","4979-A6","2019/12/26 14:13:37","新北市中和區復興路280巷18弄30號","121.502228333333","24.9921883333333","6500300","中和區"
"235033","4980-A6","2019/12/26 14:13:31","新北市中和區中山路二段172號","121.50097","25.0029216666667","6500300","中和區"
"235032","551-UM","2019/12/26 14:13:39","新北市中和區景平路493巷12弄2號","121.499021666667","24.997165","6500300","中和區"
"235034","558-UM","2019/12/26 14:13:38","新北市中和區中和路20號","121.499758333333","25.0018633333333","6500300","中和區"
"235009","565-BX","2019/12/26 14:13:44","新北市中和區景新街423巷33弄47號","121.513636666667","24.990345","6500300","中和區"
"235024","KED-0823","2019/12/26 14:13:31","新北市中和區員山路314巷7弄8號","121.482136666667","25.00323","6500300","中和區"
"235018","640-BX","2019/12/26 14:13:37","新北市中和區國光街112巷15號","121.469701666667","25.0019533333333","6500300","中和區"
"235011","732-UM","2019/12/26 14:13:25","新北市中和區和平街42號","121.508951666667","24.9905383333333","6500300","中和區"
"235010","733-UM","2019/12/26 14:13:28","新北市中和區華新街115號","121.507255","24.9821583333333","6500300","中和區"
"235026","800-TS","2019/12/26 14:13:32","新北市中和區橋安街19號","121.492701666667","25.0040866666667","6500300","中和區"
"235021","801-TS","2019/12/26 14:13:28","","121.479791666667","25.00492","6500300","中和區"
"235005","802-TS","2019/12/26 14:13:32","新北市中和區中安街202-1號","121.511806666667","24.9990983333333","6500300","中和區"
"235016","805-TS","2019/12/26 14:13:42","新北市中和區興南路二段142巷31弄81號","121.501556666667","24.9836266666667","6500300","中和區"
"235012","896-TW","2019/12/26 14:13:40","新北市中和區華新街109巷32號","121.508738333333","24.9801616666667","6500300","中和區"
"235017","900-TW","2019/12/26 14:13:44","新北市中和區華安街30巷1號","121.466981666667","24.9977616666667","6500300","中和區"
"235015","157-BY","2019/12/26 14:13:36","新北市中和區和平街7-2號","121.509158333333","24.99034","6500300","中和區"
"235001","AAC-213","2019/12/26 14:13:25","新北市中和區秀朗路三段10巷14弄108號","121.522903333333","24.9966783333333","6500300","中和區"
"235023","AAC-215","2019/12/26 14:13:33","新北市中和區錦和路193號","121.490661666667","24.99067","6500300","中和區"
"220002","015-TV","2019/12/26 14:13:33","新北市板橋區重慶路76巷14號","121.460998333333","25.00627","6500100","板橋區"
"220013","072-UY","2019/12/26 14:13:31","新北市板橋區民族路219巷57號","121.468781666667","25.0088783333333","6500100","板橋區"
"220034","073-UY","2019/12/26 14:13:39","新北市板橋區中正路236巷75號","121.459","25.0196333333333","6500100","板橋區"
"220105","075-UY","2019/12/26 14:13:41","新北市板橋區長江路三段24巷5號","121.47263","25.0333466666667","6500100","板橋區"
"220017","AAD-861","2019/12/26 14:13:27","新北市板橋區貴興路34號","121.457411666667","25.00368","6500100","板橋區"
"247005","893-R6","2019/12/26 14:13:36","新北市蘆洲區九芎街15巷6號","121.467983333333","25.0781416666667","6501400","蘆洲區"
"247019","546-UM","2019/12/26 14:13:34","新北市蘆洲區民族路426巷14號","121.473496666667","25.092325","6501400","蘆洲區"
"247001","337-TH","2019/12/26 14:13:22","新北市蘆洲區永平街16號","121.45918","25.0906416666667","6501400","蘆洲區"
"247003","336-TH","2019/12/26 14:13:26","新北市蘆洲區長安街209號","121.45986","25.0821466666667","6501400","蘆洲區"
"247023","057-VK","2019/12/26 14:13:33","新北市蘆洲區長榮路500號","121.459506666667","25.0897233333333","6501400","蘆洲區"
"247013","056-VK","2019/12/26 14:13:26","新北市蘆洲區三民路123號","121.472343333333","25.0862833333333","6501400","蘆洲區"
"247017","053-VK","2019/12/26 14:13:32","新北市蘆洲區民族路201巷26號","121.477728333333","25.0890516666667","6501400","蘆洲區"
"247021","007-UY","2019/12/26 14:13:40","新北市蘆洲區三民路224號","121.468665","25.0893383333333","6501400","蘆洲區"
"247007","002-UY","2019/12/26 14:13:26","新北市蘆洲區中山一路234號","121.472805","25.0802283333333","6501400","蘆洲區"
"235013","251-BX","2019/12/26 14:13:33","新北市中和區景新街228-6號","121.508176666667","24.9941316666667","6500300","中和區"
"228005","097-TW","2019/12/26 14:13:40","新北市貢寮區美豐里土地公嶺21號","121.893778333333","25.0600616666667","6502600","貢寮區"
"228004","212-TW","2019/12/26 14:13:37","新北市貢寮區雙玉里下雙溪街10-3號","121.915403333333","25.0136633333333","6502600","貢寮區"
"253003","6232-TK","2019/12/26 14:13:27","新北市石門區內石門67-5號","121.575255","25.2552433333333","6502200","石門區"
"253004","6251-TK","2019/12/26 14:13:42","新北市石門區坪林28號","121.595998333333","25.2644183333333","6502200","石門區"
"253002","637-UY","2019/12/26 14:13:36","新北市石門區豬槽潭8號","121.553701666667","25.2618866666667","6502200","石門區"
"253001","KEC-0718","2019/12/26 14:13:28","新北市石門區八甲27-1號","121.528395","25.2778116666667","6502200","石門區"
"243001","549-UM","2019/12/26 14:13:24","新北市泰山區文化街1巷1號","121.433676666667","25.0639683333333","6501600","泰山區"
"207002","749-BX","2019/12/26 14:13:36","新北市萬里區溪底里瑞泉路7號","121.603645","25.14044","6502800","萬里區"
"252005","073-UM","2019/12/26 14:13:27","新北市三芝區橫山里橫山49-1號","121.533786666667","25.25751","6502100","三芝區"
"207001","662-BX","2019/12/26 14:13:28","新北市萬里區磺潭里清水18號","121.637825","25.197715","6502800","萬里區"
"236040","KED-0685","2019/12/26 14:13:31","新北市土城區裕生路84巷1號","121.447258333333","24.98529","6501300","土城區"
"236074","166-UM","2019/12/26 14:13:44","新北市土城區永安街85號","121.430871666667","24.964055","6501300","土城區"
"236029","253-BX","2019/12/26 14:13:41","新北市土城區員福街26號","121.441391666667","24.9786733333333","6501300","土城區"
"236024","269-VK","2019/12/26 14:13:40","新北市土城區承天路18號","121.439325","24.9636416666667","6501300","土城區"
"236012","270-VK","2019/12/26 14:13:28","新北市土城區青雲路39巷7號","121.460336666667","24.9875433333333","6501300","土城區"
"236032","271-VK","2019/12/26 14:13:41","新北市土城區青雲路449-1號","121.45876","24.97475","6501300","土城區"
"247011","KED-0683","2019/12/26 14:13:26","新北市蘆洲區復興路21號","121.475616666667","25.0869733333333","6501400","蘆洲區"
"236068","KEA-2877","2019/12/26 14:13:34","新北市土城區明德路一段128巷2號","121.463231666667","24.97904","6501300","土城區"
"236017","401-BY","2019/12/26 14:13:41","新北市土城區永豐路202巷7-1號","121.466203333333","24.98333","6501300","土城區"
"236057","912-UM","2019/12/26 14:13:40","新北市土城區中央路四段159-3號","121.415166666667","24.95686","6501300","土城區"
"236045","913-UM","2019/12/26 14:13:26","新北市土城區明德路一段365-1號","121.453531666667","24.9790616666667","6501300","土城區"
"236060","915-UM","2019/12/26 14:13:35","新北市土城區金城路二段266號","121.458113333333","24.9839683333333","6501300","土城區"
"236054","AAC-216","2019/12/26 14:13:29","新北市土城區中華路二段92號","121.438221666667","24.974775","6501300","土城區"
"220027","145-BY","2019/12/26 14:13:42","新北市板橋區民權路202巷4弄2號","121.459711666667","25.014285","6500100","板橋區"
"220028","200-UY","2019/12/26 14:13:27","新北市板橋區大觀路二段1巷8號","121.448665","25.0037966666667","6500100","板橋區"
"220030","610-BX","2019/12/26 14:13:46","新北市板橋區溪崑二街29號","121.428553333333","24.9912616666667","6500100","板橋區"
"220050","245-BX","2019/12/26 14:13:35","新北市板橋區縣民大道三段121巷14號","121.476713333333","25.023185","6500100","板橋區"
"220004","276-BY","2019/12/26 14:13:36","新北市板橋區信義路201號","121.45925","24.9915866666667","6500100","板橋區"
"220020","277-BY","2019/12/26 14:13:24","新北市板橋區金門街336巷7號","121.427911666667","24.9848666666667","6500100","板橋區"
"220019","283-VK","2019/12/26 14:13:36","新北市板橋區和平路233號","121.465236666667","24.99839","6500100","板橋區"
"220043","285-UM","2019/12/26 14:13:43","新北市板橋區光武街110巷20弄2號","121.466756666667","25.0296333333333","6500100","板橋區"
"220001","285-VK","2019/12/26 14:13:42","新北市板橋區永豐街146號","121.478168333333","25.0212583333333","6500100","板橋區"
"220031","286-VK","2019/12/26 14:13:28","新北市板橋區大觀路二段174巷193弄2號","121.442285","25.0039916666667","6500100","板橋區"
"220029","287-VK","2019/12/26 14:13:29","新北市板橋區南雅西路一段73號","121.452926666667","25.008285","6500100","板橋區"
"220039","288-VK","2019/12/26 14:13:34","新北市板橋區長江路一段106巷18弄7號","121.460083333333","25.0284383333333","6500100","板橋區"
"220009","293-UM","2019/12/26 14:13:41","新北市板橋區中山路二段251號","121.477138333333","25.017855","6500100","板橋區"
"220032","296-UM","2019/12/26 14:13:43","新北市板橋區溪崑二街22巷28號","121.428228333333","24.9919333333333","6500100","板橋區"
"242045","281-VK","2019/12/26 14:13:31","新北市新莊區福壽街14巷19號","121.458573333333","25.0477483333333","6500500","新莊區"
"220023","303-R5","2019/12/26 14:13:28","新北市板橋區南雅南路一段1巷7號","121.456961666667","25.0068416666667","6500100","板橋區"
"220010","305-R5","2019/12/26 14:13:21","新北市板橋區三民路二段居仁巷1弄55-1號","121.48117","25.013815","6500100","板橋區"
"220041","307-R5","2019/12/26 14:13:23","新北市板橋區文化路二段125巷9號","121.469303333333","25.026675","6500100","板橋區"
"220047","317-R6","2019/12/26 14:13:36","新北市板橋區四維路103巷8號","121.4649","25.0242233333333","6500100","板橋區"
"220038","487-VK","2019/12/26 14:13:42","新北市板橋區漢生西路37號","121.463011666667","25.0184383333333","6500100","板橋區"
"220037","491-VK","2019/12/26 14:13:39","新北市板橋區文化路二段182巷3弄58號","121.472681666667","25.0288283333333","6500100","板橋區"
"220104","560-BX","2019/12/26 14:13:26","新北市板橋區中正路417號","121.454056666667","25.0226933333333","6500100","板橋區"
"220052","561-BX","2019/12/26 14:13:31","新北市板橋區文化路一段270巷3弄11號","121.468241666667","25.020855","6500100","板橋區"
"220011","609-BX","2019/12/26 14:13:37","新北市板橋區三民路二段202-16號","121.478953333333","25.013545","6500100","板橋區"
"220040","637-BX","2019/12/26 14:13:36","新北市板橋區縣民大道247巷80號","121.482138333333","25.02698","6500100","板橋區"
"220005","686-BX","2019/12/26 14:13:28","新北市板橋區和平路143巷10號","121.46313","24.9958966666667","6500100","板橋區"
"220025","687-BX","2019/12/26 14:13:41","新北市板橋區龍興街43號","121.443063333333","25.0006116666667","6500100","板橋區"
"220042","689-BX","2019/12/26 14:13:40","新北市板橋區新海路69號","121.461848333333","25.0217016666667","6500100","板橋區"
"220051","KEA-2699","2019/12/26 14:13:36","新北市板橋區文聖街70號","121.477161666667","25.0303433333333","6500100","板橋區"
"220003","827-TW","2019/12/26 14:13:27","新北市板橋區新民街9號","121.463815","25.0097666666667","6500100","板橋區"
"220014","829-TW","2019/12/26 14:13:43","新北市板橋區中山路二段90巷43弄7-1號","121.47666","25.015105","6500100","板橋區"
"220016","830-TW","2019/12/26 14:13:26","新北市板橋區三民路一段1巷49號","121.480795","25.0248233333333","6500100","板橋區"
"220022","895-R6","2019/12/26 14:13:28","新北市板橋區西門街14號","121.455573333333","25.0113883333333","6500100","板橋區"
"220021","985-R7","2019/12/26 14:13:28","新北市板橋區民權路246號","121.458408333333","25.014585","6500100","板橋區"
"220046","AAC-210","2019/12/26 14:13:40","新北市板橋區幸福路60巷54號","121.459838333333","25.0221583333333","6500100","板橋區"
"220012","AAC-253","2019/12/26 14:13:25","新北市板橋區縣民大道二段1號","121.462128333333","25.0116083333333","6500100","板橋區"
"235025","KEA-2875","2019/12/26 14:13:34","新北市中和區民利街71號","121.478715","24.9982683333333","6500300","中和區"
