"lineid","car","time","location","longitude","latitude","cityid","cityname"
"249005","172-UM","2019/12/26 17:13:34","新北市八里區大堀湖28-3號","121.42152","25.1477233333333","6502300","八里區"
"249001","173-UM","2019/12/26 17:13:40","新北市八里區中華路二段165巷10-3號","121.408755","25.1503233333333","6502300","八里區"
"249004","303-UY","2019/12/26 17:13:24","新北市八里區文化街91號","121.422701666667","25.15998","6502300","八里區"
"249002","305-UY","2019/12/26 17:13:32","新北市八里區龍米路二段147巷1號","121.443408333333","25.149365","6502300","八里區"
"249003","593-UM","2019/12/26 17:13:31","新北市八里區中山路二段453號","121.396551666667","25.1456883333333","6502300","八里區"
"244007","080-UY","2019/12/26 17:13:35","新北市林口區中華路329號","121.381676666667","25.0921683333333","6501700","林口區"
"244019","402-UM","2019/12/26 17:13:39","新北市林口區文化二路一段384號","121.374413333333","25.0767633333333","6501700","林口區"
"244023","483-VK","2019/12/26 17:13:40","新北市林口區仁愛路一段641號","121.38902","25.0766083333333","6501700","林口區"
"244017","485-VK","2019/12/26 17:13:32","新北市林口區粉寮路二段16號","121.402188333333","25.0857633333333","6501700","林口區"
"244009","656-BX","2019/12/26 17:13:40","新北市林口區文化北路二段550巷20弄37號","121.378175","25.0915333333333","6501700","林口區"
"244011","701-TV","2019/12/26 17:13:41","新北市林口區粉寮路一段1號","121.396001666667","25.0757983333333","6501700","林口區"
"244025","837-TS","2019/12/26 17:13:33","新北市林口區四維路110號","121.376871666667","25.078475","6501700","林口區"
"244021","838-TS","2019/12/26 17:13:27","新北市林口區粉寮路二段272-1號","121.404905","25.09478","6501700","林口區"
"231046","719-UM","2019/12/26 17:13:35","新北市新店區直潭一街76號","121.535356666667","24.9398933333333","6500600","新店區"
"241011","013-R5","2019/12/26 17:13:36","新北市三重區河邊北街100巷1號","121.50397","25.0704533333333","6500200","三重區"
"241028","022-UY","2019/12/26 17:13:33","新北市三重區仁化街38號","121.493366666667","25.0597266666667","6500200","三重區"
"241008","059-VK","2019/12/26 17:13:29","新北市三重區力行路二段90號","121.481976666667","25.0744533333333","6500200","三重區"
"241015","062-VK","2019/12/26 17:13:37","新北市三重區中央北路83號","121.50027","25.0667016666667","6500200","三重區"
"241024","065-VK","2019/12/26 17:13:31","新北市三重區中正北路169號","121.478461666667","25.069525","6500200","三重區"
"241007","066-VK","2019/12/26 17:13:42","新北市三重區三和路四段163巷8號","121.483588333333","25.0787416666667","6500200","三重區"
"241002","090-VK","2019/12/26 17:13:36","新北市三重區仁愛街357巷49號","121.4932","25.08072","6500200","三重區"
"241003","091-VK","2019/12/26 17:13:37","新北市三重區富福街83號","121.492698333333","25.0850483333333","6500200","三重區"
"241009","742-BX","2019/12/26 17:11:08","新北市三重區仁愛街600巷2弄6號","121.48451","25.08096","6500200","三重區"
"241016","266-UM","2019/12/26 17:13:31","新北市三重區中正北路25巷2號","121.493205","25.0627866666667","6500200","三重區"
"241018","268-UM","2019/12/26 17:13:39","新北市三重區重陽路四段37號","121.49188","25.0696416666667","6500200","三重區"
"241032","269-UM","2019/12/26 17:13:34","新北市三重區興華街28號","121.485578333333","25.0597533333333","6500200","三重區"
"241013","270-UM","2019/12/26 17:13:41","新北市三重區仁福街8號","121.49607","25.074365","6500200","三重區"
"241025","271-UM","2019/12/26 17:13:38","新北市三重區中正北路443-1號","121.470033333333","25.0722733333333","6500200","三重區"
"241030","KED-0822","2019/12/26 17:13:24","新北市三重區集美街158號","121.4898","25.05305","6500200","三重區"
"241004","475-VK","2019/12/26 17:13:42","新北市三重區五華街122巷9號","121.491456666667","25.08296","6500200","三重區"
"241020","478-VK","2019/12/26 17:13:25","新北市三重區自強路三段71號","121.486911666667","25.0735016666667","6500200","三重區"
"241026","480-VK","2019/12/26 17:13:42","新北市三重區文化南路31-1號","121.500235","25.0616716666667","6500200","三重區"
"241014","543-UM","2019/12/26 17:13:34","新北市三重區龍濱路157號","121.502556666667","25.0694433333333","6500200","三重區"
"241023","545-UM","2019/12/26 17:13:31","新北市三重區三民街174號","121.482071666667","25.0656266666667","6500200","三重區"
"241001","547-UM","2019/12/26 17:13:41","新北市三重區仁愛街255巷90號","121.494801666667","25.0793066666667","6500200","三重區"
"241019","KEA-2593","2019/12/26 17:13:36","新北市三重區三張街157號","121.486216666667","25.0695083333333","6500200","三重區"
"241005","AAD-863","2019/12/26 17:13:46","新北市三重區永安北路二段43巷25號","121.483036666667","25.082705","6500200","三重區"
"241012","743-BX","2019/12/26 17:13:24","新北市三重區仁興街19號","121.499755","25.0743666666667","6500200","三重區"
"241022","KED-0820","2019/12/26 17:13:40","新北市三重區中正北路120號","121.48561","25.065145","6500200","三重區"
"241006","KED-0670","2019/12/26 17:13:25","新北市三重區車路頭街129號","121.48419","25.07571","6500200","三重區"
"241029","942-UM","2019/12/26 17:13:44","新北市三重區重新路四段116號","121.487035","25.0568466666667","6500200","三重區"
"241033","AAC-255","2019/12/26 17:13:36","新北市三重區中興北街219號","121.469013333333","25.0584566666667","6500200","三重區"
"247016","KEA-2869","2019/12/26 17:13:41","新北市蘆洲區光華路73巷3號","121.468208333333","25.0824316666667","6501400","蘆洲區"
"247010","KED-0682","2019/12/26 17:13:38","新北市蘆洲區三民路26巷20弄7號","121.477593333333","25.0826533333333","6501400","蘆洲區"
"247006","893-R6","2019/12/26 17:13:44","新北市蘆洲區長安街108巷26號","121.461955","25.082335","6501400","蘆洲區"
"247020","546-UM","2019/12/26 17:13:28","新北市蘆洲區仁愛街6號","121.472708333333","25.0923533333333","6501400","蘆洲區"
"247004","500-BY","2019/12/26 17:07:47","新北市五股區中興路三段3-6號","121.449468333333","25.07871","6501400","蘆洲區"
"247004","336-TH","2019/12/26 17:13:39","新北市蘆洲區長安街207巷29號","121.459103333333","25.0816866666667","6501400","蘆洲區"
"247024","057-VK","2019/12/26 17:13:41","新北市蘆洲區長榮路50號","121.462761666667","25.0832266666667","6501400","蘆洲區"
"247014","056-VK","2019/12/26 17:13:29","新北市蘆洲區得勝街78號","121.47246","25.0834683333333","6501400","蘆洲區"
"247018","053-VK","2019/12/26 17:13:34","新北市蘆洲區復興路128號","121.476591666667","25.087455","6501400","蘆洲區"
"247022","007-UY","2019/12/26 17:13:34","新北市蘆洲區水湳街36-1號","121.470733333333","25.08947","6501400","蘆洲區"
"247008","002-UY","2019/12/26 17:13:34","新北市蘆洲區信義路30巷121號","121.475228333333","25.076865","6501400","蘆洲區"
"247002","001-UY","2019/12/26 17:13:26","新北市蘆洲區永樂街38巷15號","121.458065","25.0889383333333","6501400","蘆洲區"
"228003","097-TW","2019/12/26 17:13:34","新北市貢寮區福隆里東興街29-1號","121.94968","25.018135","6502600","貢寮區"
"228001","212-TW","2019/12/26 17:13:31","新北市貢寮區仁理村尖山腳街2號","121.92625","25.0476066666667","6502600","貢寮區"
"228002","663-BX","2019/12/26 17:13:36","新北市貢寮區龍崗里嵩陽街38號","121.909608333333","25.0166766666667","6502600","貢寮區"
"224010","AGQ-8101","2019/12/26 17:13:28","新北市瑞芳區傑魚坑路200-1號","121.80133","25.1069116666667","6501200","瑞芳區"
"224006","676-BX","2019/12/26 17:13:34","新北市瑞芳區大寮路63巷7號","121.778141666667","25.0943233333333","6501200","瑞芳區"
"224009","275-VK","2019/12/26 17:13:39","新北市瑞芳區坑尾巷37-1號","121.844181666667","25.1114333333333","6501200","瑞芳區"
"224008","273-VK","2019/12/26 17:13:26","新北市瑞芳區柴寮路64號","121.827693333333","25.08733","6501200","瑞芳區"
"224005","271-BY","2019/12/26 17:13:26","新北市瑞芳區鼻頭路93號","121.91613","25.1242733333333","6501200","瑞芳區"
"227002","642-TC","2019/12/26 17:13:25","新北市雙溪區平林里梅竹蹊61號","121.849275","25.0317283333333","6502500","雙溪區"
"251009","008-UM","2019/12/26 17:13:28","新北市淡水區中正路312號","121.437081666667","25.1724383333333","6501000","淡水區"
"251004","009-UM","2019/12/26 17:09:46","新北市淡水區中正東路二段88巷15號","121.459061666667","25.1505","6501000","淡水區"
"251005","010-UM","2019/12/26 17:13:37","新北市淡水區鄧公路23巷1-5號","121.450263333333","25.1699866666667","6501000","淡水區"
"251016","180-VK","2019/12/26 17:13:28","新北市淡水區鄒厝崙5-1號","121.470705","25.1872316666667","6501000","淡水區"
"251008","181-VK","2019/12/26 17:13:35","新北市淡水區樹梅坑14號","121.470741666667","25.142805","6501000","淡水區"
"251013","182-VK","2019/12/26 17:13:42","新北市淡水區大埤頭9-1號","121.483355","25.19448","6501000","淡水區"
"251012","441-VK","2019/12/26 17:13:37","新北市淡水區中山北路一段158號","121.44422","25.177845","6501000","淡水區"
"251007","442-VK","2019/12/26 17:13:27","新北市淡水區民生路47-4號","121.462091666667","25.137975","6501000","淡水區"
"251006","561-UM","2019/12/26 17:13:31","新北市淡水區新生街68號","121.438465","25.1744866666667","6501000","淡水區"
"251014","577-R6","2019/12/26 17:13:37","新北市淡水區八里堆12號","121.462311666667","25.22487","6501000","淡水區"
"251011","650-BX","2019/12/26 17:13:31","新北市淡水區坪頂路49號","121.457863333333","25.1626016666667","6501000","淡水區"
"251003","766-UM","2019/12/26 17:13:45","新北市淡水區中正路二段31號","121.419408333333","25.1815066666667","6501000","淡水區"
"251015","178-VK","2019/12/26 17:13:35","新北市淡水區鄧公路50號","121.459868333333","25.1687816666667","6501000","淡水區"
"252001","292-VK","2019/12/26 17:13:38","新北市三芝區埔頭里埔頭15-6號","121.495795","25.2598783333333","6502100","三芝區"
"233002","762-BX","2019/12/26 17:13:38","新北市烏來區環山路161號","121.54873","24.858735","6502900","烏來區"
"252002","KED-0821","2019/12/26 17:13:45","新北市三芝區忠孝街1-14號","121.505548333333","25.2539733333333","6502100","三芝區"
"242042","AAC-296","2019/12/26 17:13:27","新北市新莊區三和路12-13號","121.441965","25.0371816666667","6500500","新莊區"
"242004","751-BX","2019/12/26 17:13:40","新北市新莊區新泰路255巷83號","121.442085","25.0389533333333","6500500","新莊區"
"242025","705-TV","2019/12/26 17:13:15","新北市泰山區磚雅厝3號","121.44235","25.04197","6500500","新莊區"
"242029","615-BX","2019/12/26 17:13:28","新北市新莊區新泰路486號","121.442588333333","25.0457183333333","6500500","新莊區"
"242027","613-BX","2019/12/26 17:13:28","新北市新莊區新泰路357巷3弄1號","121.442356666667","25.041595","6500500","新莊區"
"242058","612-BX","2019/12/26 17:13:39","新北市新莊區新泰路357巷3弄57號","121.442091666667","25.03912","6500500","新莊區"
"242048","566-BX","2019/12/26 17:13:41","新北市新莊區中正路384號","121.441966666667","25.0348233333333","6500500","新莊區"
"242053","497-BY","2019/12/26 17:13:32","新北市新莊區中正路384號","121.441966666667","25.0349683333333","6500500","新莊區"
"242009","442-UM","2019/12/26 17:13:31","新北市新莊區三和路18-23號","121.441741666667","25.0388566666667","6500500","新莊區"
"242002","441-UM","2019/12/26 17:13:34","新北市新莊區新樹路67巷1號","121.442096666667","25.03006","6500500","新莊區"
"242007","440-UM","2019/12/26 17:13:35","新北市新莊區三和路12-21號","121.442088333333","25.0387316666667","6500500","新莊區"
"242044","415-TV","2019/12/26 17:13:25","新北市新莊區中正路535-11號","121.43746","25.0331333333333","6500500","新莊區"
"242013","413-TV","2019/12/26 17:13:40","新北市新莊區新泰路357巷3弄57號","121.442081666667","25.03942","6500500","新莊區"
"242051","400-BY","2019/12/26 17:13:36","新北市新莊區三和路12-9號","121.442285","25.0366883333333","6500500","新莊區"
"242023","353-BY","2019/12/26 17:13:34","新北市新莊區三和路12-19號","121.442091666667","25.03773","6500500","新莊區"
"242039","135-UY","2019/12/26 17:13:38","新北市新莊區中正路384-1號","121.44199","25.0353216666667","6500500","新莊區"
"242017","173-VK","2019/12/26 17:13:32","新北市新莊區三和路12-21號","121.44194","25.03872","6500500","新莊區"
"242031","175-VK","2019/12/26 17:13:43","新北市新莊區三和路12-21號","121.441871666667","25.0386883333333","6500500","新莊區"
"242056","176-VK","2019/12/26 17:13:33","新北市新莊區三和路10號","121.44199","25.035565","6500500","新莊區"
"242021","KED-0687","2019/12/26 17:13:32","新北市新莊區公園一路67號","121.442405","25.0368716666667","6500500","新莊區"
"242015","347-TH","2019/12/26 17:13:32","新北市新莊區三和路12-18號","121.442181666667","25.03767","6500500","新莊區"
"242036","348-TH","2019/12/26 17:13:39","新北市新莊區中正路386號","121.441916666667","25.034905","6500500","新莊區"
"242034","350-TH","2019/12/26 17:13:27","新北市新莊區中正路384號","121.442058333333","25.03452","6500500","新莊區"
"242019","351-TH","2019/12/26 17:13:31","新北市新莊區三和路12-10號","121.44208","25.0368133333333","6500500","新莊區"
"238023","601-UM","2019/12/26 17:13:42","新北市樹林區中正路433-1號","121.414975","25.00754","6500700","樹林區"
"238019","599-UM","2019/12/26 17:13:39","新北市樹林區八德街616號","121.397236666667","24.9699","6500700","樹林區"
"238020","571-TV","2019/12/26 17:13:29","新北市樹林區中正路22-1號","121.427995","24.9992466666667","6500700","樹林區"
"238018","KEA-2217","2019/12/26 17:13:37","新北市樹林區博愛街223號","121.424043333333","24.9864533333333","6500700","樹林區"
"238022","KEA-2213","2019/12/26 17:13:32","新北市樹林區忠孝街33號","121.423763333333","24.9821583333333","6500700","樹林區"
"238021","KEA-2539","2019/12/26 17:13:41","新北市樹林區西圳街一段165巷20弄28號","121.395656666667","24.9601516666667","6500700","樹林區"
"238025","303-VK","2019/12/26 17:13:27","新北市樹林區千歲街42-1號","121.425855","24.9969233333333","6500700","樹林區"
"238017","283-BY","2019/12/26 17:13:38","新北市樹林區保安街二段78號","121.415241666667","25.00365","6500700","樹林區"
"238001","282-BY","2019/12/26 17:13:36","新北市樹林區保安二街22號","121.424751666667","24.9945","6500700","樹林區"
"238026","172-UY","2019/12/26 17:13:40","新北市樹林區東豐街113號","121.406318333333","24.9744483333333","6500700","樹林區"
"238016","169-UY","2019/12/26 17:13:29","新北市樹林區八德街1號","121.417541666667","24.98499","6500700","樹林區"
"239007","AAC-297","2019/12/26 17:13:29","新北市鶯歌區中正一路127巷12號","121.352173333333","24.95561","6500800","鶯歌區"
"239006","891-R6","2019/12/26 17:13:26","新北市鶯歌區八德路3-7號","121.338178333333","24.948255","6500800","鶯歌區"
"239008","527-UM","2019/12/26 17:13:37","新北市鶯歌區文化路134號","121.351945","24.9513516666667","6500800","鶯歌區"
"239005","526-UM","2019/12/26 17:13:39","新北市鶯歌區德昌街1號","121.333918333333","24.9607966666667","6500800","鶯歌區"
"239001","417-VK","2019/12/26 17:13:29","新北市鶯歌區尖山路140巷12弄1號","121.346321666667","24.9494433333333","6500800","鶯歌區"
"239002","359-BY","2019/12/26 17:13:34","新北市鶯歌區建國路208號","121.349116666667","24.9535183333333","6500800","鶯歌區"
"239004","193-VK","2019/12/26 17:13:39","新北市鶯歌區文化路537號","121.353018333333","24.9479033333333","6500800","鶯歌區"
"233001","KEA-2870","2019/12/26 17:13:28","新北市烏來區西羅岸路6號","121.548126666667","24.8655666666667","6502900","烏來區"
"242046","281-VK","2019/12/26 17:13:29","新北市新莊區新樹路67巷5號","121.44189","25.03068","6500500","新莊區"
"242011","280-VK","2019/12/26 17:13:25","新北市新莊區三和路12-21號","121.442006666667","25.038335","6500500","新莊區"
