"lineid","car","time","location","longitude","latitude","cityid","cityname"
"234007","KED-0605","2019/12/26 18:13:44","新北市永和區光復街33巷7號","121.515826666667","25.0181266666667","6500400","永和區"
"234026","9371-KE","2019/12/26 18:13:42","新北市永和區豫溪街28巷19號","121.515055","25.0089583333333","6500400","永和區"
"234011","9373-KE","2019/12/26 17:53:40","新北市永和區豫溪街217巷1號","121.525348333333","25.00966","6500400","永和區"
"249005","172-UM","2019/12/26 18:13:34","新北市八里區荖阡坑路15-40號","121.40173","25.1398433333333","6502300","八里區"
"249001","173-UM","2019/12/26 18:13:40","新北市八里區龍米路一段470號","121.450043333333","25.1354533333333","6502300","八里區"
"249004","303-UY","2019/12/26 18:13:24","新北市八里區龍米路二段200巷5號","121.433708333333","25.1588233333333","6502300","八里區"
"249002","305-UY","2019/12/26 18:13:32","新北市八里區龍米路一段386巷2號","121.451893333333","25.1319666666667","6502300","八里區"
"249003","593-UM","2019/12/26 18:13:31","新北市八里區商港一路444號","121.39382","25.1441966666667","6502300","八里區"
"248014","025-BX","2019/12/26 18:13:34","新北市五股區成泰路一段171巷13號","121.434371666667","25.0743583333333","6501500","五股區"
"248016","026-BX","2019/12/26 18:13:27","新北市五股區成泰路三段221巷16號","121.445745","25.0934383333333","6501500","五股區"
"248006","077-UY","2019/12/26 18:13:27","新北市五股區中興路一段161號","121.464751666667","25.0737366666667","6501500","五股區"
"248008","KED-0815","2019/12/26 18:13:37","新北市五股區更洲路32巷8弄14號","121.459251666667","25.079615","6501500","五股區"
"248020","KED-0813","2019/12/26 18:13:34","新北市五股區孝義路14-1號","121.451975","25.1062616666667","6501500","五股區"
"248012","247-BX","2019/12/26 18:13:34","新北市五股區御史路2號","121.442301666667","25.0902066666667","6501500","五股區"
"248010","272-BY","2019/12/26 18:13:28","新北市五股區成泰路一段189巷32弄23號","121.433148333333","25.0766866666667","6501500","五股區"
"248004","677-BX","2019/12/26 18:13:39","新北市五股區中興路四段54號","121.438025","25.083025","6501500","五股區"
"248002","678-BX","2019/12/26 18:13:36","新北市五股區成泰路三段83號","121.444288333333","25.0898516666667","6501500","五股區"
"232011","375-UM","2019/12/26 18:13:37","新北市坪林區國中路4號","121.713441666667","24.9388166666667","6502000","坪林區"
"244007","080-UY","2019/12/26 18:13:35","新北市林口區竹林路462號","121.387715","25.0848916666667","6501700","林口區"
"244019","402-UM","2019/12/26 18:13:38","新北市林口區忠孝路604巷18號","121.376561666667","25.0674816666667","6501700","林口區"
"244013","KEA-2802","2019/12/26 18:13:36","新北市林口區佳林路101巷34號","121.386941666667","25.08001","6501700","林口區"
"244023","483-VK","2019/12/26 18:13:40","新北市林口區東湖路153巷135號","121.382245","25.0735683333333","6501700","林口區"
"244017","485-VK","2019/12/26 18:13:12","新北市林口區公園路5號","121.366188333333","25.0662766666667","6501700","林口區"
"244009","656-BX","2019/12/26 18:13:40","新北市林口區文化三路二段297號","121.37909","25.0865483333333","6501700","林口區"
"244011","701-TV","2019/12/26 18:13:42","新北市林口區仁愛路一段266號","121.393966666667","25.0760716666667","6501700","林口區"
"244025","837-TS","2019/12/26 18:13:33","新北市林口區南勢二街152-5號","121.358831666667","25.07325","6501700","林口區"
"244021","838-TS","2019/12/26 18:13:27","新北市林口區自強一街42號","121.399158333333","25.077595","6501700","林口區"
"208001","267-VK","2019/12/26 18:13:37","新北市金山區民生路202號","121.644021666667","25.2221666666667","6502700","金山區"
"222003","KEE-1106","2019/12/26 18:13:31","新北市深坑區文山路二段31號","121.616646666667","24.9988733333333","6501800","深坑區"
"222002","659-BX","2019/12/26 18:13:36","新北市深坑區文化街10號","121.620413333333","25.0013266666667","6501800","深坑區"
"231058","0291-UT","2019/12/26 18:13:33","新北市新店區安華路28-1號","121.51973","24.9604883333333","6500600","新店區"
"231060","106-UY","2019/12/26 18:13:24","新北市新店區安華路28-1號","121.519781666667","24.9606916666667","6500600","新店區"
"231052","189-VK","2019/12/26 18:13:28","新北市新店區安華路28-1號","121.519868333333","24.96104","6500600","新店區"
"231054","260-TV","2019/12/26 18:13:25","新北市新店區安一路一段1-1號","121.519243333333","24.9613383333333","6500600","新店區"
"231042","268-BY","2019/12/26 18:13:37","新北市新店區安一路一段1-1號","121.519723333333","24.961355","6500600","新店區"
"231064","278-BY","2019/12/26 18:13:38","新北市新店區安華路28-1號","121.519813333333","24.9610466666667","6500600","新店區"
"231045","355-BY","2019/12/26 18:13:26","新北市新店區安一路一段1-1號","121.519128333333","24.96098","6500600","新店區"
"231055","4716-K9","2019/12/26 18:13:37","新北市新店區安華路28-1號","121.519551666667","24.9606483333333","6500600","新店區"
"231056","4715-K9","2019/12/26 18:13:32","新北市新店區安康路一段134號","121.526676666667","24.962825","6500600","新店區"
"231047","KED-0819","2019/12/26 18:13:33","新北市新店區安華路28-1號","121.51977","24.96101","6500600","新店區"
"231046","719-UM","2019/12/26 18:13:35","新北市新店區直潭七街60號","121.532288333333","24.9398333333333","6500600","新店區"
"231057","720-UM","2019/12/26 18:13:34","新北市新店區安一路一段1-1號","121.519436666667","24.96133","6500600","新店區"
"231040","898-TW","2019/12/26 18:13:44","新北市新店區安華路28-1號","121.51953","24.960735","6500600","新店區"
"231043","899-TW","2019/12/26 18:13:25","新北市新店區安華路28-1號","121.519341666667","24.96095","6500600","新店區"
"241033","AAC-255","2019/12/26 18:13:36","新北市三重區中興北街56-1號","121.468991666667","25.0513483333333","6500200","三重區"
"235064","005-UY","2019/12/26 18:13:42","新北市中和區圓通路167巷8號","121.497941666667","24.9950133333333","6500300","中和區"
"235072","KEE-1103","2019/12/26 18:13:25","新北市中和區連城路261-4號","121.49219","24.9965316666667","6500300","中和區"
"235056","096-UM","2019/12/26 18:13:30","新北市中和區中正路748號","121.485603333333","24.9984733333333","6500300","中和區"
"235039","097-UM","2019/12/26 18:13:44","新北市中和區中正路133號","121.499611666667","24.9935883333333","6500300","中和區"
"235065","098-UM","2019/12/26 18:13:29","新北市中和區莊敬路49巷18號","121.501655","25.00612","6500300","中和區"
"235058","151-BY","2019/12/26 18:13:41","新北市中和區圓通路369巷35號","121.489161666667","24.98656","6500300","中和區"
"235055","183-VK","2019/12/26 18:13:31","新北市中和區新生街208號","121.483818333333","24.9989416666667","6500300","中和區"
"235038","185-VK","2019/12/26 18:13:46","新北市中和區大智街30號","121.521316666667","24.9920733333333","6500300","中和區"
"235043","352-BY","2019/12/26 18:13:36","新北市中和區景平路381號","121.503961666667","24.993385","6500300","中和區"
"235042","KEA-2878","2019/12/26 18:13:40","新北市中和區景平路280號","121.51367","24.9929616666667","6500300","中和區"
"235069","4980-A6","2019/12/26 18:13:31","新北市中和區連城路169號","121.495518333333","24.9982583333333","6500300","中和區"
"235070","558-UM","2019/12/26 18:13:24","新北市中和區圓通路75號","121.500008333333","24.9969866666667","6500300","中和區"
"235045","565-BX","2019/12/26 18:13:40","新北市中和區景安路200巷9號","121.503215","24.9918433333333","6500300","中和區"
"235060","KED-0823","2019/12/26 18:13:29","新北市中和區員山路389號","121.4812","25.002755","6500300","中和區"
"235054","640-BX","2019/12/26 18:13:35","新北市中和區民享街86巷23號","121.47334","25.0006","6500300","中和區"
"235047","732-UM","2019/12/26 18:13:32","新北市中和區南山路479號","121.507841666667","24.9883383333333","6500300","中和區"
"235046","733-UM","2019/12/26 18:13:27","新北市中和區員山路36巷13號","121.484086666667","24.990865","6500300","中和區"
"235062","800-TS","2019/12/26 18:13:43","新北市中和區橋和路81號","121.489446666667","25.005195","6500300","中和區"
"235057","801-TS","2019/12/26 18:13:31","新北市中和區民享街97巷19號","121.47537","24.9995483333333","6500300","中和區"
"235041","802-TS","2019/12/26 18:13:31","新北市中和區中正路589巷15號","121.486046666667","24.9933816666667","6500300","中和區"
"235052","805-TS","2019/12/26 18:13:32","新北市中和區南山路250巷2號","121.507708333333","24.9889416666667","6500300","中和區"
"235048","896-TW","2019/12/26 18:13:23","新北市中和區員山路36巷16-2號","121.485273333333","24.991665","6500300","中和區"
"235051","157-BY","2019/12/26 18:13:44","新北市中和區信義街39號","121.511153333333","24.9890866666667","6500300","中和區"
"235037","AAC-213","2019/12/26 18:13:30","新北市中和區景德街88號","121.516203333333","24.99144","6500300","中和區"
"235059","AAC-215","2019/12/26 18:13:31","新北市中和區員山路36巷16-3號","121.48503","24.9913133333333","6500300","中和區"
"207004","KEE-1107","2019/12/26 18:13:29","新北市萬里區中幅里中福路168號","121.674043333333","25.1663233333333","6502800","萬里區"
"226004","312-R5","2019/12/26 18:13:40","新北市平溪區薯榔里薯榔寮29號","121.713971666667","25.019405","6502400","平溪區"
"228003","097-TW","2019/12/26 18:13:34","新北市貢寮區真理里美艷山街22-2號","121.92754","25.0643333333333","6502600","貢寮區"
"228001","212-TW","2019/12/26 18:13:34","新北市貢寮區真理里新港街26巷55弄2-1號","121.92738","25.0528516666667","6502600","貢寮區"
"228002","663-BX","2019/12/26 18:13:36","新北市貢寮區福連里馬崗街25-2號","122.003668333333","25.01355","6502600","貢寮區"
"224006","676-BX","2019/12/26 18:13:34","新北市瑞芳區三爪子坑路230號","121.805736666667","25.10573","6501200","瑞芳區"
"224007","285-BY","2019/12/26 18:13:40","新北市瑞芳區頂埔巷1弄2號","121.766096666667","25.1024633333333","6501200","瑞芳區"
"224009","275-VK","2019/12/26 18:13:39","新北市瑞芳區金光路221號","121.852331666667","25.106765","6501200","瑞芳區"
"224008","273-VK","2019/12/26 18:13:26","新北市瑞芳區三爪子坑路39號","121.813186666667","25.10748","6501200","瑞芳區"
"224005","271-BY","2019/12/26 18:13:26","新北市瑞芳區建基新村1-1號","121.814368333333","25.12992","6501200","瑞芳區"
"227002","642-TC","2019/12/26 18:13:34","新北市雙溪區雙溪里太平路15號","121.864305","25.0352383333333","6502500","雙溪區"
"227001","400-TW","2019/12/26 18:13:34","新北市雙溪區三貂里政光路4號","121.85207","25.06263","6502500","雙溪區"
"253005","032-BX","2019/12/26 18:13:41","新北市石門區中央路37-2號","121.56855","25.2946783333333","6502200","石門區"
"253006","295-VK","2019/12/26 18:13:27","新北市石門區老梅路52巷21號","121.546413333333","25.2885916666667","6502200","石門區"
"222001","KEA-2212","2019/12/26 18:13:41","新北市深坑區北深路二段109號","121.617166666667","25.00325","6501800","深坑區"
"208002","KEA-2872","2019/12/26 18:13:32","新北市金山區清泉里西勢2號","121.627838333333","25.2360466666667","6502700","金山區"
"208003","665-BX","2019/12/26 18:13:39","新北市金山區民生路58號","121.648895","25.22394","6502700","金山區"
"251004","009-UM","2019/12/26 18:13:34","新北市淡水區民族路102號","121.462436666667","25.135375","6501000","淡水區"
"251005","010-UM","2019/12/26 18:13:37","新北市淡水區水源街一段122巷8號","121.44718","25.1714983333333","6501000","淡水區"
"251016","180-VK","2019/12/26 18:13:28","新北市淡水區淡金路三段70巷1號","121.448295","25.200145","6501000","淡水區"
"251008","181-VK","2019/12/26 18:13:35","新北市淡水區中正東路二段7號","121.457926666667","25.15867","6501000","淡水區"
"251013","182-VK","2019/12/26 18:13:42","新北市淡水區後寮7號","121.476131666667","25.1986583333333","6501000","淡水區"
"251010","413-VK","2019/12/26 18:13:43","新北市淡水區中正路二段50巷10號","121.419886666667","25.18337","6501000","淡水區"
"251012","441-VK","2019/12/26 18:13:37","新北市淡水區北新路三段169-8號","121.490873333333","25.1910616666667","6501000","淡水區"
"251001","559-UM","2019/12/26 18:13:35","新北市淡水區自強路293號","121.462138333333","25.1291733333333","6501000","淡水區"
"251006","561-UM","2019/12/26 18:13:41","新北市淡水區新民街72號","121.438791666667","25.1763933333333","6501000","淡水區"
"251014","577-R6","2019/12/26 18:13:37","新北市淡水區北勢子3號","121.485723333333","25.2233033333333","6501000","淡水區"
"251011","650-BX","2019/12/26 18:13:31","新北市淡水區坪頂路719號","121.482141666667","25.1587483333333","6501000","淡水區"
"251002","672-BX","2019/12/26 18:13:27","新北市淡水區中正東路一段8號","121.452133333333","25.1629516666667","6501000","淡水區"
"251003","766-UM","2019/12/26 18:13:25","新北市淡水區北新路182巷58號","121.44839","25.1775266666667","6501000","淡水區"
"251015","178-VK","2019/12/26 18:13:35","新北市淡水區興福寮88巷1號","121.48539","25.1649983333333","6501000","淡水區"
"252003","249-BX","2019/12/26 18:13:23","新北市三芝區埔頭里埔頭23-1號","121.490475","25.2608183333333","6502100","三芝區"
"252001","292-VK","2019/12/26 18:13:37","新北市三芝區中興街二段2號","121.498338333333","25.256635","6502100","三芝區"
"237004","KEA-2597","2019/12/26 18:13:39","新北市三峽區大埔路375-2號","121.371711666667","24.8950366666667","6500900","三峽區"
"237007","153-BY","2019/12/26 18:13:34","新北市三峽區中正路二段398號","121.365255","24.9087016666667","6500900","三峽區"
"237009","210-TH","2019/12/26 18:13:37","新北市三峽區大仁路50巷18號","121.365301666667","24.9381433333333","6500900","三峽區"
"237012","275-BY","2019/12/26 18:13:39","新北市三峽區民生街1巷5-89號","121.378993333333","24.9355833333333","6500900","三峽區"
"237008","302-VK","2019/12/26 18:13:42","新北市三峽區白雞64-1號","121.385721666667","24.912625","6500900","三峽區"
"237014","433-BY","2019/12/26 18:13:41","新北市三峽區復興路110巷3弄11號","121.372696666667","24.938575","6500900","三峽區"
"237013","280-TH","2019/12/26 18:13:35","新北市三峽區長泰街70-2號","121.376693333333","24.93358","6500900","三峽區"
"237006","5529-G3","2019/12/26 18:13:26","新北市三峽區溪東路178巷13弄13號","121.40604","24.9324416666667","6500900","三峽區"
"237011","KEA-2596","2019/12/26 18:13:25","新北市三峽區大同路10號","121.378303333333","24.929955","6500900","三峽區"
"237015","649-BX","2019/12/26 18:13:29","新北市三峽區紫新路25巷6號","121.42278","24.9212783333333","6500900","三峽區"
"237010","706-TV","2019/12/26 18:13:41","新北市三峽區民族街154號","121.369103333333","24.9283483333333","6500900","三峽區"
"237005","AKY-6261","2019/12/26 18:13:42","新北市三峽區忠孝街23號","121.37096","24.934175","6500900","三峽區"
"236042","KED-0685","2019/12/26 18:13:28","新北市土城區裕生路84巷2號","121.447395","24.9853716666667","6501300","土城區"
"233002","762-BX","2019/12/26 18:13:38","新北市烏來區新烏路五段46號","121.54359","24.8770166666667","6502900","烏來區"
"236078","166-UM","2019/12/26 18:13:42","新北市土城區永安街82號","121.431865","24.9637316666667","6501300","土城區"
"236030","253-BX","2019/12/26 18:13:32","新北市土城區員福街32號","121.441216666667","24.9787533333333","6501300","土城區"
"236026","269-VK","2019/12/26 18:13:33","新北市土城區承天路45號","121.438786666667","24.964025","6501300","土城區"
"236014","270-VK","2019/12/26 18:13:34","新北市土城區青雲路39巷7號","121.46028","24.9874033333333","6501300","土城區"
"236038","271-VK","2019/12/26 18:13:36","新北市土城區青雲路453號","121.458765","24.9745766666667","6501300","土城區"
"236070","KEA-2877","2019/12/26 18:13:43","新北市土城區明德路一段297號","121.459998333333","24.9772383333333","6501300","土城區"
"252002","KED-0821","2019/12/26 18:13:45","新北市三芝區中山路二段39號","121.502935","25.2551066666667","6502100","三芝區"
"236021","401-BY","2019/12/26 18:13:31","新北市土城區明德路一段365-1號","121.453975","24.97868","6501300","土城區"
"236049","752-BX","2019/12/26 18:13:30","新北市土城區明德路一段365-1號","121.453546666667","24.9790366666667","6501300","土城區"
"236059","912-UM","2019/12/26 18:13:31","新北市土城區中央路四段93號","121.41684","24.9580233333333","6501300","土城區"
"236063","915-UM","2019/12/26 18:13:35","新北市土城區青雲路145號","121.458605","24.984235","6501300","土城區"
"236055","AAC-216","2019/12/26 18:13:26","新北市土城區中華路二段92號","121.43827","24.97472","6501300","土城區"
"242042","AAC-296","2019/12/26 18:13:27","新北市新莊區中正路692-8號","121.419943333333","25.0286216666667","6500500","新莊區"
"242061","986-R7","2019/12/26 18:13:37","新北市新莊區新樹路329號","121.433176666667","25.0188733333333","6500500","新莊區"
"242004","751-BX","2019/12/26 18:13:40","新北市新莊區自立街117號","121.455816666667","25.0455533333333","6500500","新莊區"
"242025","705-TV","2019/12/26 18:13:35","新北市新莊區五權一路5-7號","121.45813","25.066235","6500500","新莊區"
"242027","613-BX","2019/12/26 18:13:28","新北市新莊區幸福路507號","121.455858333333","25.0492816666667","6500500","新莊區"
"242058","612-BX","2019/12/26 18:13:39","新北市新莊區新北大道七段372號","121.413283333333","25.0301066666667","6500500","新莊區"
"242048","566-BX","2019/12/26 18:13:41","新北市新莊區民安路98巷3號","121.423656666667","25.0256966666667","6500500","新莊區"
"242053","497-BY","2019/12/26 18:13:32","新北市新莊區西盛街429巷25號","121.428056666667","25.0115466666667","6500500","新莊區"
"242009","442-UM","2019/12/26 18:13:31","新北市新莊區昌平街71巷12號","121.453941666667","25.0536633333333","6500500","新莊區"
"242002","441-UM","2019/12/26 18:13:38","新北市新莊區新莊路58號","121.457776666667","25.0368683333333","6500500","新莊區"
"242007","440-UM","2019/12/26 18:13:39","新北市新莊區自強街23巷1號","121.454451666667","25.0463733333333","6500500","新莊區"
"242044","415-TV","2019/12/26 18:13:25","新北市新莊區中正路力行巷12號","121.41701","25.02642","6500500","新莊區"
"242013","413-TV","2019/12/26 18:13:39","新北市新莊區瓊林南路77-41號","121.437186666667","25.01246","6500500","新莊區"
"242051","400-BY","2019/12/26 18:13:36","新北市新莊區民本街23巷17號","121.429103333333","25.0198283333333","6500500","新莊區"
"242039","135-UY","2019/12/26 18:13:44","新北市新莊區新樹路206巷18號","121.432795","25.0218166666667","6500500","新莊區"
"242017","173-VK","2019/12/26 18:13:32","新北市新莊區中港路307號","121.452773333333","25.0446216666667","6500500","新莊區"
"242031","175-VK","2019/12/26 18:13:43","新北市新莊區新泰路257號","121.445973333333","25.0398216666667","6500500","新莊區"
"242056","176-VK","2019/12/26 18:13:33","新北市新莊區豐年街豐2巷33號","121.447723333333","25.0309066666667","6500500","新莊區"
"242021","KED-0687","2019/12/26 18:13:33","新北市新莊區新興街90號","121.450785","25.0383933333333","6500500","新莊區"
"242015","347-TH","2019/12/26 18:13:32","新北市新莊區中和街59巷20號","121.446536666667","25.0467216666667","6500500","新莊區"
"242036","348-TH","2019/12/26 18:13:39","新北市新莊區後港一路49巷1弄1號","121.425895","25.0265083333333","6500500","新莊區"
"242034","350-TH","2019/12/26 18:13:27","新北市新莊區景德路219號","121.449096666667","25.0337083333333","6500500","新莊區"
"242019","351-TH","2019/12/26 18:13:31","新北市新莊區中港路132巷12號","121.455931666667","25.0406766666667","6500500","新莊區"
"238015","755-BX","2019/12/26 18:13:37","新北市樹林區文化街79巷1號","121.416815","24.98912","6500700","樹林區"
"238023","601-UM","2019/12/26 18:13:42","新北市樹林區中正路789號","121.409668333333","25.015995","6500700","樹林區"
"238019","599-UM","2019/12/26 18:13:39","新北市樹林區水源街86號","121.42584","24.9804616666667","6500700","樹林區"
"238020","571-TV","2019/12/26 18:13:28","新北市樹林區三龍街91號","121.416528333333","25.018415","6500700","樹林區"
"238018","KEA-2217","2019/12/26 18:13:37","新北市樹林區博愛街119號","121.426243333333","24.9907283333333","6500700","樹林區"
"238025","303-VK","2019/12/26 18:13:27","新北市樹林區保安街一段226號","121.420431666667","24.9963983333333","6500700","樹林區"
"238017","283-BY","2019/12/26 18:13:38","新北市樹林區保安街二段339-23號","121.412513333333","25.0091983333333","6500700","樹林區"
"238026","172-UY","2019/12/26 18:13:40","新北市樹林區佳園路一段80巷3-1號","121.392806666667","24.9695416666667","6500700","樹林區"
"238016","169-UY","2019/12/26 18:13:29","新北市樹林區復興路340號","121.416188333333","24.9865216666667","6500700","樹林區"
"239007","AAC-297","2019/12/26 18:13:29","新北市鶯歌區尖山埔路193號","121.345345","24.9505183333333","6500800","鶯歌區"
"239006","891-R6","2019/12/26 18:13:26","新北市鶯歌區鶯桃路457號","121.33205","24.96562","6500800","鶯歌區"
"239008","527-UM","2019/12/26 18:13:37","新北市鶯歌區國際一路108巷1號","121.335406666667","24.9771283333333","6500800","鶯歌區"
"239005","526-UM","2019/12/26 18:13:39","新北市鶯歌區鳳五路117-1號","121.330425","24.97206","6500800","鶯歌區"
"239001","417-VK","2019/12/26 18:13:29","新北市鶯歌區中正三路460-1號","121.321148333333","24.934075","6500800","鶯歌區"
"239003","360-BY","2019/12/26 18:13:40","新北市鶯歌區鶯桃路320號","121.33403","24.9619183333333","6500800","鶯歌區"
"239002","359-BY","2019/12/26 18:13:34","新北市鶯歌區光明街46號","121.34802","24.956075","6500800","鶯歌區"
"239004","193-VK","2019/12/26 18:13:32","新北市鶯歌區三鶯路47號","121.356846666667","24.9421516666667","6500800","鶯歌區"
"221008","489-VK","2019/12/26 18:13:25","新北市汐止區康寧街307巷1弄10號","121.62677","25.0682566666667","6501100","汐止區"
"221036","130-UY","2019/12/26 18:13:39","新北市汐止區大同路三段116號","121.672073333333","25.0767583333333","6501100","汐止區"
"221015","131-UY","2019/12/26 18:13:34","新北市汐止區長江街334號","121.666898333333","25.08178","6501100","汐止區"
"221010","269-BY","2019/12/26 18:13:30","新北市汐止區汐萬路二段275巷3弄1號","121.645291666667","25.0887483333333","6501100","汐止區"
"221012","278-VK","2019/12/26 18:13:40","新北市汐止區保一街81號","121.674543333333","25.0801683333333","6501100","汐止區"
"221023","279-VK","2019/12/26 18:13:44","新北市汐止區中興路293號","121.627973333333","25.0700383333333","6501100","汐止區"
"221032","280-BY","2019/12/26 18:13:31","新北市汐止區橫科路53號","121.618463333333","25.0510016666667","6501100","汐止區"
"221027","281-BY","2019/12/26 18:13:33","新北市汐止區和平街6巷1弄2號","121.663425","25.071235","6501100","汐止區"
"221029","298-VK","2019/12/26 18:13:40","新北市汐止區樟樹二路318號","121.641401666667","25.069965","6501100","汐止區"
"221021","299-VK","2019/12/26 18:13:45","新北市汐止區復興路24號","121.656036666667","25.0638","6501100","汐止區"
"207003","KEE-1020","2019/12/26 18:13:34","新北市萬里區港東路野柳風景區攤販66號","121.691255","25.20579","6502800","萬里區"
"221031","567-BX","2019/12/26 18:13:44","新北市汐止區中興路181巷14弄10號","121.629865","25.066745","6501100","汐止區"
"221035","622-UM","2019/12/26 18:13:32","新北市汐止區汐萬路一段24號","121.655758333333","25.067905","6501100","汐止區"
"221025","623-UM","2019/12/26 18:13:41","新北市汐止區勤進路8號","121.659855","25.061655","6501100","汐止區"
"221038","646-BX","2019/12/26 18:13:28","新北市汐止區新興路1號","121.659201666667","25.0606833333333","6501100","汐止區"
"221033","647-BX","2019/12/26 18:13:39","新北市汐止區宜興街40巷20號","121.622573333333","25.0413666666667","6501100","汐止區"
"221002","707-TV","2019/12/26 18:13:29","新北市汐止區福德一路186號","121.63548","25.0657583333333","6501100","汐止區"
"221018","753-BX","2019/12/26 18:13:11","新北市汐止區忠孝東路384號","121.665565","25.0701866666667","6501100","汐止區"
"233001","KEA-2870","2019/12/26 18:13:28","新北市烏來區新烏路五段82號","121.54786","24.8718966666667","6502900","烏來區"
"224002","257-TC","2019/12/26 18:13:32","新北市瑞芳區三爪子坑路149巷22-14號","121.81167","25.1059183333333","6501200","瑞芳區"
"242046","281-VK","2019/12/26 18:13:29","新北市新莊區福營路337號","121.425246666667","25.0284966666667","6500500","新莊區"
"242011","280-VK","2019/12/26 18:13:45","新北市新莊區中榮街13號","121.450903333333","25.0527783333333","6500500","新莊區"
"235061","KEA-2875","2019/12/26 18:13:34","新北市中和區民德路187號","121.46837","24.9992683333333","6500300","中和區"
