"lineid","car","time","location","longitude","latitude","cityid","cityname"
"234046","148-BY","2019/12/26 18:29:32","新北市永和區豫溪街217巷19號","121.524816666667","25.0101933333333","6500400","永和區"
"234086","338-UY","2019/12/26 18:29:30","新北市永和區福和路171號","121.520046666667","25.007615","6500400","永和區"
"234017","745-BX","2019/12/26 18:29:27","新北市永和區福和路1號","121.526435","25.0095483333333","6500400","永和區"
"234007","KED-0605","2019/12/26 18:29:24","新北市永和區環河西路二段195號","121.502285","25.011185","6500400","永和區"
"234013","KEA-2591","2019/12/26 18:29:34","新北市永和區環河東路二段92號","121.524413333333","25.0105516666667","6500400","永和區"
"234026","9371-KE","2019/12/26 18:29:42","新北市永和區永貞路417巷17號","121.506433333333","25.0090433333333","6500400","永和區"
"249005","172-UM","2019/12/26 18:29:34","新北市八里區中華路三段145巷5號","121.39214","25.1336333333333","6502300","八里區"
"249001","173-UM","2019/12/26 18:29:40","新北市八里區龍米路一段98號","121.453398333333","25.1245866666667","6502300","八里區"
"249004","303-UY","2019/12/26 18:29:44","新北市八里區忠孝路80號","121.426153333333","25.160405","6502300","八里區"
"249002","305-UY","2019/12/26 18:29:32","新北市八里區龍形二街25號","121.45016","25.1322283333333","6502300","八里區"
"249003","593-UM","2019/12/26 18:29:31","新北市八里區下罟子8-10號","121.383363333333","25.1443983333333","6502300","八里區"
"248014","025-BX","2019/12/26 18:29:34","新北市五股區成泰路一段116號","121.435408333333","25.0736166666667","6501500","五股區"
"248016","026-BX","2019/12/26 18:29:32","新北市五股區凌雲路一段83巷1-4號","121.450416666667","25.1008083333333","6501500","五股區"
"248008","KED-0815","2019/12/26 18:29:37","新北市五股區更洲路32巷8弄35號","121.460243333333","25.0793683333333","6501500","五股區"
"248020","KED-0813","2019/12/26 18:29:34","新北市五股區孝義路70號","121.453696666667","25.113285","6501500","五股區"
"248012","247-BX","2019/12/26 18:29:34","新北市五股區御史路59號","121.441895","25.093675","6501500","五股區"
"248010","272-BY","2019/12/26 18:29:39","新北市五股區明德路8號","121.433353333333","25.071605","6501500","五股區"
"248004","677-BX","2019/12/26 18:29:39","新北市五股區六合街3號","121.431961666667","25.0885183333333","6501500","五股區"
"248002","678-BX","2019/12/26 18:29:36","新北市五股區西雲路163號","121.446088333333","25.094365","6501500","五股區"
"234077","969-R7","2019/12/26 18:29:34","新北市永和區豫溪街217巷19號","121.524886666667","25.01012","6500400","永和區"
"232011","375-UM","2019/12/26 18:29:36","新北市坪林區坪雙路一段41號","121.711695","24.9424566666667","6502000","坪林區"
"244007","080-UY","2019/12/26 18:29:35","新北市林口區後湖15-1號","121.387886666667","25.09842","6501700","林口區"
"244019","402-UM","2019/12/26 18:29:38","新北市林口區麗園二街38巷65號","121.380055","25.0680766666667","6501700","林口區"
"244013","KEA-2802","2019/12/26 18:29:36","新北市林口區中正路514巷17號","121.381826666667","25.0775866666667","6501700","林口區"
"244023","483-VK","2019/12/26 18:29:40","新北市林口區仁愛路二段50號","121.384791666667","25.0758116666667","6501700","林口區"
"244017","485-VK","2019/12/26 18:29:32","新北市林口區文化二路一段98號","121.36683","25.070045","6501700","林口區"
"244009","656-BX","2019/12/26 18:29:40","新北市林口區文林一街11巷8號","121.376485","25.0858916666667","6501700","林口區"
"244011","701-TV","2019/12/26 18:29:42","新北市林口區新寮1-69號","121.392425","25.076625","6501700","林口區"
"244025","837-TS","2019/12/26 18:29:33","新北市林口區南勢六街79號","121.354676666667","25.0724766666667","6501700","林口區"
"244021","838-TS","2019/12/26 18:29:27","新北市林口區自強二街18號","121.397825","25.0781083333333","6501700","林口區"
"208001","267-VK","2019/12/26 18:29:37","新北市金山區文化二路4號","121.636838333333","25.2245916666667","6502700","金山區"
"222003","KEE-1106","2019/12/26 18:29:31","新北市深坑區烏月路141號","121.63097","25.00538","6501800","深坑區"
"222002","659-BX","2019/12/26 18:29:36","新北市深坑區雲鄉路107號","121.623271666667","24.9983483333333","6501800","深坑區"
"231061","002-UM","2019/12/26 18:29:23","新北市新店區安華路28-1號","121.519803333333","24.9608216666667","6500600","新店區"
"231058","0291-UT","2019/12/26 18:29:33","新北市新店區環河路1號","121.538321666667","24.9610833333333","6500600","新店區"
"231060","106-UY","2019/12/26 18:29:44","新北市新店區安華路28-1號","121.519678333333","24.9606933333333","6500600","新店區"
"231051","107-UY","2019/12/26 18:29:24","新北市新店區安一路一段1-1號","121.519571666667","24.9611133333333","6500600","新店區"
"231065","110-UY","2019/12/26 18:29:27","新北市新店區安一路一段1-1號","121.519318333333","24.9613866666667","6500600","新店區"
"231052","189-VK","2019/12/26 18:29:28","新北市新店區北宜路一段106號","121.539058333333","24.95534","6500600","新店區"
"231050","KEA-2219","2019/12/26 18:29:29","新北市新店區安一路一段1-1號","121.519991666667","24.9611083333333","6500600","新店區"
"231062","256-BX","2019/12/26 18:29:34","新北市新店區安一路一段1-1號","121.51974","24.961225","6500600","新店區"
"231054","260-TV","2019/12/26 18:29:45","新北市新店區安一路一段1-1號","121.519271666667","24.9611916666667","6500600","新店區"
"231042","268-BY","2019/12/26 18:29:37","新北市新店區安一路一段1-1號","121.519741666667","24.961365","6500600","新店區"
"231064","278-BY","2019/12/26 18:29:38","新北市新店區安華路28-1號","121.519813333333","24.9610416666667","6500600","新店區"
"231045","355-BY","2019/12/26 18:29:26","新北市新店區安一路一段1-1號","121.51896","24.9609466666667","6500600","新店區"
"231055","4716-K9","2019/12/26 18:29:39","新北市新店區中正路128巷10號","121.542405","24.9717866666667","6500600","新店區"
"231056","4715-K9","2019/12/26 18:29:31","新北市新店區二十張路129巷3弄1號","121.536191666667","24.9789116666667","6500600","新店區"
"231063","616-UM","2019/12/26 18:29:41","新北市新店區安華路1-1號","121.519435","24.9604683333333","6500600","新店區"
"231047","KED-0819","2019/12/26 18:29:32","新北市新店區安一路一段1-1號","121.519913333333","24.961085","6500600","新店區"
"231046","719-UM","2019/12/26 18:29:35","新北市新店區直潭七街60號","121.532278333333","24.9397633333333","6500600","新店區"
"231057","720-UM","2019/12/26 18:29:34","新北市新店區安一路一段1-1號","121.519238333333","24.9613666666667","6500600","新店區"
"231059","897-TW","2019/12/26 18:29:29","新北市新店區安華路28-1號","121.519678333333","24.9607783333333","6500600","新店區"
"231040","898-TW","2019/12/26 18:29:24","新北市新店區安華路28-1號","121.519508333333","24.9607883333333","6500600","新店區"
"231043","899-TW","2019/12/26 18:29:25","新北市新店區安華路28-1號","121.519333333333","24.9609783333333","6500600","新店區"
"231066","AKT-0513","2019/12/26 18:29:27","新北市新店區安華路1-1號","121.519536666667","24.9604733333333","6500600","新店區"
"241017","063-VK","2019/12/26 18:29:27","新北市三重區中正北路25巷25弄10號","121.493651666667","25.062845","6500200","三重區"
"235066","003-UY","2019/12/26 18:29:39","新北市中和區中山路二段120號","121.502818333333","25.0037416666667","6500300","中和區"
"235064","005-UY","2019/12/26 18:29:42","新北市中和區連城路109巷87號","121.497551666667","24.9974966666667","6500300","中和區"
"235063","006-UY","2019/12/26 18:29:29","新北市中和區連城路403巷1號","121.486231666667","24.9959216666667","6500300","中和區"
"235072","KEE-1103","2019/12/26 18:29:25","新北市中和區中山路二段193號","121.499923333333","25.002655","6500300","中和區"
"235056","096-UM","2019/12/26 18:29:30","新北市中和區員山路611巷5弄3號","121.477991666667","25.0112","6500300","中和區"
"235039","097-UM","2019/12/26 18:29:44","新北市永和區安樂路92號","121.514308333333","24.9989433333333","6500300","中和區"
"235065","098-UM","2019/12/26 18:29:29","新北市中和區中山路二段64巷16弄2號","121.50321","25.0058216666667","6500300","中和區"
"235058","151-BY","2019/12/26 18:29:35","新北市中和區員山路32-4號","121.481363333333","24.98821","6500300","中和區"
"235055","183-VK","2019/12/26 18:29:31","新北市中和區民生街68號","121.468796666667","25.0050766666667","6500300","中和區"
"235038","185-VK","2019/12/26 18:29:26","新北市中和區立人街55號","121.52032","24.9942383333333","6500300","中和區"
"235067","255-BX","2019/12/26 18:29:45","新北市中和區新生街9-1號","121.48319","25.004425","6500300","中和區"
"235044","293-VK","2019/12/26 18:29:35","新北市中和區復興路299號","121.501538333333","24.99025","6500300","中和區"
"235043","352-BY","2019/12/26 18:29:36","新北市中和區景平路225號","121.510321666667","24.9926466666667","6500300","中和區"
"235042","KEA-2878","2019/12/26 18:29:40","新北市中和區自立路193號","121.524265","24.9913166666667","6500300","中和區"
"235050","4979-A6","2019/12/26 18:29:29","新北市中和區景新街362巷5號","121.51202","24.99009","6500300","中和區"
"235069","4980-A6","2019/12/26 18:29:31","新北市中和區連城路99巷3號","121.496795","24.9994483333333","6500300","中和區"
"235070","558-UM","2019/12/26 18:29:44","新北市中和區景平路586號","121.501143333333","24.9959516666667","6500300","中和區"
"235045","565-BX","2019/12/26 18:29:40","新北市中和區南山路236巷20弄36號","121.50466","24.9897916666667","6500300","中和區"
"235060","KED-0823","2019/12/26 18:29:29","新北市中和區中山路三段33號","121.479025","25.0057833333333","6500300","中和區"
"235054","640-BX","2019/12/26 18:29:35","新北市中和區莒光路76號","121.47231","25.00299","6500300","中和區"
"235047","732-UM","2019/12/26 18:29:32","新北市中和區興南路一段164號","121.508021666667","24.986615","6500300","中和區"
"235046","733-UM","2019/12/26 18:29:27","新北市中和區興南路一段86號","121.509988333333","24.9893633333333","6500300","中和區"
"235062","800-TS","2019/12/26 18:29:23","新北市中和區景平路750號","121.496485","25.0044183333333","6500300","中和區"
"235057","801-TS","2019/12/26 18:29:43","新北市中和區員山路327巷20號","121.480751666667","25.0014583333333","6500300","中和區"
"235041","802-TS","2019/12/26 18:29:31","新北市中和區景安路30-5號","121.507235","24.998405","6500300","中和區"
"235052","805-TS","2019/12/26 18:29:32","新北市中和區興南路二段133號","121.505231666667","24.9841533333333","6500300","中和區"
"235048","896-TW","2019/12/26 18:29:43","新北市中和區中正路77號","121.500851666667","24.9933616666667","6500300","中和區"
"235051","157-BY","2019/12/26 18:29:24","新北市中和區興南路二段142巷18-9號","121.502651666667","24.9843866666667","6500300","中和區"
"235037","AAC-213","2019/12/26 18:29:30","新北市中和區景平路151巷37號","121.514685","24.99079","6500300","中和區"
"235059","AAC-215","2019/12/26 18:29:31","新北市中和區員山路36巷16-3號","121.484968333333","24.99138","6500300","中和區"
"207004","KEE-1107","2019/12/26 18:29:29","新北市萬里區萬里里瑪鋉路21號","121.687295","25.175355","6502800","萬里區"
"220065","072-UY","2019/12/26 18:29:44","新北市板橋區南雅南路二段1-1號","121.454846666667","25.0037883333333","6500100","板橋區"
"220086","073-UY","2019/12/26 18:29:43","新北市板橋區華東街1-10號","121.448281666667","24.9950366666667","6500100","板橋區"
"226004","312-R5","2019/12/26 18:29:40","新北市平溪區靜安路二段240號","121.724521666667","25.02194","6502400","平溪區"
"235049","251-BX","2019/12/26 18:29:42","新北市中和區景安路80號","121.505656666667","24.9962016666667","6500300","中和區"
"228003","097-TW","2019/12/26 18:29:34","新北市貢寮區和美里和美街38號","121.912266666667","25.08925","6502600","貢寮區"
"228001","212-TW","2019/12/26 18:29:34","新北市貢寮區仁理村仁義街8號","121.923746666667","25.052065","6502600","貢寮區"
"228002","663-BX","2019/12/26 18:29:36","新北市貢寮區福連里香蘭街16-2號","121.982863333333","25.0219033333333","6502600","貢寮區"
"224010","AGQ-8101","2019/12/26 18:29:28","新北市瑞芳區烏勢巷107號","121.846145","25.1086166666667","6501200","瑞芳區"
"224006","676-BX","2019/12/26 18:29:38","新北市瑞芳區明燈路二段103號","121.809981666667","25.1078783333333","6501200","瑞芳區"
"224007","285-BY","2019/12/26 18:29:40","新北市瑞芳區大埔路有勝二村15號","121.763941666667","25.09993","6501200","瑞芳區"
"224009","275-VK","2019/12/26 18:29:39","新北市瑞芳區祈堂路239號","121.856273333333","25.1090533333333","6501200","瑞芳區"
"224008","273-VK","2019/12/26 18:29:46","新北市瑞芳區岳王路1巷27號","121.805995","25.1104416666667","6501200","瑞芳區"
"224005","271-BY","2019/12/26 18:29:26","新北市瑞芳區台電新村1-2號","121.814481666667","25.1289416666667","6501200","瑞芳區"
"227002","642-TC","2019/12/26 18:29:34","新北市雙溪區魚行里坤溪22號","121.870348333333","25.029005","6502500","雙溪區"
"227001","400-TW","2019/12/26 18:29:34","新北市雙溪區牡丹里牡丹151號","121.8515","25.0589266666667","6502500","雙溪區"
"253005","032-BX","2019/12/26 18:29:41","新北市石門區老崩山11-13號","121.551876666667","25.2905716666667","6502200","石門區"
"253006","295-VK","2019/12/26 18:29:47","新北市石門區公地16號","121.54576","25.2902333333333","6502200","石門區"
"222001","KEA-2212","2019/12/26 18:29:41","新北市深坑區北深路一段175號","121.633028333333","25.01088","6501800","深坑區"
"208002","KEA-2872","2019/12/26 18:29:45","新北市金山區金包里街1號","121.640283333333","25.220155","6502700","金山區"
"208003","665-BX","2019/12/26 18:29:39","新北市金山區中山路220號","121.637315","25.2219633333333","6502700","金山區"
"251004","009-UM","2019/12/26 18:29:30","新北市淡水區民族路31巷4號","121.462553333333","25.13639","6501000","淡水區"
"251016","180-VK","2019/12/26 18:29:28","新北市淡水區下圭柔山115號","121.446266666667","25.2125333333333","6501000","淡水區"
"251008","181-VK","2019/12/26 18:29:35","新北市淡水區北投子93-2號","121.465683333333","25.1763566666667","6501000","淡水區"
"251013","182-VK","2019/12/26 18:29:42","新北市淡水區椿子林19-3號","121.48007","25.2033216666667","6501000","淡水區"
"251010","413-VK","2019/12/26 18:29:43","新北市淡水區沙崙路181巷12號","121.42375","25.1845483333333","6501000","淡水區"
"251012","441-VK","2019/12/26 18:29:37","新北市淡水區北新路一段51號","121.455451666667","25.1815816666667","6501000","淡水區"
"251001","559-UM","2019/12/26 18:29:35","新北市淡水區自強路120-1號","121.46418","25.1329666666667","6501000","淡水區"
"251006","561-UM","2019/12/26 18:29:30","新北市淡水區新生街51巷6號","121.440578333333","25.1750383333333","6501000","淡水區"
"251014","577-R6","2019/12/26 18:29:37","新北市淡水區南平28號","121.492671666667","25.2157466666667","6501000","淡水區"
"251011","650-BX","2019/12/26 18:29:31","新北市淡水區坪頂路55號","121.458508333333","25.162645","6501000","淡水區"
"251002","672-BX","2019/12/26 18:29:27","新北市淡水區竿蓁二街56號","121.455095","25.1633133333333","6501000","淡水區"
"251003","766-UM","2019/12/26 18:29:45","新北市淡水區北新路169巷14號","121.449655","25.180075","6501000","淡水區"
"251015","178-VK","2019/12/26 18:29:35","新北市淡水區興福寮88巷228號","121.48606","25.1665983333333","6501000","淡水區"
"252003","249-BX","2019/12/26 18:29:43","新北市三芝區後厝里北勢子44-3號","121.470996666667","25.2519","6502100","三芝區"
"252001","292-VK","2019/12/26 18:29:37","新北市三芝區中興街二段2號","121.498356666667","25.2566316666667","6502100","三芝區"
"237004","KEA-2597","2019/12/26 18:29:39","新北市三峽區五寮104號","121.363146666667","24.8610283333333","6500900","三峽區"
"237007","153-BY","2019/12/26 18:29:32","新北市三峽區中正路三段70巷27號","121.35579","24.90497","6500900","三峽區"
"237009","210-TH","2019/12/26 18:29:37","新北市三峽區大同路228號","121.366543333333","24.925915","6500900","三峽區"
"237012","275-BY","2019/12/26 18:29:39","新北市三峽區三樹路168巷30號","121.379548333333","24.9404966666667","6500900","三峽區"
"237008","302-VK","2019/12/26 18:29:42","新北市三峽區白雞115-16號","121.40082","24.9062416666667","6500900","三峽區"
"237014","433-BY","2019/12/26 18:29:41","新北市三峽區文化路41-1號","121.372526666667","24.936065","6500900","三峽區"
"237013","280-TH","2019/12/26 18:29:35","新北市三峽區永安街57號","121.375905","24.9298933333333","6500900","三峽區"
"237006","5529-G3","2019/12/26 18:29:26","新北市三峽區溪東路473巷8號","121.413976666667","24.928365","6500900","三峽區"
"237011","KEA-2596","2019/12/26 18:29:25","新北市三峽區溪東路218巷2-1號","121.407573333333","24.9320766666667","6500900","三峽區"
"237015","649-BX","2019/12/26 18:29:29","新北市三峽區竹崙路118號","121.434023333333","24.9102083333333","6500900","三峽區"
"237010","706-TV","2019/12/26 18:29:41","新北市三峽區中山路117號","121.365515","24.9358383333333","6500900","三峽區"
"237005","AKY-6261","2019/12/26 18:29:42","新北市三峽區民族街5巷33號","121.369913333333","24.9323483333333","6500900","三峽區"
"236042","KED-0685","2019/12/26 18:29:44","新北市土城區裕民路67巷11號","121.449786666667","24.988195","6501300","土城區"
"233002","762-BX","2019/12/26 18:29:38","新北市烏來區金堰37號","121.551515","24.8852266666667","6502900","烏來區"
"236078","166-UM","2019/12/26 18:29:42","新北市土城區中央路四段43號","121.422555","24.9619183333333","6501300","土城區"
"236030","253-BX","2019/12/26 18:29:32","新北市土城區水源街30號","121.440875","24.97558","6501300","土城區"
"236026","269-VK","2019/12/26 18:29:33","新北市土城區南天母路137-2號","121.447593333333","24.9540383333333","6501300","土城區"
"236014","270-VK","2019/12/26 18:29:34","新北市土城區青雲路39巷7號","121.460276666667","24.987405","6501300","土城區"
"236038","271-VK","2019/12/26 18:29:36","新北市土城區明德路一段299號","121.459896666667","24.9772366666667","6501300","土城區"
"236070","KEA-2877","2019/12/26 18:29:23","新北市土城區永豐路255巷27弄25號","121.476303333333","24.9732466666667","6501300","土城區"
"252002","KED-0821","2019/12/26 18:29:25","新北市三芝區中山路二段39號","121.502948333333","25.25512","6502100","三芝區"
"236021","401-BY","2019/12/26 18:29:31","新北市土城區永豐路202巷5-1號","121.466446666667","24.98312","6501300","土城區"
"236049","752-BX","2019/12/26 18:29:31","新北市土城區青雲路605巷6號","121.459528333333","24.9693616666667","6501300","土城區"
"236059","912-UM","2019/12/26 18:29:31","新北市土城區中央路四段219號","121.413771666667","24.9556666666667","6501300","土城區"
"236063","915-UM","2019/12/26 18:29:35","新北市土城區延壽路113巷1號","121.469128333333","24.9939266666667","6501300","土城區"
"236055","AAC-216","2019/12/26 18:29:26","新北市土城區中華路一段245號","121.441106666667","24.98196","6501300","土城區"
"242042","AAC-296","2019/12/26 18:29:27","新北市新莊區天祥街80號","121.41568","25.02941","6500500","新莊區"
"242061","986-R7","2019/12/26 18:29:40","新北市新莊區新樹路40號","121.437688333333","25.0280566666667","6500500","新莊區"
"242025","705-TV","2019/12/26 18:29:40","新北市新莊區五權一路12巷9弄24號","121.457993333333","25.0652633333333","6500500","新莊區"
"242058","612-BX","2019/12/26 18:29:39","桃園市龜山區萬壽路一段78號","121.408271666667","25.0191066666667","6500500","新莊區"
"242053","497-BY","2019/12/26 18:29:32","新北市新莊區樹新路120巷31號","121.430316666667","24.9962366666667","6500500","新莊區"
"242009","442-UM","2019/12/26 18:29:31","新北市新莊區中安街38號","121.452876666667","25.0464833333333","6500500","新莊區"
"242044","415-TV","2019/12/26 18:29:25","新北市新莊區新北大道七段792號","121.41328","25.02437","6500500","新莊區"
"242056","176-VK","2019/12/26 18:29:34","新北市新莊區瓊泰路77巷16號","121.44262","25.0292583333333","6500500","新莊區"
"242015","347-TH","2019/12/26 18:29:32","新北市新莊區中平路134號","121.44483","25.0467466666667","6500500","新莊區"
"238023","601-UM","2019/12/26 18:29:22","新北市樹林區三福街114號","121.406403333333","25.0163066666667","6500700","樹林區"
"238019","599-UM","2019/12/26 18:29:39","新北市樹林區八德街82號","121.420043333333","24.9812266666667","6500700","樹林區"
"238020","571-TV","2019/12/26 18:29:28","桃園市龜山區宏慶街34巷10號","121.410433333333","25.0180083333333","6500700","樹林區"
"238024","5061-A6","2019/12/26 18:29:28","新北市樹林區育英街1號","121.422733333333","24.989015","6500700","樹林區"
"238018","KEA-2217","2019/12/26 18:29:46","新北市樹林區樹新路113號","121.428108333333","24.99591","6500700","樹林區"
"238026","172-UY","2019/12/26 18:29:40","新北市樹林區八德街1176號","121.390941666667","24.968755","6500700","樹林區"
"238016","169-UY","2019/12/26 18:29:29","新北市樹林區中山路一段412號","121.417415","24.98517","6500700","樹林區"
"239007","AAC-297","2019/12/26 18:29:29","新北市鶯歌區尖山埔路52號","121.348806666667","24.9510433333333","6500800","鶯歌區"
"239006","891-R6","2019/12/26 18:29:26","新北市鶯歌區鶯桃路301號","121.333698333333","24.96059","6500800","鶯歌區"
"239008","527-UM","2019/12/26 18:29:37","新北市鶯歌區朝陽街1號","121.336276666667","24.9765966666667","6500800","鶯歌區"
"239005","526-UM","2019/12/26 18:29:26","新北市鶯歌區鶯桃路668巷73號","121.329973333333","24.9718333333333","6500800","鶯歌區"
"239001","417-VK","2019/12/26 18:29:29","新北市鶯歌區國中街109號","121.341375","24.9412416666667","6500800","鶯歌區"
"239003","360-BY","2019/12/26 18:29:27","新北市鶯歌區福安街58號","121.335591666667","24.9651833333333","6500800","鶯歌區"
"239002","359-BY","2019/12/26 18:29:34","新北市鶯歌區中山路170號","121.348761666667","24.9570466666667","6500800","鶯歌區"
"239004","193-VK","2019/12/26 18:29:32","新北市鶯歌區三鶯路65號","121.357743333333","24.9427816666667","6500800","鶯歌區"
"221036","130-UY","2019/12/26 18:29:39","新北市汐止區大同路三段143號","121.66937","25.077725","6501100","汐止區"
"221015","131-UY","2019/12/26 18:29:34","新北市汐止區長江街367-1號","121.668033333333","25.0826733333333","6501100","汐止區"
"221010","269-BY","2019/12/26 18:29:30","新北市汐止區汐萬路二段345號","121.644576666667","25.0908583333333","6501100","汐止區"
"221012","278-VK","2019/12/26 18:29:40","新北市汐止區保長路35巷20號","121.673255","25.0800233333333","6501100","汐止區"
"221023","279-VK","2019/12/26 18:29:44","新北市汐止區康寧街474巷7-2號","121.632283333333","25.0678783333333","6501100","汐止區"
"221032","280-BY","2019/12/26 18:29:39","新北市汐止區民權街二段97巷4弄9號","121.618808333333","25.04711","6501100","汐止區"
"221027","281-BY","2019/12/26 18:29:33","新北市汐止區和平街67號","121.661488333333","25.0707116666667","6501100","汐止區"
"221029","298-VK","2019/12/26 18:29:40","新北市汐止區康寧街861巷1號","121.645551666667","25.0759316666667","6501100","汐止區"
"221021","299-VK","2019/12/26 18:29:24","新北市汐止區大同路二段184巷8號","121.65325","25.0639233333333","6501100","汐止區"
"207003","KEE-1020","2019/12/26 18:29:44","新北市萬里區野柳里港東新村1-1號","121.686096666667","25.203085","6502800","萬里區"
"221031","567-BX","2019/12/26 18:29:44","新北市汐止區大同路一段211號","121.633621666667","25.0576333333333","6501100","汐止區"
"221035","622-UM","2019/12/26 18:29:32","新北市汐止區大同路二段185號","121.652206666667","25.0643033333333","6501100","汐止區"
"221025","623-UM","2019/12/26 18:29:45","新北市汐止區仁愛路119巷1號","121.662526666667","25.063635","6501100","汐止區"
"221038","646-BX","2019/12/26 18:29:28","新北市汐止區忠孝東路247號","121.662961666667","25.0675683333333","6501100","汐止區"
"221033","647-BX","2019/12/26 18:29:39","新北市汐止區宜興街32號","121.621768333333","25.0418433333333","6501100","汐止區"
"221002","707-TV","2019/12/26 18:29:29","新北市汐止區福德一路155號","121.636493333333","25.0665833333333","6501100","汐止區"
"221018","753-BX","2019/12/26 18:29:30","新北市汐止區茄苳路88巷23號","121.667581666667","25.0699933333333","6501100","汐止區"
"220080","200-UY","2019/12/26 18:29:34","新北市板橋區華東街1-9號","121.448273333333","24.99486","6500100","板橋區"
"224002","257-TC","2019/12/26 18:29:32","新北市瑞芳區正貿新村16號","121.813515","25.1059266666667","6501200","瑞芳區"
"220056","276-BY","2019/12/26 18:29:34","新北市板橋區四川路二段130巷25弄8-1號","121.44909","24.994465","6500100","板橋區"
"220071","283-VK","2019/12/26 18:29:38","新北市板橋區華東街1-9號","121.44808","24.994895","6500100","板橋區"
"220084","296-UM","2019/12/26 18:29:27","新北市板橋區華東街1-9號","121.448141666667","24.9949433333333","6500100","板橋區"
"242046","281-VK","2019/12/26 18:29:29","新北市新莊區中正路803巷1號","121.421603333333","25.028115","6500500","新莊區"
"220035","560-BX","2019/12/26 18:29:37","新北市板橋區南雅南路二段1-1號","121.454725","25.0037833333333","6500100","板橋區"
"220057","686-BX","2019/12/26 18:29:34","新北市板橋區四川路二段130巷25弄10號","121.449026666667","24.9945416666667","6500100","板橋區"
"220077","687-BX","2019/12/26 18:29:44","新北市板橋區華東街1-10號","121.448326666667","24.9950966666667","6500100","板橋區"
"220055","827-TW","2019/12/26 18:29:33","新北市板橋區四川路二段140巷20號","121.44898","24.9934866666667","6500100","板橋區"
"220073","985-R7","2019/12/26 18:29:27","新北市板橋區四川路二段140巷20號","121.448955","24.9935266666667","6500100","板橋區"
"235061","KEA-2875","2019/12/26 18:29:34","新北市中和區民享街90巷10號","121.474205","25.0002316666667","6500300","中和區"
"235068","KEA-2876","2019/12/26 18:29:34","新北市中和區中正路273-5號","121.495703333333","24.9932166666667","6500300","中和區"
