"lineid","car","time","location","longitude","latitude","cityid","cityname"
"234046","148-BY","2019/12/26 18:43:32","新北市永和區永元路40巷46弄1號","121.523823333333","25.0005016666667","6500400","永和區"
"234081","298-R6","2019/12/26 18:43:44","新北市永和區林森路81號","121.523946666667","25.0038566666667","6500400","永和區"
"234038","336-UY","2019/12/26 18:43:36","新北市永和區福和路1號","121.52672","25.0101216666667","6500400","永和區"
"234064","337-UY","2019/12/26 18:43:27","新北市永和區福和路1號","121.52653","25.01006","6500400","永和區"
"234086","338-UY","2019/12/26 18:43:30","新北市永和區中正路14號","121.51261","24.993855","6500400","永和區"
"234070","552-UM","2019/12/26 18:43:35","新北市永和區福和路1號","121.525566666667","25.009305","6500400","永和區"
"234017","745-BX","2019/12/26 18:43:27","新北市永和區豫溪街217巷15號","121.524891666667","25.0101116666667","6500400","永和區"
"234030","746-BX","2019/12/26 18:43:31","新北市永和區得和路328號","121.523323333333","24.9994566666667","6500400","永和區"
"234007","KED-0605","2019/12/26 18:43:24","新北市永和區文化路123號","121.512131666667","25.01534","6500400","永和區"
"234013","KEA-2591","2019/12/26 18:43:33","新北市永和區保福路二段105號","121.51015","25.0133716666667","6500400","永和區"
"234061","AAD-866","2019/12/26 18:43:45","新北市永和區豫溪街217巷19號","121.524821666667","25.010215","6500400","永和區"
"234026","9371-KE","2019/12/26 18:43:42","新北市永和區自由街58號","121.51388","25.0060366666667","6500400","永和區"
"234011","9373-KE","2019/12/26 18:43:27","新北市永和區文化路9巷32號","121.515136666667","25.01431","6500400","永和區"
"249005","172-UM","2019/12/26 18:43:34","新北市八里區長道坑5-2號","121.393273333333","25.122915","6502300","八里區"
"249001","173-UM","2019/12/26 18:43:40","新北市八里區龍米路一段418號","121.451081666667","25.1335266666667","6502300","八里區"
"249004","303-UY","2019/12/26 18:43:44","新北市八里區中山路一段41-1號","121.419461666667","25.15978","6502300","八里區"
"249002","305-UY","2019/12/26 18:43:32","新北市八里區頂寮二街138號","121.44932","25.12944","6502300","八里區"
"249003","593-UM","2019/12/26 18:38:02","新北市八里區博物館路10-1號","121.41508","25.16395","6502300","八里區"
"248014","025-BX","2019/12/26 18:43:34","新北市五股區民義路一段107巷32號","121.43212","25.0845083333333","6501500","五股區"
"248016","026-BX","2019/12/26 18:43:27","新北市五股區凌雲路一段149巷13-1號","121.44861","25.10086","6501500","五股區"
"248008","KED-0815","2019/12/26 18:43:37","新北市五股區中興路一段151巷32號","121.465205","25.07274","6501500","五股區"
"248020","KED-0813","2019/12/26 18:42:14","新北市五股區凌雲路三段田埔巷35號","121.438525","25.1235166666667","6501500","五股區"
"248012","247-BX","2019/12/26 18:43:34","新北市五股區成泰路二段147巷34-22號","121.436733333333","25.08951","6501500","五股區"
"248010","272-BY","2019/12/26 18:43:28","新北市五股區水碓九路71號","121.430201666667","25.0731283333333","6501500","五股區"
"248004","677-BX","2019/12/26 18:43:39","新北市五股區民義路二段42-3號","121.416228333333","25.09968","6501500","五股區"
"248002","678-BX","2019/12/26 18:43:36","新北市五股區成泰路三段437號","121.449796666667","25.0978383333333","6501500","五股區"
"234023","9380-KE","2019/12/26 18:43:23","新北市永和區福和路8巷5號","121.524708333333","25.00917","6500400","永和區"
"234077","969-R7","2019/12/26 18:43:34","新北市中和區安樂路101-3號","121.513473333333","24.995035","6500400","永和區"
"234067","AAC-212","2019/12/26 18:43:29","新北市永和區永貞路131號","121.516751666667","25.0042483333333","6500400","永和區"
"234003","AAC-295","2019/12/26 18:43:10","新北市永和區環河東路二段92號","121.524383333333","25.0106283333333","6500400","永和區"
"232011","375-UM","2019/12/26 18:43:36","新北市坪林區坪雙路一段41號","121.711693333333","24.9424633333333","6502000","坪林區"
"244007","080-UY","2019/12/26 18:43:35","新北市林口區太平里3-3號","121.379168333333","25.1138683333333","6501700","林口區"
"244019","402-UM","2019/12/26 18:43:38","新北市林口區麗園二街1巷4-2號","121.377521666667","25.0700416666667","6501700","林口區"
"244013","KEA-2802","2019/12/26 18:43:36","新北市林口區麗園一街6巷3-2號","121.376153333333","25.0699183333333","6501700","林口區"
"244023","483-VK","2019/12/26 18:43:40","新北市林口區信義路152號","121.379928333333","25.07968","6501700","林口區"
"244017","485-VK","2019/12/26 18:43:32","新北市林口區文化二路一段20巷25弄4號","121.36597","25.0677633333333","6501700","林口區"
"244009","656-BX","2019/12/26 18:43:40","新北市林口區竹林路326巷2號","121.391646666667","25.082425","6501700","林口區"
"244011","701-TV","2019/12/26 18:43:41","新北市林口區粉寮路一段1號","121.396003333333","25.0758283333333","6501700","林口區"
"244025","837-TS","2019/12/26 18:43:33","新北市林口區過崙街88號","121.356156666667","25.0742733333333","6501700","林口區"
"244021","838-TS","2019/12/26 18:43:27","新北市林口區工五路4號","121.401675","25.0769433333333","6501700","林口區"
"208001","267-VK","2019/12/26 18:43:37","新北市金山區文化三路66巷1號","121.634186666667","25.2256066666667","6502700","金山區"
"243012","AAD-798","2019/12/26 18:43:44","新北市泰山區福興三街13號","121.434443333333","25.0578233333333","6501600","泰山區"
"243010","297-R6","2019/12/26 18:43:29","新北市泰山區辭修路48號","121.428553333333","25.05742","6501600","泰山區"
"243016","421-VK","2019/12/26 18:43:41","新北市泰山區泰林路二段221號","121.432506666667","25.061855","6501600","泰山區"
"243015","680-BX","2019/12/26 18:43:26","新北市泰山區泰林路二段464號","121.42573","25.064125","6501600","泰山區"
"222003","KEE-1106","2019/12/26 18:43:31","新北市深坑區翠谷街28號","121.626625","25.0090966666667","6501800","深坑區"
"222002","659-BX","2019/12/26 18:43:36","新北市深坑區文山路一段69號","121.626978333333","25.00188","6501800","深坑區"
"231061","002-UM","2019/12/26 18:43:23","新北市新店區安華路28-1號","121.519858333333","24.9608116666667","6500600","新店區"
"231058","0291-UT","2019/12/26 18:43:33","新北市新店區新店後街16號","121.537943333333","24.95323","6500600","新店區"
"231060","106-UY","2019/12/26 18:43:44","新北市新店區安華路28-1號","121.519633333333","24.9607283333333","6500600","新店區"
"231051","107-UY","2019/12/26 18:43:24","新北市新店區環河路29巷1號","121.536845","24.9613016666667","6500600","新店區"
"231049","108-UY","2019/12/26 18:43:42","新北市新店區安康路一段65號","121.530341666667","24.961065","6500600","新店區"
"231065","110-UY","2019/12/26 18:43:27","新北市新店區車子路18-1號","121.50637","24.95463","6500600","新店區"
"231052","189-VK","2019/12/26 18:43:28","新北市新店區永興路34號","121.54361","24.93882","6500600","新店區"
"231050","KEA-2219","2019/12/26 18:43:29","新北市新店區安一路一段1-1號","121.519948333333","24.96111","6500600","新店區"
"231062","256-BX","2019/12/26 18:43:34","新北市新店區安一路一段1-1號","121.51969","24.961135","6500600","新店區"
"231054","260-TV","2019/12/26 18:43:25","新北市新店區安一路一段1-1號","121.519241666667","24.9611883333333","6500600","新店區"
"231042","268-BY","2019/12/26 18:43:37","新北市新店區安一路一段1-1號","121.519711666667","24.9613566666667","6500600","新店區"
"231064","278-BY","2019/12/26 18:43:38","新北市新店區安華路28-1號","121.5199","24.96105","6500600","新店區"
"231045","355-BY","2019/12/26 18:43:26","新北市新店區安華路28-1號","121.518983333333","24.9609","6500600","新店區"
"231055","4716-K9","2019/12/26 18:43:37","新北市新店區中華路83巷67號","121.53845","24.96736","6500600","新店區"
"231056","4715-K9","2019/12/26 18:43:31","新北市新店區大豐路68巷1號","121.539116666667","24.9796583333333","6500600","新店區"
"231067","4772-VM","2019/12/26 18:43:37","新北市新店區安華路1-1號","121.519213333333","24.960445","6500600","新店區"
"231063","616-UM","2019/12/26 18:43:41","新北市新店區安華路1-1號","121.519431666667","24.9603366666667","6500600","新店區"
"231041","619-UM","2019/12/26 18:43:31","新北市新店區安華路28-1號","121.519551666667","24.9608566666667","6500600","新店區"
"231047","KED-0819","2019/12/26 18:43:32","新北市新店區安康路一段355號","121.51982","24.963045","6500600","新店區"
"231046","719-UM","2019/12/26 18:43:35","新北市新店區直潭二街1號","121.535418333333","24.9431466666667","6500600","新店區"
"231057","720-UM","2019/12/26 18:43:34","新北市新店區新烏路一段100-2號","121.545925","24.9371083333333","6500600","新店區"
"231059","897-TW","2019/12/26 18:43:29","新北市新店區安華路28-1號","121.519613333333","24.9608533333333","6500600","新店區"
"231040","898-TW","2019/12/26 18:43:44","新北市新店區安華路28-1號","121.5195","24.96097","6500600","新店區"
"231043","899-TW","2019/12/26 18:43:25","新北市新店區安華路28-1號","121.519351666667","24.9609316666667","6500600","新店區"
"231066","AKT-0513","2019/12/26 18:43:27","新北市新店區安華路1-1號","121.519606666667","24.9604916666667","6500600","新店區"
"241017","063-VK","2019/12/26 18:43:27","新北市三重區重新路二段99號","121.495536666667","25.06189","6500200","三重區"
"241035","462-BY","2019/12/26 18:43:40","新北市三重區重新路四段121號","121.485103333333","25.0520766666667","6500200","三重區"
"235066","003-UY","2019/12/26 18:43:39","新北市中和區水源路34巷16號","121.504635","25.002865","6500300","中和區"
"235064","005-UY","2019/12/26 18:43:41","新北市中和區泰和街48號","121.498976666667","24.999675","6500300","中和區"
"235063","006-UY","2019/12/26 18:43:29","新北市中和區建一路198號","121.487771666667","24.996405","6500300","中和區"
"235072","KEE-1103","2019/12/26 18:43:45","新北市中和區中山路二段63號","121.504166666667","25.00474","6500300","中和區"
"235056","096-UM","2019/12/26 18:43:36","新北市中和區員山路504號","121.479363333333","25.00814","6500300","中和區"
"235039","097-UM","2019/12/26 18:43:44","新北市中和區宜安路52巷1號","121.512023333333","24.99694","6500300","中和區"
"235065","098-UM","2019/12/26 18:43:29","新北市中和區中山路二段2巷51號","121.501931666667","25.007255","6500300","中和區"
"235004","150-BY","2019/12/26 18:43:46","新北市中和區保健路106巷24號","121.511373333333","24.994725","6500300","中和區"
"235058","151-BY","2019/12/26 18:43:35","新北市中和區連城路607號","121.477895","24.9931366666667","6500300","中和區"
"235055","183-VK","2019/12/26 18:43:31","新北市中和區民生街85巷1弄2號","121.469","25.0045766666667","6500300","中和區"
"235038","185-VK","2019/12/26 18:43:46","新北市中和區自強路60號","121.52003","24.994455","6500300","中和區"
"235067","255-BX","2019/12/26 18:43:25","新北市中和區中正路863-1號","121.484538333333","25.0035183333333","6500300","中和區"
"235044","293-VK","2019/12/26 18:43:34","新北市中和區復興路280巷30號","121.501691666667","24.991785","6500300","中和區"
"235043","352-BY","2019/12/26 18:43:36","新北市中和區成功路139號","121.525853333333","24.9901716666667","6500300","中和區"
"235042","KEA-2878","2019/12/26 18:43:40","新北市中和區成功路74號","121.525885","24.9918816666667","6500300","中和區"
"235050","4979-A6","2019/12/26 18:43:29","新北市中和區景新街496巷30弄18號","121.512943333333","24.985575","6500300","中和區"
"235069","4980-A6","2019/12/26 18:43:31","新北市中和區泰和街38巷2號","121.49918","25.0003083333333","6500300","中和區"
"235070","558-UM","2019/12/26 18:43:24","新北市中和區安和路195號","121.505978333333","24.9983083333333","6500300","中和區"
"235045","565-BX","2019/12/26 18:43:40","新北市中和區捷運路185號","121.505511666667","24.99146","6500300","中和區"
"235060","KED-0823","2019/12/26 18:43:29","新北市中和區民治街9巷2號","121.475133333333","25.00445","6500300","中和區"
"235054","640-BX","2019/12/26 18:43:35","新北市中和區民享街35巷10號","121.474591666667","25.00394","6500300","中和區"
"235047","732-UM","2019/12/26 18:43:32","新北市中和區興南路二段34巷59號","121.504991666667","24.9855633333333","6500300","中和區"
"235046","733-UM","2019/12/26 18:43:31","新北市中和區仁愛街36巷44號","121.51135","24.98634","6500300","中和區"
"235062","800-TS","2019/12/26 18:43:43","新北市中和區中山路二段312巷33弄22號","121.494791666667","25.0042733333333","6500300","中和區"
"235057","801-TS","2019/12/26 18:43:31","新北市中和區民利街28號","121.479941666667","24.9990966666667","6500300","中和區"
"235041","802-TS","2019/12/26 18:43:31","新北市中和區中安街192號","121.51139","24.9992116666667","6500300","中和區"
"235052","805-TS","2019/12/26 18:43:32","新北市中和區興南路三段99號","121.48889","24.97275","6500300","中和區"
"235048","896-TW","2019/12/26 18:43:43","新北市中和區南山路310號","121.507905","24.9869483333333","6500300","中和區"
"235053","900-TW","2019/12/26 18:43:34","新北市中和區華福街8號","121.46558","24.99677","6500300","中和區"
"235051","157-BY","2019/12/26 18:43:44","新北市中和區工專路143號","121.508591666667","24.9789633333333","6500300","中和區"
"235037","AAC-213","2019/12/26 18:43:37","新北市中和區自立路99巷36弄2號","121.523935","24.9943183333333","6500300","中和區"
"235059","AAC-215","2019/12/26 18:43:31","新北市中和區錦和路408號","121.491106666667","24.9897383333333","6500300","中和區"
"207004","KEE-1107","2019/12/26 18:43:29","新北市萬里區萬里里獅頭路23號","121.69346","25.17821","6502800","萬里區"
"220054","015-TV","2019/12/26 18:43:38","新北市板橋區館前西路49號","121.457801666667","25.00656","6500100","板橋區"
"220065","072-UY","2019/12/26 18:43:44","新北市板橋區成都街47號","121.46143","25.0048983333333","6500100","板橋區"
"220086","073-UY","2019/12/26 18:43:43","新北市板橋區南雅西路二段145巷3號","121.451671666667","25.011605","6500100","板橋區"
"220106","075-UY","2019/12/26 18:43:42","新北市板橋區文化路二段10號","121.46875","25.02412","6500100","板橋區"
"220069","AAD-861","2019/12/26 18:43:40","新北市板橋區華興街91巷4號","121.45655","25.005165","6500100","板橋區"
"226004","312-R5","2019/12/26 18:43:40","新北市平溪區平溪里三坑路49-1號","121.731236666667","25.0340066666667","6502400","平溪區"
"235049","251-BX","2019/12/26 18:43:42","新北市中和區景安路116號","121.505298333333","24.9950766666667","6500300","中和區"
"228003","097-TW","2019/12/26 18:43:34","新北市貢寮區和美里龍洞街1-5號","121.91914","25.112395","6502600","貢寮區"
"228001","212-TW","2019/12/26 18:43:33","新北市貢寮區仁理村研海街12-1號","121.923763333333","25.0516533333333","6502600","貢寮區"
"228002","663-BX","2019/12/26 18:43:36","新北市貢寮區福隆里東興街6-11號","121.950758333333","25.02108","6502600","貢寮區"
"224010","AGQ-8101","2019/12/26 18:43:28","新北市瑞芳區基山街41-1號","121.845501666667","25.1089833333333","6501200","瑞芳區"
"224006","676-BX","2019/12/26 18:43:40","新北市瑞芳區一坑路46號","121.803753333333","25.109005","6501200","瑞芳區"
"224007","285-BY","2019/12/26 18:43:40","新北市瑞芳區大埔路76號","121.76238","25.1014183333333","6501200","瑞芳區"
"224009","275-VK","2019/12/26 18:43:39","新北市瑞芳區祈堂路53-1號","121.859593333333","25.1105583333333","6501200","瑞芳區"
"224008","273-VK","2019/12/26 18:43:26","新北市瑞芳區逢甲路272號","121.804843333333","25.1108433333333","6501200","瑞芳區"
"224005","271-BY","2019/12/26 18:43:26","新北市瑞芳區建基路一段30號","121.819586666667","25.1211283333333","6501200","瑞芳區"
"227002","642-TC","2019/12/26 18:43:34","新北市雙溪區魚行里坤溪3-5號","121.876203333333","25.0208316666667","6502500","雙溪區"
"227001","400-TW","2019/12/26 18:43:34","新北市雙溪區牡丹里下坑11號","121.85098","25.0561716666667","6502500","雙溪區"
"253005","032-BX","2019/12/26 18:43:41","新北市石門區中山路28-3號","121.565818333333","25.289895","6502200","石門區"
"253006","295-VK","2019/12/26 18:43:27","新北市石門區海灣新城1號","121.523905","25.285425","6502200","石門區"
"222001","KEA-2212","2019/12/26 18:43:41","新北市深坑區松柏街43巷2號","121.638753333333","25.012045","6501800","深坑區"
"208002","KEA-2872","2019/12/26 18:43:25","新北市金山區忠孝一路22號","121.638396666667","25.2195333333333","6502700","金山區"
"208003","665-BX","2019/12/26 18:43:39","新北市金山區中山路346號","121.633428333333","25.22531","6502700","金山區"
"251004","009-UM","2019/12/26 18:43:30","新北市淡水區民權路3巷12弄2號","121.46143","25.1429416666667","6501000","淡水區"
"251016","180-VK","2019/12/26 18:43:28","新北市淡水區下圭柔山56巷22號","121.446053333333","25.2047116666667","6501000","淡水區"
"251013","182-VK","2019/12/26 18:43:42","新北市淡水區雲廣坑5-1號","121.474341666667","25.2130533333333","6501000","淡水區"
"251010","413-VK","2019/12/26 18:43:43","新北市淡水區沙崙路129號","121.422585","25.1824083333333","6501000","淡水區"
"251012","441-VK","2019/12/26 18:43:37","新北市淡水區北新路121號","121.449023333333","25.1786333333333","6501000","淡水區"
"251001","559-UM","2019/12/26 18:43:36","新北市淡水區自強路166號","121.46551","25.134135","6501000","淡水區"
"251006","561-UM","2019/12/26 18:43:30","新北市淡水區崁頂57-11號","121.441745","25.1978966666667","6501000","淡水區"
"251014","577-R6","2019/12/26 18:43:37","新北市淡水區崙頂12-8號","121.4956","25.2172316666667","6501000","淡水區"
"251011","650-BX","2019/12/26 18:43:31","新北市淡水區學府路32巷89號","121.448183333333","25.167585","6501000","淡水區"
"251002","672-BX","2019/12/26 18:43:27","新北市淡水區中正東路71號","121.447326666667","25.1675333333333","6501000","淡水區"
"251003","766-UM","2019/12/26 18:43:25","新北市淡水區北新路69巷26號","121.446731666667","25.1801116666667","6501000","淡水區"
"251015","178-VK","2019/12/26 18:43:35","新北市淡水區興福寮66巷75號","121.486038333333","25.1611166666667","6501000","淡水區"
"252003","249-BX","2019/12/26 18:43:43","新北市三芝區後厝里大片頭83-19號","121.458743333333","25.24396","6502100","三芝區"
"252001","292-VK","2019/12/26 18:43:37","新北市三芝區中正路三段15號","121.502885","25.2535583333333","6502100","三芝區"
"237004","KEA-2597","2019/12/26 18:43:39","新北市三峽區插角115號","121.408181666667","24.870375","6500900","三峽區"
"237007","153-BY","2019/12/26 18:43:32","新北市三峽區柑樹路2巷19號","121.361911666667","24.904695","6500900","三峽區"
"237009","210-TH","2019/12/26 18:43:37","新北市三峽區民權街203號","121.36772","24.9284766666667","6500900","三峽區"
"237012","275-BY","2019/12/26 18:43:39","新北市三峽區三樹路340號","121.383985","24.9433333333333","6500900","三峽區"
"237008","302-VK","2019/12/26 18:43:42","新北市三峽區白雞33-48號","121.370758333333","24.9125166666667","6500900","三峽區"
"237014","433-BY","2019/12/26 18:43:41","新北市三峽區學府路8號","121.371935","24.9473316666667","6500900","三峽區"
"237013","280-TH","2019/12/26 18:43:35","新北市三峽區光明路69巷24號","121.376698333333","24.92909","6500900","三峽區"
"237006","5529-G3","2019/12/26 18:43:26","新北市三峽區溪東路233巷1號","121.406608333333","24.9329233333333","6500900","三峽區"
"237011","KEA-2596","2019/12/26 18:43:44","新北市三峽區溪東路218巷2-1號","121.407461666667","24.9321966666667","6500900","三峽區"
"237015","649-BX","2019/12/26 18:43:29","新北市三峽區安坑1-12號","121.438128333333","24.9261733333333","6500900","三峽區"
"237010","706-TV","2019/12/26 18:43:40","新北市三峽區中山路286號","121.36094","24.93811","6500900","三峽區"
"237005","AKY-6261","2019/12/26 18:43:42","新北市三峽區復興路30-4號","121.374266666667","24.9361983333333","6500900","三峽區"
"236042","KED-0685","2019/12/26 18:43:28","新北市土城區裕民路76號","121.449776666667","24.9873733333333","6501300","土城區"
"233002","762-BX","2019/12/26 18:43:38","新北市新店區新烏路一段60號","121.54609","24.9483516666667","6502900","烏來區"
"236078","166-UM","2019/12/26 18:43:42","新北市土城區頂埔街13號","121.41665","24.9585","6501300","土城區"
"236030","253-BX","2019/12/26 18:43:32","新北市土城區中央路二段235號","121.440285","24.9723516666667","6501300","土城區"
"236026","269-VK","2019/12/26 18:43:33","新北市土城區和平路12號","121.442886666667","24.9740133333333","6501300","土城區"
"236014","270-VK","2019/12/26 18:43:34","新北市土城區清水路278巷28弄2號","121.462593333333","24.98256","6501300","土城區"
"236038","271-VK","2019/12/26 18:43:36","新北市土城區明德路一段235巷38號","121.463173333333","24.9774233333333","6501300","土城區"
"236070","KEA-2877","2019/12/26 18:43:43","新北市土城區延吉街311號","121.46593","24.98434","6501300","土城區"
"252002","KED-0821","2019/12/26 18:43:45","新北市三芝區中正路一段89號","121.504396666667","25.2567666666667","6502100","三芝區"
"236021","401-BY","2019/12/26 18:43:31","新北市土城區延吉街253巷31號","121.468028333333","24.9836683333333","6501300","土城區"
"236049","752-BX","2019/12/26 18:43:30","新北市土城區明德路一段6號","121.464763333333","24.9856833333333","6501300","土城區"
"236059","912-UM","2019/12/26 18:43:31","新北市土城區中央路三段249巷1號","121.427836666667","24.9641033333333","6501300","土城區"
"236063","915-UM","2019/12/26 18:43:35","新北市土城區延壽路13巷38號","121.46995","24.9913866666667","6501300","土城區"
"236055","AAC-216","2019/12/26 18:43:26","新北市土城區裕民路137-3號","121.451598333333","24.9862866666667","6501300","土城區"
"242061","986-R7","2019/12/26 18:43:37","新北市新莊區四維路97巷22號","121.424218333333","25.0233","6500500","新莊區"
"242058","612-BX","2019/12/26 18:43:39","新北市新莊區中正路879-6號","121.417733333333","25.0261766666667","6500500","新莊區"
"242009","442-UM","2019/12/26 18:43:31","新北市新莊區環漢路三段1號","121.443068333333","25.0238116666667","6500500","新莊區"
"238023","601-UM","2019/12/26 18:43:42","新北市樹林區三福街114號","121.406391666667","25.016235","6500700","樹林區"
"238019","599-UM","2019/12/26 18:43:39","新北市樹林區中華路190-16號","121.411715","24.9805716666667","6500700","樹林區"
"238020","571-TV","2019/12/26 18:43:29","新北市樹林區三俊街254號","121.421218333333","25.0143616666667","6500700","樹林區"
"238024","5061-A6","2019/12/26 18:43:28","新北市樹林區中山路二段162號","121.41187","24.98293","6500700","樹林區"
"238018","KEA-2217","2019/12/26 18:43:37","新北市樹林區鎮前街165號","121.422261666667","24.9871683333333","6500700","樹林區"
"238022","KEA-2213","2019/12/26 18:43:32","新北市樹林區中華路393號","121.41135","24.980465","6500700","樹林區"
"238026","172-UY","2019/12/26 18:43:40","新北市樹林區八德街1146號","121.390975","24.9684","6500700","樹林區"
"238016","169-UY","2019/12/26 18:43:29","新北市樹林區中山路一段412號","121.417396666667","24.985175","6500700","樹林區"
"239008","527-UM","2019/12/26 18:43:37","新北市鶯歌區朝陽街4號","121.33626","24.9766","6500800","鶯歌區"
"239001","417-VK","2019/12/26 18:43:29","新北市鶯歌區國中街197號","121.338225","24.93917","6500800","鶯歌區"
"239003","360-BY","2019/12/26 18:43:27","新北市鶯歌區福安街58號","121.335586666667","24.9651866666667","6500800","鶯歌區"
"239004","193-VK","2019/12/26 18:43:32","新北市鶯歌區三鶯路23號","121.355645","24.94189","6500800","鶯歌區"
"221036","130-UY","2019/12/26 18:43:39","新北市汐止區保長路1號","121.67106","25.08011","6501100","汐止區"
"221015","131-UY","2019/12/26 18:43:34","新北市汐止區鄉友街48號","121.669153333333","25.08171","6501100","汐止區"
"221010","269-BY","2019/12/26 18:43:30","新北市汐止區汐萬路三段247-1號","121.642391666667","25.1074816666667","6501100","汐止區"
"221012","278-VK","2019/12/26 18:43:40","新北市汐止區保長路149號","121.677031666667","25.0765","6501100","汐止區"
"221032","280-BY","2019/12/26 18:43:31","新北市汐止區福山街58巷7號","121.61783","25.0461033333333","6501100","汐止區"
"221029","298-VK","2019/12/26 18:43:40","新北市汐止區樟樹一路97號","121.641996666667","25.0635883333333","6501100","汐止區"
"221021","299-VK","2019/12/26 18:43:24","新北市汐止區新台五路一段146號","121.653281666667","25.06199","6501100","汐止區"
"207003","KEE-1020","2019/12/26 18:43:33","新北市萬里區野柳里港東路162-15號","121.690541666667","25.2042083333333","6502800","萬里區"
"221031","567-BX","2019/12/26 18:43:44","新北市汐止區光復街8巷50-1號","121.63737","25.0565266666667","6501100","汐止區"
"221035","622-UM","2019/12/26 18:43:32","新北市汐止區大同路二段33-1號","121.647751666667","25.0632883333333","6501100","汐止區"
"221025","623-UM","2019/12/26 18:43:25","新北市汐止區仁愛路124號","121.662981666667","25.0637833333333","6501100","汐止區"
"221002","707-TV","2019/12/26 18:43:31","新北市汐止區大同路一段221號","121.634048333333","25.05747","6501100","汐止區"
"221018","753-BX","2019/12/26 18:43:30","新北市汐止區茄苳路250巷19號","121.671775","25.0676666666667","6501100","汐止區"
"220079","145-BY","2019/12/26 18:43:43","新北市板橋區南雅西路二段175巷7號","121.451625","25.0121516666667","6500100","板橋區"
"220080","200-UY","2019/12/26 18:43:35","新北市板橋區大觀路二段265巷76弄29號","121.441421666667","24.996675","6500100","板橋區"
"220082","610-BX","2019/12/26 18:43:34","新北市板橋區篤行路二段115號","121.43141","24.990975","6500100","板橋區"
"220101","245-BX","2019/12/26 18:43:27","新北市板橋區文化路二段16-2號","121.468833333333","25.0243516666667","6500100","板橋區"
"224002","257-TC","2019/12/26 18:43:32","新北市瑞芳區中山路76號","121.80262","25.1064816666667","6501200","瑞芳區"
"220056","276-BY","2019/12/26 18:43:35","新北市板橋區四川路一段159號","121.460058333333","25.0037966666667","6500100","板橋區"
"220072","277-BY","2019/12/26 18:43:41","新北市板橋區金門街27號","121.433556666667","24.9943083333333","6500100","板橋區"
"220071","283-VK","2019/12/26 18:43:41","新北市板橋區四川路一段281號","121.459401666667","25.00184","6500100","板橋區"
"220094","285-UM","2019/12/26 18:43:29","新北市板橋區民生路二段120號","121.4708","25.0193683333333","6500100","板橋區"
"220053","285-VK","2019/12/26 18:43:39","新北市板橋區民生路二段76號","121.47171","25.0181666666667","6500100","板橋區"
"220083","286-VK","2019/12/26 18:43:38","新北市板橋區大觀路二段20號","121.446771666667","25.0033916666667","6500100","板橋區"
"220081","287-VK","2019/12/26 18:43:32","新北市板橋區大觀路二段103號","121.446188333333","25.00179","6500100","板橋區"
"220090","288-VK","2019/12/26 18:43:39","新北市板橋區民生路三段107號","121.466508333333","25.0252","6500100","板橋區"
"220061","293-UM","2019/12/26 18:43:34","新北市板橋區民生路二段121號","121.470888333333","25.0183266666667","6500100","板橋區"
"220084","296-UM","2019/12/26 18:43:27","新北市板橋區大觀路二段148巷26號","121.441988333333","24.9997966666667","6500100","板橋區"
"220075","303-R5","2019/12/26 18:43:35","新北市板橋區南雅西路一段122號","121.452328333333","25.00654","6500100","板橋區"
"220062","305-R5","2019/12/26 18:43:41","新北市板橋區民生路二段89-6號","121.470803333333","25.0191966666667","6500100","板橋區"
"220092","307-R5","2019/12/26 18:43:27","新北市板橋區漢生東路21-1號","121.46516","25.0171316666667","6500100","板橋區"
"220089","487-VK","2019/12/26 18:43:28","新北市板橋區文化路二段8號","121.46867","25.02413","6500100","板橋區"
"220088","491-VK","2019/12/26 18:43:28","新北市板橋區民生路二段148號","121.471381666667","25.019775","6500100","板橋區"
"220035","560-BX","2019/12/26 18:43:37","新北市板橋區大仁街128號","121.452216666667","25.0156916666667","6500100","板橋區"
"220103","561-BX","2019/12/26 18:43:39","新北市板橋區文化路一段188巷9弄39號","121.469336666667","25.0191033333333","6500100","板橋區"
"220063","609-BX","2019/12/26 18:43:36","新北市板橋區民生路一段131號","121.473606666667","25.0149483333333","6500100","板橋區"
"220091","637-BX","2019/12/26 18:43:39","新北市板橋區萬板路36號","121.471966666667","25.0225633333333","6500100","板橋區"
"220057","686-BX","2019/12/26 18:43:14","新北市板橋區重慶路60巷1號","121.461486666667","25.0070833333333","6500100","板橋區"
"220077","687-BX","2019/12/26 18:43:44","新北市板橋區大觀路二段431-1號","121.441578333333","24.995085","6500100","板橋區"
"220093","689-BX","2019/12/26 18:43:39","新北市板橋區民生路二段161巷1號","121.470256666667","25.0201583333333","6500100","板橋區"
"220102","KEA-2699","2019/12/26 18:43:33","新北市板橋區民生路二段56-6號","121.471068333333","25.0191866666667","6500100","板橋區"
"220055","827-TW","2019/12/26 18:43:33","新北市板橋區忠孝路148號","121.463956666667","25.0024466666667","6500100","板橋區"
"220067","829-TW","2019/12/26 18:43:29","新北市板橋區三民路二段正隆巷75號","121.475885","25.0129516666667","6500100","板橋區"
"220068","830-TW","2019/12/26 18:39:16","新北市板橋區三民路一段129-2號","121.479365","25.020785","6500100","板橋區"
"220074","895-R6","2019/12/26 18:43:42","新北市板橋區南門街10號","121.457413333333","25.0089883333333","6500100","板橋區"
"220073","985-R7","2019/12/26 18:43:26","新北市板橋區貴興路8號","121.457685","25.0043183333333","6500100","板橋區"
"220064","AAC-253","2019/12/26 18:43:36","新北市板橋區中山路一段275號","121.469163333333","25.0136016666667","6500100","板橋區"
"235061","KEA-2875","2019/12/26 18:43:34","新北市中和區民治街128巷12號","121.47458","25.0028683333333","6500300","中和區"
"235068","KEA-2876","2019/12/26 18:43:34","新北市中和區中正路211巷22號","121.496971666667","24.993175","6500300","中和區"
