"lineid","car","time","location","longitude","latitude","cityid","cityname"
"234046","148-BY","2019/12/26 19:43:35","新北市永和區永亨路178號","121.525845","25.0024983333333","6500400","永和區"
"234081","298-R6","2019/12/26 19:43:44","新北市永和區林森路20巷7號","121.525831666667","25.0057716666667","6500400","永和區"
"234038","336-UY","2019/12/26 19:43:36","新北市永和區環河東路四段10號","121.528395","25.0000166666667","6500400","永和區"
"234064","337-UY","2019/12/26 19:43:27","新北市永和區秀朗路一段192巷6弄12號","121.519063333333","25.00231","6500400","永和區"
"234086","338-UY","2019/12/26 19:43:30","新北市永和區林森路62號","121.524008333333","25.0042633333333","6500400","永和區"
"234070","552-UM","2019/12/26 19:43:35","新北市永和區永和路二段233號","121.515578333333","25.014195","6500400","永和區"
"234017","745-BX","2019/12/26 19:43:40","新北市永和區永和路二段425巷72號","121.513331666667","25.0170933333333","6500400","永和區"
"234030","746-BX","2019/12/26 19:43:31","新北市永和區四維街69號","121.525575","24.9979","6500400","永和區"
"234054","KEA-2590","2019/12/26 19:43:34","新北市永和區竹林路39巷26號","121.519043333333","25.0148183333333","6500400","永和區"
"234007","KED-0605","2019/12/26 19:43:44","新北市永和區中和路309號","121.50683","24.9997683333333","6500400","永和區"
"234013","KEA-2591","2019/12/26 19:43:33","新北市永和區仁愛路247號","121.508791666667","25.011715","6500400","永和區"
"234061","AAD-866","2019/12/26 19:43:46","新北市永和區中正路199號","121.51741","24.9995016666667","6500400","永和區"
"234042","862-TW","2019/12/26 19:43:43","新北市永和區中和路305巷4號","121.506625","25.0002166666667","6500400","永和區"
"234050","863-TW","2019/12/26 19:43:30","新北市永和區環河西路一段103號","121.51108","25.0176316666667","6500400","永和區"
"234026","9371-KE","2019/12/26 19:43:42","新北市永和區雙和街7巷7-1號","121.509571666667","25.0013833333333","6500400","永和區"
"234011","9373-KE","2019/12/26 19:43:27","新北市永和區仁愛路352巷92弄1號","121.501173333333","25.008095","6500400","永和區"
"249004","303-UY","2019/12/26 19:43:38","新北市八里區中山路一段268巷10號","121.414408333333","25.1603266666667","6502300","八里區"
"249002","305-UY","2019/12/26 19:43:32","新北市八里區頂寮二街33-1號","121.450331666667","25.1251833333333","6502300","八里區"
"249003","593-UM","2019/12/26 19:43:38","新北市八里區中華路二段528號","121.399308333333","25.14554","6502300","八里區"
"248014","025-BX","2019/12/26 19:43:34","新北市五股區五福路32巷26號","121.435095","25.0897433333333","6501500","五股區"
"248016","026-BX","2019/12/26 19:43:27","新北市五股區成泰路三段599號","121.45256","25.1030766666667","6501500","五股區"
"248008","KED-0815","2019/12/26 19:43:37","新北市五股區四維路116-5號","121.468138333333","25.0744883333333","6501500","五股區"
"248020","KED-0813","2019/12/26 19:43:34","新北市五股區中直路32-13號","121.423258333333","25.1126333333333","6501500","五股區"
"248012","247-BX","2019/12/26 19:43:38","新北市五股區蓬萊路2巷1號","121.435745","25.079515","6501500","五股區"
"248010","272-BY","2019/12/26 19:43:28","新北市五股區登林路貿商巷2弄2號","121.430618333333","25.06958","6501500","五股區"
"248004","677-BX","2019/12/26 19:43:39","新北市五股區成泰路一段76號","121.435638333333","25.0702866666667","6501500","五股區"
"248002","678-BX","2019/12/26 19:43:36","新北市五股區成泰路三段577巷22號","121.45164","25.1028716666667","6501500","五股區"
"234023","9380-KE","2019/12/26 19:43:43","新北市永和區保生路55-1號","121.504505","25.0109583333333","6500400","永和區"
"234077","969-R7","2019/12/26 19:43:34","新北市永和區民權路29巷19號","121.521061666667","24.9980666666667","6500400","永和區"
"234074","AAC-211","2019/12/26 19:43:40","新北市永和區福和路76巷4號","121.523048333333","25.0082916666667","6500400","永和區"
"234067","AAC-212","2019/12/26 19:43:29","新北市永和區永平路173巷14弄4號","121.510185","25.00856","6500400","永和區"
"234003","AAC-295","2019/12/26 19:43:30","新北市永和區永和路一段48號","121.513058333333","25.0057983333333","6500400","永和區"
"244023","483-VK","2019/12/26 19:43:40","新北市林口區文林五街28巷16號","121.373135","25.0840516666667","6501700","林口區"
"208001","267-VK","2019/12/26 19:43:37","新北市金山區重和里六股林口39號","121.602518333333","25.219375","6502700","金山區"
"243012","AAD-798","2019/12/26 19:43:24","新北市泰山區仁愛路100巷56號","121.433771666667","25.05445","6501600","泰山區"
"243010","297-R6","2019/12/26 19:20:29","新北市泰山區明志路一段492巷7號","121.429968333333","25.0547666666667","6501600","泰山區"
"243016","421-VK","2019/12/26 19:43:41","新北市泰山區明志路三段480號","121.420973333333","25.03168","6501600","泰山區"
"243011","KEA-2216","2019/12/26 19:43:41","新北市泰山區明志路三段204巷1號","121.421508333333","25.0382316666667","6501600","泰山區"
"243015","680-BX","2019/12/26 19:43:46","新北市泰山區明志路二段235號","121.427341666667","25.04823","6501600","泰山區"
"222003","KEE-1106","2019/12/26 19:43:31","新北市深坑區深南路51-1號","121.621251666667","25.0097933333333","6501800","深坑區"
"222002","659-BX","2019/12/26 19:43:36","新北市深坑區北深路一段177號","121.632498333333","25.0108466666667","6501800","深坑區"
"231061","002-UM","2019/12/26 19:43:23","新北市新店區安民街138號","121.51657","24.9695416666667","6500600","新店區"
"231058","0291-UT","2019/12/26 19:43:33","新北市新店區中正路76巷11弄11號","121.543893333333","24.9713483333333","6500600","新店區"
"231044","046-UY","2019/12/26 19:43:35","新北市新店區北新路三段179號","121.541121666667","24.9842133333333","6500600","新店區"
"231060","106-UY","2019/12/26 19:43:44","新北市新店區安康路二段159巷6號","121.510196666667","24.9591716666667","6500600","新店區"
"231051","107-UY","2019/12/26 19:43:24","新北市新店區中央四街38號","121.528213333333","24.9745366666667","6500600","新店區"
"231049","108-UY","2019/12/26 19:43:42","新北市新店區建國路164號","121.538413333333","24.97947","6500600","新店區"
"231065","110-UY","2019/12/26 19:43:27","新北市新店區安祥路109巷123號","121.476585","24.957835","6500600","新店區"
"231052","189-VK","2019/12/26 19:43:44","新北市新店區新烏路三段12號","121.553296666667","24.90534","6500600","新店區"
"231050","KEA-2219","2019/12/26 19:43:29","新北市新店區郵政路97號","121.554466666667","24.9514216666667","6500600","新店區"
"231062","256-BX","2019/12/26 19:43:34","新北市新店區精忠路12號","121.532426666667","24.9578566666667","6500600","新店區"
"231054","260-TV","2019/12/26 19:43:45","新北市新店區文中路40號","121.539666666667","24.9565716666667","6500600","新店區"
"231042","268-BY","2019/12/26 19:43:41","新北市新店區中興路一段265號","121.54479","24.96739","6500600","新店區"
"231064","278-BY","2019/12/26 19:43:38","新北市新店區安和路二段115號","121.518615","24.9704366666667","6500600","新店區"
"231045","355-BY","2019/12/26 19:43:46","新北市新店區北宜路二段110-1號","121.556241666667","24.95374","6500600","新店區"
"231055","4716-K9","2019/12/26 19:43:37","新北市新店區中華路83巷67號","121.538186666667","24.9672616666667","6500600","新店區"
"231056","4715-K9","2019/12/26 19:43:31","新北市新店區民權路72號","121.53815","24.98319","6500600","新店區"
"231067","4772-VM","2019/12/26 19:43:37","新北市新店區秀山路72號","121.531381666667","24.9608766666667","6500600","新店區"
"231063","616-UM","2019/12/26 19:43:41","新北市新店區車子路134號","121.505266666667","24.949695","6500600","新店區"
"231041","619-UM","2019/12/26 19:43:31","新北市新店區二十張路200巷17號","121.534638333333","24.98041","6500600","新店區"
"231047","KED-0819","2019/12/26 19:43:32","新北市新店區中興路一段308號","121.546761666667","24.9698883333333","6500600","新店區"
"231046","719-UM","2019/12/26 19:43:35","新北市新店區三民路84巷12號","121.534915","24.97317","6500600","新店區"
"231057","720-UM","2019/12/26 19:43:34","新北市新店區百齡一路2-3號","121.554498333333","24.9323466666667","6500600","新店區"
"231059","897-TW","2019/12/26 19:43:29","新北市新店區安和路三段47-1號","121.518055","24.982335","6500600","新店區"
"231040","898-TW","2019/12/26 19:43:44","新北市新店區北新路一段96巷23號","121.543043333333","24.9687233333333","6500600","新店區"
"231043","899-TW","2019/12/26 19:43:25","新北市新店區中正路191號","121.540536666667","24.97236","6500600","新店區"
"231066","AKT-0513","2019/12/26 19:43:28","新北市新店區安康路三段207巷11號","121.488168333333","24.9508883333333","6500600","新店區"
"241011","013-R5","2019/12/26 19:43:30","新北市三重區秀江街239號","121.496886666667","25.07165","6500200","三重區"
"241028","022-UY","2019/12/26 19:43:38","新北市三重區中正南路163號","121.493773333333","25.0560716666667","6500200","三重區"
"241008","059-VK","2019/12/26 19:43:32","新北市三重區永福街111巷6號","121.479003333333","25.0775783333333","6500200","三重區"
"241031","061-VK","2019/12/26 19:43:27","新北市三重區重新路四段226-1號","121.486125","25.0540733333333","6500200","三重區"
"241015","062-VK","2019/12/26 19:43:34","新北市三重區三和路一段53號","121.50291","25.0653916666667","6500200","三重區"
"241024","065-VK","2019/12/26 19:43:31","新北市三重區大勇街82巷15弄30號","121.481225","25.0719983333333","6500200","三重區"
"241007","066-VK","2019/12/26 19:43:42","新北市三重區三和路四段125巷10號","121.485241666667","25.077945","6500200","三重區"
"241009","742-BX","2019/12/26 19:43:28","新北市三重區三和路四段396巷13號","121.480866666667","25.07918","6500200","三重區"
"241016","266-UM","2019/12/26 19:43:31","新北市三重區正義北路30號","121.497246666667","25.0631966666667","6500200","三重區"
"241032","269-UM","2019/12/26 19:43:28","新北市三重區重陽路一段60巷59號","121.48462","25.0583366666667","6500200","三重區"
"241013","270-UM","2019/12/26 19:43:30","新北市三重區仁福街64巷20號","121.497555","25.0752216666667","6500200","三重區"
"241025","271-UM","2019/12/26 19:43:34","新北市三重區忠孝路三段56號","121.480636666667","25.0655066666667","6500200","三重區"
"241030","KED-0822","2019/12/26 19:43:24","新北市三重區中正南路287號","121.492881666667","25.0521","6500200","三重區"
"241035","462-BY","2019/12/26 19:43:40","新北市三重區文化北路24號","121.499186666667","25.0644616666667","6500200","三重區"
"241004","475-VK","2019/12/26 19:43:24","新北市三重區五華街74號","121.493316666667","25.0821433333333","6500200","三重區"
"241020","478-VK","2019/12/26 19:43:24","新北市三重區三和路四段8號","121.491345","25.0736816666667","6500200","三重區"
"241026","480-VK","2019/12/26 19:43:33","新北市三重區文化南路46號","121.500605","25.059995","6500200","三重區"
"241014","543-UM","2019/12/26 19:43:34","新北市三重區龍濱路21號","121.503191666667","25.0679183333333","6500200","三重區"
"241023","545-UM","2019/12/26 19:43:31","新北市三重區忠孝路三段84巷1號","121.480311666667","25.0646766666667","6500200","三重區"
"241001","547-UM","2019/12/26 19:43:34","新北市三重區仁愛街327巷78號","121.493881666667","25.080535","6500200","三重區"
"241019","KEA-2593","2019/12/26 19:43:36","新北市三重區安慶街361巷1-1號","121.487655","25.0675183333333","6500200","三重區"
"241005","AAD-863","2019/12/26 19:43:46","新北市三重區碧華街294巷17號","121.488636666667","25.0840633333333","6500200","三重區"
"241012","743-BX","2019/12/26 19:43:45","新北市三重區仁福街72號","121.498195","25.0750233333333","6500200","三重區"
"241006","KED-0670","2019/12/26 19:43:26","新北市三重區永福街256號","121.484391666667","25.0747883333333","6500200","三重區"
"241029","942-UM","2019/12/26 19:43:43","新北市三重區光明路64號","121.491921666667","25.0575216666667","6500200","三重區"
"235066","003-UY","2019/12/26 19:43:39","新北市中和區中和路168號","121.504406666667","24.9995783333333","6500300","中和區"
"235072","KEE-1103","2019/12/26 19:43:45","新北市中和區錦和路91-1號","121.490091666667","24.9957433333333","6500300","中和區"
"235056","096-UM","2019/12/26 19:43:30","新北市中和區中山路三段136巷10弄2號","121.473943333333","25.0068116666667","6500300","中和區"
"235039","097-UM","2019/12/26 19:43:43","新北市中和區景平路172號","121.517043333333","24.9927633333333","6500300","中和區"
"235065","098-UM","2019/12/26 19:43:29","新北市中和區莊敬路33巷3弄8號","121.499578333333","25.0063183333333","6500300","中和區"
"235004","150-BY","2019/12/26 19:43:26","新北市中和區宜安路78號","121.51113","24.9973116666667","6500300","中和區"
"235058","151-BY","2019/12/26 19:43:46","新北市中和區員山路150-1號","121.481265","24.9973166666667","6500300","中和區"
"235055","183-VK","2019/12/26 19:43:31","新北市中和區德光路27巷1弄1號","121.47079","25.0040783333333","6500300","中和區"
"235038","185-VK","2019/12/26 19:43:25","新北市中和區自強路27巷6號","121.521033333333","24.9930133333333","6500300","中和區"
"235067","255-BX","2019/12/26 19:43:45","新北市中和區新生街213號","121.483856666667","24.9996833333333","6500300","中和區"
"235044","293-VK","2019/12/26 19:43:35","新北市中和區南山路423號","121.507498333333","24.9894533333333","6500300","中和區"
"235071","301-VK","2019/12/26 19:43:40","新北市中和區中山路二段439巷1號","121.484841666667","25.0046566666667","6500300","中和區"
"235043","352-BY","2019/12/26 19:43:35","新北市中和區華新街232巷8號","121.505838333333","24.9820483333333","6500300","中和區"
"235042","KEA-2878","2019/12/26 19:43:40","新北市中和區保健路7巷11號","121.50815","24.9989233333333","6500300","中和區"
"247016","KEA-2869","2019/12/26 19:43:41","新北市蘆洲區中正路457號","121.46227","25.095495","6501400","蘆洲區"
"235070","558-UM","2019/12/26 19:43:24","新北市中和區中正路266-1號","121.495155","24.994","6500300","中和區"
"235047","732-UM","2019/12/26 19:43:32","新北市中和區和平街10號","121.510151666667","24.990075","6500300","中和區"
"235046","733-UM","2019/12/26 19:43:27","新北市中和區景新街496巷27弄3號","121.513518333333","24.9864266666667","6500300","中和區"
"235041","802-TS","2019/12/26 19:43:31","新北市中和區新興街17巷29號","121.512668333333","25.0029366666667","6500300","中和區"
"235052","805-TS","2019/12/26 19:43:32","新北市中和區華新街192巷4-1號","121.50672","24.98253","6500300","中和區"
"235048","896-TW","2019/12/26 19:43:43","新北市中和區興南路一段146號","121.508281666667","24.9870916666667","6500300","中和區"
"235053","900-TW","2019/12/26 19:43:30","新北市中和區國光街187號","121.467441666667","25.001705","6500300","中和區"
"235051","157-BY","2019/12/26 19:43:24","新北市中和區中興街123號","121.49992","24.9918283333333","6500300","中和區"
"235037","AAC-213","2019/12/26 19:43:30","新北市中和區自立路153號","121.522601666667","24.9929366666667","6500300","中和區"
"235059","AAC-215","2019/12/26 19:43:41","新北市中和區圓通路262號","121.49317","24.990905","6500300","中和區"
"207004","KEE-1107","2019/12/26 19:43:29","新北市萬里區萬里里瑪鋉路21號","121.687458333333","25.1754683333333","6502800","萬里區"
"220054","015-TV","2019/12/26 19:43:38","新北市板橋區四川路一段253號","121.459765","25.00244","6500100","板橋區"
"220065","072-UY","2019/12/26 19:43:26","新北市板橋區國泰街27號","121.469005","25.0067116666667","6500100","板橋區"
"220086","073-UY","2019/12/26 19:43:44","新北市板橋區中正路236巷79號","121.459171666667","25.0196816666667","6500100","板橋區"
"220106","075-UY","2019/12/26 19:43:42","新北市板橋區民治街61巷24號","121.480491666667","25.0334216666667","6500100","板橋區"
"220069","AAD-861","2019/12/26 19:43:40","新北市板橋區貴興路81號","121.456791666667","25.0029316666667","6500100","板橋區"
"247004","336-TH","2019/12/26 19:43:29","新北市蘆洲區長安街108巷37號","121.462243333333","25.0827016666667","6501400","蘆洲區"
"247014","056-VK","2019/12/26 19:43:44","新北市蘆洲區中央路153號","121.472466666667","25.0844933333333","6501400","蘆洲區"
"247002","001-UY","2019/12/26 19:43:33","新北市蘆洲區長榮路675號","121.46045","25.0920266666667","6501400","蘆洲區"
"226004","312-R5","2019/12/26 19:43:00","新北市平溪區南山里南山坪1號","121.77743","25.04262","6502400","平溪區"
"235049","251-BX","2019/12/26 19:43:42","新北市中和區景平路429號","121.501391666667","24.9953266666667","6500300","中和區"
"228003","097-TW","2019/12/26 19:43:34","新北市貢寮區真理里美艷山街15-3號","121.923728333333","25.06801","6502600","貢寮區"
"228001","212-TW","2019/12/26 19:43:33","新北市貢寮區真理里新港街26巷5號","121.926451666667","25.0558783333333","6502600","貢寮區"
"224010","AGQ-8101","2019/12/26 19:43:28","新北市瑞芳區輕便路308號","121.84303","25.1084483333333","6501200","瑞芳區"
"227002","642-TC","2019/12/26 19:43:34","新北市雙溪區雙溪里內挖路83號","121.863126666667","25.0368866666667","6502500","雙溪區"
"227001","400-TW","2019/12/26 19:43:34","新北市雙溪區新基里中華路38號","121.865941666667","25.037245","6502500","雙溪區"
"222001","KEA-2212","2019/12/26 19:43:41","新北市深坑區北深路三段56號","121.608258333333","25.00137","6501800","深坑區"
"208002","KEA-2872","2019/12/26 19:43:25","新北市金山區中山路323號","121.63548","25.223905","6502700","金山區"
"208003","665-BX","2019/12/26 19:43:39","新北市金山區清泉里清水路12號","121.630058333333","25.2294466666667","6502700","金山區"
"251009","008-UM","2019/12/26 19:43:33","新北市淡水區中山北路一段168號","121.444315","25.178745","6501000","淡水區"
"251004","009-UM","2019/12/26 19:43:30","新北市淡水區民權路177巷53號","121.460473333333","25.133835","6501000","淡水區"
"251005","010-UM","2019/12/26 19:43:37","新北市淡水區水源街一段3號","121.442565","25.1724516666667","6501000","淡水區"
"251016","180-VK","2019/12/26 19:43:28","新北市淡水區下圭柔山121-2號","121.45441","25.20806","6501000","淡水區"
"251008","181-VK","2019/12/26 19:43:35","新北市淡水區中正路一段62巷2號","121.42564","25.1772533333333","6501000","淡水區"
"251013","182-VK","2019/12/26 19:43:42","新北市淡水區頂田寮11-3號","121.462881666667","25.2139233333333","6501000","淡水區"
"251010","413-VK","2019/12/26 19:43:43","新北市淡水區崁頂93-2號","121.427388333333","25.2025416666667","6501000","淡水區"
"243009","549-UM","2019/12/26 19:43:30","新北市泰山區美寧街69號","121.430925","25.06475","6501600","泰山區"
"251007","442-VK","2019/12/26 19:43:39","新北市淡水區中正東路一段111巷1號","121.453796666667","25.1600533333333","6501000","淡水區"
"251001","559-UM","2019/12/26 19:43:35","新北市淡水區中正東路二段87-3號","121.459465","25.1528566666667","6501000","淡水區"
"251006","561-UM","2019/12/26 19:43:30","新北市淡水區中山北路一段207巷74號","121.441371666667","25.1795016666667","6501000","淡水區"
"251014","577-R6","2019/12/26 19:43:37","新北市淡水區番社前7-1號","121.475648333333","25.2355133333333","6501000","淡水區"
"251011","650-BX","2019/12/26 19:43:41","新北市淡水區中正東路二段143巷12弄2-2號","121.462008333333","25.1481533333333","6501000","淡水區"
"251002","672-BX","2019/12/26 19:43:27","新北市淡水區下圭柔山90-8號","121.43131","25.210405","6501000","淡水區"
"251015","178-VK","2019/12/26 19:43:35","新北市淡水區山子頂24-1號","121.491405","25.187205","6501000","淡水區"
"252001","292-VK","2019/12/26 19:43:37","新北市三芝區公正街66號","121.499786666667","25.25748","6502100","三芝區"
"237004","KEA-2597","2019/12/26 19:43:39","新北市三峽區金敏7號","121.38703","24.87313","6500900","三峽區"
"237007","153-BY","2019/12/26 19:43:32","新北市三峽區二鬮路136巷24弄1號","121.355923333333","24.9099116666667","6500900","三峽區"
"237009","210-TH","2019/12/26 19:43:37","新北市三峽區中園街45號","121.368221666667","24.9261616666667","6500900","三峽區"
"237012","275-BY","2019/12/26 19:43:39","新北市三峽區光明路41-1號","121.374351666667","24.930015","6500900","三峽區"
"237008","302-VK","2019/12/26 19:43:42","新北市三峽區中正路一段292巷35號","121.37014","24.92602","6500900","三峽區"
"237014","433-BY","2019/12/26 19:43:41","新北市三峽區中山路67巷1號","121.366855","24.9343833333333","6500900","三峽區"
"237013","280-TH","2019/12/26 19:43:35","新北市三峽區橫溪路7號","121.396116666667","24.9360516666667","6500900","三峽區"
"237006","5529-G3","2019/12/26 19:43:26","新北市三峽區中正路一段336巷15弄2號","121.369951666667","24.9249833333333","6500900","三峽區"
"237011","KEA-2596","2019/12/26 19:43:25","新北市三峽區中正路一段302號","121.371476666667","24.9255483333333","6500900","三峽區"
"237015","649-BX","2019/12/26 19:43:29","新北市三峽區成福路63號","121.418413333333","24.9291533333333","6500900","三峽區"
"237010","706-TV","2019/12/26 19:43:40","新北市三峽區復興路117號","121.371726666667","24.9380083333333","6500900","三峽區"
"237005","AKY-6261","2019/12/26 19:43:41","新北市三峽區和平街20號","121.370326666667","24.935855","6500900","三峽區"
"236042","KED-0685","2019/12/26 19:43:28","新北市土城區裕民路285號","121.456135","24.9816566666667","6501300","土城區"
"233002","762-BX","2019/12/26 19:43:37","新北市烏來區西羅岸路22號","121.550061666667","24.8683516666667","6502900","烏來區"
"236078","166-UM","2019/12/26 19:43:42","新北市土城區中州路27巷53號","121.413025","24.9570116666667","6501300","土城區"
"236030","253-BX","2019/12/26 19:43:32","新北市土城區中央路一段290號","121.443228333333","24.9824616666667","6501300","土城區"
"236026","269-VK","2019/12/26 19:43:33","新北市土城區中央路二段61巷22號","121.443235","24.9787083333333","6501300","土城區"
"236070","KEA-2877","2019/12/26 19:43:23","新北市土城區金城路一段131號","121.444758333333","24.9736783333333","6501300","土城區"
"252002","KED-0821","2019/12/26 19:43:25","新北市三芝區三民街33-1號","121.504593333333","25.2585983333333","6502100","三芝區"
"236021","401-BY","2019/12/26 19:43:31","新北市土城區峰廷街25號","121.469433333333","24.9866316666667","6501300","土城區"
"236049","752-BX","2019/12/26 19:43:30","新北市土城區明德路一段153號","121.464918333333","24.97985","6501300","土城區"
"236059","912-UM","2019/12/26 19:43:31","新北市土城區中央路一段210號","121.445066666667","24.985485","6501300","土城區"
"236063","915-UM","2019/12/26 19:43:35","新北市土城區延和路105巷7弄1號","121.467206666667","24.991335","6501300","土城區"
"236055","AAC-216","2019/12/26 19:43:35","新北市土城區延和路30號","121.464818333333","24.988485","6501300","土城區"
"242048","566-BX","2019/12/26 19:43:41","新北市新莊區民安路106號","121.424261666667","25.02559","6500500","新莊區"
"242013","413-TV","2019/12/26 19:43:39","新北市新莊區中誠街147巷7號","121.448883333333","25.046995","6500500","新莊區"
"242023","353-BY","2019/12/26 19:43:31","新北市新莊區復興路三段115號","121.4643","25.04451","6500500","新莊區"
"242017","173-VK","2019/12/26 19:43:32","新北市新莊區新泰路255巷83號","121.442375","25.0391083333333","6500500","新莊區"
"242031","175-VK","2019/12/26 19:43:43","新北市新莊區公園一路139號","121.446366666667","25.0382566666667","6500500","新莊區"
"242056","176-VK","2019/12/26 19:43:39","新北市新莊區瓊林路38-1號","121.448675","25.0309116666667","6500500","新莊區"
"242015","347-TH","2019/12/26 19:43:32","新北市新莊區三和路12-21號","121.442341666667","25.0382216666667","6500500","新莊區"
"242036","348-TH","2019/12/26 19:43:33","新北市新莊區建安街101巷3弄2號","121.427113333333","25.023745","6500500","新莊區"
"242034","350-TH","2019/12/26 19:43:38","新北市新莊區仁愛街24號","121.444381666667","25.035975","6500500","新莊區"
"238015","755-BX","2019/12/26 19:43:26","新北市樹林區日新街108號","121.42124","24.9897483333333","6500700","樹林區"
"238023","601-UM","2019/12/26 19:43:42","新北市樹林區三福街114號","121.406538333333","25.0163383333333","6500700","樹林區"
"238019","599-UM","2019/12/26 19:43:39","新北市樹林區大同街3號","121.419018333333","24.9827316666667","6500700","樹林區"
"238020","571-TV","2019/12/26 19:43:28","新北市板橋區大觀路三段50巷57號","121.431905","24.9959816666667","6500700","樹林區"
"238024","5061-A6","2019/12/26 19:43:28","新北市樹林區中山路三段155巷14弄5號","121.396116666667","24.9724333333333","6500700","樹林區"
"238022","KEA-2213","2019/12/26 19:43:32","新北市樹林區國凱街50巷1弄1號","121.42044","24.9786166666667","6500700","樹林區"
"238021","KEA-2539","2019/12/26 19:43:41","新北市樹林區佳園路三段101巷38弄20號","121.391281666667","24.9502466666667","6500700","樹林區"
"238025","303-VK","2019/12/26 19:43:26","新北市樹林區中山路一段362號","121.419051666667","24.9858483333333","6500700","樹林區"
"238017","283-BY","2019/12/26 19:43:38","新北市樹林區保安街二段107巷1弄2號","121.415145","25.0007316666667","6500700","樹林區"
"238014","282-BY","2019/12/26 19:43:36","新北市樹林區千歲街34號","121.425638333333","24.9965533333333","6500700","樹林區"
"238026","172-UY","2019/12/26 19:43:40","新北市樹林區佳園路二段91號","121.390635","24.9593516666667","6500700","樹林區"
"238016","169-UY","2019/12/26 19:43:29","新北市樹林區東和街18巷6號","121.404175","24.9813283333333","6500700","樹林區"
"239007","AAC-297","2019/12/26 19:43:29","新北市鶯歌區大湖路余厝巷1-1號","121.34236","24.9612983333333","6500800","鶯歌區"
"239006","891-R6","2019/12/26 19:43:26","新北市鶯歌區建國路512巷52號","121.339371666667","24.9512666666667","6500800","鶯歌區"
"239008","527-UM","2019/12/26 19:43:37","新北市鶯歌區大湖路532號","121.337106666667","24.972705","6500800","鶯歌區"
"239001","417-VK","2019/12/26 19:43:29","新北市鶯歌區鶯桃路97-3號","121.339008333333","24.9539516666667","6500800","鶯歌區"
"239003","360-BY","2019/12/26 19:43:26","新北市鶯歌區德昌街19號","121.333496666667","24.96002","6500800","鶯歌區"
"239002","359-BY","2019/12/26 19:43:34","新北市鶯歌區國光街66-2號","121.34083","24.9577433333333","6500800","鶯歌區"
"239005","292-BY","2019/12/26 19:43:38","新北市鶯歌區鳳吉一街84號","121.326945","24.97438","6500800","鶯歌區"
"239004","193-VK","2019/12/26 19:43:32","新北市鶯歌區尖山路174巷35弄16號","121.343906666667","24.948415","6500800","鶯歌區"
"221008","489-VK","2019/12/26 19:43:25","新北市汐止區康寧街143號","121.621445","25.06674","6501100","汐止區"
"221010","269-BY","2019/12/26 19:43:30","新北市汐止區連峰街1巷1號","121.646401666667","25.0760566666667","6501100","汐止區"
"221012","278-VK","2019/12/26 19:43:32","新北市汐止區大同路三段318號","121.678958333333","25.07118","6501100","汐止區"
"221023","279-VK","2019/12/26 19:43:24","新北市汐止區中興路270號","121.628931666667","25.0688466666667","6501100","汐止區"
"221027","281-BY","2019/12/26 19:43:33","新北市汐止區忠孝東路9號","121.658248333333","25.0659783333333","6501100","汐止區"
"221029","298-VK","2019/12/26 19:43:40","新北市汐止區康寧街901號","121.651568333333","25.0750266666667","6501100","汐止區"
"221021","299-VK","2019/12/26 19:43:44","新北市汐止區新興路85巷2號","121.658073333333","25.061285","6501100","汐止區"
"207003","KEE-1020","2019/12/26 19:43:33","新北市萬里區大鵬里萬里加投301-6號","121.64698","25.2202416666667","6502800","萬里區"
"221031","567-BX","2019/12/26 19:43:24","新北市汐止區汐萬路一段256巷3號","121.652756666667","25.0745066666667","6501100","汐止區"
"221025","623-UM","2019/12/26 19:43:35","新北市汐止區福安街20巷8號","121.662301666667","25.0649233333333","6501100","汐止區"
"221033","647-BX","2019/12/26 19:43:39","新北市汐止區東勢街34號","121.625298333333","25.0388216666667","6501100","汐止區"
"220079","145-BY","2019/12/26 19:43:23","新北市板橋區民權路260巷7號","121.458301666667","25.01541","6500100","板橋區"
"220080","200-UY","2019/12/26 19:43:34","新北市板橋區大觀路二段37巷64號","121.449496666667","25.002245","6500100","板橋區"
"220082","610-BX","2019/12/26 19:43:34","新北市板橋區大觀路三段212巷34號","121.429513333333","24.9930916666667","6500100","板橋區"
"220101","245-BX","2019/12/26 19:43:39","新北市板橋區縣民大道三段103巷16號","121.475491666667","25.022845","6500100","板橋區"
"224002","257-TC","2019/12/26 19:43:32","新北市瑞芳區三爪子坑路13巷47號","121.814191666667","25.1066933333333","6501200","瑞芳區"
"220056","276-BY","2019/12/26 19:43:34","新北市板橋區四川路二段36號","121.453833333333","24.99545","6500100","板橋區"
"220072","277-BY","2019/12/26 19:43:29","新北市板橋區金門街215巷45號","121.43353","24.9895666666667","6500100","板橋區"
"220071","283-VK","2019/12/26 19:43:38","新北市板橋區國慶路182巷28-1號","121.463143333333","24.9952816666667","6500100","板橋區"
"220094","285-UM","2019/12/26 19:43:42","新北市板橋區陽明街275號","121.462155","25.0260133333333","6500100","板橋區"
"220053","285-VK","2019/12/26 19:43:38","新北市板橋區中山路二段60巷1弄13號","121.474765","25.0156016666667","6500100","板橋區"
"220083","286-VK","2019/12/26 19:43:38","新北市板橋區龍興街65巷68號","121.442141666667","25.002045","6500100","板橋區"
"220081","287-VK","2019/12/26 19:43:32","新北市板橋區大觀路一段29巷173號","121.448675","25.00511","6500100","板橋區"
"220090","288-VK","2019/12/26 19:43:39","新北市板橋區龍泉街82巷4號","121.456131666667","25.0256066666667","6500100","板橋區"
"220061","293-UM","2019/12/26 19:43:34","新北市板橋區板新路128號","121.470851666667","25.0155366666667","6500100","板橋區"
"220084","296-UM","2019/12/26 19:43:27","新北市板橋區滿平二街45號","121.424956666667","24.9880466666667","6500100","板橋區"
"220075","303-R5","2019/12/26 19:43:35","新北市板橋區大勇街71號","121.453171666667","25.01654","6500100","板橋區"
"220062","305-R5","2019/12/26 19:43:41","新北市板橋區三民路二段29巷31弄3號","121.481441666667","25.0177266666667","6500100","板橋區"
"220092","307-R5","2019/12/26 19:43:27","新北市板橋區新海路109巷1弄2號","121.460726666667","25.02243","6500100","板橋區"
"220098","317-R6","2019/12/26 19:43:34","新北市板橋區民生路三段281巷2弄6號","121.463606666667","25.0300983333333","6500100","板橋區"
"220089","487-VK","2019/12/26 19:43:34","新北市板橋區互助街59號","121.460686666667","25.0263883333333","6500100","板橋區"
"220088","491-VK","2019/12/26 19:43:28","新北市板橋區文聖街121號","121.477883333333","25.0289783333333","6500100","板橋區"
"220035","560-BX","2019/12/26 19:43:37","新北市板橋區新生街89巷14號","121.45765","25.022375","6500100","板橋區"
"220103","561-BX","2019/12/26 19:43:39","新北市板橋區陽明街133號","121.463536666667","25.0238716666667","6500100","板橋區"
"220063","609-BX","2019/12/26 19:43:36","新北市板橋區三民路一段131號","121.479351666667","25.02061","6500100","板橋區"
"220091","637-BX","2019/12/26 19:43:39","新北市板橋區懷德街127巷49號","121.480505","25.031915","6500100","板橋區"
"220057","686-BX","2019/12/26 19:43:34","新北市板橋區四川路一段338號","121.456898333333","24.99686","6500100","板橋區"
"220077","687-BX","2019/12/26 19:43:33","新北市板橋區僑中二街104巷1號","121.44594","25.0078216666667","6500100","板橋區"
"220093","689-BX","2019/12/26 19:43:40","新北市板橋區江寧路三段123巷30號","121.473251666667","25.0337983333333","6500100","板橋區"
"220102","KEA-2699","2019/12/26 19:43:33","新北市板橋區仁化街13號","121.474855","25.0318916666667","6500100","板橋區"
"220055","827-TW","2019/12/26 19:43:33","新北市板橋區國慶路149巷27-4號","121.461005","24.99763","6500100","板橋區"
"220067","829-TW","2019/12/26 19:43:29","新北市板橋區長安街138巷1弄83號","121.474821666667","25.0110833333333","6500100","板橋區"
"220068","830-TW","2019/12/26 19:43:37","新北市板橋區中山路二段412巷9號","121.48328","25.0205316666667","6500100","板橋區"
"220074","895-R6","2019/12/26 19:43:42","新北市板橋區館前西路140號","121.456323333333","25.0080816666667","6500100","板橋區"
"220073","985-R7","2019/12/26 19:43:47","新北市板橋區國光路31巷32號","121.457721666667","25.0183916666667","6500100","板橋區"
"220097","AAC-210","2019/12/26 19:43:42","新北市板橋區光正街45巷17號","121.461761666667","25.0165316666667","6500100","板橋區"
"220064","AAC-253","2019/12/26 19:43:36","新北市板橋區實踐路111號","121.464096666667","25.0051766666667","6500100","板橋區"
"235061","KEA-2875","2019/12/26 19:43:34","新北市中和區新生街148巷20號","121.482605","25.0006433333333","6500300","中和區"
"235068","KEA-2876","2019/12/26 19:43:34","新北市中和區廟美街11-1號","121.500561666667","25.0015533333333","6500300","中和區"
