"lineid","car","time","location","longitude","latitude","cityid","cityname"
"249001","173-UM","2019/12/26 20:43:32","新北市八里區中山路三段227號","121.38194","25.1404033333333","6502300","八里區"
"249004","303-UY","2019/12/26 20:43:38","新北市八里區中山路一段157巷13號","121.41302","25.1583733333333","6502300","八里區"
"234074","AAC-211","2019/12/26 20:43:40","新北市永和區環河東路二段28號","121.522525","25.0128233333333","6500400","永和區"
"222003","KEE-1106","2019/12/26 20:43:32","新北市深坑區阿柔洋40號","121.610485","24.9984616666667","6501800","深坑區"
"222002","659-BX","2019/12/26 20:43:35","新北市深坑區北深路三段154號","121.603205","25.0029883333333","6501800","深坑區"
"231061","002-UM","2019/12/26 20:43:23","新北市新店區新和街72號","121.520186666667","24.985605","6500600","新店區"
"231058","0291-UT","2019/12/26 20:43:33","新北市新店區自由街28號","121.534991666667","24.974465","6500600","新店區"
"231044","046-UY","2019/12/26 20:43:29","新北市新店區建國路259號","121.537218333333","24.9836633333333","6500600","新店區"
"231060","106-UY","2019/12/26 20:43:44","新北市新店區安康路三段567-1號","121.475548333333","24.9435683333333","6500600","新店區"
"231051","107-UY","2019/12/26 20:43:24","新北市新店區中央八街100號","121.526383333333","24.9777216666667","6500600","新店區"
"231049","108-UY","2019/12/26 20:43:42","新北市新店區永業路81巷11弄1號","121.531206666667","24.9500766666667","6500600","新店區"
"231065","110-UY","2019/12/26 20:43:27","新北市新店區安祥路104巷6弄7號","121.481751666667","24.9629066666667","6500600","新店區"
"231052","189-VK","2019/12/26 20:43:44","新北市新店區新烏路二段300號","121.54863","24.912995","6500600","新店區"
"231050","KEA-2219","2019/12/26 20:43:29","新北市新店區中正路247巷3號","121.538853333333","24.9729516666667","6500600","新店區"
"231062","256-BX","2019/12/26 20:43:34","新北市新店區安泰路60巷55弄39號","121.484446666667","24.9455833333333","6500600","新店區"
"231054","260-TV","2019/12/26 20:43:45","新北市新店區行政街17巷7號","121.54279","24.9672933333333","6500600","新店區"
"231042","268-BY","2019/12/26 20:43:36","新北市新店區寶高路120巷1號","121.554586666667","24.9760616666667","6500600","新店區"
"231064","278-BY","2019/12/26 20:43:38","新北市新店區安民街365巷6號","121.516243333333","24.9758016666667","6500600","新店區"
"231045","355-BY","2019/12/26 20:43:26","新北市新店區長春路21巷10號","121.549038333333","24.9576533333333","6500600","新店區"
"231056","4715-K9","2019/12/26 20:43:31","新北市新店區柴埕路38-8號","121.513143333333","24.9648383333333","6500600","新店區"
"231067","4772-VM","2019/12/26 20:43:37","新北市新店區安康路一段355-4號","121.517476666667","24.9639783333333","6500600","新店區"
"231068","512-UM","2019/12/26 20:43:39","新北市新店區寶元路一段44號","121.543653333333","24.9848833333333","6500600","新店區"
"231063","616-UM","2019/12/26 20:43:41","新北市新店區如意街3巷2號","121.495553333333","24.94914","6500600","新店區"
"231041","619-UM","2019/12/26 20:43:42","新北市新店區中正路698號","121.534018333333","24.99068","6500600","新店區"
"231047","KED-0819","2019/12/26 20:43:32","新北市新店區寶元路一段109號","121.545715","24.9831216666667","6500600","新店區"
"231057","720-UM","2019/12/26 20:43:34","新北市新店區新烏路一段193號","121.547778333333","24.9316216666667","6500600","新店區"
"231059","897-TW","2019/12/26 20:43:29","新北市新店區僑信路119號","121.500778333333","24.945875","6500600","新店區"
"231040","898-TW","2019/12/26 20:43:44","新北市新店區中正路274號","121.538895","24.9736716666667","6500600","新店區"
"231043","899-TW","2019/12/26 20:43:25","新北市新店區博愛街13巷24號","121.540193333333","24.9739916666667","6500600","新店區"
"231066","AKT-0513","2019/12/26 20:43:28","新北市新店區安興路81號","121.515395","24.9752933333333","6500600","新店區"
"241011","013-R5","2019/12/26 20:43:30","新北市三重區龍濱路285號","121.501065","25.0733283333333","6500200","三重區"
"241028","022-UY","2019/12/26 20:43:38","新北市三重區中正南路50號","121.493943333333","25.0599333333333","6500200","三重區"
"241008","059-VK","2019/12/26 20:43:32","新北市三重區下竹圍街42-1號","121.481068333333","25.0748316666667","6500200","三重區"
"241031","061-VK","2019/12/26 20:43:27","新北市三重區重陽路一段43巷30號","121.488218333333","25.0586766666667","6500200","三重區"
"241015","062-VK","2019/12/26 20:43:34","新北市三重區文化北路238號","121.497423333333","25.069615","6500200","三重區"
"241017","063-VK","2019/12/26 20:43:47","新北市三重區民生街18號","121.49206","25.0673233333333","6500200","三重區"
"241024","065-VK","2019/12/26 20:43:31","新北市三重區三民街215號","121.48078","25.0668066666667","6500200","三重區"
"241007","066-VK","2019/12/26 20:43:42","新北市三重區自強路四段10號","121.48839","25.0761916666667","6500200","三重區"
"241002","090-VK","2019/12/26 20:43:36","新北市三重區仁義街163號","121.497123333333","25.08153","6500200","三重區"
"241003","091-VK","2019/12/26 20:43:28","新北市三重區五華街141巷58號","121.493521666667","25.0867266666667","6500200","三重區"
"241009","742-BX","2019/12/26 20:43:28","新北市三重區碧華街55號","121.48472","25.081235","6500200","三重區"
"241016","266-UM","2019/12/26 20:43:31","新北市三重區正義北路216巷6號","121.495878333333","25.06744","6500200","三重區"
"241018","268-UM","2019/12/26 20:43:32","新北市三重區正義北路291號","121.49501","25.070475","6500200","三重區"
"241032","269-UM","2019/12/26 20:43:28","新北市三重區重陽路一段120巷35號","121.485096666667","25.0601633333333","6500200","三重區"
"241013","270-UM","2019/12/26 20:43:30","新北市三重區仁賢街12-1號","121.495693333333","25.0748433333333","6500200","三重區"
"241025","271-UM","2019/12/26 20:43:34","新北市三重區忠孝路三段99巷11號","121.480081666667","25.0645783333333","6500200","三重區"
"241030","KED-0822","2019/12/26 20:43:44","新北市三重區成功路73巷23-3號","121.489945","25.0524883333333","6500200","三重區"
"241035","462-BY","2019/12/26 20:43:40","新北市三重區三和路三段31號","121.495965","25.071055","6500200","三重區"
"241004","475-VK","2019/12/26 20:43:44","新北市三重區仁愛街403號","121.491016666667","25.0810666666667","6500200","三重區"
"241020","478-VK","2019/12/26 20:43:24","新北市三重區忠孝路一段101號","121.489573333333","25.0721633333333","6500200","三重區"
"241026","480-VK","2019/12/26 20:43:33","新北市三重區文化南路7號","121.500058333333","25.0623666666667","6500200","三重區"
"241014","543-UM","2019/12/26 20:43:33","新北市三重區安和路48號","121.500793333333","25.0697166666667","6500200","三重區"
"241023","545-UM","2019/12/26 20:43:31","新北市三重區忠孝路三段75巷11號","121.480095","25.06602","6500200","三重區"
"241001","547-UM","2019/12/26 20:43:34","新北市三重區車路頭街109巷12號","121.485541666667","25.0745566666667","6500200","三重區"
"241019","KEA-2593","2019/12/26 20:43:36","新北市三重區重陽路四段130號","121.492441666667","25.0713683333333","6500200","三重區"
"241005","AAD-863","2019/12/26 20:43:26","新北市三重區五華街189號","121.489976666667","25.0852783333333","6500200","三重區"
"241012","743-BX","2019/12/26 20:43:44","新北市三重區龍濱路283巷8號","121.501266666667","25.073835","6500200","三重區"
"241022","KED-0820","2019/12/26 20:43:33","新北市三重區貴陽街20號","121.484198333333","25.062075","6500200","三重區"
"241006","KED-0670","2019/12/26 20:43:29","新北市三重區車路頭街139巷14號","121.484378333333","25.07612","6500200","三重區"
"241029","942-UM","2019/12/26 20:43:43","新北市三重區重安街144號","121.495365","25.0548866666667","6500200","三重區"
"241033","AAC-255","2019/12/26 20:43:35","新北市三重區中興北街175巷18號","121.47091","25.0560183333333","6500200","三重區"
"235072","KEE-1103","2019/12/26 20:43:25","新北市中和區中正路1173號","121.481115","25.0096633333333","6500300","中和區"
"235055","183-VK","2019/12/26 20:42:11","新北市八里區荖阡坑路28-2號","121.402945","25.127875","6500300","中和區"
"247016","KEA-2869","2019/12/26 20:43:41","新北市蘆洲區中山一路361號","121.47","25.0776383333333","6501400","蘆洲區"
"247010","KED-0682","2019/12/26 20:43:28","新北市蘆洲區三民路15號","121.475781666667","25.0822833333333","6501400","蘆洲區"
"235069","4980-A6","2019/12/26 20:43:31","新北市中和區連城路467-3號","121.483875","24.9962133333333","6500300","中和區"
"247006","893-R6","2019/12/26 20:43:38","新北市蘆洲區和平路130號","121.467231666667","25.080415","6501400","蘆洲區"
"247020","546-UM","2019/12/26 20:43:44","新北市蘆洲區仁愛街64號","121.471433333333","25.0938716666667","6501400","蘆洲區"
"247004","336-TH","2019/12/26 20:43:29","新北市蘆洲區長安街150號","121.45991","25.0823833333333","6501400","蘆洲區"
"247024","057-VK","2019/12/26 20:43:37","新北市蘆洲區長樂路172號","121.462695","25.09111","6501400","蘆洲區"
"247014","056-VK","2019/12/26 20:43:24","新北市蘆洲區中山一路232號","121.472768333333","25.0806066666667","6501400","蘆洲區"
"247022","007-UY","2019/12/26 20:43:38","新北市蘆洲區中正路185巷46弄22號","121.466976666667","25.085535","6501400","蘆洲區"
"247008","002-UY","2019/12/26 20:43:40","新北市蘆洲區永安北路二段12巷13號","121.480628333333","25.0810616666667","6501400","蘆洲區"
"247002","001-UY","2019/12/26 20:43:33","新北市蘆洲區長榮路343號","121.45958","25.08753","6501400","蘆洲區"
"222001","KEA-2212","2019/12/26 20:43:41","新北市深坑區北深路三段212號","121.601165","25.0038883333333","6501800","深坑區"
"251016","180-VK","2019/12/26 20:43:28","新北市淡水區後洲子9-4號","121.447246666667","25.2244366666667","6501000","淡水區"
"251013","182-VK","2019/12/26 20:43:42","新北市淡水區下圭柔山27-2號","121.45878","25.2031266666667","6501000","淡水區"
"251010","413-VK","2019/12/26 20:43:43","新北市淡水區沙崙路133號","121.4227","25.18273","6501000","淡水區"
"251012","441-VK","2019/12/26 20:43:37","新北市淡水區興仁路103巷39號","121.450456666667","25.216485","6501000","淡水區"
"251007","442-VK","2019/12/26 20:43:39","新北市淡水區學府路102巷121號","121.453588333333","25.1713566666667","6501000","淡水區"
"251001","559-UM","2019/12/26 20:43:35","新北市淡水區淡金路一段8號","121.460755","25.1691166666667","6501000","淡水區"
"251006","561-UM","2019/12/26 20:43:30","新北市淡水區商工路143號","121.447395","25.1882166666667","6501000","淡水區"
"251014","577-R6","2019/12/26 20:43:36","新北市淡水區公埔子32-8號","121.461653333333","25.2323566666667","6501000","淡水區"
"251011","650-BX","2019/12/26 20:43:29","新北市淡水區新市一路一段281巷2號","121.43465","25.1867616666667","6501000","淡水區"
"251002","672-BX","2019/12/26 20:43:27","新北市淡水區中正路30號","121.444071666667","25.1691016666667","6501000","淡水區"
"251003","766-UM","2019/12/26 20:43:24","新北市淡水區新民街152巷6弄22號","121.438775","25.1784866666667","6501000","淡水區"
"251015","178-VK","2019/12/26 20:43:35","新北市淡水區淡金路三段446號","121.45083","25.2144133333333","6501000","淡水區"
"247012","KED-0683","2019/12/26 20:43:38","新北市蘆洲區中興街89號","121.48227","25.088185","6501400","蘆洲區"
"252002","KED-0821","2019/12/26 20:43:45","新北市三芝區淡金路二段93號","121.504095","25.2609033333333","6502100","三芝區"
"242042","AAC-296","2019/12/26 20:43:29","新北市新莊區中正路694巷3弄22號","121.41792","25.0281916666667","6500500","新莊區"
"242061","986-R7","2019/12/26 20:43:37","新北市新莊區新樹路262號","121.432645","25.01486","6500500","新莊區"
"242025","705-TV","2019/12/26 20:43:35","新北市新莊區化成路579巷1號","121.464285","25.0661066666667","6500500","新莊區"
"242029","615-BX","2019/12/26 20:43:40","新北市新莊區中華路二段41號","121.453363333333","25.0466533333333","6500500","新莊區"
"242027","613-BX","2019/12/26 20:43:35","新北市新莊區幸福路2號","121.459628333333","25.0495216666667","6500500","新莊區"
"242058","612-BX","2019/12/26 20:43:36","新北市新莊區民安路138號","121.424178333333","25.0253433333333","6500500","新莊區"
"242048","566-BX","2019/12/26 20:43:41","新北市新莊區中正路823號","121.420791666667","25.0282766666667","6500500","新莊區"
"242053","497-BY","2019/12/26 20:43:33","新北市新莊區民安西路226號","121.42595","25.0144916666667","6500500","新莊區"
"242009","442-UM","2019/12/26 20:43:31","新北市新莊區昌隆街104號","121.456725","25.0508333333333","6500500","新莊區"
"242002","441-UM","2019/12/26 20:43:33","新北市新莊區中港路32號","121.455108333333","25.03746","6500500","新莊區"
"242007","440-UM","2019/12/26 20:43:36","新北市新莊區思源路287巷1弄1號","121.459401666667","25.0482283333333","6500500","新莊區"
"242044","415-TV","2019/12/26 20:43:31","新北市新莊區中正路新生巷85弄1號","121.417143333333","25.0218466666667","6500500","新莊區"
"242013","413-TV","2019/12/26 20:43:39","新北市新莊區中和街175巷11號","121.447166666667","25.0505566666667","6500500","新莊區"
"242051","400-BY","2019/12/26 20:43:36","新北市新莊區民安西路157號","121.426166666667","25.016485","6500500","新莊區"
"242023","353-BY","2019/12/26 20:43:31","新北市新莊區化成路416號","121.465973333333","25.05094","6500500","新莊區"
"242017","173-VK","2019/12/26 20:43:32","新北市新莊區中港三街106號","121.448403333333","25.0461166666667","6500500","新莊區"
"242031","175-VK","2019/12/26 20:43:23","新北市新莊區中正路508巷12號","121.437508333333","25.0343566666667","6500500","新莊區"
"242056","176-VK","2019/12/26 20:43:39","新北市新莊區瓊林路72-1號","121.445083333333","25.0287666666667","6500500","新莊區"
"242021","KED-0687","2019/12/26 20:43:39","新北市新莊區中華路一段73號","121.452243333333","25.040055","6500500","新莊區"
"242015","347-TH","2019/12/26 20:43:32","新北市新莊區中港一街151號","121.447633333333","25.04503","6500500","新莊區"
"242036","348-TH","2019/12/26 20:43:33","新北市新莊區建安街10-1號","121.4285","25.0264316666667","6500500","新莊區"
"242034","350-TH","2019/12/26 20:43:34","新北市新莊區中正路369號","121.446451666667","25.0348033333333","6500500","新莊區"
"242019","351-TH","2019/12/26 20:43:33","新北市新莊區銘德街96號","121.455888333333","25.0434516666667","6500500","新莊區"
"239004","193-VK","2019/12/26 20:43:32","新北市鶯歌區中正三路291巷11號","121.3298","24.9357733333333","6500800","鶯歌區"
"221008","489-VK","2019/12/26 20:43:36","新北市汐止區康寧街747號","121.638383333333","25.0729816666667","6501100","汐止區"
"221036","130-UY","2019/12/26 20:43:39","新北市汐止區新昌路17號","121.66188","25.0674083333333","6501100","汐止區"
"221015","131-UY","2019/12/26 20:43:34","新北市汐止區建成路30號","121.664255","25.072695","6501100","汐止區"
"221012","278-VK","2019/12/26 20:43:32","新北市汐止區保新街271號","121.69188","25.0684333333333","6501100","汐止區"
"221023","279-VK","2019/12/26 20:43:24","新北市汐止區湖東街76巷1號","121.63581","25.0734933333333","6501100","汐止區"
"221032","280-BY","2019/12/26 20:43:31","新北市汐止區民權街二段28號","121.619515","25.0500766666667","6501100","汐止區"
"221027","281-BY","2019/12/26 20:43:33","新北市汐止區大同路二段447號","121.659413333333","25.067535","6501100","汐止區"
"221029","298-VK","2019/12/26 20:43:40","新北市汐止區大同路一段425號","121.642785","25.0612633333333","6501100","汐止區"
"221021","299-VK","2019/12/26 20:43:44","新北市汐止區水源路一段284號","121.654165","25.0583016666667","6501100","汐止區"
"221031","567-BX","2019/12/26 20:43:44","新北市汐止區福德一路243號","121.633928333333","25.06484","6501100","汐止區"
"221035","622-UM","2019/12/26 20:43:31","新北市汐止區長江街101-5號","121.658746666667","25.07315","6501100","汐止區"
"221025","623-UM","2019/12/26 20:43:25","新北市汐止區水源路二段236號","121.65865","25.0512583333333","6501100","汐止區"
"221033","647-BX","2019/12/26 20:43:39","新北市汐止區合順街18巷8弄5號","121.620346666667","25.041945","6501100","汐止區"
"221002","707-TV","2019/12/26 20:43:29","新北市汐止區福德二路138號","121.630798333333","25.06521","6501100","汐止區"
"220079","145-BY","2019/12/26 20:43:43","新北市八里區荖阡坑路4-27號","121.398233333333","25.1427816666667","6500100","板橋區"
"220083","286-VK","2019/12/26 20:43:38","新北市板橋區僑中二街106巷13號","121.445236666667","25.00765","6500100","板橋區"
"220081","287-VK","2019/12/26 20:43:32","新北市板橋區大觀路三段59巷42號","121.435166666667","24.9946633333333","6500100","板橋區"
"242011","280-VK","2019/12/26 20:43:45","新北市新莊區中榮街75-2號","121.44578","25.0527066666667","6500500","新莊區"
"235068","KEA-2876","2019/12/26 20:43:34","新北市新店區薏仁坑路22號","121.49863","24.9591083333333","6500300","中和區"
