"lineid","car","time","location","longitude","latitude","cityid","cityname"
"231051","107-UY","2019/12/26 21:13:24","新北市新店區中正路680巷51弄9號","121.535336666667","24.9893883333333","6500600","新店區"
"231065","110-UY","2019/12/26 21:13:27","新北市新店區薏仁坑路自強巷6號","121.496626666667","24.958475","6500600","新店區"
"231050","KEA-2219","2019/12/26 21:12:29","新北市新店區華興街13巷4號","121.538271666667","24.9692616666667","6500600","新店區"
"231062","256-BX","2019/12/26 21:13:34","新北市新店區雙城路60巷16弄13號","121.491678333333","24.9478933333333","6500600","新店區"
"231068","512-UM","2019/12/26 21:13:38","新北市新店區安康路二段320巷15弄2號","121.504693333333","24.9598966666667","6500600","新店區"
"231063","616-UM","2019/12/26 21:13:41","新北市新店區吉祥街6巷1號","121.497701666667","24.9456333333333","6500600","新店區"
"231059","897-TW","2019/12/26 21:13:29","新北市新店區僑義路24號","121.500558333333","24.9500683333333","6500600","新店區"
"231040","898-TW","2019/12/26 21:13:44","新北市新店區光明街177號","121.539591666667","24.962825","6500600","新店區"
"241028","022-UY","2019/12/26 21:13:38","新北市三重區中正南路210號","121.493985","25.0556633333333","6500200","三重區"
"241008","059-VK","2019/12/26 21:13:32","新北市三重區自強路一段62號","121.497295","25.06662","6500200","三重區"
"241031","061-VK","2019/12/26 21:13:27","新北市三重區五谷王南街46巷37號","121.475745","25.04551","6500200","三重區"
"241015","062-VK","2019/12/26 21:13:33","新北市三重區河邊北街23號","121.50424","25.06546","6500200","三重區"
"241017","063-VK","2019/12/26 21:13:27","新北市三重區大同北路132巷8號","121.492313333333","25.0647983333333","6500200","三重區"
"241024","065-VK","2019/12/26 21:13:31","新北市三重區力行路二段2號","121.48173","25.071915","6500200","三重區"
"241007","066-VK","2019/12/26 21:13:42","新北市三重區車路頭街135-1號","121.484223333333","25.0759633333333","6500200","三重區"
"241002","090-VK","2019/12/26 21:13:36","新北市三重區五華街19號","121.494871666667","25.0803833333333","6500200","三重區"
"241003","091-VK","2019/12/26 21:13:28","新北市三重區仁義街228巷1號","121.494866666667","25.0847766666667","6500200","三重區"
"241009","742-BX","2019/12/26 21:13:28","新北市三重區忠孝路三段2號","121.48194","25.0675816666667","6500200","三重區"
"241016","266-UM","2019/12/26 21:09:51","新北市三重區大智街12號","121.495346666667","25.0647916666667","6500200","三重區"
"241018","268-UM","2019/12/26 21:13:32","新北市三重區忠孝路二段94號","121.483655","25.0693816666667","6500200","三重區"
"241032","269-UM","2019/12/26 21:13:28","新北市三重區中興北街134-1號","121.469008333333","25.0559233333333","6500200","三重區"
"241013","270-UM","2019/12/26 21:13:30","新北市三重區仁愛街81-1號","121.495973333333","25.0732133333333","6500200","三重區"
"241025","271-UM","2019/12/26 21:13:34","新北市三重區中正北路208巷8號","121.482305","25.0669516666667","6500200","三重區"
"241030","KED-0822","2019/12/26 21:13:24","新北市三重區五谷王北街20巷15弄1號","121.475053333333","25.0484666666667","6500200","三重區"
"241004","475-VK","2019/12/26 21:13:24","新北市三重區仁愛街418號","121.490418333333","25.0814233333333","6500200","三重區"
"241026","480-VK","2019/12/26 21:13:33","新北市三重區新北大道一段2號","121.491166666667","25.0613983333333","6500200","三重區"
"241014","543-UM","2019/12/26 21:13:33","新北市三重區長安街84號","121.501603333333","25.0675416666667","6500200","三重區"
"241023","545-UM","2019/12/26 21:13:31","新北市三重區中正北路176巷16號","121.482723333333","25.0659233333333","6500200","三重區"
"241001","547-UM","2019/12/26 21:13:34","新北市三重區福隆路42號","121.492335","25.0783516666667","6500200","三重區"
"241005","AAD-863","2019/12/26 21:13:45","新北市三重區仁華街85號","121.485858333333","25.0829383333333","6500200","三重區"
"241012","743-BX","2019/12/26 21:13:44","新北市三重區龍門路229號","121.50158","25.0739216666667","6500200","三重區"
"241022","KED-0820","2019/12/26 21:13:33","新北市三重區中正北路64巷24號","121.486071666667","25.0636183333333","6500200","三重區"
"241006","KED-0670","2019/12/26 21:13:29","新北市三重區明志街135號","121.489193333333","25.0632833333333","6500200","三重區"
"241029","942-UM","2019/12/26 21:13:43","新北市三重區電信街48-1號","121.496763333333","25.05835","6500200","三重區"
"241033","AAC-255","2019/12/26 21:13:35","新北市三重區光復路二段170號","121.472156666667","25.061405","6500200","三重區"
"235055","183-VK","2019/12/26 21:13:31","新北市中和區員山路36巷13號","121.484246666667","24.9907216666667","6500300","中和區"
"247010","KED-0682","2019/12/26 21:13:28","新北市蘆洲區鷺江街19號","121.479003333333","25.0824533333333","6501400","蘆洲區"
"247006","893-R6","2019/12/26 21:13:37","新北市蘆洲區長安街22巷2號","121.464386666667","25.0792766666667","6501400","蘆洲區"
"247020","546-UM","2019/12/26 21:13:36","新北市蘆洲區仁愛街18號","121.472495","25.092805","6501400","蘆洲區"
"247004","336-TH","2019/12/26 21:13:29","新北市蘆洲區永安南路二段322號","121.457028333333","25.082745","6501400","蘆洲區"
"247024","057-VK","2019/12/26 21:13:37","新北市蘆洲區長興路50巷1號","121.463783333333","25.0837683333333","6501400","蘆洲區"
"247014","056-VK","2019/12/26 21:13:44","新北市蘆洲區忠孝路45號","121.471218333333","25.0860933333333","6501400","蘆洲區"
"247018","053-VK","2019/12/26 21:13:39","新北市蘆洲區復興路105巷11號","121.476366666667","25.0883866666667","6501400","蘆洲區"
"247022","007-UY","2019/12/26 21:13:37","新北市蘆洲區三民路204號","121.469108333333","25.08895","6501400","蘆洲區"
"247008","002-UY","2019/12/26 21:13:26","新北市蘆洲區民生街41-1號","121.47516","25.0786616666667","6501400","蘆洲區"
"247002","001-UY","2019/12/26 21:13:33","新北市蘆洲區永樂街38巷40號","121.458701666667","25.0901716666667","6501400","蘆洲區"
"251009","008-UM","2019/12/26 21:13:28","新北市淡水區民族路112巷57號","121.462006666667","25.1343116666667","6501000","淡水區"
"251004","009-UM","2019/12/26 21:13:28","新北市淡水區民族路33號","121.462216666667","25.1357716666667","6501000","淡水區"
"251005","010-UM","2019/12/26 21:13:37","新北市淡水區英專路42-4號","121.446","25.1703066666667","6501000","淡水區"
"251016","180-VK","2019/12/26 21:13:34","新北市淡水區前洲子11號","121.441416666667","25.2190566666667","6501000","淡水區"
"251008","181-VK","2019/12/26 21:13:35","新北市淡水區北投子81號","121.461921666667","25.1785033333333","6501000","淡水區"
"251013","182-VK","2019/12/26 21:13:42","新北市淡水區行忠路330號","121.460685","25.1998966666667","6501000","淡水區"
"251010","413-VK","2019/12/26 21:13:23","新北市淡水區中正路一段63巷11號","121.42245","25.1770233333333","6501000","淡水區"
"251012","441-VK","2019/12/26 21:13:37","新北市淡水區淡金路五段35巷18號","121.453456666667","25.23365","6501000","淡水區"
"251001","559-UM","2019/12/26 21:13:35","新北市淡水區中山北路二段191號","121.444215","25.18532","6501000","淡水區"
"251014","577-R6","2019/12/26 21:13:36","新北市淡水區六塊厝2-1號","121.450125","25.2404766666667","6501000","淡水區"
"251011","650-BX","2019/12/26 21:13:29","新北市淡水區新民街120巷45弄2號","121.43843","25.1797283333333","6501000","淡水區"
"251002","672-BX","2019/12/26 21:13:27","新北市淡水區水源街二段6號","121.449218333333","25.173295","6501000","淡水區"
"251003","766-UM","2019/12/26 21:13:24","新北市淡水區新興街100號","121.439956666667","25.1817516666667","6501000","淡水區"
"251015","178-VK","2019/12/26 21:13:35","新北市淡水區淡金路四段542巷83弄13號","121.456448333333","25.2267083333333","6501000","淡水區"
"247012","KED-0683","2019/12/26 21:13:33","新北市蘆洲區復興路119號","121.477408333333","25.0882183333333","6501400","蘆洲區"
"242019","351-TH","2019/12/26 21:06:19","新北市新莊區瓊林路59-56號","121.444845","25.0257166666667","6500500","新莊區"
