"lineid","car","time","location","longitude","latitude","cityid","cityname"
"244004","248-BX","2019/12/20 09:13:26","新北市林口區嘉寶里42號","121.333541666667","25.1225966666667","6501700","林口區"
"222004","289-BY","2019/12/20 09:13:15","新北市深坑區土庫尖路75-1號","121.63134","25.0181983333333","6501800","深坑區"
"231007","189-VK","2019/12/20 09:13:16","新北市新店區平廣路二段265巷9-2號","121.499895","24.9029983333333","6500600","新店區"
"231009","192-VK","2019/12/20 09:13:32","新北市新店區平廣路一段73號","121.531763333333","24.8995416666667","6500600","新店區"
"223003","205-TH","2019/12/20 09:13:21","新北市石碇區北宜路五段74號","121.643738333333","24.9527333333333","6501900","石碇區"
"223008","406-TH","2019/12/20 09:13:18","新北市石碇區光明路13號","121.67994","25.0336266666667","6501900","石碇區"
"223004","437-BY","2019/12/20 09:13:14","新北市石碇區磨石坑36-8號","121.691373333333","24.9658766666667","6501900","石碇區"
"223001","592-UM","2019/12/20 09:13:30","新北市石碇區北宜路五段十股寮巷5號","121.642878333333","24.952555","6501900","石碇區"
"223007","661-BX","2019/12/20 09:13:35","新北市石碇區光明路13號","121.679953333333","25.0334733333333","6501900","石碇區"
"223005","677-TV","2019/12/20 09:13:24","新北市石碇區磨石坑24號","121.690058333333","24.9735383333333","6501900","石碇區"
"227003","282-VK","2019/12/20 09:09:57","新北市雙溪區泰平里料角坑19號","121.812335","24.9723966666667","6502500","雙溪區"
