"lineid","car","time","location","longitude","latitude","cityid","cityname"
"234044","148-BY","2019/12/20 13:43:42","新北市永和區永利路358號","121.526171666667","25.0030566666667","6500400","永和區"
"234078","298-R6","2019/12/20 13:43:42","新北市永和區永亨路98號","121.523008333333","25.0048466666667","6500400","永和區"
"234036","336-UY","2019/12/20 13:43:40","新北市永和區民樂街39巷18弄2號","121.528565","24.9995816666667","6500400","永和區"
"234062","337-UY","2019/12/20 13:43:35","新北市永和區秀朗路一段192巷6弄14號","121.519083333333","25.0022883333333","6500400","永和區"
"234084","338-UY","2019/12/20 13:43:38","新北市永和區永利路46號","121.51887","25.00541","6500400","永和區"
"234068","552-UM","2019/12/20 13:43:30","新北市永和區永和路二段235號","121.515555","25.0144016666667","6500400","永和區"
"234015","745-BX","2019/12/20 13:43:24","新北市永和區永和路二段308號","121.516221666667","25.016005","6500400","永和區"
"234028","746-BX","2019/12/20 13:43:27","新北市永和區民生路47巷4號","121.523143333333","24.9977933333333","6500400","永和區"
"234052","KEA-2590","2019/12/20 13:43:31","新北市永和區竹林路67巷16號","121.5191","25.0137866666667","6500400","永和區"
"234005","KED-0605","2019/12/20 13:43:33","新北市永和區永和路一段107號","121.513903333333","25.0079633333333","6500400","永和區"
"234012","KEA-2591","2019/12/20 13:43:38","新北市永和區仁愛路219號","121.509325","25.0122033333333","6500400","永和區"
"234060","AAD-866","2019/12/20 13:43:32","新北市永和區中正路119號","121.515746666667","24.99764","6500400","永和區"
"234040","862-TW","2019/12/20 13:43:32","新北市永和區中和路305巷2弄1號","121.50664","25.0000833333333","6500400","永和區"
"234048","863-TW","2019/12/20 13:43:30","新北市永和區環河西路一段109號","121.510996666667","25.0174033333333","6500400","永和區"
"234025","9371-KE","2019/12/20 13:43:27","新北市永和區自由街58號","121.513801666667","25.00596","6500400","永和區"
"234010","9373-KE","2019/12/20 13:43:25","新北市永和區保福路二段163巷13弄16號","121.509136666667","25.0143066666667","6500400","永和區"
"248019","KED-0813","2019/12/20 13:42:12","新北市五股區孝義路108-1號","121.441833333333","25.1199816666667","6501500","五股區"
"234022","9380-KE","2019/12/20 13:43:24","新北市永和區中正路704號","121.516255","25.00992","6500400","永和區"
"234076","969-R7","2019/12/20 13:43:39","新北市永和區民族街27巷17號","121.519885","24.9995166666667","6500400","永和區"
"234072","AAC-211","2019/12/20 13:43:39","新北市永和區豫溪街136巷5號","121.521333333333","25.009975","6500400","永和區"
"234066","AAC-212","2019/12/20 13:43:24","新北市永和區永平路173巷14弄16號","121.510246666667","25.008885","6500400","永和區"
"234001","AAC-295","2019/12/20 13:43:27","新北市永和區自由街55號","121.513631666667","25.0055066666667","6500400","永和區"
"244004","248-BX","2019/12/20 13:43:25","新北市林口區頂福里9號","121.358075","25.0804816666667","6501700","林口區"
"231030","002-UM","2019/12/20 13:43:25","新北市新店區安康路一段107-2號","121.528856666667","24.9616266666667","6500600","新店區"
"231027","0293-UT","2019/12/20 13:43:30","新北市新店區新店路43號","121.539511666667","24.9526233333333","6500600","新店區"
"231005","047-UY","2019/12/20 13:43:37","新北市新店區寶中路72號","121.547856666667","24.9805833333333","6500600","新店區"
"231029","106-UY","2019/12/20 13:43:23","新北市新店區安康路二段169號","121.509876666667","24.95931","6500600","新店區"
"231018","107-UY","2019/12/20 13:43:22","新北市新店區百忍街12號","121.534751666667","24.975585","6500600","新店區"
"231013","108-UY","2019/12/20 13:43:28","新北市新店區二十張路56-1號","121.536908333333","24.9804516666667","6500600","新店區"
"231036","110-UY","2019/12/20 13:43:40","新北市新店區安祥路145巷19號","121.475168333333","24.956165","6500600","新店區"
"231016","KEA-2219","2019/12/20 13:43:30","新北市新店區竹林路2巷27弄11號","121.550958333333","24.9508533333333","6500600","新店區"
"231032","256-BX","2019/12/20 13:43:33","新北市新店區莒光路21號","121.526008333333","24.9602166666667","6500600","新店區"
"231023","260-TV","2019/12/20 13:43:25","新北市新店區國校路55號","121.538143333333","24.954485","6500600","新店區"
"231003","268-BY","2019/12/20 13:43:28","新北市新店區中興路一段268-1號","121.545093333333","24.9677283333333","6500600","新店區"
"231035","278-BY","2019/12/20 13:43:34","新北市新店區安忠路57巷5-1號","121.513493333333","24.9591833333333","6500600","新店區"
"231006","355-BY","2019/12/20 13:43:38","新北市新店區北宜路一段124號","121.539361666667","24.955015","6500600","新店區"
"231038","3712-VJ","2019/12/20 13:43:29","新北市新店區安華路30巷1號","121.519585","24.9592616666667","6500600","新店區"
"231024","4716-K9","2019/12/20 13:43:29","新北市新店區華興街32號","121.537243333333","24.96895","6500600","新店區"
"231025","4715-K9","2019/12/20 13:43:33","新北市新店區中央五街1號","121.530141666667","24.974055","6500600","新店區"
"231022","515-UM","2019/12/20 13:43:33","新北市新店區新烏路一段159號","121.544728333333","24.9352833333333","6500600","新店區"
"231004","618-UM","2019/12/20 13:43:33","新北市新店區北新路二段70號","121.54297","24.9725916666667","6500600","新店區"
"231002","619-UM","2019/12/20 13:43:28","新北市新店區溪園路409號","121.524173333333","24.9784783333333","6500600","新店區"
"231034","641-BX","2019/12/20 13:43:33","新北市新店區達觀路14巷5號","121.503813333333","24.9424066666667","6500600","新店區"
"231012","KED-0819","2019/12/20 13:43:24","新北市新店區德正街27巷29弄123號","121.545755","24.9729166666667","6500600","新店區"
"231010","719-UM","2019/12/20 13:43:32","新北市新店區平等街66號","121.535666666667","24.972315","6500600","新店區"
"231026","720-UM","2019/12/20 13:43:41","新北市新店區光明街225號","121.540246666667","24.9642416666667","6500600","新店區"
"231028","897-TW","2019/12/20 13:43:26","新北市新店區安和路二段122號","121.519321666667","24.9712166666667","6500600","新店區"
"231001","898-TW","2019/12/20 13:43:32","新北市新店區中正路373號","121.534856666667","24.9765816666667","6500600","新店區"
"231037","AKT-0513","2019/12/20 13:43:31","新北市新店區安康路三段359巷12弄2號","121.4845","24.9500916666667","6500600","新店區"
"235030","003-UY","2019/12/20 13:43:23","新北市中和區廣福路16號","121.505193333333","25.0026816666667","6500300","中和區"
"235028","005-UY","2019/12/20 13:43:32","新北市中和區泰和街44巷33號","121.498016666667","25.00122","6500300","中和區"
"235027","006-UY","2019/12/20 13:43:38","新北市中和區錦和路198號","121.490168333333","24.9950033333333","6500300","中和區"
"235036","KEE-1103","2019/12/20 13:43:37","新北市中和區中山路二段161號","121.50153","25.0027866666667","6500300","中和區"
"235020","096-UM","2019/12/20 13:43:36","新北市中和區中正路1163號","121.481555","25.0092033333333","6500300","中和區"
"235003","097-UM","2019/12/20 13:43:39","新北市中和區大勇街25巷38弄1號","121.515821666667","24.993755","6500300","中和區"
"235029","098-UM","2019/12/20 13:43:20","新北市中和區中山路二段2巷45弄1號","121.502283333333","25.006925","6500300","中和區"
"235004","150-BY","2019/12/20 13:43:38","新北市中和區保健路50巷66號","121.50933","24.9951533333333","6500300","中和區"
"235022","151-BY","2019/12/20 13:43:28","新北市中和區連城路518巷1號","121.476623333333","24.9919416666667","6500300","中和區"
"235019","183-VK","2019/12/20 13:43:24","新北市中和區民生街93-2號","121.468545","25.00477","6500300","中和區"
"235031","255-BX","2019/12/20 13:43:21","新北市中和區新生街242巷3-1號","121.483268333333","24.9977983333333","6500300","中和區"
"235008","293-VK","2019/12/20 13:43:43","新北市中和區復興路280巷38號","121.501353333333","24.9919066666667","6500300","中和區"
"235035","301-VK","2019/12/20 13:43:28","新北市中和區立德街112號","121.48737","25.008445","6500300","中和區"
"235007","352-BY","2019/12/20 13:43:40","新北市中和區成功路70號","121.52595","24.992035","6500300","中和區"
"235006","KEA-2878","2019/12/20 13:43:31","新北市中和區秀朗路三段100巷3號","121.525376666667","24.9932566666667","6500300","中和區"
"235014","4979-A6","2019/12/20 13:43:34","新北市中和區景新街496巷28-1號","121.51346","24.9855666666667","6500300","中和區"
"235033","4980-A6","2019/12/20 13:43:25","新北市中和區南山路81巷8弄12號","121.502575","24.9977216666667","6500300","中和區"
"235032","551-UM","2019/12/20 13:43:35","新北市中和區圓通路162-3號","121.497495","24.995215","6500300","中和區"
"235034","558-UM","2019/12/20 13:43:22","新北市中和區中和路170號","121.504525","24.9997683333333","6500300","中和區"
"235009","565-BX","2019/12/20 13:43:24","新北市中和區興南路一段67號","121.510263333333","24.9894716666667","6500300","中和區"
"235024","KED-0823","2019/12/20 13:43:18","新北市中和區中山路三段105號","121.474973333333","25.0061616666667","6500300","中和區"
"235018","640-BX","2019/12/20 13:43:28","新北市中和區民享街1號","121.473856666667","25.0058","6500300","中和區"
"235011","732-UM","2019/12/20 13:43:25","新北市中和區興南路二段34巷73號","121.505013333333","24.9849833333333","6500300","中和區"
"235010","733-UM","2019/12/20 13:43:32","新北市中和區仁愛街36巷44號","121.51132","24.9863416666667","6500300","中和區"
"235026","800-TS","2019/12/20 13:43:33","新北市中和區中山路二段312巷39號","121.495151666667","25.0040316666667","6500300","中和區"
"235021","801-TS","2019/12/20 13:43:39","新北市中和區民安街53-1號","121.479225","25.0000166666667","6500300","中和區"
"235005","802-TS","2019/12/20 13:43:42","新北市永和區中和路545號","121.511518333333","25.003175","6500300","中和區"
"235016","805-TS","2019/12/20 13:43:25","新北市中和區興南路三段83號","121.491586666667","24.9738666666667","6500300","中和區"
"235012","896-TW","2019/12/20 13:43:25","新北市中和區南山路265號","121.503878333333","24.992615","6500300","中和區"
"235017","900-TW","2019/12/20 13:43:37","新北市中和區華福街6號","121.465456666667","24.9967516666667","6500300","中和區"
"235002","911-UM","2019/12/20 13:43:29","新北市中和區自強路60號","121.51991","24.9945033333333","6500300","中和區"
"235015","157-BY","2019/12/20 13:43:27","新北市中和區忠孝街32號","121.510718333333","24.9832383333333","6500300","中和區"
"235001","AAC-213","2019/12/20 13:43:27","新北市中和區自立路14號","121.522193333333","24.9960283333333","6500300","中和區"
"235023","AAC-215","2019/12/20 13:43:25","新北市中和區錦和路179號","121.490711666667","24.9911833333333","6500300","中和區"
"220002","015-TV","2019/12/20 13:43:25","新北市板橋區華東街262號","121.452625","25.0011216666667","6500100","板橋區"
"220013","072-UY","2019/12/20 13:43:32","新北市板橋區成都街43號","121.461236666667","25.0049366666667","6500100","板橋區"
"220034","073-UY","2019/12/20 13:43:39","新北市板橋區南雅西路二段145巷6號","121.45164","25.0117266666667","6500100","板橋區"
"220105","075-UY","2019/12/20 13:43:41","新北市板橋區民生路二段161巷1號","121.47027","25.0198983333333","6500100","板橋區"
"220017","AAD-861","2019/12/20 13:43:38","新北市板橋區大華街11號","121.458931666667","25.006185","6500100","板橋區"
"247005","893-R6","2019/12/20 13:43:42","新北市五股區四維路183號","121.467835","25.075355","6501400","蘆洲區"
"247003","336-TH","2019/12/20 13:43:35","新北市蘆洲區中原路24號","121.460195","25.0828616666667","6501400","蘆洲區"
"247013","056-VK","2019/12/20 13:43:27","新北市五股區成泰路三段544-1號","121.454865","25.100715","6501400","蘆洲區"
"247007","002-UY","2019/12/20 13:43:35","新北市蘆洲區國道路二段25號","121.47519","25.0737733333333","6501400","蘆洲區"
"247001","001-UY","2019/12/20 13:43:35","新北市五股區新五路三段175號","121.448618333333","25.091715","6501400","蘆洲區"
"235013","251-BX","2019/12/20 13:43:39","新北市中和區景安路179-1號","121.505308333333","24.994075","6500300","中和區"
"207002","749-BX","2019/12/20 13:43:22","新北市萬里區崁腳里崁腳路166號","121.645146666667","25.1559283333333","6502800","萬里區"
"207001","662-BX","2019/12/20 13:43:38","新北市萬里區磺潭里公館崙14號","121.639425","25.2135333333333","6502800","萬里區"
"236040","KED-0685","2019/12/20 13:43:31","新北市土城區城林路6巷80號","121.438436666667","24.979715","6501300","土城區"
"236029","253-BX","2019/12/20 13:43:21","新北市土城區城林路6巷80號","121.438621666667","24.97976","6501300","土城區"
"236013","270-VK","2019/12/20 13:43:31","新北市土城區城林路6巷80號","121.438578333333","24.9798033333333","6501300","土城區"
"236032","271-VK","2019/12/20 13:43:33","新北市土城區城林路6巷80號","121.438495","24.9797666666667","6501300","土城區"
"247011","KED-0683","2019/12/20 13:43:36","新北市五股區中興路三段163號","121.449281666667","25.0805783333333","6501400","蘆洲區"
"236067","KEA-2877","2019/12/20 13:43:35","新北市土城區城林路6巷80號","121.438665","24.9796316666667","6501300","土城區"
"236016","401-BY","2019/12/20 13:43:33","新北市土城區城林路6巷80號","121.438405","24.979735","6501300","土城區"
"236057","912-UM","2019/12/20 13:43:26","新北市土城區城林路6巷80號","121.438518333333","24.9797816666667","6501300","土城區"
"220027","145-BY","2019/12/20 13:43:30","新北市板橋區南雅西路二段175巷2號","121.451573333333","25.0124966666667","6500100","板橋區"
"220028","200-UY","2019/12/20 13:43:34","新北市板橋區大觀路二段265巷76弄27號","121.44155","24.9966633333333","6500100","板橋區"
"220030","610-BX","2019/12/20 13:43:36","新北市板橋區篤行路二段99號","121.431588333333","24.99142","6500100","板橋區"
"220050","245-BX","2019/12/20 13:43:29","新北市板橋區民生路二段188號","121.470113333333","25.0203666666667","6500100","板橋區"
"220004","276-BY","2019/12/20 13:43:36","新北市板橋區四川路一段93號","121.459698333333","25.0054816666667","6500100","板橋區"
"220020","277-BY","2019/12/20 13:43:28","新北市板橋區金門街43號","121.433408333333","24.993515","6500100","板橋區"
"220019","283-VK","2019/12/20 13:43:41","新北市板橋區四川路一段244號","121.459171666667","25.0015683333333","6500100","板橋區"
"220043","285-UM","2019/12/20 13:43:29","新北市板橋區民生路二段120號","121.470425","25.0197066666667","6500100","板橋區"
"220107","286-VK","2019/12/20 13:43:26","新北市板橋區大觀路二段22巷22號","121.445556666667","25.0036083333333","6500100","板橋區"
"220029","287-VK","2019/12/20 13:43:28","新北市板橋區南雅西路二段2-5號","121.453123333333","25.0091716666667","6500100","板橋區"
"220039","288-VK","2019/12/20 13:43:24","新北市板橋區民生路三段105號","121.466518333333","25.0251766666667","6500100","板橋區"
"220009","293-UM","2019/12/20 13:43:33","新北市板橋區太和街6巷2號","121.473836666667","25.0199","6500100","板橋區"
"220041","295-UM","2019/12/20 13:43:36","新北市板橋區漢生東路21號","121.464935","25.0172283333333","6500100","板橋區"
"220032","296-UM","2019/12/20 13:43:41","新北市板橋區大觀路二段150巷77號","121.441378333333","25.0011433333333","6500100","板橋區"
"220023","303-R5","2019/12/20 13:43:27","新北市板橋區華東街328號","121.452776666667","25.003455","6500100","板橋區"
"220010","305-R5","2019/12/20 13:43:33","新北市板橋區民生路二段161巷5號","121.470221666667","25.0197216666667","6500100","板橋區"
"220047","317-R6","2019/12/20 13:41:57","新北市板橋區民生路二段120號","121.470393333333","25.0195183333333","6500100","板橋區"
"220110","487-VK","2019/12/20 13:43:22","新北市板橋區文化路二段88號","121.46971","25.025925","6500100","板橋區"
"220037","491-VK","2019/12/20 13:43:22","新北市板橋區民生路二段120號","121.470488333333","25.0195166666667","6500100","板橋區"
"220104","560-BX","2019/12/20 13:43:34","新北市板橋區南雅西路二段226號","121.452195","25.0155466666667","6500100","板橋區"
"220052","561-BX","2019/12/20 13:43:27","新北市板橋區縣民大道三段30巷1號","121.471545","25.01852","6500100","板橋區"
"220109","609-BX","2019/12/20 13:43:28","新北市板橋區民生路一段113號","121.47398","25.0144983333333","6500100","板橋區"
"220005","686-BX","2019/12/20 13:43:36","新北市板橋區館前東路48號","121.460755","25.00724","6500100","板橋區"
"220025","687-BX","2019/12/20 13:43:36","新北市板橋區大觀路三段108號","121.432296666667","24.9941633333333","6500100","板橋區"
"220051","KEA-2699","2019/12/20 13:43:31","新北市板橋區民生路二段179號","121.469818333333","25.02037","6500100","板橋區"
"220003","827-TW","2019/12/20 13:43:31","新北市板橋區忠孝路108-1號","121.46223","25.0021416666667","6500100","板橋區"
"220022","895-R6","2019/12/20 13:43:37","新北市板橋區府中路41號","121.458656666667","25.0090933333333","6500100","板橋區"
"220108","985-R7","2019/12/20 13:43:25","新北市板橋區館前西路47號","121.457973333333","25.0069633333333","6500100","板橋區"
"220046","AAC-210","2019/12/20 13:43:21","新北市板橋區民生路二段120號","121.470758333333","25.0195066666667","6500100","板橋區"
"220012","AAC-253","2019/12/20 13:43:31","新北市板橋區中山路一段263號","121.468658333333","25.0134583333333","6500100","板橋區"
"235025","KEA-2875","2019/12/20 13:43:33","新北市中和區民享街79巷8號","121.47471","25.00197","6500300","中和區"
