"lineid","car","time","location","longitude","latitude","cityid","cityname"
"234062","337-UY","2019/12/20 14:43:35","新北市中和區環河西路三段123號","121.490128333333","25.009565","6500400","永和區"
"234015","745-BX","2019/12/20 14:33:52","新北市永和區福和路1號","121.526341666667","25.0096533333333","6500400","永和區"
"234052","KEA-2590","2019/12/20 14:43:27","新北市永和區環河東路一段80號","121.519616666667","25.016495","6500400","永和區"
"234040","862-TW","2019/12/20 14:43:29","新北市永和區永和路二段330號","121.516311666667","25.016495","6500400","永和區"
"234025","9371-KE","2019/12/20 14:43:27","新北市永和區雙和街7巷6號","121.509461666667","25.00159","6500400","永和區"
"248019","KED-0813","2019/12/20 14:43:25","新北市五股區凌雲路三段92-2號","121.428198333333","25.1197716666667","6501500","五股區"
"244004","248-BX","2019/12/20 14:43:25","新北市林口區南勢里33-3號","121.352196666667","25.0701916666667","6501700","林口區"
"231030","002-UM","2019/12/20 14:43:25","新北市新店區安民街202號","121.517255","24.9718683333333","6500600","新店區"
"231027","0293-UT","2019/12/20 14:43:30","新北市新店區中正路76巷11弄19號","121.543655","24.97172","6500600","新店區"
"231005","047-UY","2019/12/20 14:43:37","新北市新店區復興路2號","121.532313333333","24.9882983333333","6500600","新店區"
"231029","106-UY","2019/12/20 14:43:43","新北市新店區安康路三段456號","121.484293333333","24.9511933333333","6500600","新店區"
"231018","107-UY","2019/12/20 14:43:42","新北市新店區中央路153號","121.529848333333","24.9729883333333","6500600","新店區"
"231013","108-UY","2019/12/20 14:43:42","新北市新店區北新路二段139巷12弄20號","121.542158333333","24.97624","6500600","新店區"
"231036","110-UY","2019/12/20 14:43:40","新北市新店區安祥路106巷202號","121.474333333333","24.960345","6500600","新店區"
"231016","KEA-2219","2019/12/20 14:43:30","新北市新店區北宜路三段264號","121.60161","24.9548766666667","6500600","新店區"
"231032","256-BX","2019/12/20 14:43:33","新北市新店區安和路二段232-1號","121.517113333333","24.977045","6500600","新店區"
"231023","260-TV","2019/12/20 14:43:25","新北市新店區檳榔路109號","121.544381666667","24.961615","6500600","新店區"
"231003","268-BY","2019/12/20 14:43:28","新北市新店區中正路7號","121.545808333333","24.9692366666667","6500600","新店區"
"231035","278-BY","2019/12/20 14:43:34","新北市新店區安和路二段120號","121.519128333333","24.9706466666667","6500600","新店區"
"231006","355-BY","2019/12/20 14:43:30","新北市新店區北宜路二段103號","121.550288333333","24.9525383333333","6500600","新店區"
"231038","3712-VJ","2019/12/20 14:43:29","新北市新店區安華路28-1號","121.519786666667","24.9607833333333","6500600","新店區"
"231024","4716-K9","2019/12/20 14:43:24","新北市新店區中華路83巷49號","121.538461666667","24.9676433333333","6500600","新店區"
"231039","512-UM","2019/12/20 14:43:37","新北市新店區安一路一段1-1號","121.519296666667","24.961065","6500600","新店區"
"231022","515-UM","2019/12/20 14:42:33","新北市新店區桂山路121號","121.569596666667","24.891675","6500600","新店區"
"231004","618-UM","2019/12/20 14:43:27","新北市新店區民族路161號","121.537653333333","24.9766883333333","6500600","新店區"
"231002","619-UM","2019/12/20 14:43:28","新北市新店區民權路132號","121.534848333333","24.982805","6500600","新店區"
"231034","641-BX","2019/12/20 14:43:41","新北市新店區車子路14號","121.504848333333","24.9541066666667","6500600","新店區"
"231012","KED-0819","2019/12/20 14:43:44","新北市新店區寶橋路75號","121.545621666667","24.975235","6500600","新店區"
"231028","897-TW","2019/12/20 14:43:25","新北市新店區安德街79號","121.510091666667","24.9613766666667","6500600","新店區"
"231001","898-TW","2019/12/20 14:43:32","新北市新店區中正路2號","121.545855","24.969245","6500600","新店區"
"231037","AKT-0513","2019/12/20 14:43:31","新北市新店區柴埕路52巷9號","121.511748333333","24.964935","6500600","新店區"
"235030","003-UY","2019/12/20 14:43:43","新北市中和區景新街88號","121.504771666667","24.9987083333333","6500300","中和區"
"235036","KEE-1103","2019/12/20 14:43:37","新北市中和區中山路二段3巷22弄24號","121.505985","25.004475","6500300","中和區"
"235020","096-UM","2019/12/20 14:43:35","新北市中和區中山路三段114巷46號","121.475733333333","25.0073766666667","6500300","中和區"
"235003","097-UM","2019/12/20 14:43:39","新北市中和區安樂路247號","121.513973333333","24.9996466666667","6500300","中和區"
"235029","098-UM","2019/12/20 14:43:40","新北市中和區永和路63號","121.49687","25.0054933333333","6500300","中和區"
"235004","150-BY","2019/12/20 14:43:38","新北市中和區安平路38號","121.509756666667","24.99491","6500300","中和區"
"235031","255-BX","2019/12/20 14:43:41","新北市中和區新生街231號","121.483811666667","24.9991233333333","6500300","中和區"
"235008","293-VK","2019/12/20 14:43:23","新北市中和區南山路417號","121.50729","24.98955","6500300","中和區"
"235035","301-VK","2019/12/20 14:43:28","新北市中和區建一路92-1號","121.487993333333","25.0007416666667","6500300","中和區"
"235007","352-BY","2019/12/20 14:43:40","新北市中和區安和路5-1號","121.511668333333","24.9934966666667","6500300","中和區"
"235006","KEA-2878","2019/12/20 14:43:31","新北市中和區宜安路37號","121.512281666667","24.99652","6500300","中和區"
"247015","KEA-2869","2019/12/20 14:43:41","新北市蘆洲區光華路119巷14號","121.467121666667","25.0817266666667","6501400","蘆洲區"
"235032","551-UM","2019/12/20 14:43:35","新北市中和區福祥路110號","121.498961666667","25.0062683333333","6500300","中和區"
"235034","558-UM","2019/12/20 14:43:33","新北市中和區中正路220號","121.496475","24.9939283333333","6500300","中和區"
"235018","640-BX","2019/12/20 14:43:28","新北市中和區民享街35巷8弄15號","121.47458","25.0035216666667","6500300","中和區"
"235011","732-UM","2019/12/20 14:43:25","新北市中和區捷運路59號","121.50932","24.9896433333333","6500300","中和區"
"235010","733-UM","2019/12/20 14:43:32","新北市中和區四維街26號","121.512823333333","24.9871683333333","6500300","中和區"
"235026","800-TS","2019/12/20 14:43:33","新北市中和區中山路二段329號","121.492953333333","25.0021833333333","6500300","中和區"
"235005","802-TS","2019/12/20 14:43:22","新北市中和區宜安路134號","121.509868333333","24.9983766666667","6500300","中和區"
"235016","805-TS","2019/12/20 14:43:25","新北市中和區興南路二段79巷7號","121.506808333333","24.984615","6500300","中和區"
"235012","896-TW","2019/12/20 14:43:25","新北市中和區忠孝街113巷4號","121.512553333333","24.9876083333333","6500300","中和區"
"235017","900-TW","2019/12/20 14:43:37","新北市中和區國光街189巷26號","121.467691666667","25.000785","6500300","中和區"
"235002","911-UM","2019/12/20 14:43:29","新北市永和區民族街81巷64號","121.520446666667","24.9962483333333","6500300","中和區"
"235015","157-BY","2019/12/20 14:43:44","新北市中和區復興路301巷15號","121.50155","24.9898033333333","6500300","中和區"
"235001","AAC-213","2019/12/20 14:43:27","新北市中和區自立路143號","121.52242","24.9931983333333","6500300","中和區"
"235023","AAC-215","2019/12/20 14:43:25","新北市中和區圓通路305巷18號","121.494848333333","24.9890683333333","6500300","中和區"
"220002","015-TV","2019/12/20 14:43:25","新北市板橋區實踐路93巷31號","121.465386666667","25.0054766666667","6500100","板橋區"
"220013","072-UY","2019/12/20 14:43:33","新北市板橋區民族路222巷12號","121.468628333333","25.0069233333333","6500100","板橋區"
"220034","073-UY","2019/12/20 14:43:39","新北市板橋區國光路11號","121.45668","25.0173716666667","6500100","板橋區"
"220105","075-UY","2019/12/20 14:43:41","新北市板橋區民治街71巷33號","121.480581666667","25.0333616666667","6500100","板橋區"
"220017","AAD-861","2019/12/20 14:43:38","新北市板橋區大明街20巷19弄6號","121.45839","25.0032566666667","6500100","板橋區"
"247019","546-UM","2019/12/20 14:43:40","新北市蘆洲區民義街73號","121.473201666667","25.09008","6501400","蘆洲區"
"247023","057-VK","2019/12/20 14:43:32","新北市蘆洲區中山二路222巷21弄15號","121.468815","25.0799016666667","6501400","蘆洲區"
"247013","056-VK","2019/12/20 14:43:27","新北市蘆洲區成功路136號","121.471945","25.0829283333333","6501400","蘆洲區"
"247007","002-UY","2019/12/20 14:43:15","新北市蘆洲區信義路56號","121.475341666667","25.0796933333333","6501400","蘆洲區"
"247001","001-UY","2019/12/20 14:43:37","新北市蘆洲區長安街254號","121.45757","25.0863366666667","6501400","蘆洲區"
"235013","251-BX","2019/12/20 14:43:39","新北市中和區景平路425-1號","121.50151","24.9952566666667","6500300","中和區"
"207002","749-BX","2019/12/20 14:43:22","新北市萬里區崁腳里崁腳路73號","121.647585","25.1595733333333","6502800","萬里區"
"207001","662-BX","2019/12/20 14:43:30","新北市萬里區雙興里豐稟路21號","121.640501666667","25.1863716666667","6502800","萬里區"
"236040","KED-0685","2019/12/20 14:43:39","新北市土城區裕民路114巷27號","121.45034","24.9856483333333","6501300","土城區"
"236029","253-BX","2019/12/20 14:43:41","新北市土城區忠義路26巷25號","121.4396","24.9695233333333","6501300","土城區"
"236024","269-VK","2019/12/20 14:43:29","新北市土城區農豐街12-1號","121.442543333333","24.9739366666667","6501300","土城區"
"236013","270-VK","2019/12/20 14:43:31","新北市土城區清水路278巷3號","121.462366666667","24.9831233333333","6501300","土城區"
"236032","271-VK","2019/12/20 14:43:33","新北市土城區明德路一段235巷6號","121.462976666667","24.9780016666667","6501300","土城區"
"236067","KEA-2877","2019/12/20 14:43:35","新北市土城區明德路一段71號","121.46573","24.983305","6501300","土城區"
"236016","401-BY","2019/12/20 14:43:33","新北市土城區延安街39巷1號","121.468278333333","24.983805","6501300","土城區"
"236057","912-UM","2019/12/20 14:43:39","新北市土城區中央路三段93號","121.43732","24.9675383333333","6501300","土城區"
"236045","913-UM","2019/12/20 14:43:36","新北市土城區青雲路107-1號","121.459128333333","24.985525","6501300","土城區"
"236060","915-UM","2019/12/20 14:43:30","新北市土城區金城路三段207巷6弄3號","121.470281666667","24.9900416666667","6501300","土城區"
"236054","AAC-216","2019/12/20 14:43:36","新北市土城區裕民路56號","121.448886666667","24.987865","6501300","土城區"
"220027","145-BY","2019/12/20 14:43:39","新北市板橋區民權路302巷19號","121.45786","25.01646","6500100","板橋區"
"220028","200-UY","2019/12/20 14:43:34","新北市板橋區大觀路二段153巷46弄10號","121.448956666667","24.9995666666667","6500100","板橋區"
"220030","610-BX","2019/12/20 14:43:40","新北市板橋區大觀路三段263號","121.429136666667","24.9923233333333","6500100","板橋區"
"220050","245-BX","2019/12/20 14:43:31","新北市板橋區縣民大道三段47號","121.474335","25.0209733333333","6500100","板橋區"
"220040","267-BY","2019/12/20 14:43:33","新北市板橋區懷德街139巷20弄66號","121.48027","25.03047","6500100","板橋區"
"220004","276-BY","2019/12/20 14:43:39","新北市板橋區干城路148號","121.459873333333","24.9930166666667","6500100","板橋區"
"220020","277-BY","2019/12/20 14:43:28","新北市板橋區金門街163-1號","121.433008333333","24.9904283333333","6500100","板橋區"
"220019","283-VK","2019/12/20 14:43:21","新北市中和區和平路200巷29號","121.46498","24.9946616666667","6500100","板橋區"
"220043","285-UM","2019/12/20 14:43:29","新北市板橋區陽明街285號","121.461981666667","25.0263816666667","6500100","板橋區"
"220001","285-VK","2019/12/20 14:43:41","新北市板橋區民生路一段36-1號","121.474741666667","25.0143033333333","6500100","板橋區"
"220107","286-VK","2019/12/20 14:43:36","新北市板橋區僑中二街8巷16號","121.446495","25.0114033333333","6500100","板橋區"
"220029","287-VK","2019/12/20 14:43:28","新北市板橋區大觀路一段29巷131弄33-16號","121.450526666667","25.0042783333333","6500100","板橋區"
"220039","288-VK","2019/12/20 14:43:45","新北市板橋區漢生西路159號","121.462956666667","25.0234933333333","6500100","板橋區"
"220009","293-UM","2019/12/20 14:43:33","新北市板橋區觀光街66號","121.46989","25.0167166666667","6500100","板橋區"
"220041","295-UM","2019/12/20 14:43:35","新北市板橋區裕民街135號","121.459051666667","25.027295","6500100","板橋區"
"220032","296-UM","2019/12/20 14:43:41","新北市板橋區溪崑二街101號","121.426975","24.98914","6500100","板橋區"
"220023","303-R5","2019/12/20 14:43:27","新北市板橋區中正路253巷5號","121.455418333333","25.0182283333333","6500100","板橋區"
"220010","305-R5","2019/12/20 14:43:42","新北市板橋區中山路二段416巷58號","121.482966666667","25.0189916666667","6500100","板橋區"
"220047","317-R6","2019/12/20 14:43:36","新北市板橋區四維路269巷41號","121.461476666667","25.0275083333333","6500100","板橋區"
"220110","487-VK","2019/12/20 14:43:42","新北市板橋區新海路403巷28號","121.457226666667","25.02611","6500100","板橋區"
"220037","491-VK","2019/12/20 14:43:42","新北市板橋區仁化街90號","121.47648","25.0321","6500100","板橋區"
"220104","560-BX","2019/12/20 14:43:34","新北市板橋區新生街89巷2號","121.458231666667","25.0219383333333","6500100","板橋區"
"220052","561-BX","2019/12/20 14:43:26","新北市板橋區文化路一段435巷31弄1號","121.466831666667","25.0229766666667","6500100","板橋區"
"220109","609-BX","2019/12/20 14:43:42","新北市板橋區萬安街53巷22號","121.483311666667","25.023775","6500100","板橋區"
"220005","686-BX","2019/12/20 14:43:36","新北市板橋區干城路167號","121.461076666667","24.9915916666667","6500100","板橋區"
"220025","687-BX","2019/12/20 14:43:36","新北市板橋區僑中二街88巷1號","121.446401666667","25.0092766666667","6500100","板橋區"
"220111","689-BX","2019/12/20 14:43:36","新北市板橋區長江路二段223號","121.468241666667","25.0324566666667","6500100","板橋區"
"220051","KEA-2699","2019/12/20 14:43:31","新北市板橋區仁化街66號","121.47587","25.0318466666667","6500100","板橋區"
"220003","827-TW","2019/12/20 14:43:31","新北市板橋區國慶路149巷13弄2號","121.460905","24.997145","6500100","板橋區"
"220016","830-TW","2019/12/20 14:43:31","新北市板橋區中山路二段416巷50弄2號","121.483083333333","25.019745","6500100","板橋區"
"220014","831-TW","2019/12/20 14:43:29","新北市板橋區長安街138巷1弄79號","121.474695","25.0110683333333","6500100","板橋區"
"220022","895-R6","2019/12/20 14:43:31","新北市板橋區府中路29-2號","121.458586666667","25.0080533333333","6500100","板橋區"
"220108","985-R7","2019/12/20 14:43:25","新北市板橋區中正路316號","121.454743333333","25.0208116666667","6500100","板橋區"
"220046","AAC-210","2019/12/20 14:43:41","新北市板橋區光正街43號","121.461795","25.017235","6500100","板橋區"
"220012","AAC-253","2019/12/20 14:43:31","新北市板橋區實踐路181-2號","121.464285","25.0035783333333","6500100","板橋區"
