"lineid","car","time","location","longitude","latitude","cityid","cityname"
"234026","9371-KE","2019/12/20 17:43:40","新北市永和區永和路一段178號","121.514156666667","25.008935","6500400","永和區"
"249005","172-UM","2019/12/20 17:43:42","新北市八里區荖阡坑路34-1號","121.402775","25.1297983333333","6502300","八里區"
"249001","173-UM","2019/12/20 17:43:28","新北市八里區龍米路二段153-8號","121.440061666667","25.153505","6502300","八里區"
"249004","303-UY","2019/12/20 17:43:41","新北市八里區中華路一段81巷27號","121.419711666667","25.15509","6502300","八里區"
"249002","305-UY","2019/12/20 17:43:37","新北市八里區龍形三街9巷2號","121.450645","25.13182","6502300","八里區"
"249003","593-UM","2019/12/20 17:43:36","新北市八里區中山路二段125號","121.405483333333","25.1518616666667","6502300","八里區"
"232011","375-UM","2019/12/20 17:43:28","新北市坪林區北宜路八段99號","121.706015","24.9348866666667","6502000","坪林區"
"244007","080-UY","2019/12/20 17:43:46","新北市林口區佳林路5號","121.387173333333","25.08236","6501700","林口區"
"244019","402-UM","2019/12/20 17:43:41","新北市林口區忠孝路554號","121.374005","25.06801","6501700","林口區"
"244013","KEA-2802","2019/12/20 17:43:34","新北市林口區中山路206號","121.386941666667","25.0792116666667","6501700","林口區"
"244023","483-VK","2019/12/20 17:43:43","新北市林口區興林路351號","121.388968333333","25.068735","6501700","林口區"
"244017","485-VK","2019/12/20 17:43:43","新北市林口區忠孝路377號","121.369338333333","25.0715716666667","6501700","林口區"
"244009","657-BX","2019/12/20 17:43:40","新北市林口區林口路297巷11號","121.385595","25.0845116666667","6501700","林口區"
"244011","701-TV","2019/12/20 17:43:25","新北市林口區中正路228號","121.390353333333","25.0777666666667","6501700","林口區"
"244025","837-TS","2019/12/20 17:43:41","新北市林口區文化三路一段181號","121.362068333333","25.0696916666667","6501700","林口區"
"244021","838-TS","2019/12/20 17:43:36","新北市林口區仁愛路一段1巷78號","121.395998333333","25.0693766666667","6501700","林口區"
"222003","436-BY","2019/12/20 17:43:23","新北市深坑區北深路二段116號","121.616711666667","25.0032083333333","6501800","深坑區"
"231046","719-UM","2019/12/20 17:43:42","新北市新店區直潭路92號","121.530953333333","24.9375733333333","6500600","新店區"
"241024","065-VK","2019/12/20 17:43:36","新北市三重區大勇街1號","121.48375","25.0713383333333","6500200","三重區"
"241016","266-UM","2019/12/20 17:43:35","新北市三重區重新路三段19號","121.49505","25.0615866666667","6500200","三重區"
"241012","743-BX","2019/12/20 17:43:28","新北市三重區環河北路三段600號","121.489278333333","25.092015","6500200","三重區"
"241033","AAC-255","2019/12/20 17:43:38","新北市三重區光復路一段11號","121.472086666667","25.04719","6500200","三重區"
"235063","006-UY","2019/12/20 17:43:27","新北市中和區員山路36巷16-3號","121.48506","24.99123","6500300","中和區"
"247016","KEA-2869","2019/12/20 17:43:28","新北市蘆洲區中正路185巷31弄7號","121.466551666667","25.0841116666667","6501400","蘆洲區"
"247010","KED-0682","2019/12/20 17:43:37","新北市蘆洲區三民路2號","121.475956666667","25.0819733333333","6501400","蘆洲區"
"235018","640-BX","2019/12/20 17:43:34","新北市中和區員山路36巷16-2號","121.485278333333","24.9915683333333","6500300","中和區"
"235057","801-TS","2019/12/20 17:43:28","新北市中和區員山路36巷16-2號","121.485158333333","24.99164","6500300","中和區"
"207004","KEE-1107","2019/12/20 17:43:35","新北市萬里區中幅里中福路6-2號","121.687025","25.1629633333333","6502800","萬里區"
"247006","893-R6","2019/12/20 17:43:43","新北市蘆洲區長安街7號","121.464348333333","25.0789066666667","6501400","蘆洲區"
"247020","546-UM","2019/12/20 17:43:44","新北市蘆洲區民義街109巷1號","121.473571666667","25.0909316666667","6501400","蘆洲區"
"247022","341-TH","2019/12/20 17:43:35","新北市蘆洲區中正路312號","121.464658333333","25.0908016666667","6501400","蘆洲區"
"247004","336-TH","2019/12/20 17:43:45","新北市蘆洲區長安街172巷23號","121.459986666667","25.0837916666667","6501400","蘆洲區"
"247024","057-VK","2019/12/20 17:43:26","新北市蘆洲區光榮路101巷38號","121.463933333333","25.0902966666667","6501400","蘆洲區"
"247014","056-VK","2019/12/20 17:43:31","新北市蘆洲區中正路131號","121.469415","25.08461","6501400","蘆洲區"
"247018","053-VK","2019/12/20 17:43:30","新北市蘆洲區復興路122號","121.476386666667","25.0873483333333","6501400","蘆洲區"
"247008","002-UY","2019/12/20 17:43:44","新北市蘆洲區和平路29巷4號","121.471921666667","25.0788883333333","6501400","蘆洲區"
"247002","001-UY","2019/12/20 17:43:32","新北市蘆洲區永平街32巷11弄3號","121.458658333333","25.0913633333333","6501400","蘆洲區"
"228002","663-BX","2019/12/20 17:43:37","新北市貢寮區福隆里外隆林街14-1號","121.959128333333","25.0036266666667","6502600","貢寮區"
"228001","670-TC","2019/12/20 17:43:35","新北市貢寮區真理里新港街26巷28-6號","121.92769","25.0554166666667","6502600","貢寮區"
"228003","828-UM","2019/12/20 17:43:31","新北市貢寮區真理里延平街36號","121.924508333333","25.0563883333333","6502600","貢寮區"
"224006","676-BX","2019/12/20 17:43:33","新北市瑞芳區傑魚坑路183號","121.788443333333","25.1083033333333","6501200","瑞芳區"
"224009","275-VK","2019/12/20 17:43:41","新北市瑞芳區金光路376號","121.850801666667","25.1107566666667","6501200","瑞芳區"
"224008","272-VK","2019/12/20 17:43:33","新北市瑞芳區明燈路一段6-1號","121.823046666667","25.1074216666667","6501200","瑞芳區"
"224005","271-BY","2019/12/20 17:43:35","新北市瑞芳區海濱路29-9號","121.830846666667","25.12435","6501200","瑞芳區"
"227002","642-TC","2019/12/20 17:21:23","新北市雙溪區共和里東榮街52號","121.86638","25.033645","6502500","雙溪區"
"227001","400-TW","2019/12/20 17:43:29","新北市雙溪區三貂里政光路3-1號","121.850831666667","25.06339","6502500","雙溪區"
"253006","295-VK","2019/12/20 17:43:28","新北市石門區中央路6號","121.566561666667","25.29139","6502200","石門區"
"251004","009-UM","2019/12/20 17:43:30","新北市淡水區民權路13-5號","121.459328333333","25.1416916666667","6501000","淡水區"
"251005","010-UM","2019/12/20 17:43:31","新北市淡水區學府路102巷28號","121.451535","25.1714466666667","6501000","淡水區"
"251002","012-UM","2019/12/20 17:43:37","新北市淡水區中山路135號","121.441093333333","25.1714216666667","6501000","淡水區"
"251008","181-VK","2019/12/20 17:43:27","新北市淡水區八勢路30巷19號","121.46252","25.1535766666667","6501000","淡水區"
"251010","413-VK","2019/12/20 17:43:42","新北市淡水區淡海路280巷33弄34-2號","121.418743333333","25.1886133333333","6501000","淡水區"
"251012","441-VK","2019/12/20 17:43:42","新北市淡水區北新路一段15號","121.454018333333","25.181015","6501000","淡水區"
"251007","442-VK","2019/12/20 17:43:28","新北市淡水區民生路52巷27號","121.462931666667","25.1377416666667","6501000","淡水區"
"251006","561-UM","2019/12/20 17:43:37","新北市淡水區大信街13-1號","121.441838333333","25.1765433333333","6501000","淡水區"
"251009","575-R6","2019/12/20 17:43:42","新北市淡水區中正路36號","121.443791666667","25.1692516666667","6501000","淡水區"
"251011","650-BX","2019/12/20 17:43:43","新北市淡水區坪頂路712號","121.4825","25.1585183333333","6501000","淡水區"
"251003","766-UM","2019/12/20 17:43:33","新北市淡水區中山北路一段104號","121.442651666667","25.17665","6501000","淡水區"
"252001","292-VK","2019/12/20 17:43:36","新北市三芝區中山路一段24號","121.501118333333","25.25819","6502100","三芝區"
"237004","KEA-2597","2019/12/20 17:43:44","新北市三峽區中山路459巷135號","121.348913333333","24.933195","6500900","三峽區"
"237009","210-TH","2019/12/20 17:43:29","新北市三峽區中山路184巷1弄1號","121.36365","24.9369483333333","6500900","三峽區"
"237013","252-BX","2019/12/20 17:43:44","新北市三峽區愛國路22號","121.374315","24.933415","6500900","三峽區"
"237012","275-BY","2019/12/20 17:43:31","新北市三峽區中山路286號","121.36106","24.937925","6500900","三峽區"
"237014","433-BY","2019/12/20 17:43:27","新北市三峽區中山路170-1號","121.364415","24.9366183333333","6500900","三峽區"
"237011","KEA-2596","2019/12/20 17:43:40","新北市三峽區大智路69號","121.36067","24.935675","6500900","三峽區"
"237010","706-TV","2019/12/20 17:43:32","新北市三峽區中山路126號","121.365488333333","24.936015","6500900","三峽區"
"237005","AKY-6261","2019/12/20 17:43:34","新北市三峽區中山路459巷135號","121.348656666667","24.932945","6500900","三峽區"
"236014","270-VK","2019/12/20 17:43:34","新北市土城區城林路6巷80號","121.43856","24.97962","6501300","土城區"
"247012","KED-0683","2019/12/20 17:43:27","新北市蘆洲區復興路60巷1弄17號","121.475335","25.0863766666667","6501400","蘆洲區"
"252002","KED-0821","2019/12/20 17:43:35","新北市三芝區智成街47號","121.504218333333","25.2562966666667","6502100","三芝區"
"236020","401-BY","2019/12/20 17:43:25","新北市土城區城林路6巷80號","121.438763333333","24.97965","6501300","土城區"
"236059","912-UM","2019/12/20 17:43:43","新北市土城區城林路6巷80號","121.4385","24.9795883333333","6501300","土城區"
"242060","986-R7","2019/12/20 17:43:42","新北市新莊區瓊林南路46-2號","121.435921666667","25.0176883333333","6500500","新莊區"
"242005","751-BX","2019/12/20 17:43:29","新北市新莊區自立街216號","121.457141666667","25.0453566666667","6500500","新莊區"
"242029","615-BX","2019/12/20 17:43:32","新北市新莊區復興路一段117號","121.449478333333","25.043125","6500500","新莊區"
"242027","613-BX","2019/12/20 17:43:41","新北市新莊區幸福路6號","121.459381666667","25.0495016666667","6500500","新莊區"
"242058","612-BX","2019/12/20 17:43:36","新北市新莊區中正路560號","121.429215","25.0310466666667","6500500","新莊區"
"242048","566-BX","2019/12/20 17:43:37","新北市新莊區萬安街100號","121.420615","25.0224366666667","6500500","新莊區"
"242054","497-BY","2019/12/20 17:43:40","新北市新莊區新樹路653號","121.43272","25.0031383333333","6500500","新莊區"
"242044","442-UM","2019/12/20 17:43:44","新北市新莊區中正路871巷9弄26號","121.419385","25.0268883333333","6500500","新莊區"
"242002","441-UM","2019/12/20 17:43:44","新北市新莊區新泰路47號","121.449538333333","25.0336366666667","6500500","新莊區"
"242007","440-UM","2019/12/20 17:43:30","新北市新莊區福樂街116號","121.457265","25.0479683333333","6500500","新莊區"
"242013","413-TV","2019/12/20 17:43:42","新北市新莊區中誠街142巷1號","121.448701666667","25.0476483333333","6500500","新莊區"
"242050","400-BY","2019/12/20 17:43:27","新北市新莊區西盛街171號","121.428161666667","25.017385","6500500","新莊區"
"242025","362-BY","2019/12/20 17:43:32","新北市新莊區思源路157號","121.459761666667","25.044565","6500500","新莊區"
"242023","353-BY","2019/12/20 17:43:44","新北市新莊區民樂街59號","121.457916666667","25.0416666666667","6500500","新莊區"
"242015","132-UY","2019/12/20 17:43:43","新北市新莊區新泰路394號","121.444023333333","25.0435133333333","6500500","新莊區"
"242017","173-VK","2019/12/20 17:43:30","新北市新莊區復興路一段151號","121.45045","25.0433283333333","6500500","新莊區"
"242032","175-VK","2019/12/20 17:43:41","新北市新莊區新泰路368號","121.444401666667","25.0428516666667","6500500","新莊區"
"242056","176-VK","2019/12/20 17:43:41","新北市新莊區瓊林路13-7號","121.448356666667","25.030405","6500500","新莊區"
"242021","KED-0687","2019/12/20 17:43:32","新北市新莊區中華路一段180號","121.452741666667","25.041935","6500500","新莊區"
"242039","346-TH","2019/12/20 17:43:35","新北市新莊區民安西路1號","121.42669","25.02198","6500500","新莊區"
"242041","347-TH","2019/12/20 17:43:31","新北市新莊區福營路103號","121.43367","25.0321566666667","6500500","新莊區"
"242037","348-TH","2019/12/20 17:43:40","新北市新莊區建福路69巷45號","121.428798333333","25.0276383333333","6500500","新莊區"
"242009","349-TH","2019/12/20 17:43:46","新北市新莊區福壽街169巷13號","121.456815","25.0536666666667","6500500","新莊區"
"242034","350-TH","2019/12/20 17:43:35","新北市新莊區新莊路610號","121.443588333333","25.0328916666667","6500500","新莊區"
"242019","351-TH","2019/12/20 17:43:41","新北市新莊區中港路229號","121.4542","25.0427233333333","6500500","新莊區"
"238015","755-BX","2019/12/20 17:43:43","新北市樹林區樹德街136巷41號","121.420141666667","24.9944416666667","6500700","樹林區"
"238023","601-UM","2019/12/20 17:43:40","新北市樹林區福興街3號","121.404256666667","25.0168816666667","6500700","樹林區"
"238019","599-UM","2019/12/20 17:43:42","新北市樹林區太平路99號","121.419106666667","24.981245","6500700","樹林區"
"238024","5061-A6","2019/12/20 17:43:29","新北市樹林區八德街640號","121.396953333333","24.969205","6500700","樹林區"
"238018","KEA-2217","2019/12/20 17:43:29","新北市樹林區博愛街29巷10號","121.42738","24.992455","6500700","樹林區"
"238022","KEA-2213","2019/12/20 17:43:39","新北市樹林區太元街33號","121.418421666667","24.9796633333333","6500700","樹林區"
"238021","KEA-2539","2019/12/20 17:43:42","新北市樹林區柑園街一段30-3號","121.405135","24.9610833333333","6500700","樹林區"
"238025","303-VK","2019/12/20 17:43:24","新北市樹林區三俊街27號","121.412225","25.015605","6500700","樹林區"
"238017","283-BY","2019/12/20 17:43:37","新北市樹林區三德街12號","121.41335","25.0129283333333","6500700","樹林區"
"238014","282-BY","2019/12/20 17:43:40","新北市樹林區保安街一段338號","121.418086666667","24.998045","6500700","樹林區"
"238020","268-VK","2019/12/20 17:43:46","新北市樹林區俊英街166巷9號","121.427076666667","25.0072666666667","6500700","樹林區"
"238026","172-UY","2019/12/20 17:43:33","新北市樹林區新興街19巷34弄25號","121.402301666667","24.972625","6500700","樹林區"
"238016","169-UY","2019/12/20 17:43:29","新北市樹林區啟智街129-10號","121.417673333333","24.9888966666667","6500700","樹林區"
"239007","AAC-297","2019/12/20 17:43:32","新北市鶯歌區鶯桃路120巷12號","121.338863333333","24.9550866666667","6500800","鶯歌區"
"239006","891-R6","2019/12/20 17:43:41","新北市鶯歌區永和街58號","121.333403333333","24.9682066666667","6500800","鶯歌區"
"239008","527-UM","2019/12/20 17:43:43","桃園市龜山區宏德司法新村4號","121.331266666667","24.9793966666667","6500800","鶯歌區"
"239005","526-UM","2019/12/20 17:43:26","新北市鶯歌區鳳吉四街19號","121.32663","24.972765","6500800","鶯歌區"
"239001","417-VK","2019/12/20 17:43:44","新北市鶯歌區中正三路215號","121.335133333333","24.9392933333333","6500800","鶯歌區"
"239003","360-BY","2019/12/20 17:43:37","新北市鶯歌區永吉街27巷27弄5號","121.337115","24.9568","6500800","鶯歌區"
"239002","359-BY","2019/12/20 17:43:25","新北市鶯歌區育德街15-3號","121.344288333333","24.9551033333333","6500800","鶯歌區"
"239004","193-VK","2019/12/20 17:43:35","新北市鶯歌區三鶯路5號","121.356923333333","24.94089","6500800","鶯歌區"
"221008","489-VK","2019/12/20 17:43:38","新北市汐止區康寧街901號","121.651455","25.0750616666667","6501100","汐止區"
"221010","269-BY","2019/12/20 17:43:35","新北市汐止區汐萬路一段418巷25號","121.650053333333","25.0789566666667","6501100","汐止區"
"207003","KEE-1020","2019/12/20 17:43:39","新北市萬里區龜吼里漁澳路6號","121.686306666667","25.1944666666667","6502800","萬里區"
"221018","753-BX","2019/12/20 17:43:42","新北市汐止區汐萬路一段310號","121.650353333333","25.0748933333333","6501100","汐止區"
"233001","KEA-2870","2019/12/20 17:43:41","新北市烏來區信福路2巷2號","121.533056666667","24.8395033333333","6502900","烏來區"
"242046","281-VK","2019/12/20 17:43:42","新北市新莊區中正路589號","121.434131666667","25.0323083333333","6500500","新莊區"
"242011","280-VK","2019/12/20 17:43:38","新北市新莊區中港路622號","121.451043333333","25.0549683333333","6500500","新莊區"
