"lineid","car","time","location","longitude","latitude","cityid","cityname"
"234046","148-BY","2019/12/20 19:59:42","新北市永和區成功路一段74號","121.526765","25.003365","6500400","永和區"
"234081","298-R6","2019/12/20 19:59:35","新北市永和區永亨路98號","121.523018333333","25.0046866666667","6500400","永和區"
"234038","336-UY","2019/12/20 19:59:31","新北市永和區成功路二段88號","121.526591666667","24.998615","6500400","永和區"
"234064","337-UY","2019/12/20 19:59:35","新北市永和區中正路412巷2弄11號","121.518498333333","25.00193","6500400","永和區"
"234086","338-UY","2019/12/20 19:59:39","新北市永和區福和路260號","121.518226666667","25.0075633333333","6500400","永和區"
"234070","552-UM","2019/12/20 19:59:46","新北市永和區國光路51號","121.519006666667","25.00819","6500400","永和區"
"234017","745-BX","2019/12/20 19:59:32","新北市永和區文化路71號","121.513835","25.015115","6500400","永和區"
"234030","746-BX","2019/12/20 19:59:35","新北市永和區民族街67巷20號","121.5196","24.9971233333333","6500400","永和區"
"234054","KEA-2590","2019/12/20 19:59:36","新北市永和區環河東路一段122號","121.520625","25.0154283333333","6500400","永和區"
"234007","KED-0605","2019/12/20 19:59:32","新北市永和區中山路一段238號","121.507408333333","25.00782","6500400","永和區"
"234013","KEA-2591","2019/12/20 19:59:41","新北市永和區保生路55號","121.50474","25.0106","6500400","永和區"
"234061","AAD-866","2019/12/20 19:59:39","新北市永和區中正路283巷55弄3號","121.515891666667","24.9991383333333","6500400","永和區"
"234042","862-TW","2019/12/20 19:59:36","新北市永和區雙和街17巷14號","121.509141666667","25.0016433333333","6500400","永和區"
"234050","863-TW","2019/12/20 19:59:40","新北市永和區保安路292號","121.505155","25.0118966666667","6500400","永和區"
"234026","9371-KE","2019/12/20 19:59:37","新北市永和區水源街34號","121.511081666667","25.0045","6500400","永和區"
"234011","9373-KE","2019/12/20 19:59:28","新北市永和區仁愛路352巷122弄9號","121.500528333333","25.0088633333333","6500400","永和區"
"249005","172-UM","2019/12/20 19:59:41","新北市八里區楓林路1-9號","121.386393333333","25.13267","6502300","八里區"
"249001","173-UM","2019/12/20 19:59:39","新北市八里區中華路二段310號","121.403806666667","25.1483633333333","6502300","八里區"
"249004","303-UY","2019/12/20 19:59:40","新北市八里區中華路一段333-1號","121.41315","25.1539966666667","6502300","八里區"
"249002","305-UY","2019/12/20 19:59:24","新北市八里區頂寮二街1號","121.451013333333","25.123835","6502300","八里區"
"249003","593-UM","2019/12/20 19:59:31","新北市八里區訊塘路3號","121.398191666667","25.1446783333333","6502300","八里區"
"248016","026-BX","2019/12/20 19:59:33","新北市五股區成泰路三段577巷80弄7號","121.449485","25.1042533333333","6501500","五股區"
"248008","KED-0815","2019/12/20 19:59:34","新北市五股區四維路153號","121.467773333333","25.07452","6501500","五股區"
"248018","KED-0813","2019/12/20 19:59:40","新北市五股區登林路118-6號","121.413948333333","25.0759833333333","6501500","五股區"
"248012","247-BX","2019/12/20 19:59:33","新北市五股區民義路一段211號","121.43052","25.0889583333333","6501500","五股區"
"248010","272-BY","2019/12/20 19:59:32","新北市五股區登林路104號","121.427208333333","25.0705833333333","6501500","五股區"
"248004","677-BX","2019/12/20 19:59:28","新北市五股區成泰路一段72-1號","121.435581666667","25.0699566666667","6501500","五股區"
"248002","678-BX","2019/12/20 19:59:35","新北市五股區成泰路三段476號","121.451771666667","25.1014116666667","6501500","五股區"
"234023","9380-KE","2019/12/20 19:59:29","新北市永和區中正路702巷20弄2號","121.516516666667","25.0104833333333","6500400","永和區"
"234077","969-R7","2019/12/20 19:59:45","新北市永和區民有街3-2號","121.515988333333","24.997125","6500400","永和區"
"234074","AAC-211","2019/12/20 19:59:31","新北市永和區豫溪街183號","121.522455","25.0104216666667","6500400","永和區"
"234067","AAC-212","2019/12/20 19:59:34","新北市永和區永貞路356號","121.51021","25.0064616666667","6500400","永和區"
"234003","AAC-295","2019/12/20 19:59:36","新北市永和區豫溪街50號","121.515821666667","25.009925","6500400","永和區"
"208001","267-VK","2019/12/20 19:59:44","新北市金山區南勢湖67號","121.616088333333","25.2152","6502700","金山區"
"243012","AAD-798","2019/12/20 19:59:38","新北市泰山區全興路13號","121.432353333333","25.05893","6501600","泰山區"
"243010","297-R6","2019/12/20 19:59:42","新北市泰山區中華街10巷1號","121.42787","25.05252","6501600","泰山區"
"243014","KEA-2801","2019/12/20 19:59:31","新北市泰山區泰林路二段33-1號","121.435848333333","25.0567866666667","6501600","泰山區"
"243016","421-VK","2019/12/20 19:59:31","新北市泰山區貴陽街3號","121.42112","25.0335266666667","6501600","泰山區"
"243009","KEA-2215","2019/12/20 19:59:36","新北市泰山區楓江路16巷27號","121.434185","25.0614116666667","6501600","泰山區"
"243011","KEA-2216","2019/12/20 19:59:41","新北市泰山區明志路三段182巷54號","121.422815","25.0397583333333","6501600","泰山區"
"222003","436-BY","2019/12/20 19:59:44","新北市深坑區埔新街14號","121.620741666667","25.0039366666667","6501800","深坑區"
"222002","659-BX","2019/12/20 19:59:42","新北市深坑區埔新街104-1號","121.618556666667","25.0022933333333","6501800","深坑區"
"231061","002-UM","2019/12/20 19:59:38","新北市新店區安民街356號","121.516618333333","24.9758966666667","6500600","新店區"
"231044","047-UY","2019/12/20 19:59:41","新北市新店區復興路27號","121.538983333333","24.9867116666667","6500600","新店區"
"231060","106-UY","2019/12/20 19:59:35","新北市新店區安康路二段337-1號","121.498185","24.9558616666667","6500600","新店區"
"231051","107-UY","2019/12/20 19:59:39","新北市新店區中央二街7-1號","121.529253333333","24.9730916666667","6500600","新店區"
"231049","108-UY","2019/12/20 19:59:30","新北市新店區民族路9號","121.541716666667","24.97881","6500600","新店區"
"231065","110-UY","2019/12/20 19:59:40","新北市新店區安祥路106-11號","121.477153333333","24.9611916666667","6500600","新店區"
"231050","KEA-2219","2019/12/20 19:59:41","新北市新店區北宜路二段58號","121.549331666667","24.9514116666667","6500600","新店區"
"221031","KEA-2785","2019/12/20 19:59:38","新北市汐止區福德二路55巷6弄1號","121.63454","25.0666616666667","6501100","汐止區"
"231062","256-BX","2019/12/20 19:59:44","新北市新店區華潭街6號","121.529718333333","24.9520483333333","6500600","新店區"
"231054","260-TV","2019/12/20 19:59:37","新北市新店區光明街139號","121.539515","24.962025","6500600","新店區"
"231042","268-BY","2019/12/20 19:59:41","新北市新店區中正路4號","121.545758333333","24.9694766666667","6500600","新店區"
"231064","278-BY","2019/12/20 19:59:27","新北市新店區安光路10-1號","121.51383","24.9641316666667","6500600","新店區"
"231045","355-BY","2019/12/20 19:59:32","新北市新店區北宜路二段208號","121.559308333333","24.954425","6500600","新店區"
"231055","4716-K9","2019/12/20 19:59:33","新北市新店區力行路38號","121.538891666667","24.9650616666667","6500600","新店區"
"231056","4715-K9","2019/12/20 19:59:34","新北市新店區北新路二段29巷3弄1號","121.542241666667","24.9729383333333","6500600","新店區"
"231067","4772-VM","2019/12/20 19:59:43","新北市新店區秀山路11巷12弄15號","121.5314","24.9595866666667","6500600","新店區"
"231068","512-UM","2019/12/20 19:59:32","新北市新店區安康路一段258-2號","121.520406666667","24.96558","6500600","新店區"
"231053","515-UM","2019/12/20 19:59:33","新北市新店區新烏路三段寶島巷2弄3號","121.552001666667","24.898635","6500600","新店區"
"231043","618-UM","2019/12/20 19:59:26","新北市新店區中正路263-4號","121.53835","24.9739283333333","6500600","新店區"
"231041","619-UM","2019/12/20 19:59:45","新北市新店區自由街2-1號","121.535705","24.9755833333333","6500600","新店區"
"231063","641-BX","2019/12/20 19:59:25","新北市新店區車子路11號","121.503021666667","24.9519533333333","6500600","新店區"
"231048","KED-0819","2019/12/20 19:59:43","新北市新店區寶宏路3-6號","121.549251666667","24.9763283333333","6500600","新店區"
"231057","720-UM","2019/12/20 19:59:36","新北市新店區花園二路一段11號","121.555443333333","24.9325716666667","6500600","新店區"
"231059","897-TW","2019/12/20 19:59:28","新北市新店區安和路一段15號","121.516825","24.96422","6500600","新店區"
"231040","898-TW","2019/12/20 19:59:38","新北市新店區中正路75巷71號","121.543165","24.9688266666667","6500600","新店區"
"231066","AKT-0513","2019/12/20 19:59:33","新北市新店區安興路20號","121.514998333333","24.9660183333333","6500600","新店區"
"241011","013-R5","2019/12/20 19:59:33","新北市三重區三和路二段165號","121.497911666667","25.0695933333333","6500200","三重區"
"241028","022-UY","2019/12/20 19:59:39","新北市三重區中正南路114號","121.494438333333","25.0583066666667","6500200","三重區"
"241031","061-VK","2019/12/20 19:59:31","新北市三重區重新路四段142巷2號","121.487026666667","25.0560833333333","6500200","三重區"
"241015","062-VK","2019/12/20 19:59:31","新北市三重區三和路二段43巷4號","121.501091666667","25.067645","6500200","三重區"
"241017","063-VK","2019/12/20 19:59:43","新北市三重區自強路一段290號","121.49147","25.068195","6500200","三重區"
"241024","065-VK","2019/12/20 19:59:36","新北市三重區大勇街55號","121.481081666667","25.0717183333333","6500200","三重區"
"241007","066-VK","2019/12/20 19:59:34","新北市三重區溪尾街96號","121.489516666667","25.078475","6500200","三重區"
"241003","091-VK","2019/12/20 19:59:35","新北市三重區仁愛街445巷61號","121.491485","25.0833383333333","6500200","三重區"
"241008","742-BX","2019/12/20 19:59:27","新北市三重區永福街197巷15-1號","121.478946666667","25.0743416666667","6500200","三重區"
"241006","262-UM","2019/12/20 19:59:26","新北市三重區力行路二段121號","121.483073333333","25.0764516666667","6500200","三重區"
"241009","267-UM","2019/12/20 19:59:41","新北市三重區三和路四段388-2號","121.48202","25.0789966666667","6500200","三重區"
"241018","268-UM","2019/12/20 19:59:43","新北市三重區雙園街84號","121.495403333333","25.067615","6500200","三重區"
"241032","269-UM","2019/12/20 19:59:31","新北市三重區朝陽街25號","121.483578333333","25.05655","6500200","三重區"
"241013","270-UM","2019/12/20 19:59:30","新北市三重區三和路三段125巷5號","121.49321","25.0734383333333","6500200","三重區"
"241035","KEA-2210","2019/12/20 19:59:36","新北市三重區大榮街9號","121.498226666667","25.0630983333333","6500200","三重區"
"241030","KED-0822","2019/12/20 19:59:30","新北市三重區重新路四段244巷6號","121.48617","25.0535216666667","6500200","三重區"
"241004","475-VK","2019/12/20 19:59:41","新北市三重區五華街86號","121.493048333333","25.08226","6500200","三重區"
"241020","478-VK","2019/12/20 19:59:41","新北市三重區忠孝路一段101號","121.489631666667","25.0721716666667","6500200","三重區"
"241026","480-VK","2019/12/20 19:59:37","新北市三重區福德南路28號","121.50278","25.06299","6500200","三重區"
"241014","543-UM","2019/12/20 19:59:34","新北市三重區長春街7號","121.499631666667","25.0689083333333","6500200","三重區"
"241023","545-UM","2019/12/20 19:59:29","新北市三重區頂崁街172號","121.477605","25.06594","6500200","三重區"
"241001","547-UM","2019/12/20 19:59:35","新北市三重區溪尾街54號","121.490443333333","25.0773616666667","6500200","三重區"
"241019","KEA-2593","2019/12/20 19:59:34","新北市三重區自強路二段27號","121.489636666667","25.06932","6500200","三重區"
"241005","AAD-863","2019/12/20 19:59:47","新北市三重區碧華街257號","121.48963","25.0830783333333","6500200","三重區"
"241012","743-BX","2019/12/20 19:59:28","新北市三重區仁厚街21號","121.499508333333","25.0761983333333","6500200","三重區"
"241025","KED-0670","2019/12/20 19:59:38","新北市三重區頂崁街210巷16號","121.476543333333","25.067735","6500200","三重區"
"241029","942-UM","2019/12/20 19:59:39","新北市三重區重安街1號","121.4901","25.0582","6500200","三重區"
"241033","AAC-255","2019/12/20 19:59:38","新北市三重區中興北街32號","121.469671666667","25.0487783333333","6500200","三重區"
"235066","003-UY","2019/12/20 19:59:42","新北市中和區中山路二段44號","121.504286666667","25.005025","6500300","中和區"
"235039","097-UM","2019/12/20 19:59:37","新北市中和區景平路278巷16弄24號","121.514375","24.99387","6500300","中和區"
"235065","098-UM","2019/12/20 19:59:40","新北市中和區永和路90巷3號","121.4973","25.0058916666667","6500300","中和區"
"235040","150-BY","2019/12/20 19:59:42","新北市中和區保健路10巷19號","121.507585","24.99711","6500300","中和區"
"235055","183-VK","2019/12/20 19:59:35","新北市中和區中山路三段13號","121.47968","25.0059966666667","6500300","中和區"
"235044","293-VK","2019/12/20 19:59:38","新北市中和區復興路73號","121.503768333333","24.99031","6500300","中和區"
"247016","KEA-2869","2019/12/20 19:59:40","新北市蘆洲區中正路93號","121.469983333333","25.0839916666667","6501400","蘆洲區"
"235050","4979-A6","2019/12/20 19:59:37","新北市中和區景平路235號","121.510145","24.99268","6500300","中和區"
"235046","733-UM","2019/12/20 19:59:42","新北市中和區興南路一段105巷20弄10號","121.51038","24.9855333333333","6500300","中和區"
"235051","157-BY","2019/12/20 19:59:40","新北市中和區復興路56號","121.503905","24.9904266666667","6500300","中和區"
"235059","AAC-215","2019/12/20 19:59:41","新北市中和區圓通路335巷4弄1號","121.492053333333","24.99029","6500300","中和區"
"207004","KEE-1107","2019/12/20 19:59:44","新北市萬里區北基里忠二街15號","121.685113333333","25.1753866666667","6502800","萬里區"
"220054","015-TV","2019/12/20 19:59:36","新北市板橋區忠孝路忠義巷15弄43號","121.465471666667","25.0046066666667","6500100","板橋區"
"220065","072-UY","2019/12/20 19:59:41","新北市板橋區海山路49號","121.46674","25.010055","6500100","板橋區"
"220086","073-UY","2019/12/20 19:59:40","新北市板橋區南雅西路二段7巷25號","121.45194","25.009485","6500100","板橋區"
"220106","075-UY","2019/12/20 19:59:30","新北市板橋區懷德街78巷21號","121.477785","25.0312566666667","6500100","板橋區"
"220069","AAD-861","2019/12/20 19:59:30","新北市板橋區南雅南路二段11-1號","121.454366666667","25.00249","6500100","板橋區"
"247006","893-R6","2019/12/20 19:59:32","新北市蘆洲區九芎街88號","121.465911666667","25.0797866666667","6501400","蘆洲區"
"247020","546-UM","2019/12/20 19:59:34","新北市蘆洲區民義街63號","121.472965","25.0899383333333","6501400","蘆洲區"
"247004","500-BY","2019/12/20 19:59:40","新北市蘆洲區長安街196號","121.458663333333","25.08401","6501400","蘆洲區"
"247024","057-VK","2019/12/20 19:59:42","新北市蘆洲區光復路59號","121.463625","25.08507","6501400","蘆洲區"
"247014","056-VK","2019/12/20 19:59:26","新北市蘆洲區中山二路101號","121.472731666667","25.0818016666667","6501400","蘆洲區"
"247018","053-VK","2019/12/20 19:59:41","新北市蘆洲區民族路213號","121.478061666667","25.0895716666667","6501400","蘆洲區"
"247008","002-UY","2019/12/20 19:59:26","新北市蘆洲區信義路101號","121.478045","25.080085","6501400","蘆洲區"
"247002","001-UY","2019/12/20 19:59:35","新北市蘆洲區長安街343號","121.457193333333","25.0869216666667","6501400","蘆洲區"
"226004","312-R5","2019/12/20 19:59:32","新北市平溪區靜安路三段180號","121.77522","25.0388216666667","6502400","平溪區"
"228003","828-UM","2019/12/20 19:59:31","新北市貢寮區仁理村仁和路202號","121.923563333333","25.0528833333333","6502600","貢寮區"
"227002","642-TC","2019/12/20 19:59:30","新北市雙溪區雙溪里長安街16號","121.864996666667","25.0346716666667","6502500","雙溪區"
"227001","400-TW","2019/12/20 19:59:29","新北市雙溪區新基里新基南街25號","121.866235","25.0381816666667","6502500","雙溪區"
"222001","KEA-2212","2019/12/20 19:59:40","新北市深坑區北深路三段170號","121.602231666667","25.0034766666667","6501800","深坑區"
"208003","665-BX","2019/12/20 19:59:27","新北市金山區香園6號","121.634286666667","25.247445","6502700","金山區"
"251004","009-UM","2019/12/20 19:59:30","新北市淡水區民權路177巷18號","121.460558333333","25.1352533333333","6501000","淡水區"
"251005","010-UM","2019/12/20 19:59:31","新北市淡水區學府路136巷41號","121.451968333333","25.172685","6501000","淡水區"
"251001","011-UM","2019/12/20 19:59:30","新北市淡水區淡金路一段166-7號","121.453881666667","25.18015","6501000","淡水區"
"251002","012-UM","2019/12/20 19:59:37","新北市淡水區新市二路三段20號","121.43155","25.1934533333333","6501000","淡水區"
"251008","181-VK","2019/12/20 19:59:26","新北市淡水區淡海路72巷20號","121.424063333333","25.18105","6501000","淡水區"
"251012","441-VK","2019/12/20 19:59:37","新北市淡水區下圭柔山93-4號","121.436848333333","25.2097233333333","6501000","淡水區"
"251006","561-UM","2019/12/20 19:59:37","新北市淡水區水碓街10號","121.443641666667","25.1770733333333","6501000","淡水區"
"251009","575-R6","2019/12/20 19:59:42","新北市淡水區英專路21巷8號","121.445015","25.1698216666667","6501000","淡水區"
"251011","650-BX","2019/12/20 19:59:26","新北市淡水區淡金路二段270-1號","121.447041666667","25.1890433333333","6501000","淡水區"
"252001","292-VK","2019/12/20 19:59:36","新北市三芝區公正街9號","121.499725","25.25751","6502100","三芝區"
"237004","KEA-2597","2019/12/20 19:59:43","新北市三峽區添福5號","121.370896666667","24.9084133333333","6500900","三峽區"
"237009","210-TH","2019/12/20 19:59:29","新北市三峽區民族街28巷2-8號","121.368856666667","24.9307033333333","6500900","三峽區"
"237012","275-BY","2019/12/20 19:59:31","新北市三峽區安溪路322號","121.371276666667","24.9283583333333","6500900","三峽區"
"237014","433-BY","2019/12/20 19:59:27","新北市三峽區嘉添183號","121.369911666667","24.91138","6500900","三峽區"
"237006","5529-G3","2019/12/20 19:59:36","新北市三峽區中正路二段176巷24號","121.365316666667","24.9148533333333","6500900","三峽區"
"237015","649-BX","2019/12/20 19:59:25","新北市三峽區介壽路二段138巷1弄21號","121.39653","24.9334933333333","6500900","三峽區"
"237005","AKY-6261","2019/12/20 19:59:34","新北市三峽區民生街1巷20號","121.37955","24.9351066666667","6500900","三峽區"
"236042","KED-0685","2019/12/20 19:59:30","新北市土城區學府路一段98巷22號","121.455611666667","24.9888883333333","6501300","土城區"
"236030","253-BX","2019/12/20 19:59:38","新北市土城區中央路一段250巷2號","121.444213333333","24.984715","6501300","土城區"
"236026","269-VK","2019/12/20 19:59:42","新北市土城區中央路一段286號","121.443555","24.9824766666667","6501300","土城區"
"236014","270-VK","2019/12/20 19:59:34","新北市土城區廣福街123號","121.45626","24.9929033333333","6501300","土城區"
"236039","271-VK","2019/12/20 19:59:23","新北市土城區國際路43號","121.466191666667","24.9790533333333","6501300","土城區"
"247012","KED-0683","2019/12/20 19:59:34","新北市蘆洲區民族路151號","121.47956","25.0879566666667","6501400","蘆洲區"
"236069","KEA-2877","2019/12/20 19:59:34","新北市土城區忠義路77號","121.442978333333","24.9651566666667","6501300","土城區"
"252002","KED-0821","2019/12/20 19:59:35","新北市三芝區三民街39巷36號","121.505445","25.2575283333333","6502100","三芝區"
"236020","401-BY","2019/12/20 19:59:45","新北市土城區延吉街83號","121.471888333333","24.9871016666667","6501300","土城區"
"236059","912-UM","2019/12/20 19:59:44","新北市土城區中央路二段70號","121.442488333333","24.9790933333333","6501300","土城區"
"236048","913-UM","2019/12/20 19:59:37","新北市土城區金城路三段262號","121.474485","24.990865","6501300","土城區"
"236063","915-UM","2019/12/20 19:59:37","新北市土城區立德路135巷5弄5號","121.464725","24.98712","6501300","土城區"
"236055","AAC-216","2019/12/20 19:59:35","新北市土城區青雲路35號","121.460228333333","24.9883516666667","6501300","土城區"
"242060","986-R7","2019/12/20 19:59:32","新北市新莊區瓊林路59-72號","121.444298333333","25.0275233333333","6500500","新莊區"
"242005","751-BX","2019/12/20 19:59:28","新北市新莊區化成路314巷19號","121.46701","25.0483566666667","6500500","新莊區"
"242029","615-BX","2019/12/20 19:59:42","新北市新莊區中平路379號","121.444536666667","25.0526166666667","6500500","新莊區"
"242027","613-BX","2019/12/20 19:59:36","新北市新莊區中平路377巷1-11號","121.444183333333","25.0522466666667","6500500","新莊區"
"242058","612-BX","2019/12/20 19:59:25","新北市新莊區八德街101號","121.424353333333","25.0212383333333","6500500","新莊區"
"242048","566-BX","2019/12/20 19:59:37","新北市新莊區四維路10號","121.423826666667","25.0251916666667","6500500","新莊區"
"242054","497-BY","2019/12/20 19:59:25","新北市新莊區西盛街418號","121.427146666667","25.01227","6500500","新莊區"
"242044","442-UM","2019/12/20 19:59:45","新北市新莊區新北大道七段712號","121.412335","25.0265633333333","6500500","新莊區"
"242002","441-UM","2019/12/20 19:59:41","新北市新莊區中正路170號","121.450905","25.0358816666667","6500500","新莊區"
"242007","440-UM","2019/12/20 19:59:46","新北市新莊區思源路539號","121.459763333333","25.0569116666667","6500500","新莊區"
"242013","413-TV","2019/12/20 19:59:31","新北市新莊區中港路417巷14號","121.451748333333","25.0476033333333","6500500","新莊區"
"242050","400-BY","2019/12/20 19:59:47","新北市新莊區民安西路81巷21號","121.428153333333","25.0192783333333","6500500","新莊區"
"242025","362-BY","2019/12/20 19:59:38","新北市新莊區五工二路86巷33號","121.460515","25.0672766666667","6500500","新莊區"
"242023","353-BY","2019/12/20 19:59:31","新北市新莊區化成路354號","121.465826666667","25.0492133333333","6500500","新莊區"
"242015","132-UY","2019/12/20 19:59:35","新北市新莊區復興路一段47巷11號","121.446705","25.0427083333333","6500500","新莊區"
"242017","173-VK","2019/12/20 19:59:30","新北市新莊區中安街1號","121.452755","25.0453716666667","6500500","新莊區"
"242032","175-VK","2019/12/20 19:59:41","新北市新莊區中正路427號","121.443876666667","25.0342616666667","6500500","新莊區"
"242056","176-VK","2019/12/20 19:59:33","新北市新莊區新豐街66號","121.44666","25.033795","6500500","新莊區"
"242021","KED-0687","2019/12/20 19:59:35","新北市新莊區建中街16巷1號","121.449405","25.0377483333333","6500500","新莊區"
"242039","346-TH","2019/12/20 19:59:35","新北市新莊區民安路314號","121.428435","25.0220633333333","6500500","新莊區"
"242041","347-TH","2019/12/20 19:59:31","新北市新莊區新北大道七段556號","121.412163333333","25.0287583333333","6500500","新莊區"
"242037","348-TH","2019/12/20 19:59:47","新北市新莊區建安街25巷1號","121.429068333333","25.0261","6500500","新莊區"
"242034","350-TH","2019/12/20 19:59:42","新北市新莊區建中街83號","121.447226666667","25.0366783333333","6500500","新莊區"
"242019","351-TH","2019/12/20 19:59:42","新北市新莊區明智街21巷1號","121.45404","25.0413833333333","6500500","新莊區"
"239006","891-R6","2019/12/20 19:59:41","新北市鶯歌區文化路62-1號","121.35614","24.9546066666667","6500800","鶯歌區"
"239004","193-VK","2019/12/20 19:59:35","新北市鶯歌區二甲路83-24號","121.341351666667","24.9315316666667","6500800","鶯歌區"
"221008","489-VK","2019/12/20 19:59:37","新北市汐止區康寧街83巷34號","121.62078","25.0673183333333","6501100","汐止區"
"221015","131-UY","2019/12/20 19:59:35","新北市汐止區橋東街9號","121.666585","25.0759416666667","6501100","汐止區"
"221010","269-BY","2019/12/20 19:59:35","新北市汐止區汐萬路一段418巷1弄7號","121.649616666667","25.0786866666667","6501100","汐止區"
"221012","278-VK","2019/12/20 19:59:34","新北市汐止區保長路271巷2號","121.680953333333","25.0743283333333","6501100","汐止區"
"221023","279-VK","2019/12/20 19:59:28","新北市汐止區民族三街43號","121.62974","25.0699816666667","6501100","汐止區"
"221027","281-BY","2019/12/20 19:59:35","新北市汐止區中正路110號","121.660863333333","25.0697","6501100","汐止區"
"221029","298-VK","2019/12/20 19:59:40","新北市汐止區樟樹一路139巷23號","121.64103","25.0661183333333","6501100","汐止區"
"221021","299-VK","2019/12/20 19:59:37","新北市汐止區水源路一段185號","121.654786666667","25.061545","6501100","汐止區"
"207003","KEE-1020","2019/12/20 19:59:39","新北市萬里區大鵬里萬里加投68號","121.642248333333","25.2147183333333","6502800","萬里區"
"221035","622-UM","2019/12/20 19:59:32","新北市汐止區長江街9號","121.654653333333","25.0712133333333","6501100","汐止區"
"221025","623-UM","2019/12/20 19:59:29","新北市汐止區仁愛路77巷2弄14號","121.661508333333","25.0635116666667","6501100","汐止區"
"221038","646-BX","2019/12/20 19:59:41","新北市汐止區大同路三段34號","121.66705","25.0764066666667","6501100","汐止區"
"221033","647-BX","2019/12/20 19:59:32","新北市汐止區東勢街201巷2號","121.633743333333","25.0420933333333","6501100","汐止區"
"221002","707-TV","2019/12/20 19:59:40","新北市汐止區康寧街901號","121.651383333333","25.0750116666667","6501100","汐止區"
"220079","145-BY","2019/12/20 19:59:37","新北市板橋區建國街3-1號","121.457111666667","25.01694","6500100","板橋區"
"220080","200-UY","2019/12/20 19:59:30","新北市板橋區大觀路二段169巷23號","121.446601666667","24.9997416666667","6500100","板橋區"
"220101","245-BX","2019/12/20 19:59:29","新北市板橋區雙十路二段47巷2弄25號","121.475198333333","25.0269316666667","6500100","板橋區"
"224002","257-TC","2019/12/20 19:59:33","新北市瑞芳區員山子路員山巷11-1號","121.817108333333","25.1043116666667","6501200","瑞芳區"
"220091","267-BY","2019/12/20 19:59:35","新北市板橋區文聖街89巷26號","121.478201666667","25.0303383333333","6500100","板橋區"
"220056","276-BY","2019/12/20 19:59:39","新北市板橋區四川路二段60號","121.452558333333","24.9949266666667","6500100","板橋區"
"220072","277-BY","2019/12/20 19:59:40","新北市板橋區金門街121巷10號","121.433456666667","24.9916866666667","6500100","板橋區"
"220071","283-VK","2019/12/20 19:58:34","新北市板橋區五權街30巷24弄19號","121.463623333333","24.993445","6500100","板橋區"
"220094","285-UM","2019/12/20 19:59:28","新北市板橋區文化路一段184號","121.46575","25.0196416666667","6500100","板橋區"
"220053","285-VK","2019/12/20 19:59:41","新北市板橋區永豐街169號","121.475693333333","25.020435","6500100","板橋區"
"220083","286-VK","2019/12/20 19:59:33","新北市板橋區僑中二街10巷18號","121.446316666667","25.01115","6500100","板橋區"
"220081","287-VK","2019/12/20 19:59:38","新北市板橋區僑中一街80巷7弄2號","121.447915","25.0129133333333","6500100","板橋區"
"220090","288-VK","2019/12/20 19:59:27","新北市板橋區新海路152號","121.460756666667","25.0238583333333","6500100","板橋區"
"220061","293-UM","2019/12/20 19:59:30","新北市板橋區中山路一段50-5號","121.461058333333","25.0093666666667","6500100","板橋區"
"220092","295-UM","2019/12/20 19:59:38","新北市板橋區文化路一段69號","121.46079","25.0139783333333","6500100","板橋區"
"220084","296-UM","2019/12/20 19:59:31","新北市板橋區板林路158號","121.424425","24.987745","6500100","板橋區"
"220075","303-R5","2019/12/20 19:59:29","新北市板橋區金華街10巷48弄50號","121.458811666667","25.02008","6500100","板橋區"
"220062","305-R5","2019/12/20 19:59:36","新北市板橋區中山路二段408號","121.482781666667","25.0208316666667","6500100","板橋區"
"220098","317-R6","2019/12/20 19:59:36","新北市板橋區新海路385巷32號","121.457541666667","25.0253433333333","6500100","板橋區"
"220089","487-VK","2019/12/20 19:59:41","新北市板橋區四維路310號","121.46248","25.0297783333333","6500100","板橋區"
"242011","280-VK","2019/12/20 19:59:38","新北市新莊區中港路531巷122號","121.449893333333","25.0515883333333","6500500","新莊區"
"220088","491-VK","2019/12/20 19:59:25","新北市板橋區懷德街127巷23弄7號","121.479301666667","25.03177","6500100","板橋區"
"220035","560-BX","2019/12/20 19:59:43","新北市板橋區金華街72-3號","121.457586666667","25.020655","6500100","板橋區"
"220103","561-BX","2019/12/20 19:59:36","新北市板橋區漢生東路43巷26號","121.466481666667","25.0175016666667","6500100","板橋區"
"220063","609-BX","2019/12/20 19:59:43","新北市板橋區中山路二段62號","121.47416","25.0157733333333","6500100","板橋區"
"220077","687-BX","2019/12/20 19:59:33","新北市板橋區僑中一街110號","121.446391666667","25.01174","6500100","板橋區"
"220093","689-BX","2019/12/20 19:59:46","新北市板橋區長江路一段134號","121.460448333333","25.0300566666667","6500100","板橋區"
"220102","KEA-2699","2019/12/20 19:59:34","新北市板橋區莒光路64號","121.471106666667","25.0240916666667","6500100","板橋區"
"220055","827-TW","2019/12/20 19:59:34","新北市板橋區仁愛路62巷15弄2號","121.459976666667","24.99842","6500100","板橋區"
"220068","830-TW","2019/12/20 19:59:45","新北市板橋區中山路二段398號","121.482665","25.0207333333333","6500100","板橋區"
"220067","831-TW","2019/12/20 19:59:41","新北市板橋區長安街331巷85號","121.472248333333","25.012705","6500100","板橋區"
"220082","833-TW","2019/12/20 19:59:36","新北市板橋區大觀路三段207號","121.43143","24.9931333333333","6500100","板橋區"
"220074","895-R6","2019/12/20 19:59:42","新北市板橋區民權路79號","121.461158333333","25.0118066666667","6500100","板橋區"
"220073","985-R7","2019/12/20 19:59:39","新北市板橋區南雅西路二段194號","121.451781666667","25.0145733333333","6500100","板橋區"
"220097","AAC-210","2019/12/20 19:59:31","新北市板橋區國光路188號","121.461116666667","25.018235","6500100","板橋區"
"220064","AAC-253","2019/12/20 19:59:41","新北市板橋區民族路298號","121.470506666667","25.006785","6500100","板橋區"
"235061","KEA-2875","2019/12/20 19:59:37","新北市中和區員山路174巷20號","121.481965","24.9995866666667","6500300","中和區"
"235068","KEA-2876","2019/12/20 19:59:16","新北市中和區景平路736巷1弄12號","121.497561666667","25.0040266666667","6500300","中和區"
