"lineid","car","time","location","longitude","latitude","cityid","cityname"
"234046","148-BY","2019/12/20 20:13:35","新北市永和區永元路120號","121.522793333333","25.0025866666667","6500400","永和區"
"234081","298-R6","2019/12/20 20:13:35","新北市永和區永亨路83號","121.522055","25.0055566666667","6500400","永和區"
"234038","336-UY","2019/12/20 20:13:31","新北市永和區成功路一段93巷23弄1號","121.528748333333","25.0028433333333","6500400","永和區"
"234064","337-UY","2019/12/20 20:13:35","新北市永和區得和路269號","121.521551666667","24.9998766666667","6500400","永和區"
"234086","338-UY","2019/12/20 20:13:39","新北市永和區中正路608號","121.517028333333","25.0071666666667","6500400","永和區"
"234070","552-UM","2019/12/20 20:13:26","新北市永和區永亨路31號","121.51974","25.006175","6500400","永和區"
"234017","745-BX","2019/12/20 20:13:35","新北市永和區仁愛路9號","121.514825","25.013395","6500400","永和區"
"234030","746-BX","2019/12/20 20:13:41","新北市永和區民權路110號","121.519686666667","24.9966133333333","6500400","永和區"
"234054","KEA-2590","2019/12/20 20:13:36","新北市永和區永和路二段340號","121.516248333333","25.0167933333333","6500400","永和區"
"234007","KED-0605","2019/12/20 20:13:32","新北市永和區環河西路二段217巷1號","121.501493333333","25.0101366666667","6500400","永和區"
"234013","KEA-2591","2019/12/20 20:13:41","新北市永和區保生路5巷5號","121.505933333333","25.007025","6500400","永和區"
"234061","AAD-866","2019/12/20 20:13:35","新北市永和區安樂路100巷5號","121.514221666667","24.99937","6500400","永和區"
"234042","862-TW","2019/12/20 20:13:36","新北市中和區中安街168號","121.510838333333","24.99988","6500400","永和區"
"234050","863-TW","2019/12/20 20:13:40","新北市永和區新生路2-7號","121.509318333333","25.016985","6500400","永和區"
"249005","172-UM","2019/12/20 20:13:41","新北市八里區下罟子2-2號","121.388306666667","25.1418383333333","6502300","八里區"
"249001","173-UM","2019/12/20 20:13:39","新北市八里區中華路二段380-7號","121.402425","25.1471583333333","6502300","八里區"
"249004","303-UY","2019/12/20 20:13:40","新北市八里區中山路一段418-7號","121.410698333333","25.15834","6502300","八里區"
"249002","305-UY","2019/12/20 20:13:44","新北市八里區龍米路一段76號","121.455655","25.121205","6502300","八里區"
"249003","593-UM","2019/12/20 20:13:31","新北市八里區中山路二段447巷5號","121.396855","25.14552","6502300","八里區"
"248016","026-BX","2019/12/20 20:13:33","新北市五股區成泰路三段577巷117號","121.44825","25.10404","6501500","五股區"
"248008","KED-0815","2019/12/20 20:13:34","新北市五股區中興路一段1巷26-1號","121.469386666667","25.0701266666667","6501500","五股區"
"248012","247-BX","2019/12/20 20:13:33","新北市五股區民義路一段216號","121.430385","25.0895333333333","6501500","五股區"
"248010","272-BY","2019/12/20 20:13:32","新北市五股區成泰路一段7巷66號","121.432583333333","25.06777","6501500","五股區"
"248002","678-BX","2019/12/20 20:13:35","新北市五股區成泰路三段201號","121.445765","25.092575","6501500","五股區"
"234023","9380-KE","2019/12/20 20:13:29","新北市永和區永和路二段172號","121.5157","25.0130833333333","6500400","永和區"
"234077","969-R7","2019/12/20 20:13:45","新北市永和區民享街13號","121.515353333333","24.99527","6500400","永和區"
"234074","AAC-211","2019/12/20 20:13:31","新北市永和區竹林路191巷3號","121.520945","25.0095066666667","6500400","永和區"
"234067","AAC-212","2019/12/20 20:13:42","新北市永和區保平路236巷7弄1號","121.508828333333","25.005935","6500400","永和區"
"234003","AAC-295","2019/12/20 20:13:36","新北市永和區自強街23號","121.515188333333","25.0082183333333","6500400","永和區"
"243012","AAD-798","2019/12/20 20:13:38","新北市泰山區楓江路46巷17號","121.43565","25.061495","6501600","泰山區"
"243010","297-R6","2019/12/20 20:13:22","新北市泰山區明志路二段232巷8-2號","121.426786666667","25.04847","6501600","泰山區"
"243014","KEA-2801","2019/12/20 20:13:32","新北市泰山區明志路一段50號","121.433535","25.0649483333333","6501600","泰山區"
"243016","421-VK","2019/12/20 20:13:31","新北市泰山區明志路三段219號","121.423875","25.0381633333333","6501600","泰山區"
"243009","KEA-2215","2019/12/20 20:13:36","新北市泰山區全興路47巷50號","121.434286666667","25.0590216666667","6501600","泰山區"
"243011","KEA-2216","2019/12/20 20:13:41","新北市新莊區壽山路160巷9號","121.417075","25.03162","6501600","泰山區"
"243013","646-TV","2019/12/20 20:13:40","新北市泰山區明志路三段87號","121.42514","25.0415833333333","6501600","泰山區"
"243015","680-BX","2019/12/20 20:13:37","新北市泰山區明志路一段440號","121.430695","25.056175","6501600","泰山區"
"222003","436-BY","2019/12/20 20:13:39","新北市深坑區埔新街103號","121.619088333333","25.002105","6501800","深坑區"
"222002","659-BX","2019/12/20 20:13:41","新北市深坑區北深路三段246-1號","121.600686666667","25.0054616666667","6501800","深坑區"
"231061","002-UM","2019/12/20 20:13:38","新北市新店區安興路33-1號","121.515838333333","24.970395","6500600","新店區"
"231058","0293-UT","2019/12/20 20:13:39","新北市新店區薏仁坑路自強巷1號","121.497013333333","24.957975","6500600","新店區"
"231044","047-UY","2019/12/20 20:13:41","新北市新店區寶慶街58巷2號","121.542108333333","24.9867433333333","6500600","新店區"
"231060","106-UY","2019/12/20 20:13:35","新北市新店區安康路三段546號","121.482071666667","24.9489233333333","6500600","新店區"
"231051","107-UY","2019/12/20 20:13:39","新北市新店區中央路192號","121.53085","24.9746183333333","6500600","新店區"
"231049","108-UY","2019/12/20 20:13:30","新北市新店區北新路二段57號","121.542611666667","24.9731933333333","6500600","新店區"
"231065","110-UY","2019/12/20 20:13:40","新北市新店區安祥路106巷98號","121.47419","24.95941","6500600","新店區"
"231050","KEA-2219","2019/12/20 20:13:41","新北市新店區北新路一段331號","121.541825","24.9685533333333","6500600","新店區"
"221031","KEA-2785","2019/12/20 20:13:38","新北市汐止區中興路214巷5號","121.631321666667","25.066575","6501100","汐止區"
"231062","256-BX","2019/12/20 20:13:44","新北市新店區安康路一段302-3號","121.517703333333","24.9640583333333","6500600","新店區"
"231054","260-TV","2019/12/20 20:13:37","新北市新店區檳榔路100號","121.54328","24.9627","6500600","新店區"
"231042","268-BY","2019/12/20 20:13:41","新北市新店區中興路二段100巷1號","121.54746","24.9718466666667","6500600","新店區"
"231064","278-BY","2019/12/20 20:13:27","新北市新店區安民街389號","121.515915","24.9772416666667","6500600","新店區"
"231045","355-BY","2019/12/20 20:13:32","新北市新店區北宜路一段109巷3號","121.539776666667","24.95489","6500600","新店區"
"231055","4716-K9","2019/12/20 20:13:33","新北市新店區北新路一段303號","121.541448333333","24.96762","6500600","新店區"
"231056","4715-K9","2019/12/20 20:13:33","新北市新店區建安街33巷28號","121.538281666667","24.9754383333333","6500600","新店區"
"231067","4772-VM","2019/12/20 20:13:43","新北市新店區安康路一段32號","121.531706666667","24.9611583333333","6500600","新店區"
"231068","512-UM","2019/12/20 20:13:32","新北市新店區中興路三段226號","121.543383333333","24.9828683333333","6500600","新店區"
"231053","515-UM","2019/12/20 20:13:32","新北市新店區新烏路三段72-1號","121.554013333333","24.90407","6500600","新店區"
"231043","618-UM","2019/12/20 20:13:26","新北市新店區建國路133號","121.539341666667","24.9782533333333","6500600","新店區"
"231041","619-UM","2019/12/20 20:13:25","新北市新店區中正路489號","121.533678333333","24.98227","6500600","新店區"
"231063","641-BX","2019/12/20 20:13:45","新北市新店區黎明路3號","121.503703333333","24.9524233333333","6500600","新店區"
"231048","KED-0819","2019/12/20 20:13:23","新北市新店區永華街29號","121.54366","24.9764133333333","6500600","新店區"
"231057","720-UM","2019/12/20 20:13:36","新北市新店區桃李一路3號","121.5533","24.9328416666667","6500600","新店區"
"231059","897-TW","2019/12/20 20:13:28","新北市新店區安德街78號","121.510168333333","24.9615616666667","6500600","新店區"
"231040","898-TW","2019/12/20 20:13:38","新北市新店區中正路106號","121.543086666667","24.9705383333333","6500600","新店區"
"231066","AKT-0513","2019/12/20 20:13:33","新北市新店區安興路20號","121.515098333333","24.965935","6500600","新店區"
"241011","013-R5","2019/12/20 20:13:33","新北市三重區龍濱路196號","121.500993333333","25.0733383333333","6500200","三重區"
"241028","022-UY","2019/12/20 20:13:37","新北市三重區大同南路124號","121.496316666667","25.0583383333333","6500200","三重區"
"241031","061-VK","2019/12/20 20:13:31","新北市三重區三寧街15號","121.489418333333","25.05973","6500200","三重區"
"241015","062-VK","2019/12/20 20:13:31","新北市三重區福德北路9號","121.502558333333","25.06411","6500200","三重區"
"241017","063-VK","2019/12/20 20:13:40","新北市三重區大同北路215號","121.491771666667","25.0660383333333","6500200","三重區"
"241024","065-VK","2019/12/20 20:13:36","新北市三重區中正北路286號","121.480451666667","25.0686883333333","6500200","三重區"
"241007","066-VK","2019/12/20 20:13:34","新北市三重區三和路四段117巷27號","121.486473333333","25.0778083333333","6500200","三重區"
"241002","090-VK","2019/12/20 20:13:43","新北市三重區仁義街211巷64號","121.498586666667","25.08294","6500200","三重區"
"241003","091-VK","2019/12/20 20:13:35","新北市三重區富華街14號","121.489563333333","25.082425","6500200","三重區"
"241008","742-BX","2019/12/20 20:13:27","新北市三重區永福街144-1號","121.480055","25.0747516666667","6500200","三重區"
"241006","262-UM","2019/12/20 20:13:26","新北市三重區車路頭街139巷14號","121.484358333333","25.0763133333333","6500200","三重區"
"241016","266-UM","2019/12/20 20:13:38","新北市三重區大同北路97-3號","121.494405","25.0635716666667","6500200","三重區"
"241009","267-UM","2019/12/20 20:13:41","新北市三重區三和路四段382巷62號","121.480651666667","25.0782133333333","6500200","三重區"
"241018","268-UM","2019/12/20 20:13:17","新北市三重區雙園街122號","121.494465","25.0672383333333","6500200","三重區"
"241032","269-UM","2019/12/20 20:13:44","新北市三重區捷運路31號","121.485048333333","25.0560783333333","6500200","三重區"
"241013","270-UM","2019/12/20 20:13:37","新北市三重區三和路三段155號","121.49193","25.0737383333333","6500200","三重區"
"241035","KEA-2210","2019/12/20 20:13:36","新北市三重區大榮街53號","121.499126666667","25.063585","6500200","三重區"
"241030","KED-0822","2019/12/20 20:13:30","新北市三重區集美街95號","121.489005","25.0532383333333","6500200","三重區"
"241004","475-VK","2019/12/20 20:13:39","新北市三重區自強路四段62號","121.490293333333","25.0784233333333","6500200","三重區"
"241020","478-VK","2019/12/20 20:13:41","新北市三重區重陽路四段121號","121.493326666667","25.072105","6500200","三重區"
"241026","480-VK","2019/12/20 20:13:37","新北市三重區中央南路47號","121.501326666667","25.061845","6500200","三重區"
"241014","543-UM","2019/12/20 20:13:34","新北市三重區長樂街192號","121.503496666667","25.0700366666667","6500200","三重區"
"241023","545-UM","2019/12/20 20:13:29","新北市三重區頂崁街215號","121.4774","25.067895","6500200","三重區"
"241001","547-UM","2019/12/20 20:13:34","新北市三重區自強路四段3巷29號","121.489955","25.0763","6500200","三重區"
"241019","KEA-2593","2019/12/20 20:13:34","新北市三重區大智街188號","121.489751666667","25.07055","6500200","三重區"
"241005","AAD-863","2019/12/20 20:13:34","新北市三重區碧華街368號","121.49077","25.0842116666667","6500200","三重區"
"241012","743-BX","2019/12/20 20:13:28","新北市三重區河邊北街266號","121.501655","25.0765233333333","6500200","三重區"
"241025","KED-0670","2019/12/20 20:13:38","新北市三重區三民街270號","121.478996666667","25.0679883333333","6500200","三重區"
"241029","942-UM","2019/12/20 20:13:39","新北市三重區中寮街31號","121.492536666667","25.0589366666667","6500200","三重區"
"241033","AAC-255","2019/12/20 20:13:43","新北市三重區光復路一段61巷31弄2號","121.474903333333","25.049315","6500200","三重區"
"235066","003-UY","2019/12/20 20:13:42","新北市中和區水源路118號","121.506946666667","25.003475","6500300","中和區"
"235039","097-UM","2019/12/20 20:13:37","新北市中和區大勇街69號","121.517746666667","24.99544","6500300","中和區"
"235065","098-UM","2019/12/20 20:13:40","新北市中和區永和路128巷47號","121.497685","25.0068566666667","6500300","中和區"
"235040","150-BY","2019/12/20 20:13:42","新北市中和區保健路26巷21號","121.508675","24.9971133333333","6500300","中和區"
"235055","183-VK","2019/12/20 20:13:35","新北市五股區成泰路三段544-1號","121.454491666667","25.1030433333333","6500300","中和區"
"247016","KEA-2869","2019/12/20 20:13:40","新北市蘆洲區光華路150巷18號","121.465296666667","25.0829883333333","6501400","蘆洲區"
"247010","KED-0682","2019/12/20 20:13:23","新北市蘆洲區信義路188巷13號","121.479775","25.084595","6501400","蘆洲區"
"235050","4979-A6","2019/12/20 20:13:37","新北市中和區景新街321號","121.511241666667","24.992275","6500300","中和區"
"235069","4980-A6","2019/12/20 20:13:33","新北市中和區景新街64巷7弄16號","121.504641666667","24.99833","6500300","中和區"
"235059","AAC-215","2019/12/20 20:13:30","新北市中和區圓通路294-12號","121.488231666667","24.9889816666667","6500300","中和區"
"207004","KEE-1107","2019/12/20 20:13:35","新北市萬里區北基里大勇路7號","121.681456666667","25.1763233333333","6502800","萬里區"
"220054","015-TV","2019/12/20 20:13:44","新北市板橋區忠孝路忠義巷3弄8號","121.46543","25.003805","6500100","板橋區"
"220065","072-UY","2019/12/20 20:13:41","新北市板橋區實踐路85號","121.463936666667","25.0056466666667","6500100","板橋區"
"247006","893-R6","2019/12/20 20:13:32","新北市蘆洲區九芎街139巷22弄8號","121.465865","25.0786033333333","6501400","蘆洲區"
"247004","500-BY","2019/12/20 20:13:40","新北市蘆洲區長安街220巷16號","121.45913","25.084915","6501400","蘆洲區"
"247022","341-TH","2019/12/20 20:13:34","新北市蘆洲區三民路171巷1號","121.470925","25.0870016666667","6501400","蘆洲區"
"247024","057-VK","2019/12/20 20:13:42","新北市蘆洲區光明路110號","121.46354","25.08814","6501400","蘆洲區"
"247014","056-VK","2019/12/20 20:13:46","新北市蘆洲區中山二路135號","121.471893333333","25.08163","6501400","蘆洲區"
"247018","053-VK","2019/12/20 20:13:41","新北市蘆洲區民族路293號","121.475251666667","25.091145","6501400","蘆洲區"
"247002","001-UY","2019/12/20 20:13:35","新北市蘆洲區長安街313巷22號","121.456301666667","25.0861816666667","6501400","蘆洲區"
"222001","KEA-2212","2019/12/20 20:13:40","新北市深坑區北深路三段213號","121.60032","25.0041183333333","6501800","深坑區"
"251004","009-UM","2019/12/20 20:13:30","新北市淡水區民族路29巷40號","121.46168","25.13698","6501000","淡水區"
"251001","011-UM","2019/12/20 20:13:29","新北市淡水區淡金路二段15號","121.446106666667","25.1892133333333","6501000","淡水區"
"251002","012-UM","2019/12/20 20:13:37","新北市淡水區中正路306-1號","121.43726","25.172315","6501000","淡水區"
"251008","181-VK","2019/12/20 20:13:26","新北市淡水區淡海路156號","121.421571666667","25.18339","6501000","淡水區"
"251010","413-VK","2019/12/20 20:13:42","新北市淡水區濱海路三段138號","121.427015","25.1912333333333","6501000","淡水區"
"251012","441-VK","2019/12/20 20:13:37","新北市淡水區淡金路三段274號","121.448863333333","25.2067983333333","6501000","淡水區"
"251006","561-UM","2019/12/20 20:13:37","新北市淡水區北新路141巷2弄2號","121.449335","25.179145","6501000","淡水區"
"251009","575-R6","2019/12/20 20:13:42","新北市淡水區清水街1號","121.445163333333","25.1703233333333","6501000","淡水區"
"251011","650-BX","2019/12/20 20:13:26","新北市淡水區崁頂104號","121.434005","25.20384","6501000","淡水區"
"251003","766-UM","2019/12/20 20:13:28","新北市淡水區中山北路一段229號","121.444443333333","25.1795433333333","6501000","淡水區"
"252001","292-VK","2019/12/20 20:13:36","新北市三芝區中山路一段9巷10號","121.5","25.2586516666667","6502100","三芝區"
"237006","5529-G3","2019/12/20 20:13:36","新北市三峽區大利路12號","121.366538333333","24.9116383333333","6500900","三峽區"
"237015","649-BX","2019/12/20 20:13:25","新北市三峽區介壽路二段138巷1弄5-1號","121.39605","24.9343183333333","6500900","三峽區"
"237005","AKY-6261","2019/12/20 20:13:34","新北市三峽區三樹路98巷74弄1號","121.384165","24.9389116666667","6500900","三峽區"
"236042","KED-0685","2019/12/20 20:13:32","新北市土城區學享街3號","121.450628333333","24.9872533333333","6501300","土城區"
"236030","253-BX","2019/12/20 20:13:38","新北市土城區學成路167號","121.448121666667","24.989045","6501300","土城區"
"236026","269-VK","2019/12/20 20:13:43","新北市土城區裕生路67巷8弄1號","121.44817","24.9843383333333","6501300","土城區"
"236014","270-VK","2019/12/20 20:13:34","新北市土城區廣明街63巷21號","121.4542","24.9932533333333","6501300","土城區"
"236039","271-VK","2019/12/20 20:13:43","新北市土城區延吉街331號","121.465216666667","24.9841566666667","6501300","土城區"
"247012","KED-0683","2019/12/20 20:13:34","新北市蘆洲區中興街15巷21號","121.480136666667","25.08781","6501400","蘆洲區"
"236069","KEA-2877","2019/12/20 20:13:34","新北市土城區大安路24號","121.432676666667","24.9663466666667","6501300","土城區"
"252002","KED-0821","2019/12/20 20:13:35","新北市三芝區利民街2號","121.503135","25.2592716666667","6502100","三芝區"
"236020","401-BY","2019/12/20 20:13:45","新北市土城區延吉街3巷2號","121.471821666667","24.9895033333333","6501300","土城區"
"236059","912-UM","2019/12/20 20:13:44","新北市土城區中央路三段108號","121.435528333333","24.9663933333333","6501300","土城區"
"236048","913-UM","2019/12/20 20:13:36","新北市土城區清水路119號","121.45777","24.981675","6501300","土城區"
"236055","AAC-216","2019/12/20 20:13:35","新北市土城區中華路二段50號","121.43918","24.9777983333333","6501300","土城區"
"242060","986-R7","2019/12/20 20:13:32","新北市新莊區瓊林路100巷1號","121.44348","25.0264533333333","6500500","新莊區"
"242005","751-BX","2019/12/20 20:13:28","新北市新莊區頭興街13巷2號","121.461403333333","25.0535866666667","6500500","新莊區"
"242029","615-BX","2019/12/20 20:13:42","新北市新莊區中原路303號","121.447321666667","25.0542783333333","6500500","新莊區"
"242027","613-BX","2019/12/20 20:13:36","新北市新莊區立信三街12巷12號","121.444163333333","25.05105","6500500","新莊區"
"242058","612-BX","2019/12/20 20:13:35","新北市新莊區龍安路266巷3號","121.421721666667","25.0191133333333","6500500","新莊區"
"242048","566-BX","2019/12/20 20:13:37","新北市新莊區四維路152巷35號","121.422041666667","25.0223183333333","6500500","新莊區"
"242054","497-BY","2019/12/20 20:13:41","新北市新莊區民安西路279號","121.426353333333","25.01239","6500500","新莊區"
"242044","442-UM","2019/12/20 20:13:45","新北市新莊區中正路895-34號","121.41231","25.02136","6500500","新莊區"
"242002","441-UM","2019/12/20 20:13:41","新北市三重區重新路五段619號","121.468036666667","25.0441966666667","6500500","新莊區"
"242007","440-UM","2019/12/20 20:13:46","新北市新莊區思源路419巷1弄3號","121.459423333333","25.0523716666667","6500500","新莊區"
"242013","413-TV","2019/12/20 20:13:31","新北市新莊區幸福路710巷1弄4號","121.449538333333","25.0496316666667","6500500","新莊區"
"242050","400-BY","2019/12/20 20:13:27","新北市新莊區民安西路192號","121.425813333333","25.0155","6500500","新莊區"
"242025","362-BY","2019/12/20 20:13:38","新北市新莊區五工路68巷19-1號","121.458866666667","25.06441","6500500","新莊區"
"242023","353-BY","2019/12/20 20:13:31","新北市新莊區化成路604號","121.466171666667","25.05459","6500500","新莊區"
"242015","132-UY","2019/12/20 20:13:35","新北市新莊區中平路26巷53號","121.447398333333","25.043455","6500500","新莊區"
"242017","173-VK","2019/12/20 20:13:30","新北市新莊區中港路352號","121.451806666667","25.0467716666667","6500500","新莊區"
"242032","175-VK","2019/12/20 20:13:41","新北市新莊區公園一路5號","121.443495","25.0346616666667","6500500","新莊區"
"242056","176-VK","2019/12/20 20:13:33","新北市新莊區豐年街24號","121.446213333333","25.0324516666667","6500500","新莊區"
"242021","KED-0687","2019/12/20 20:13:35","新北市新莊區中興街47號","121.449155","25.03704","6500500","新莊區"
"242039","346-TH","2019/12/20 20:13:35","新北市新莊區龍安路457號","121.424488333333","25.0185633333333","6500500","新莊區"
"242041","347-TH","2019/12/20 20:13:31","新北市新莊區壽山路75號","121.409086666667","25.0328616666667","6500500","新莊區"
"242037","348-TH","2019/12/20 20:13:27","新北市新莊區建安街85號","121.427195","25.0245333333333","6500500","新莊區"
"242009","349-TH","2019/12/20 20:13:45","新北市新莊區昌平街61號","121.45464","25.0531716666667","6500500","新莊區"
"242034","350-TH","2019/12/20 20:13:42","新北市新莊區中正路326號","121.446053333333","25.0347616666667","6500500","新莊區"
"242019","351-TH","2019/12/20 20:13:42","新北市新莊區民樂街78號","121.457898333333","25.04366","6500500","新莊區"
"221008","489-VK","2019/12/20 20:13:37","台北市內湖區康樂街133號","121.619573333333","25.0738866666667","6501100","汐止區"
"221036","130-UY","2019/12/20 20:13:36","新北市汐止區新台五路二段100號","121.662436666667","25.06599","6501100","汐止區"
"221015","131-UY","2019/12/20 20:13:35","新北市汐止區建成路76號","121.662986666667","25.0731366666667","6501100","汐止區"
"221010","269-BY","2019/12/20 20:13:35","新北市汐止區連峰街225巷28號","121.643978333333","25.0810516666667","6501100","汐止區"
"221012","278-VK","2019/12/20 20:13:34","新北市汐止區大同路三段279號","121.674128333333","25.0751016666667","6501100","汐止區"
"221023","279-VK","2019/12/20 20:13:28","新北市汐止區明峰街295號","121.62571","25.0678933333333","6501100","汐止區"
"221032","280-BY","2019/12/20 20:13:31","新北市汐止區弘道街9巷2弄2號","121.617015","25.04889","6501100","汐止區"
"221029","298-VK","2019/12/20 20:13:40","新北市汐止區樟樹一路119巷8-6號","121.641246666667","25.0644283333333","6501100","汐止區"
"221021","299-VK","2019/12/20 20:13:37","新北市汐止區水源路一段273號","121.654035","25.0589933333333","6501100","汐止區"
"207003","KEE-1020","2019/12/20 20:13:39","新北市萬里區大鵬里萬里加投186號","121.64278","25.215635","6502800","萬里區"
"221035","622-UM","2019/12/20 20:13:32","新北市汐止區長江街57巷1號","121.656153333333","25.0714733333333","6501100","汐止區"
"221025","623-UM","2019/12/20 20:13:29","新北市汐止區新台五路一段159號","121.653913333333","25.062465","6501100","汐止區"
"221038","646-BX","2019/12/20 20:13:41","新北市汐止區忠孝東路482號","121.666416666667","25.073795","6501100","汐止區"
"221033","647-BX","2019/12/20 20:13:32","新北市汐止區東勢街201巷104號","121.633573333333","25.0429216666667","6501100","汐止區"
"221002","707-TV","2019/12/20 20:13:40","新北市汐止區福德一路81號","121.638405","25.0684266666667","6501100","汐止區"
"221018","753-BX","2019/12/20 20:13:42","新北市汐止區茄興街12號","121.673466666667","25.0671316666667","6501100","汐止區"
"220079","145-BY","2019/12/20 20:13:37","新北市板橋區建國街83號","121.459405","25.0173066666667","6500100","板橋區"
"224002","257-TC","2019/12/20 20:13:33","新北市瑞芳區三爪子坑路97號","121.811176666667","25.1072916666667","6501200","瑞芳區"
"220083","286-VK","2019/12/20 20:13:45","新北市板橋區僑中二街88巷21號","121.445311666667","25.009535","6500100","板橋區"
"220081","287-VK","2019/12/20 20:13:38","新北市板橋區僑中一街80巷7弄22號","121.44686","25.0128616666667","6500100","板橋區"
"220061","293-UM","2019/12/20 20:13:30","新北市板橋區四川路一段324號","121.458218333333","25.000065","6500100","板橋區"
"242046","281-VK","2019/12/20 20:13:42","新北市新莊區裕民街107號","121.418248333333","25.0229883333333","6500500","新莊區"
"242011","280-VK","2019/12/20 20:13:38","新北市新莊區幸福路710巷5弄2號","121.44966","25.0498083333333","6500500","新莊區"
"220035","560-BX","2019/12/20 20:13:43","新北市板橋區瑞安街75號","121.455615","25.0212","6500100","板橋區"
"220103","561-BX","2019/12/20 20:13:36","新北市板橋區漢生東路33巷42號","121.466131666667","25.0176833333333","6500100","板橋區"
"220077","687-BX","2019/12/20 20:13:33","新北市板橋區僑中一街124巷22-1號","121.446358333333","25.0144416666667","6500100","板橋區"
"220055","827-TW","2019/12/20 20:13:34","新北市板橋區重慶路278巷20-2號","121.462223333333","24.9996683333333","6500100","板橋區"
"220082","833-TW","2019/12/20 20:13:36","新北市板橋區存德街3號","121.429863333333","24.9918583333333","6500100","板橋區"
"220074","895-R6","2019/12/20 20:13:45","新北市板橋區館前西路88號","121.457465","25.0071783333333","6500100","板橋區"
"220073","985-R7","2019/12/20 20:13:39","新北市板橋區大觀路二段365巷13號","121.440873333333","24.9981216666667","6500100","板橋區"
"220064","AAC-253","2019/12/20 20:13:41","新北市板橋區長安街331巷81號","121.472355","25.0128633333333","6500100","板橋區"
"235068","KEA-2876","2019/12/20 20:13:46","新北市中和區福祥路85巷2弄6號","121.498683333333","25.005955","6500300","中和區"
