"lineid","car","time","location","longitude","latitude","cityid","cityname"
"222005","289-BY","2019/07/26 08:59:37","新北市深坑區風格街51號","121.629931666667","25.0183833333333","6501800","深坑區"
"231007","189-VK","2019/07/26 08:59:28","新北市新店區新潭路三段112巷11號","121.509326666667","24.9094516666667","6500600","新店區"
"231009","192-VK","2019/07/26 08:59:34","新北市新店區廣興路60巷35號","121.542578333333","24.91646","6500600","新店區"
"226001","8452-VL","2019/07/26 08:40:50","新北市平溪區東勢里番仔坑16號","121.756093333333","24.99182","6502400","平溪區"
"226006","AGD-0702","2019/07/26 08:58:08","新北市平溪區嶺腳里嶺腳寮109號","121.744428333333","25.0334366666667","6502400","平溪區"
"223003","205-TH","2019/07/26 08:59:26","新北市石碇區北宜路六段水底寮巷6號","121.662678333333","24.9495416666667","6501900","石碇區"
"223008","406-TH","2019/07/26 08:59:26","新北市石碇區光明路16號","121.683351666667","25.0330316666667","6501900","石碇區"
"223001","592-UM","2019/07/26 08:59:33","新北市石碇區北宜路六段水底寮巷18號","121.661586666667","24.9405166666667","6501900","石碇區"
"223004","660-BX","2019/07/26 08:59:36","新北市石碇區崩山53號","121.682348333333","24.9688633333333","6501900","石碇區"
"223007","661-BX","2019/07/26 08:59:37","新北市石碇區光明路1號","121.6746","25.029135","6501900","石碇區"
"223005","677-TV","2019/07/26 08:54:31","新北市石碇區崩山53號","121.68241","24.9689066666667","6501900","石碇區"
"227003","282-VK","2019/07/26 08:59:34","新北市雙溪區泰平里泰平62號","121.826026666667","24.9717366666667","6502500","雙溪區"
"237014","760-BX","2019/07/26 08:59:35","新北市三峽區建安127號","121.470121666667","24.9171116666667","6500900","三峽區"
