"lineid","car","time","location","longitude","latitude","cityid","cityname"
"234062","337-UY","2019/07/26 14:39:39","新北市永和區光復街31-1號","121.516456666667","25.0180433333333","6500400","永和區"
"234028","746-BX","2019/07/26 14:39:37","新北市板橋區民生路一段53號","121.475695","25.0130216666667","6500400","永和區"
"234068","748-BX","2019/07/26 14:39:34","新北市永和區中山路一段214號","121.508398333333","25.008405","6500400","永和區"
"234025","9371-KE","2019/07/26 14:39:40","新北市中和區中和路380號","121.510671666667","25.0021866666667","6500400","永和區"
"248019","KED-0813","2019/07/26 14:39:32","新北市五股區凌雲路三段98-1號","121.427956666667","25.1222333333333","6501500","五股區"
"234072","AAC-211","2019/07/26 14:39:48","新北市永和區環河東路一段162號","121.52138","25.0144666666667","6500400","永和區"
"244004","248-BX","2019/07/26 14:39:49","新北市林口區南勢里34-8號","121.352391666667","25.0702366666667","6501700","林口區"
"231029","001-UM","2019/07/26 14:39:49","新北市新店區安康路三段351號","121.48504","24.9513183333333","6500600","新店區"
"231030","002-UM","2019/07/26 14:39:30","新北市新店區安民街175號","121.516705","24.9703433333333","6500600","新店區"
"231027","0293-UT","2019/07/26 14:39:40","新北市新店區中正路76巷11弄17號","121.543728333333","24.9716083333333","6500600","新店區"
"231018","107-UY","2019/07/26 14:39:51","新北市新店區中央路206號","121.530335","24.9739266666667","6500600","新店區"
"231013","108-UY","2019/07/26 14:39:47","新北市新店區明德路42號","121.541478333333","24.9782366666667","6500600","新店區"
"231036","110-UY","2019/07/26 14:39:39","新北市新店區安祥路106巷28號","121.477686666667","24.9620783333333","6500600","新店區"
"231032","256-BX","2019/07/26 14:39:48","新北市新店區安業街33號","121.517456666667","24.9771516666667","6500600","新店區"
"231023","260-TV","2019/07/26 14:39:50","新北市新店區檳榔路109號","121.544453333333","24.9616416666667","6500600","新店區"
"231003","268-BY","2019/07/26 14:39:37","新北市新店區中興路二段233號","121.547581666667","24.9751983333333","6500600","新店區"
"231035","278-BY","2019/07/26 14:39:36","新北市新店區安德街20號","121.512445","24.9629566666667","6500600","新店區"
"231016","AAD-862","2019/07/26 14:39:36","新北市新店區北宜路三段262-2號","121.601331666667","24.95446","6500600","新店區"
"231006","355-BY","2019/07/26 14:39:54","新北市新店區北宜路二段129號","121.550911666667","24.9530033333333","6500600","新店區"
"231038","3712-VJ","2019/07/26 14:39:36","新北市新店區溪洲路187-2號","121.529445","24.964235","6500600","新店區"
"231022","513-UM","2019/07/26 14:39:50","新北市新店區桂山路81巷3號","121.566571666667","24.8958283333333","6500600","新店區"
"231001","617-UM","2019/07/26 14:39:37","新北市新店區中正路49號","121.544666666667","24.9698483333333","6500600","新店區"
"231005","618-UM","2019/07/26 14:39:42","新北市新店區復興路102號","121.531815","24.9888583333333","6500600","新店區"
"231002","619-UM","2019/07/26 14:39:41","新北市新店區中正路491號","121.533666666667","24.9824483333333","6500600","新店區"
"231034","641-BX","2019/07/26 14:39:33","新北市新店區黎明路54巷2號","121.50235","24.94834","6500600","新店區"
"231012","KED-0819","2019/07/26 14:39:44","新北市新店區寶橋路48號","121.54576","24.9751133333333","6500600","新店區"
"231028","897-TW","2019/07/26 14:39:41","新北市新店區安德街53號","121.510955","24.9622","6500600","新店區"
"231004","899-TW","2019/07/26 14:39:45","新北市新店區中正路291號","121.53731","24.97457","6500600","新店區"
"231037","AKT-0513","2019/07/26 14:39:43","新北市新店區柴埕路21號","121.514293333333","24.9658266666667","6500600","新店區"
"241020","478-VK","2019/07/26 14:39:43","新北市三重區重新路四段121號","121.484526666667","25.052405","6500200","三重區"
"235030","003-UY","2019/07/26 14:39:35","新北市中和區景新街137號","121.506133333333","24.9970416666667","6500300","中和區"
"235027","006-UY","2019/07/26 14:39:41","新北市中和區連城路174巷12號","121.492566666667","24.99821","6500300","中和區"
"235020","096-UM","2019/07/26 14:39:49","新北市中和區員山路581巷2弄32號","121.477495","25.01019","6500300","中和區"
"235003","097-UM","2019/07/26 14:39:48","新北市中和區安樂路243巷2號","121.513871666667","24.9996466666667","6500300","中和區"
"235029","098-UM","2019/07/26 14:39:37","新北市中和區永和路88-4號","121.497236666667","25.00539","6500300","中和區"
"235004","150-BY","2019/07/26 14:39:46","新北市中和區安和路43號","121.509621666667","24.9948583333333","6500300","中和區"
"235022","151-BY","2019/07/26 14:39:45","新北市中和區員山路148巷19號","121.482148333333","24.997165","6500300","中和區"
"235019","183-VK","2019/07/26 14:39:44","新北市中和區德光路93號","121.468975","25.00353","6500300","中和區"
"235002","185-VK","2019/07/26 14:39:47","新北市中和區自強路27巷22號","121.521583333333","24.9931816666667","6500300","中和區"
"235013","186-VK","2019/07/26 14:39:47","新北市中和區中正路2-1號","121.503216666667","24.9936616666667","6500300","中和區"
"235031","255-BX","2019/07/26 14:39:38","新北市中和區中正路751巷3弄16號","121.4842","24.9991833333333","6500300","中和區"
"235008","293-VK","2019/07/26 14:39:39","新北市中和區南山路421巷1弄3號","121.50735","24.9895566666667","6500300","中和區"
"235036","301-VK","2019/07/26 14:39:30","新北市中和區保平路340巷18號","121.506036666667","25.00459","6500300","中和區"
"235007","352-BY","2019/07/26 14:39:34","新北市中和區景安路85號","121.506276666667","24.9968416666667","6500300","中和區"
"235006","KEA-2878","2019/07/26 14:39:51","新北市中和區宜安路169號","121.508588333333","24.9991933333333","6500300","中和區"
"247013","KEA-2869","2019/07/26 14:38:28","新北市蘆洲區中山二路103號","121.472646666667","25.0817266666667","6501400","蘆洲區"
"247007","KED-0682","2019/07/26 14:39:31","新北市蘆洲區信義路2號","121.473441666667","25.0790316666667","6501400","蘆洲區"
"235005","551-UM","2019/07/26 14:39:47","新北市中和區宜安路133號","121.509581666667","24.9981983333333","6500300","中和區"
"235034","558-UM","2019/07/26 14:39:33","新北市中和區連城路127巷35號","121.497436666667","24.99705","6500300","中和區"
"235018","640-BX","2019/07/26 14:39:46","新北市中和區民享街38號","121.473808333333","25.003035","6500300","中和區"
"235011","732-UM","2019/07/26 14:39:40","新北市中和區捷運路61巷9號","121.509076666667","24.9895183333333","6500300","中和區"
"235010","733-UM","2019/07/26 14:39:42","新北市中和區景新街496巷26弄1號","121.513423333333","24.9861333333333","6500300","中和區"
"235035","783-BX","2019/07/26 14:39:35","新北市中和區連城路467-5號","121.483643333333","24.9960966666667","6500300","中和區"
"235016","805-TS","2019/07/26 14:39:45","新北市中和區華新街192巷29號","121.50628","24.9831833333333","6500300","中和區"
"235012","896-TW","2019/07/26 14:39:48","新北市新店區安和路三段157號","121.516333333333","24.985725","6500300","中和區"
"235017","900-TW","2019/07/26 14:39:34","新北市中和區國光街215巷8弄6-4號","121.46662","25.0010616666667","6500300","中和區"
"235015","157-BY","2019/07/26 14:39:46","新北市中和區中興街180巷51弄2號","121.498305","24.98905","6500300","中和區"
"235001","AAC-213","2019/07/26 14:39:38","新北市中和區自立路76號","121.524118333333","24.9912833333333","6500300","中和區"
"235023","AAC-215","2019/07/26 14:39:35","新北市中和區圓通路305巷7弄1號","121.493698333333","24.9899966666667","6500300","中和區"
"220016","015-TV","2019/07/26 14:39:40","新北市板橋區中山路二段416巷50弄2號","121.483081666667","25.019705","6500100","板橋區"
"220013","072-UY","2019/07/26 14:39:36","新北市板橋區國泰街111巷15號","121.466028333333","25.00603","6500100","板橋區"
"220034","073-UY","2019/07/26 14:39:46","新北市板橋區幸福路70巷1號","121.460703333333","25.0199866666667","6500100","板橋區"
"220105","075-UY","2019/07/26 14:39:50","新北市板橋區民治街57巷24弄6號","121.480358333333","25.0335983333333","6500100","板橋區"
"220017","AAD-861","2019/07/26 14:39:34","新北市板橋區大明街13號","121.458968333333","25.0025033333333","6500100","板橋區"
"247023","337-TH","2019/07/26 14:39:39","新北市蘆洲區正和街65號","121.46886","25.081015","6501400","蘆洲區"
"247001","336-TH","2019/07/26 14:39:40","新北市蘆洲區長安街282號","121.457425","25.0875133333333","6501400","蘆洲區"
"247011","056-VK","2019/07/26 14:39:32","新北市蘆洲區集賢路224巷37弄1號","121.480743333333","25.0880333333333","6501400","蘆洲區"
"247015","053-VK","2019/07/26 14:39:48","新北市蘆洲區正和街96巷25號","121.467648333333","25.0813166666667","6501400","蘆洲區"
"247019","007-UY","2019/07/26 14:39:45","新北市蘆洲區民義街84號","121.47351","25.0903666666667","6501400","蘆洲區"
"247005","002-UY","2019/07/26 14:39:45","新北市蘆洲區中華街14號","121.463116666667","25.0814666666667","6501400","蘆洲區"
"207002","749-BX","2019/07/26 14:35:21","新北市萬里區溪底里溪底路13號","121.615258333333","25.1495366666667","6502800","萬里區"
"207001","662-BX","2019/07/26 14:39:44","新北市萬里區磺潭里員潭路55號","121.643123333333","25.19149","6502800","萬里區"
"236040","KED-0685","2019/07/26 14:39:40","新北市土城區裕民路92巷23弄2號","121.449661666667","24.9861833333333","6501300","土城區"
"236077","166-UM","2019/07/26 14:39:44","新北市土城區中央路四段166號","121.41692","24.958155","6501300","土城區"
"236029","253-BX","2019/07/26 14:39:34","新北市土城區中華路二段90號","121.438363333333","24.9749033333333","6501300","土城區"
"236024","269-VK","2019/07/26 14:39:37","新北市土城區忠義路47-1號","121.440811666667","24.969495","6501300","土城區"
"236013","270-VK","2019/07/26 14:39:45","新北市土城區清水路234巷15弄3號","121.46172","24.9822133333333","6501300","土城區"
"236032","271-VK","2019/07/26 14:39:46","新北市土城區明德路一段235巷38號","121.463161666667","24.97741","6501300","土城區"
"236067","KEA-2877","2019/07/26 14:39:48","新北市土城區永豐路187號","121.4705","24.9780483333333","6501300","土城區"
"236016","401-BY","2019/07/26 14:39:37","新北市土城區延吉街253巷1號","121.467586666667","24.9847266666667","6501300","土城區"
"236057","912-UM","2019/07/26 14:39:41","新北市土城區中央路三段149號","121.43231","24.965315","6501300","土城區"
"236045","913-UM","2019/07/26 14:39:47","新北市土城區金城路三段10號","121.46476","24.9858716666667","6501300","土城區"
"236060","915-UM","2019/07/26 14:39:38","新北市土城區金城路三段207巷8弄8號","121.470255","24.9903666666667","6501300","土城區"
"236054","AAC-216","2019/07/26 14:39:48","新北市土城區裕民路36號","121.44803","24.9884016666667","6501300","土城區"
"221032","280-BY","2019/07/26 14:39:39","新北市汐止區民權街一段211巷6-2號","121.620646666667","25.052215","6501100","汐止區"
"220027","145-BY","2019/07/26 14:39:52","新北市板橋區民權路302巷1弄3號","121.457448333333","25.0162766666667","6500100","板橋區"
"220028","200-UY","2019/07/26 14:39:52","新北市板橋區大觀路二段153巷46弄60號","121.449431666667","25.0002783333333","6500100","板橋區"
"220030","610-BX","2019/07/26 14:39:48","新北市板橋區金門街223號","121.432145","24.9898033333333","6500100","板橋區"
"220032","256-TC","2019/07/26 14:39:45","新北市板橋區滿平二街41號","121.425015","24.9878366666667","6500100","板橋區"
"220040","267-BY","2019/07/26 14:39:38","新北市板橋區懷德街191巷28號","121.480551666667","25.0298916666667","6500100","板橋區"
"220004","276-BY","2019/07/26 14:39:53","新北市板橋區干城路162號","121.460626666667","24.99204","6500100","板橋區"
"220020","277-BY","2019/07/26 14:39:52","新北市板橋區金門街253巷8號","121.432716666667","24.98851","6500100","板橋區"
"220050","280-UM","2019/07/26 14:39:54","新北市板橋區縣民大道三段103巷20號","121.47526","25.02277","6500100","板橋區"
"220043","283-UM","2019/07/26 14:39:35","新北市板橋區吳鳳路91-1號","121.466698333333","25.0317316666667","6500100","板橋區"
"220019","283-VK","2019/07/26 14:39:35","新北市板橋區國慶路49巷1號","121.459486666667","24.995535","6500100","板橋區"
"220037","285-UM","2019/07/26 14:39:45","新北市板橋區文化路二段499號","121.476021666667","25.0341466666667","6500100","板橋區"
"220031","286-VK","2019/07/26 14:39:44","新北市板橋區龍興街65巷13號","121.443103333333","25.0015383333333","6500100","板橋區"
"220029","287-VK","2019/07/26 14:39:43","新北市板橋區大觀路一段29巷143號","121.449451666667","25.0054983333333","6500100","板橋區"
"220039","288-VK","2019/07/26 14:39:51","新北市板橋區龍泉街90巷3號","121.456048333333","25.0248","6500100","板橋區"
"220009","293-UM","2019/07/26 14:39:36","新北市板橋區中山路一段283巷16號","121.470311666667","25.0151383333333","6500100","板橋區"
"220001","299-UM","2019/07/26 14:39:45","新北市板橋區中山路二段148巷30號","121.477243333333","25.01614","6500100","板橋區"
"220023","303-R5","2019/07/26 14:39:39","新北市板橋區中正路275巷93號","121.450873333333","25.0180716666667","6500100","板橋區"
"220010","305-R5","2019/07/26 14:39:49","新北市板橋區光復街33巷13弄6號","121.482065","25.019335","6500100","板橋區"
"220041","307-R5","2019/07/26 14:39:35","新北市板橋區四維路259巷87號","121.46011","25.02632","6500100","板橋區"
"220038","487-VK","2019/07/26 14:39:52","新北市板橋區龍泉街108巷120號","121.456068333333","25.0240583333333","6500100","板橋區"
"220104","560-BX","2019/07/26 14:39:42","新北市板橋區新生街89巷8號","121.457905","25.022225","6500100","板橋區"
"220052","561-BX","2019/07/26 14:39:33","新北市板橋區雨農路18巷2號","121.461951666667","25.024685","6500100","板橋區"
"220011","609-BX","2019/07/26 14:39:51","新北市板橋區中山路二段531巷30號","121.48298","25.0223183333333","6500100","板橋區"
"220022","630-UY","2019/07/26 14:39:48","新北市板橋區大東街44號","121.45652","25.0084516666667","6500100","板橋區"
"220005","686-BX","2019/07/26 14:39:54","新北市板橋區廣和街79號","121.462658333333","24.9921816666667","6500100","板橋區"
"220025","687-BX","2019/07/26 14:39:35","新北市板橋區僑中二街52號","121.446851666667","25.01028","6500100","板橋區"
"220042","689-BX","2019/07/26 14:39:42","新北市板橋區長江路二段59號","121.464621666667","25.0314033333333","6500100","板橋區"
"220002","741-BX","2019/07/26 14:39:40","新北市板橋區忠孝路忠義巷22弄9號","121.46701","25.0037616666667","6500100","板橋區"
"220051","KEA-2699","2019/07/26 14:39:47","新北市板橋區文化路二段410巷6-1號","121.474151666667","25.0312466666667","6500100","板橋區"
"220003","827-TW","2019/07/26 14:39:37","新北市板橋區國慶路167巷35-3號","121.461473333333","24.9981166666667","6500100","板橋區"
"220014","829-TW","2019/07/26 14:39:44","新北市板橋區漢生東路193巷57號","121.471841666667","25.01165","6500100","板橋區"
"220047","831-TW","2019/07/26 14:39:38","新北市板橋區四維路259巷4號","121.46293","25.028115","6500100","板橋區"
"220021","985-R7","2019/07/26 14:39:52","新北市板橋區瑞安街22號","121.455126666667","25.0230516666667","6500100","板橋區"
"220046","AAC-210","2019/07/26 14:39:47","新北市板橋區文化路一段29號","121.460191666667","25.0128916666667","6500100","板橋區"
"220012","AAC-253","2019/07/26 14:39:50","新北市板橋區民族路72號","121.462818333333","25.009435","6500100","板橋區"
"235032","KEA-2873","2019/07/26 14:39:39","新北市中和區福祥路83號","121.499091666667","25.0058533333333","6500300","中和區"
