"lineid","car","time","location","longitude","latitude","cityid","cityname"
"249003","593-UM","2019/07/26 15:09:51","新北市八里區挖子尾街6號","121.415453333333","25.1641783333333","6502300","八里區"
"248019","KED-0813","2019/07/26 15:09:52","新北市五股區凌雲路三段24巷18號","121.434881666667","25.10607","6501500","五股區"
"231029","001-UM","2019/07/26 15:09:49","新北市新店區安康路三段738號","121.473896666667","24.9420616666667","6500600","新店區"
"231030","002-UM","2019/07/26 15:09:50","新北市新店區安民街339號","121.516935","24.9749083333333","6500600","新店區"
"231018","107-UY","2019/07/26 15:09:51","新北市新店區中央六街98號","121.526011666667","24.9769666666667","6500600","新店區"
"231036","110-UY","2019/07/26 15:09:39","新北市新店區安祥路104巷6弄5號","121.48164","24.9628833333333","6500600","新店區"
"231039","187-VK","2019/07/26 15:09:45","新北市新店區寶安街6巷2號","121.542188333333","24.9812783333333","6500600","新店區"
"231032","256-BX","2019/07/26 15:09:48","新北市新店區安泰路60巷134弄104號","121.483735","24.943425","6500600","新店區"
"231023","260-TV","2019/07/26 15:09:30","新北市新店區檳榔路105號","121.544705","24.9616683333333","6500600","新店區"
"231003","268-BY","2019/07/26 15:09:37","新北市新店區寶橋路178號","121.549386666667","24.977485","6500600","新店區"
"231035","278-BY","2019/07/26 15:09:36","新北市新店區安和路三段110巷9號","121.517511666667","24.9857333333333","6500600","新店區"
"231016","AAD-862","2019/07/26 15:09:36","新北市新店區銀河路66-4號","121.57971","24.9586766666667","6500600","新店區"
"231006","355-BY","2019/07/26 15:09:40","新北市新店區新坡一街60號","121.549685","24.9629916666667","6500600","新店區"
"231038","3712-VJ","2019/07/26 15:09:36","新北市新店區安華路28-1號","121.519906666667","24.9609083333333","6500600","新店區"
"231024","4716-K9","2019/07/26 15:09:49","新北市新店區中華路48巷11號","121.540223333333","24.9688183333333","6500600","新店區"
"231025","4715-K9","2019/07/26 15:09:30","新北市新店區中正路457號","121.533875","24.9800166666667","6500600","新店區"
"231022","513-UM","2019/07/26 15:09:50","新北市新店區桂山路51巷6-1號","121.561976666667","24.9015716666667","6500600","新店區"
"231001","617-UM","2019/07/26 15:09:37","新北市新店區中正路266號","121.539088333333","24.9735416666667","6500600","新店區"
"231005","618-UM","2019/07/26 15:09:42","新北市新店區北新路三段54-1號","121.54215","24.9800066666667","6500600","新店區"
"231002","619-UM","2019/07/26 15:09:41","新北市新店區中正路543-4號","121.53365","24.9875066666667","6500600","新店區"
"231034","641-BX","2019/07/26 15:09:33","新北市新店區玫瑰路4-1號","121.493648333333","24.9513683333333","6500600","新店區"
"231012","KED-0819","2019/07/26 15:09:44","新北市新店區寶元路一段65號","121.542225","24.98578","6500600","新店區"
"231026","720-UM","2019/07/26 15:09:48","新北市新店區建興街4號","121.540113333333","24.97651","6500600","新店區"
"231028","897-TW","2019/07/26 15:09:41","新北市新店區僑信路2巷2號","121.499771666667","24.9535916666667","6500600","新店區"
"231004","899-TW","2019/07/26 15:09:46","新北市新店區博愛街13巷24號","121.540203333333","24.97402","6500600","新店區"
"231037","AKT-0513","2019/07/26 15:09:43","新北市新店區安興路69號","121.515828333333","24.9748266666667","6500600","新店區"
"241020","478-VK","2019/07/26 15:09:43","新北市三重區重新路四段121號","121.484716666667","25.0523216666667","6500200","三重區"
"235030","003-UY","2019/07/26 15:09:35","新北市中和區中山路二段3巷28-3號","121.50704","25.005155","6500300","中和區"
"235004","150-BY","2019/07/26 15:09:46","新北市中和區宜安路170號","121.50893","24.999085","6500300","中和區"
"235014","4979-A6","2019/07/26 15:09:43","新北市中和區景新街323-1號","121.511363333333","24.9921383333333","6500300","中和區"
"235033","4980-A6","2019/07/26 15:09:50","新北市中和區景新街132巷6-3號","121.504791666667","24.9981716666667","6500300","中和區"
"235034","558-UM","2019/07/26 15:09:53","新北市中和區中正路548號","121.487193333333","24.9946216666667","6500300","中和區"
"235035","783-BX","2019/07/26 15:09:34","新北市中和區建三路71號","121.486163333333","25.00135","6500300","中和區"
"235012","896-TW","2019/07/26 15:09:51","新北市中和區興南路一段143號","121.508728333333","24.9874916666667","6500300","中和區"
"235023","AAC-215","2019/07/26 15:09:35","新北市中和區圓通路367巷13弄27號","121.49295","24.9884933333333","6500300","中和區"
"220013","072-UY","2019/07/26 15:09:41","新北市板橋區區運路30號","121.46564","25.0096416666667","6500100","板橋區"
"220034","073-UY","2019/07/26 15:09:46","新北市板橋區大觀路一段51號","121.447871666667","25.007575","6500100","板橋區"
"207002","749-BX","2019/07/26 15:09:41","新北市萬里區崁腳里內中福路87號","121.655711666667","25.1659333333333","6502800","萬里區"
"207001","662-BX","2019/07/26 15:09:45","新北市萬里區雙興里麗水路8號","121.649895","25.1872483333333","6502800","萬里區"
"236040","KED-0685","2019/07/26 15:09:39","新北市土城區金城路二段241號","121.455788333333","24.9825333333333","6501300","土城區"
"236077","166-UM","2019/07/26 15:09:44","新北市土城區溪頭路28-1號","121.412278333333","24.9552633333333","6501300","土城區"
"236029","253-BX","2019/07/26 15:09:54","新北市土城區中央路二段80巷3號","121.441785","24.9790883333333","6501300","土城區"
"236024","269-VK","2019/07/26 15:09:38","新北市土城區中央路二段177巷1-4號","121.44241","24.976005","6501300","土城區"
"236013","270-VK","2019/07/26 15:09:37","新北市土城區學府路一段99巷8號","121.45669","24.9870366666667","6501300","土城區"
"236067","KEA-2877","2019/07/26 15:09:48","新北市土城區學成路124號","121.449396666667","24.989485","6501300","土城區"
"236016","401-BY","2019/07/26 15:09:37","新北市土城區峰廷街18號","121.468991666667","24.987245","6501300","土城區"
"236057","912-UM","2019/07/26 15:09:40","新北市土城區金城路一段135號","121.44507","24.9740216666667","6501300","土城區"
"236045","913-UM","2019/07/26 15:09:47","新北市土城區清水路153號","121.458631666667","24.9815583333333","6501300","土城區"
"236060","915-UM","2019/07/26 15:09:36","新北市土城區延和路105巷6弄1號","121.467375","24.99109","6501300","土城區"
"236054","AAC-216","2019/07/26 15:09:48","新北市土城區學府路一段231號","121.451141666667","24.9840883333333","6501300","土城區"
"221032","280-BY","2019/07/26 15:09:39","新北市汐止區樟樹二路330巷32號","121.642715","25.0705266666667","6501100","汐止區"
"220027","145-BY","2019/07/26 15:09:40","新北市板橋區建國街54巷19號","121.459558333333","25.0170466666667","6500100","板橋區"
"220028","200-UY","2019/07/26 15:09:40","新北市板橋區大觀路二段179巷26號","121.445941666667","24.99961","6500100","板橋區"
"220030","610-BX","2019/07/26 15:09:49","新北市板橋區存德街81號","121.431958333333","24.9911233333333","6500100","板橋區"
"220032","256-TC","2019/07/26 15:09:45","新北市樹林區環河路2號","121.428398333333","24.97922","6500100","板橋區"
"220020","277-BY","2019/07/26 15:09:46","新北市樹林區水源街81號","121.425955","24.9794683333333","6500100","板橋區"
"220037","285-UM","2019/07/26 15:09:45","新北市板橋區懷德街127巷23弄7號","121.47933","25.0318066666667","6500100","板橋區"
"220031","286-VK","2019/07/26 15:09:44","新北市板橋區僑中二街88巷36號","121.444518333333","25.0096533333333","6500100","板橋區"
"220029","287-VK","2019/07/26 15:09:43","新北市板橋區僑中一街124巷20弄20號","121.446946666667","25.0139383333333","6500100","板橋區"
"220009","293-UM","2019/07/26 15:09:40","新北市板橋區四川路一段274巷9號","121.457736666667","25.0012933333333","6500100","板橋區"
"220023","303-R5","2019/07/26 15:09:49","新北市板橋區金華街10巷129號","121.459805","25.02062","6500100","板橋區"
"220010","305-R5","2019/07/26 15:09:36","新北市板橋區中山路二段517號","121.483005","25.0211633333333","6500100","板橋區"
"220038","487-VK","2019/07/26 15:09:45","新北市板橋區四維路274號","121.463156666667","25.0286416666667","6500100","板橋區"
"220011","609-BX","2019/07/26 15:09:31","新北市板橋區中山路二段147號","121.475578333333","25.0166133333333","6500100","板橋區"
"220022","630-UY","2019/07/26 15:09:47","新北市板橋區明德街8號","121.4599","25.0103733333333","6500100","板橋區"
"220025","687-BX","2019/07/26 15:09:35","新北市板橋區僑中一街124巷46號","121.446463333333","25.0149783333333","6500100","板橋區"
"220042","689-BX","2019/07/26 15:09:48","新北市板橋區長江路一段59號","121.458941666667","25.02929","6500100","板橋區"
"220002","741-BX","2019/07/26 15:09:40","新北市板橋區忠孝路忠義巷3弄4號","121.465338333333","25.0037016666667","6500100","板橋區"
"220051","KEA-2699","2019/07/26 15:09:47","新北市板橋區莒光路79巷4號","121.471973333333","25.0244033333333","6500100","板橋區"
"220003","827-TW","2019/07/26 15:09:36","新北市板橋區仁愛路86巷9號","121.461036666667","24.9992483333333","6500100","板橋區"
"220014","829-TW","2019/07/26 15:09:44","新北市板橋區觀光街79巷2號","121.469171666667","25.0170683333333","6500100","板橋區"
"220012","AAC-253","2019/07/26 15:09:51","新北市板橋區長安街48巷1號","121.468151666667","25.0089783333333","6500100","板橋區"
