"lineid","car","time","location","longitude","latitude","cityid","cityname"
"249005","172-UM","2019/07/26 17:19:29","新北市八里區荖阡坑路50-1號","121.41118","25.1215733333333","6502300","八里區"
"249001","173-UM","2019/07/26 17:19:41","新北市八里區中華路二段165巷3號","121.40766","25.1508383333333","6502300","八里區"
"249004","303-UY","2019/07/26 17:19:25","新北市八里區賢三街26號","121.418645","25.1587266666667","6502300","八里區"
"249002","305-UY","2019/07/26 17:19:41","新北市八里區龍米路二段117巷30弄2號","121.444623333333","25.1426766666667","6502300","八里區"
"249003","593-UM","2019/07/26 17:19:38","新北市八里區中山路二段439號","121.396661666667","25.145835","6502300","八里區"
"244007","080-UY","2019/07/26 17:19:28","新北市林口區湖子18-3號","121.385638333333","25.092215","6501700","林口區"
"244013","KEA-2802","2019/07/26 17:19:42","新北市林口區粉寮69號","121.404753333333","25.0907683333333","6501700","林口區"
"244023","483-VK","2019/07/26 17:19:40","新北市林口區隆林街96號","121.38568","25.0751216666667","6501700","林口區"
"244017","485-VK","2019/07/26 17:19:35","新北市林口區中山路130號","121.392198333333","25.0785983333333","6501700","林口區"
"244009","657-BX","2019/07/26 17:19:27","新北市林口區中北一街81號","121.385703333333","25.0888566666667","6501700","林口區"
"244011","701-TV","2019/07/26 17:19:44","新北市林口區中山路2號","121.396723333333","25.07841","6501700","林口區"
"244025","837-TS","2019/07/26 17:19:38","新北市林口區仁愛二路63號","121.368496666667","25.0754216666667","6501700","林口區"
"244021","838-TS","2019/07/26 17:19:27","新北市林口區粉寮路一段139號","121.399063333333","25.0811883333333","6501700","林口區"
"231046","719-UM","2019/07/26 17:10:53","新北市新店區直潭路71號","121.532258333333","24.942155","6500600","新店區"
"241011","013-R5","2019/07/26 17:19:46","新北市三重區河邊北街108號","121.503618333333","25.07083","6500200","三重區"
"241028","022-UY","2019/07/26 17:19:28","新北市三重區仁化街107號","121.494335","25.058115","6500200","三重區"
"241008","059-VK","2019/07/26 17:19:44","新北市三重區永福街72巷29號","121.479978333333","25.0764133333333","6500200","三重區"
"241015","062-VK","2019/07/26 17:19:33","新北市三重區長元街82-1號","121.501821666667","25.0663283333333","6500200","三重區"
"241017","063-VK","2019/07/26 17:19:44","新北市三重區大同北路61號","121.495193333333","25.0632933333333","6500200","三重區"
"241024","065-VK","2019/07/26 17:19:37","新北市三重區中正北路193巷21弄43號","121.479038333333","25.0710416666667","6500200","三重區"
"241030","066-VK","2019/07/26 17:19:26","新北市三重區成功路73巷12號","121.489348333333","25.051885","6500200","三重區"
"241002","090-VK","2019/07/26 17:19:26","新北市三重區自強路五段66-1號","121.495956666667","25.0826233333333","6500200","三重區"
"241003","091-VK","2019/07/26 17:19:40","新北市三重區五華街136號","121.491591666667","25.08369","6500200","三重區"
"241005","262-UM","2019/07/26 17:19:35","新北市三重區永安北路二段25巷29號","121.482851666667","25.081825","6500200","三重區"
"241016","266-UM","2019/07/26 17:19:41","新北市三重區大同北路54巷1號","121.49422","25.0635416666667","6500200","三重區"
"241009","267-UM","2019/07/26 17:19:30","新北市三重區慈愛街8號","121.484433333333","25.078375","6500200","三重區"
"241018","268-UM","2019/07/26 17:19:42","新北市三重區安慶街206號","121.493138333333","25.0683216666667","6500200","三重區"
"241032","269-UM","2019/07/26 17:19:31","新北市三重區中華路2巷4號","121.48289","25.060325","6500200","三重區"
"241013","270-UM","2019/07/26 17:19:29","新北市三重區三和路三段107巷21號","121.495015","25.073065","6500200","三重區"
"241025","271-UM","2019/07/26 17:19:30","新北市三重區中正北路201號","121.47702","25.0696833333333","6500200","三重區"
"241007","398-BY","2019/07/26 17:19:29","新北市三重區慈愛街9-1號","121.485183333333","25.07861","6500200","三重區"
"241020","478-VK","2019/07/26 17:19:43","新北市三重區忠孝路一段133號","121.488491666667","25.071885","6500200","三重區"
"241026","480-VK","2019/07/26 17:19:40","新北市三重區正義南路87-1號","121.498513333333","25.0596666666667","6500200","三重區"
"241014","543-UM","2019/07/26 17:19:32","新北市三重區長榮路3號","121.500218333333","25.0684066666667","6500200","三重區"
"241023","545-UM","2019/07/26 17:19:33","新北市三重區忠孝路三段50巷56號","121.482356666667","25.06502","6500200","三重區"
"241019","KEA-2593","2019/07/26 17:19:47","新北市三重區自強路二段50巷19-1號","121.488336666667","25.069495","6500200","三重區"
"241022","KED-0820","2019/07/26 17:19:43","新北市三重區重陽路二段34巷9號","121.486578333333","25.06329","6500200","三重區"
"241012","941-UM","2019/07/26 17:19:35","新北市三重區公園街51號","121.49861","25.0748883333333","6500200","三重區"
"241033","AAC-255","2019/07/26 17:19:45","新北市三重區光復路二段102巷59號","121.469068333333","25.0581066666667","6500200","三重區"
"235064","005-UY","2019/07/26 17:19:42","新北市中和區員山路36巷16-3號","121.485073333333","24.9913183333333","6500300","中和區"
"247014","KEA-2869","2019/07/26 17:19:39","新北市蘆洲區中正路73號","121.470293333333","25.0831383333333","6501400","蘆洲區"
"247008","KED-0682","2019/07/26 17:19:39","新北市三重區永福街135巷32弄21號","121.476713333333","25.0766816666667","6501400","蘆洲區"
"235054","640-BX","2019/07/26 17:19:26","新北市中和區員山路36巷16-2號","121.485295","24.99147","6500300","中和區"
"247004","893-R6","2019/07/26 17:19:44","新北市蘆洲區永安南路二段286號","121.457588333333","25.0812733333333","6501400","蘆洲區"
"247024","337-TH","2019/07/26 17:19:38","新北市蘆洲區光榮路2號","121.460248333333","25.0862216666667","6501400","蘆洲區"
"247002","336-TH","2019/07/26 17:19:35","新北市蘆洲區永樂街38巷33弄4號","121.457918333333","25.089565","6501400","蘆洲區"
"247022","057-VK","2019/07/26 17:19:41","新北市蘆洲區三民路130號","121.470846666667","25.0875283333333","6501400","蘆洲區"
"247012","056-VK","2019/07/26 17:19:41","新北市蘆洲區信義路319巷8號","121.477815","25.086165","6501400","蘆洲區"
"247016","053-VK","2019/07/26 17:19:42","新北市蘆洲區和平路188巷21號","121.46697","25.082105","6501400","蘆洲區"
"247020","007-UY","2019/07/26 17:19:37","新北市蘆洲區仁愛街37號","121.472178333333","25.09282","6501400","蘆洲區"
"247006","002-UY","2019/07/26 17:19:28","新北市蘆洲區永安南路二段156號","121.461711666667","25.07878","6501400","蘆洲區"
"228002","663-BX","2019/07/26 17:19:32","新北市貢寮區雙玉里下雙溪街26號","121.92444","25.0107933333333","6502600","貢寮區"
"228001","670-TC","2019/07/26 17:19:37","新北市貢寮區仁理村尖山腳街18-3號","121.9255","25.0483016666667","6502600","貢寮區"
"228003","828-UM","2019/07/26 17:19:33","新北市貢寮區福隆里興隆街36號","121.941128333333","25.0174266666667","6502600","貢寮區"
"224010","AGQ-8101","2019/07/26 17:19:32","新北市瑞芳區逢甲路20-1號","121.809343333333","25.1085433333333","6501200","瑞芳區"
"224006","676-BX","2019/07/26 17:19:43","新北市瑞芳區傑魚坑路319號","121.785956666667","25.1040333333333","6501200","瑞芳區"
"224007","285-BY","2019/07/26 17:19:45","新北市瑞芳區大寮路356-1號","121.785223333333","25.1032916666667","6501200","瑞芳區"
"224009","275-VK","2019/07/26 17:18:29","新北市瑞芳區汽車路101-2號","121.84114","25.1086916666667","6501200","瑞芳區"
"224008","273-VK","2019/07/26 17:19:44","新北市瑞芳區侯硐路154號","121.826765","25.0842816666667","6501200","瑞芳區"
"224005","271-BY","2019/07/26 17:19:30","新北市瑞芳區南雅路91號","121.88464","25.12301","6501200","瑞芳區"
"227001","642-TC","2019/07/26 17:19:21","新北市雙溪區三貂里定福路1-2號","121.850751666667","25.063405","6502500","雙溪區"
"227002","400-TW","2019/07/26 17:19:26","新北市雙溪區平林里梅竹蹊29號","121.861416666667","25.03594","6502500","雙溪區"
"251009","008-UM","2019/07/26 17:19:38","新北市淡水區三民街22號","121.43908","25.1717783333333","6501000","淡水區"
"251004","009-UM","2019/07/26 17:11:55","新北市淡水區中正東路二段88巷15號","121.459035","25.1505","6501000","淡水區"
"251008","181-VK","2019/07/26 17:19:31","新北市淡水區大同路283號","121.467895","25.1424583333333","6501000","淡水區"
"251010","413-VK","2019/07/26 17:19:27","新北市淡水區沙崙路224號","121.425373333333","25.184445","6501000","淡水區"
"251012","441-VK","2019/07/26 17:19:45","新北市淡水區北新路19號","121.444538333333","25.177845","6501000","淡水區"
"251007","442-VK","2019/07/26 17:19:41","新北市淡水區民生路56號","121.462055","25.137915","6501000","淡水區"
"251005","443-VK","2019/07/26 17:19:28","新北市淡水區鄧公路19號","121.451363333333","25.1700216666667","6501000","淡水區"
"251006","561-UM","2019/07/26 17:19:39","新北市淡水區中山路190號","121.441583333333","25.1745316666667","6501000","淡水區"
"251011","650-BX","2019/07/26 17:19:28","新北市淡水區坪頂路70巷1號","121.459885","25.1630583333333","6501000","淡水區"
"251002","672-BX","2019/07/26 17:19:29","新北市淡水區中正路二段31號","121.419231666667","25.1816283333333","6501000","淡水區"
"251003","766-UM","2019/07/26 17:19:42","新北市淡水區中正路二段31號","121.419351666667","25.18154","6501000","淡水區"
"207003","550-UM","2019/07/26 17:19:37","新北市萬里區萬里里獅頭路23號","121.693473333333","25.1782066666667","6502800","萬里區"
"252002","178-VK","2019/07/26 17:19:35","新北市三芝區忠孝街1-14號","121.505166666667","25.253905","6502100","三芝區"
"247010","KED-0683","2019/07/26 17:19:41","新北市蘆洲區三民路26巷12號","121.476955","25.0826316666667","6501400","蘆洲區"
"252001","KED-0821","2019/07/26 17:19:24","新北市三芝區長安街119號","121.498041666667","25.259625","6502100","三芝區"
"242060","986-R7","2019/07/26 17:19:29","新北市新莊區三和路12-12號","121.442246666667","25.03703","6500500","新莊區"
"242002","751-BX","2019/07/26 17:19:40","新北市新莊區瓊林路21-1號","121.445923333333","25.02867","6500500","新莊區"
"242029","615-BX","2019/07/26 17:19:29","新北市新莊區幸福路602-1號","121.452218333333","25.0492633333333","6500500","新莊區"
"242027","613-BX","2019/07/26 17:19:35","新北市新莊區中港一街2號","121.451941666667","25.0457183333333","6500500","新莊區"
"242058","612-BX","2019/07/26 17:19:34","新北市新莊區新泰路357巷3弄57號","121.442275","25.0392266666667","6500500","新莊區"
"242046","566-BX","2019/07/26 17:19:32","新北市新莊區新泰路357巷3弄15號","121.441981666667","25.040905","6500500","新莊區"
"242056","441-UM","2019/07/26 17:19:27","新北市新莊區中正路457巷27號","121.442421666667","25.0329933333333","6500500","新莊區"
"242005","440-UM","2019/07/26 17:19:26","新北市新莊區中平路84號","121.44485","25.0449983333333","6500500","新莊區"
"242041","415-TV","2019/07/26 17:19:06","新北市新莊區三和路12-16號","121.44183","25.0374916666667","6500500","新莊區"
"242011","413-TV","2019/07/26 17:19:44","新北市新莊區中港一街145號","121.447795","25.0450716666667","6500500","新莊區"
"242048","400-BY","2019/07/26 17:19:28","新北市新莊區中正路582號","121.427331666667","25.0303","6500500","新莊區"
"242025","362-BY","2019/07/26 17:19:27","新北市新莊區中平路86號","121.444828333333","25.0450616666667","6500500","新莊區"
"242023","353-BY","2019/07/26 17:19:34","新北市新莊區中平路92巷2號","121.444831666667","25.045305","6500500","新莊區"
"242013","132-UY","2019/07/26 17:19:31","新北市新莊區新泰路500號","121.442435","25.0460916666667","6500500","新莊區"
"242037","135-UY","2019/07/26 17:19:24","新北市新莊區中正路481號","121.441258333333","25.0337366666667","6500500","新莊區"
"242054","172-VK","2019/07/26 17:19:31","新北市新莊區中正路473-1號","121.442023333333","25.033","6500500","新莊區"
"242015","173-VK","2019/07/26 17:19:33","新北市新莊區三和路12-21號","121.442048333333","25.038775","6500500","新莊區"
"242021","175-VK","2019/07/26 17:19:29","新北市新莊區中平路82巷36-2號","121.446373333333","25.0449683333333","6500500","新莊區"
"242019","KED-0687","2019/07/26 17:19:43","新北市新莊區新泰路278號","121.445846666667","25.040425","6500500","新莊區"
"242034","348-TH","2019/07/26 17:19:32","新北市新莊區瓊林路21-1號","121.445798333333","25.0286916666667","6500500","新莊區"
"242007","349-TH","2019/07/26 17:19:31","新北市新莊區新泰路502巷2號","121.44263","25.04635","6500500","新莊區"
"242032","350-TH","2019/07/26 17:19:45","新北市新莊區新泰路462號","121.443213333333","25.0448583333333","6500500","新莊區"
"242017","351-TH","2019/07/26 17:19:38","新北市新莊區新泰路502巷6號","121.442736666667","25.0463633333333","6500500","新莊區"
"238015","755-BX","2019/07/26 17:19:30","新北市樹林區大安路263號","121.419105","24.9938016666667","6500700","樹林區"
"238024","5061-A6","2019/07/26 17:19:40","新北市樹林區樹新路51巷3號","121.426955","24.9950016666667","6500700","樹林區"
"238018","KEA-2217","2019/07/26 17:19:44","新北市樹林區樹中街61巷25號","121.421911666667","24.98522","6500700","樹林區"
"238022","KEA-2213","2019/07/26 17:19:36","新北市樹林區仁愛街42號","121.423621666667","24.98275","6500700","樹林區"
"238021","KEA-2539","2019/07/26 17:19:33","新北市樹林區西圳街一段132-1號","121.397458333333","24.963675","6500700","樹林區"
"238017","283-BY","2019/07/26 17:19:27","新北市樹林區光武街7-3號","121.415731666667","25.00538","6500700","樹林區"
"238020","268-VK","2019/07/26 17:19:39","新北市樹林區千歲街101號","121.428508333333","25.00087","6500700","樹林區"
"238016","169-UY","2019/07/26 17:19:46","新北市樹林區八德街1號","121.417568333333","24.98498","6500700","樹林區"
"239007","AAC-297","2019/07/26 17:19:34","新北市鶯歌區光復街9號","121.351685","24.95506","6500800","鶯歌區"
"239006","891-R6","2019/07/26 17:19:43","新北市鶯歌區德昌街7-2號","121.333638333333","24.9603716666667","6500800","鶯歌區"
"239008","527-UM","2019/07/26 17:19:43","新北市鶯歌區西湖街45巷1號","121.340098333333","24.9587816666667","6500800","鶯歌區"
"239005","526-UM","2019/07/26 17:19:27","新北市鶯歌區福德三街18號","121.329535","24.96754","6500800","鶯歌區"
"239001","417-VK","2019/07/26 17:19:39","新北市鶯歌區黃厝街31巷39-1號","121.342663333333","24.9454283333333","6500800","鶯歌區"
"239003","360-BY","2019/07/26 17:19:40","新北市鶯歌區德昌二街72號","121.332296666667","24.9581933333333","6500800","鶯歌區"
"239002","359-BY","2019/07/26 17:19:38","新北市鶯歌區建國路215號","121.349005","24.95345","6500800","鶯歌區"
"239004","193-VK","2019/07/26 17:19:34","新北市鶯歌區文化路501號","121.352941666667","24.94875","6500800","鶯歌區"
"244019","KED-0667","2019/07/26 17:19:36","新北市林口區公園路112號","121.370325","25.0709466666667","6501700","林口區"
"221033","297-VK","2019/07/26 17:13:18","新北市汐止區汐萬路一段256巷1號","121.651803333333","25.07489","6501100","汐止區"
"233002","KEA-2870","2019/07/26 17:19:28","新北市烏來區環山路82巷82號","121.547408333333","24.86367","6502900","烏來區"
"233001","KEC-0709","2019/07/26 17:19:44","新北市烏來區溫泉街150號","121.551385","24.8584583333333","6502900","烏來區"
"242009","280-VK","2019/07/26 17:19:30","新北市新莊區新泰路488號","121.442406666667","25.0458083333333","6500500","新莊區"
"235061","KEA-2875","2019/07/26 17:12:38","新北市中和區員山路36巷16-2號","121.485273333333","24.9916466666667","6500300","中和區"
