"lineid","car","time","location","longitude","latitude","cityid","cityname"
"234026","9371-KE","2019/07/26 17:49:31","新北市永和區和平街109巷6-1號","121.510681666667","25.00961","6500400","永和區"
"249005","172-UM","2019/07/26 17:49:29","新北市八里區荖阡坑路41-6號","121.402328333333","25.132195","6502300","八里區"
"249001","173-UM","2019/07/26 17:49:41","新北市八里區龍米路二段108-1號","121.443855","25.1494566666667","6502300","八里區"
"249004","303-UY","2019/07/26 17:49:25","新北市八里區中華路一段309巷51號","121.417501666667","25.1532466666667","6502300","八里區"
"249002","305-UY","2019/07/26 17:49:41","新北市八里區龍形三街9巷2號","121.450623333333","25.13176","6502300","八里區"
"249003","593-UM","2019/07/26 17:49:39","新北市八里區中山路二段125號","121.405438333333","25.1518483333333","6502300","八里區"
"248006","077-UY","2019/07/26 17:49:35","新北市五股區中興路二段37巷28號","121.460193333333","25.074945","6501500","五股區"
"248004","677-BX","2019/07/26 17:49:32","新北市五股區中興路二段37巷26號","121.460338333333","25.0749816666667","6501500","五股區"
"232011","375-UM","2019/07/26 17:49:34","新北市坪林區北宜路八段186號","121.707885","24.93458","6502000","坪林區"
"244007","080-UY","2019/07/26 17:49:28","新北市林口區林口路97-1號","121.388998333333","25.0801783333333","6501700","林口區"
"244013","KEA-2802","2019/07/26 17:49:42","新北市林口區中山路79號","121.390275","25.0787216666667","6501700","林口區"
"244023","483-VK","2019/07/26 17:49:40","新北市林口區東明二街101號","121.388805","25.0707116666667","6501700","林口區"
"244017","485-VK","2019/07/26 17:49:35","新北市林口區文化二路一段230巷22弄5號","121.370208333333","25.0718616666667","6501700","林口區"
"244009","657-BX","2019/07/26 17:49:27","新北市林口區竹林路582巷19號","121.385898333333","25.0833083333333","6501700","林口區"
"244011","701-TV","2019/07/26 17:49:24","新北市林口區中正路265號","121.390211666667","25.077605","6501700","林口區"
"244025","837-TS","2019/07/26 17:49:38","新北市林口區忠孝三路42號","121.35985","25.0703633333333","6501700","林口區"
"244021","838-TS","2019/07/26 17:49:27","新北市林口區新寮45-6號","121.404276666667","25.0642533333333","6501700","林口區"
"222003","436-BY","2019/07/26 17:49:42","新北市深坑區阿柔洋60-1號","121.608596666667","24.9985083333333","6501800","深坑區"
"222002","659-BX","2019/07/26 17:49:36","新北市深坑區平埔街22巷19號","121.61464","25.0008333333333","6501800","深坑區"
"241024","065-VK","2019/07/26 17:49:31","新北市三重區車路頭街60號","121.48369","25.07247","6500200","三重區"
"241016","266-UM","2019/07/26 17:47:41","新北市三重區新北大道一段7號","121.489631666667","25.06137","6500200","三重區"
"241033","AAC-255","2019/07/26 17:49:45","新北市三重區重新路五段566號","121.470008333333","25.0456766666667","6500200","三重區"
"235064","005-UY","2019/07/26 17:49:43","新北市中和區員山路36巷16-3號","121.485098333333","24.9914333333333","6500300","中和區"
"235063","006-UY","2019/07/26 17:49:33","新北市中和區員山路36巷16-3號","121.48487","24.9912366666667","6500300","中和區"
"235065","098-UM","2019/07/26 17:49:34","新北市中和區連城路469巷79弄8號","121.483666666667","24.9936566666667","6500300","中和區"
"235058","151-BY","2019/07/26 17:42:08","新北市中和區員山路36巷16-3號","121.484721666667","24.99112","6500300","中和區"
"247014","KEA-2869","2019/07/26 17:49:39","新北市蘆洲區保和街69巷33號","121.469761666667","25.0852366666667","6501400","蘆洲區"
"247008","KED-0682","2019/07/26 17:49:39","新北市蘆洲區信義路37巷4號","121.474463333333","25.0796433333333","6501400","蘆洲區"
"235054","640-BX","2019/07/26 17:49:26","新北市中和區員山路36巷16-2號","121.485291666667","24.9915266666667","6500300","中和區"
"235062","800-TS","2019/07/26 17:49:36","新北市中和區員山路36巷16-2號","121.485365","24.9914083333333","6500300","中和區"
"235057","801-TS","2019/07/26 17:49:39","新北市中和區員山路36巷13號","121.484371666667","24.990825","6500300","中和區"
"235037","AAC-213","2019/07/26 17:49:31","新北市中和區中正路637巷52弄1號","121.485445","24.9935266666667","6500300","中和區"
"247004","893-R6","2019/07/26 17:49:24","新北市蘆洲區長榮路211巷6號","121.460306666667","25.08474","6501400","蘆洲區"
"247018","546-UM","2019/07/26 17:49:35","新北市蘆洲區復興路227巷2弄18號","121.480871666667","25.0902583333333","6501400","蘆洲區"
"247024","337-TH","2019/07/26 17:49:37","新北市蘆洲區光榮路63號","121.461175","25.0887566666667","6501400","蘆洲區"
"247002","336-TH","2019/07/26 17:49:35","新北市蘆洲區永平街32巷21弄25號","121.458191666667","25.0920216666667","6501400","蘆洲區"
"247022","057-VK","2019/07/26 17:49:41","新北市蘆洲區中正路462號","121.462453333333","25.0951233333333","6501400","蘆洲區"
"247012","056-VK","2019/07/26 17:49:41","新北市蘆洲區復興路133號","121.477701666667","25.0885383333333","6501400","蘆洲區"
"247016","053-VK","2019/07/26 17:49:42","新北市蘆洲區中正路185巷68弄31號","121.466065","25.08562","6501400","蘆洲區"
"247020","007-UY","2019/07/26 17:49:36","新北市蘆洲區民權路190-1號","121.47201","25.0907116666667","6501400","蘆洲區"
"247006","002-UY","2019/07/26 17:49:28","新北市蘆洲區九芎街140號","121.464816666667","25.0788516666667","6501400","蘆洲區"
"228002","663-BX","2019/07/26 17:49:32","新北市貢寮區福隆里龜壽谷街26號","121.953365","25.0074366666667","6502600","貢寮區"
"228001","670-TC","2019/07/26 17:49:37","新北市貢寮區真理里新港街26巷28-6號","121.927656666667","25.0553866666667","6502600","貢寮區"
"228003","828-UM","2019/07/26 17:49:33","新北市貢寮區真理里延平街72-5號","121.925231666667","25.058415","6502600","貢寮區"
"224006","676-BX","2019/07/26 17:49:43","新北市瑞芳區瑞興新村12巷1號","121.788446666667","25.108315","6501200","瑞芳區"
"224009","275-VK","2019/07/26 17:49:29","新北市瑞芳區新山路181-1號","121.85113","25.108925","6501200","瑞芳區"
"224008","273-VK","2019/07/26 17:49:44","新北市瑞芳區明燈路一段131號","121.820098333333","25.1070183333333","6501200","瑞芳區"
"224005","271-BY","2019/07/26 17:49:30","新北市瑞芳區瑞濱路32-8號","121.823155","25.121005","6501200","瑞芳區"
"227002","400-TW","2019/07/26 17:49:26","新北市雙溪區共和里東榮街52號","121.86633","25.033655","6502500","雙溪區"
"253006","032-BX","2019/07/26 17:49:39","新北市石門區老崩山2號","121.553205","25.29157","6502200","石門區"
"251009","008-UM","2019/07/26 17:49:38","新北市淡水區長興街16-3號","121.443876666667","25.1707716666667","6501000","淡水區"
"251004","009-UM","2019/07/26 17:49:45","新北市淡水區民權一街23號","121.458886666667","25.136265","6501000","淡水區"
"251008","181-VK","2019/07/26 17:49:31","新北市淡水區八勢路一段156號","121.468123333333","25.156405","6501000","淡水區"
"251010","413-VK","2019/07/26 17:49:27","新北市淡水區淡海路290號","121.41921","25.1889066666667","6501000","淡水區"
"251012","441-VK","2019/07/26 17:49:29","新北市淡水區北新路一段403號","121.468273333333","25.182915","6501000","淡水區"
"251007","442-VK","2019/07/26 17:49:41","新北市淡水區民生路16巷1號","121.461025","25.1375383333333","6501000","淡水區"
"251005","443-VK","2019/07/26 17:49:28","新北市淡水區學府路100巷1號","121.450295","25.1718916666667","6501000","淡水區"
"251006","561-UM","2019/07/26 17:49:39","新北市淡水區大信街1號","121.441503333333","25.1762366666667","6501000","淡水區"
"251011","650-BX","2019/07/26 17:49:28","新北市淡水區小坪頂13-3號","121.486608333333","25.1561566666667","6501000","淡水區"
"251002","672-BX","2019/07/26 17:49:29","新北市淡水區中山路104號","121.442263333333","25.1706483333333","6501000","淡水區"
"251003","766-UM","2019/07/26 17:49:42","新北市淡水區大忠街5巷1號","121.443065","25.1764466666667","6501000","淡水區"
"207003","550-UM","2019/07/26 17:49:37","新北市萬里區野柳里東澳路66號","121.692771666667","25.2009333333333","6502800","萬里區"
"207004","225-TW","2019/07/26 17:49:45","新北市萬里區萬里里瑪鋉路43號","121.687791666667","25.1758933333333","6502800","萬里區"
"252002","178-VK","2019/07/26 17:49:35","新北市三芝區中山路一段88巷15號","121.502786666667","25.2567483333333","6502100","三芝區"
"237004","KEA-2597","2019/07/26 17:49:26","新北市三峽區仁愛街37號","121.368481666667","24.9331283333333","6500900","三峽區"
"237009","210-TH","2019/07/26 17:49:24","新北市三峽區大勇路3巷35號","121.367615","24.9367216666667","6500900","三峽區"
"237013","252-BX","2019/07/26 17:49:41","新北市三峽區介壽路一段119號","121.375916666667","24.9319266666667","6500900","三峽區"
"237012","275-BY","2019/07/26 17:49:38","新北市三峽區民生街108號","121.373465","24.9353933333333","6500900","三峽區"
"237014","433-BY","2019/07/26 17:49:29","新北市三峽區和平街36巷15號","121.371221666667","24.9370133333333","6500900","三峽區"
"237006","5529-G3","2019/07/26 17:49:26","新北市三峽區介壽路二段38巷8號","121.391336666667","24.935055","6500900","三峽區"
"237011","KEA-2596","2019/07/26 17:49:43","新北市三峽區中山路87號","121.366511666667","24.9353","6500900","三峽區"
"237015","649-BX","2019/07/26 17:49:40","新北市三峽區白雞149-2號","121.400098333333","24.9054966666667","6500900","三峽區"
"237010","706-TV","2019/07/26 17:49:30","新北市三峽區文化路216號","121.368205","24.9359016666667","6500900","三峽區"
"237005","AKY-6261","2019/07/26 17:49:46","新北市三峽區中山路321-2號","121.3608","24.9380766666667","6500900","三峽區"
"236042","KED-0685","2019/07/26 17:49:24","新北市土城區城林路6巷80號","121.438456666667","24.9797466666667","6501300","土城區"
"236079","166-UM","2019/07/26 17:49:35","新北市土城區中央路三段56號","121.437066666667","24.9675333333333","6501300","土城區"
"236030","253-BX","2019/07/26 17:49:32","新北市土城區城林路6巷80號","121.438718333333","24.97951","6501300","土城區"
"236014","270-VK","2019/07/26 17:49:36","新北市土城區城林路6巷80號","121.438478333333","24.9796133333333","6501300","土城區"
"236039","271-VK","2019/07/26 17:49:26","新北市土城區城林路6巷80號","121.438448333333","24.9797616666667","6501300","土城區"
"247010","KED-0683","2019/07/26 17:49:41","新北市蘆洲區信義路259巷3號","121.478663333333","25.084565","6501400","蘆洲區"
"236069","KEA-2877","2019/07/26 17:49:28","新北市土城區城林路6巷80號","121.438478333333","24.9795983333333","6501300","土城區"
"252001","KED-0821","2019/07/26 17:49:44","新北市三芝區中興街一段37號","121.497653333333","25.257835","6502100","三芝區"
"236020","401-BY","2019/07/26 17:49:25","新北市土城區城林路6巷80號","121.438418333333","24.97962","6501300","土城區"
"236059","912-UM","2019/07/26 17:49:28","新北市土城區中華路二段126號","121.43767","24.9736066666667","6501300","土城區"
"236048","913-UM","2019/07/26 17:49:38","新北市土城區城林路6巷80號","121.438376666667","24.9795616666667","6501300","土城區"
"236063","915-UM","2019/07/26 17:49:32","新北市土城區城林路6巷80號","121.43854","24.9795766666667","6501300","土城區"
"236055","AAC-216","2019/07/26 17:49:28","新北市土城區城林路6巷80號","121.438463333333","24.979605","6501300","土城區"
"242039","AAC-296","2019/07/26 17:49:37","新北市新莊區民安路162號","121.424815","25.02439","6500500","新莊區"
"242060","986-R7","2019/07/26 17:49:28","新北市新莊區瓊林南路204號","121.43406","25.0066","6500500","新莊區"
"242002","751-BX","2019/07/26 17:49:40","新北市新莊區景德路119號","121.451386666667","25.03424","6500500","新莊區"
"242029","615-BX","2019/07/26 17:49:34","新北市新莊區復興路一段25號","121.446185","25.0417383333333","6500500","新莊區"
"242027","613-BX","2019/07/26 17:49:42","新北市新莊區福壽街148號","121.457913333333","25.052195","6500500","新莊區"
"242058","612-BX","2019/07/26 17:49:43","新北市新莊區中正路887-10號","121.416383333333","25.02448","6500500","新莊區"
"242046","566-BX","2019/07/26 17:49:32","新北市新莊區建國一路52號","121.43415","25.030935","6500500","新莊區"
"242050","497-BY","2019/07/26 17:49:35","新北市新莊區西盛街229號","121.428188333333","25.0164183333333","6500500","新莊區"
"242056","441-UM","2019/07/26 17:49:47","新北市新莊區瓊林路40巷27號","121.446705","25.0301766666667","6500500","新莊區"
"242005","440-UM","2019/07/26 17:49:40","新北市新莊區思源路177巷12號","121.459338333333","25.0455683333333","6500500","新莊區"
"242041","415-TV","2019/07/26 17:49:46","新北市泰山區貴陽街34號","121.423136666667","25.0323983333333","6500500","新莊區"
"242011","413-TV","2019/07/26 17:49:44","新北市新莊區中港路689號","121.450745","25.056605","6500500","新莊區"
"242048","400-BY","2019/07/26 17:49:28","新北市新莊區萬安街62號","121.420993333333","25.0234983333333","6500500","新莊區"
"242025","362-BY","2019/07/26 17:49:27","新北市新莊區化成路447號","121.464373333333","25.0609083333333","6500500","新莊區"
"242023","353-BY","2019/07/26 17:49:38","新北市新莊區福樂街32號","121.457855","25.0454016666667","6500500","新莊區"
"242013","132-UY","2019/07/26 17:49:31","新北市新莊區中誠街168號","121.44812","25.0474833333333","6500500","新莊區"
"242037","135-UY","2019/07/26 17:49:35","新北市新莊區建福路63號","121.426823333333","25.0271216666667","6500500","新莊區"
"242054","172-VK","2019/07/26 17:49:31","新北市新莊區新樹路593號","121.432963333333","25.0064783333333","6500500","新莊區"
"242015","173-VK","2019/07/26 17:49:33","新北市新莊區新泰路474號","121.442928333333","25.045305","6500500","新莊區"
"242021","175-VK","2019/07/26 17:49:29","新北市新莊區中港路136號","121.455183333333","25.040805","6500500","新莊區"
"242019","KED-0687","2019/07/26 17:49:44","新北市新莊區新央街52號","121.456685","25.0401616666667","6500500","新莊區"
"242034","348-TH","2019/07/26 17:49:42","新北市新莊區景德路642號","121.440948333333","25.0328633333333","6500500","新莊區"
"242007","349-TH","2019/07/26 17:49:31","新北市新莊區福樂街73號","121.45689","25.047805","6500500","新莊區"
"242032","350-TH","2019/07/26 17:49:45","新北市新莊區新泰路357巷3弄21號","121.442381666667","25.04074","6500500","新莊區"
"242017","351-TH","2019/07/26 17:49:38","新北市新莊區永安街21號","121.452035","25.04473","6500500","新莊區"
"238015","755-BX","2019/07/26 17:49:30","新北市樹林區復興路168號","121.420513333333","24.99168","6500700","樹林區"
"238023","601-UM","2019/07/26 17:49:41","新北市樹林區龍興街32巷31號","121.401956666667","25.015485","6500700","樹林區"
"238019","599-UM","2019/07/26 17:49:46","新北市樹林區太平路127巷12號","121.419788333333","24.9806283333333","6500700","樹林區"
"238018","KEA-2217","2019/07/26 17:49:44","新北市樹林區博愛街107號","121.426471666667","24.99121","6500700","樹林區"
"238022","KEA-2213","2019/07/26 17:23:16","新北市樹林區和平街41號","121.423085","24.9816183333333","6500700","樹林區"
"238021","KEA-2539","2019/07/26 17:49:32","新北市樹林區田尾街5號","121.407045","24.9625183333333","6500700","樹林區"
"238025","303-VK","2019/07/26 17:49:42","新北市樹林區三俊街130號","121.415653333333","25.0154266666667","6500700","樹林區"
"238017","283-BY","2019/07/26 17:49:27","新北市樹林區俊德街51號","121.415438333333","25.0132683333333","6500700","樹林區"
"238014","282-BY","2019/07/26 17:49:31","新北市樹林區大安路125巷27號","121.423301666667","24.99678","6500700","樹林區"
"238020","268-VK","2019/07/26 17:49:39","新北市樹林區俊英街210號","121.42525","25.0093933333333","6500700","樹林區"
"238026","172-UY","2019/07/26 17:49:42","新北市樹林區新興街19巷6號","121.40043","24.9728683333333","6500700","樹林區"
"238016","169-UY","2019/07/26 17:49:46","新北市樹林區復興路367號","121.417128333333","24.9869666666667","6500700","樹林區"
"239007","AAC-297","2019/07/26 17:49:34","新北市鶯歌區鶯桃路100號","121.339231666667","24.9542333333333","6500800","鶯歌區"
"239006","891-R6","2019/07/26 17:49:43","新北市鶯歌區鳳鳴路105號","121.334335","24.9662666666667","6500800","鶯歌區"
"239008","527-UM","2019/07/26 17:49:43","新北市鶯歌區大湖路700巷22弄21號","121.333928333333","24.9773033333333","6500800","鶯歌區"
"239005","526-UM","2019/07/26 17:49:27","新北市鶯歌區鳳吉五街38號","121.327598333333","24.9726666666667","6500800","鶯歌區"
"239001","417-VK","2019/07/26 17:49:39","新北市鶯歌區中正三路270號","121.329253333333","24.9361916666667","6500800","鶯歌區"
"239003","360-BY","2019/07/26 17:49:40","新北市鶯歌區鶯桃路202巷9弄13號","121.337245","24.9589566666667","6500800","鶯歌區"
"239002","359-BY","2019/07/26 17:49:37","新北市鶯歌區育智路76號","121.345036666667","24.955025","6500800","鶯歌區"
"239004","193-VK","2019/07/26 17:49:34","新北市鶯歌區文化路322-1號","121.352581666667","24.945915","6500800","鶯歌區"
"221008","489-VK","2019/07/26 17:49:37","新北市汐止區康寧街901號","121.651375","25.0750633333333","6501100","汐止區"
"244019","KED-0667","2019/07/26 17:49:46","新北市林口區文化一路一段116號","121.373941666667","25.07159","6501700","林口區"
"221010","269-BY","2019/07/26 17:49:32","新北市汐止區汐萬路二段66巷3弄11號","121.649288333333","25.0824066666667","6501100","汐止區"
"221023","279-VK","2019/07/26 17:48:40","新北市汐止區翠峰街21巷3弄22號","121.644633333333","25.07582","6501100","汐止區"
"221033","297-VK","2019/07/26 17:49:27","新北市汐止區林森街33號","121.622611666667","25.0400933333333","6501100","汐止區"
"221029","298-VK","2019/07/26 17:49:38","新北市汐止區康寧街901號","121.65169","25.0748816666667","6501100","汐止區"
"221031","353-TW","2019/07/26 17:49:37","新北市汐止區汐萬路一段329號","121.650006666667","25.0756133333333","6501100","汐止區"
"233002","KEA-2870","2019/07/26 17:49:48","新北市烏來區烏來街29號","121.551375","24.8652166666667","6502900","烏來區"
"233001","KEC-0709","2019/07/26 17:49:24","新北市烏來區瀑布路30號","121.550981666667","24.8481016666667","6502900","烏來區"
"242044","281-VK","2019/07/26 17:49:33","新北市新莊區中正路855巷26號","121.42002","25.027095","6500500","新莊區"
"242009","280-VK","2019/07/26 17:49:46","新北市新莊區昌明街42號","121.456308333333","25.05223","6500500","新莊區"
