"lineid","car","time","location","longitude","latitude","cityid","cityname"
"234026","9371-KE","2019/07/26 18:09:50","新北市永和區永和路一段72巷4號","121.513435","25.00608","6500400","永和區"
"234011","9373-KE","2019/07/26 18:09:51","新北市永和區福和路1號","121.525453333333","25.0096183333333","6500400","永和區"
"249005","172-UM","2019/07/26 18:09:49","新北市八里區荖阡坑路15-40號","121.401746666667","25.1397683333333","6502300","八里區"
"249001","173-UM","2019/07/26 18:09:41","新北市八里區龍米路二段3號","121.448895","25.13916","6502300","八里區"
"249004","303-UY","2019/07/26 18:09:46","新北市八里區龍米路二段200巷3號","121.433735","25.158755","6502300","八里區"
"249002","305-UY","2019/07/26 18:09:41","新北市八里區龍米路一段356巷46號","121.452116666667","25.13033","6502300","八里區"
"249003","593-UM","2019/07/26 18:09:38","新北市八里區中華路二段165巷19弄22號","121.410321666667","25.1516816666667","6502300","八里區"
"248006","077-UY","2019/07/26 18:09:35","新北市五股區中興路二段67-7號","121.461233333333","25.0768916666667","6501500","五股區"
"248008","KED-0815","2019/07/26 18:09:45","新北市蘆洲區永安南路二段356號","121.456021666667","25.0826533333333","6501500","五股區"
"248018","KED-0813","2019/07/26 18:09:40","新北市五股區新五路三段38號","121.444106666667","25.0876333333333","6501500","五股區"
"248014","261-SL","2019/07/26 18:09:49","新北市五股區成泰路一段189巷34號","121.433525","25.0764033333333","6501500","五股區"
"248004","677-BX","2019/07/26 18:09:52","新北市五股區中興路四段23號","121.43891","25.0826633333333","6501500","五股區"
"232011","375-UM","2019/07/26 18:09:53","新北市坪林區國中路4號","121.71343","24.9389666666667","6502000","坪林區"
"244007","080-UY","2019/07/26 18:09:48","新北市林口區竹林路548號","121.387588333333","25.0847283333333","6501700","林口區"
"244013","KEA-2802","2019/07/26 18:09:42","新北市林口區中山路190號","121.389183333333","25.0790433333333","6501700","林口區"
"244023","483-VK","2019/07/26 18:09:40","新北市林口區東湖路120號","121.384723333333","25.0737916666667","6501700","林口區"
"244017","485-VK","2019/07/26 18:09:55","新北市林口區八德路48巷1號","121.366778333333","25.0662666666667","6501700","林口區"
"244009","657-BX","2019/07/26 18:09:47","新北市林口區文化三路二段315號","121.379536666667","25.0873166666667","6501700","林口區"
"244011","701-TV","2019/07/26 18:09:54","新北市林口區中正路74巷3弄2號","121.394618333333","25.0777133333333","6501700","林口區"
"244025","837-TS","2019/07/26 18:09:38","新北市林口區南勢二街152-3號","121.358873333333","25.0733733333333","6501700","林口區"
"244021","838-TS","2019/07/26 18:09:47","新北市林口區自強一街71號","121.399876666667","25.077105","6501700","林口區"
"222003","436-BY","2019/07/26 18:09:42","新北市深坑區阿柔洋49-4號","121.611546666667","24.9972216666667","6501800","深坑區"
"222002","659-BX","2019/07/26 18:09:56","新北市深坑區文化街39巷1號","121.619063333333","25.00129","6501800","深坑區"
"231044","046-UY","2019/07/26 18:09:44","新北市新店區安華路3號","121.51906","24.960465","6500600","新店區"
"231042","268-BY","2019/07/26 18:09:52","新北市新店區安一路一段1-1號","121.519585","24.9613316666667","6500600","新店區"
"231050","AAD-862","2019/07/26 18:09:39","新北市新店區安一路一段1-1號","121.519925","24.9611983333333","6500600","新店區"
"231045","355-BY","2019/07/26 18:09:36","新北市新店區安華路28-1號","121.518971666667","24.9607633333333","6500600","新店區"
"231055","4716-K9","2019/07/26 18:09:46","新北市新店區安華路28-1號","121.519878333333","24.96053","6500600","新店區"
"231056","4715-K9","2019/07/26 18:09:37","新北市新店區安華路28-1號","121.519116666667","24.9606783333333","6500600","新店區"
"231053","513-UM","2019/07/26 18:09:45","新北市新店區安一路一段1-1號","121.5196","24.96113","6500600","新店區"
"231040","617-UM","2019/07/26 18:09:53","新北市新店區安華路28-1號","121.519231666667","24.9607983333333","6500600","新店區"
"241033","AAC-255","2019/07/26 18:09:52","新北市三重區中興北街42巷19-1號","121.468691666667","25.049355","6500200","三重區"
"235064","005-UY","2019/07/26 18:09:43","新北市中和區中正路90號","121.499851666667","24.99368","6500300","中和區"
"235063","006-UY","2019/07/26 18:09:53","新北市中和區員山路36巷16-8號","121.485521666667","24.9922666666667","6500300","中和區"
"235039","097-UM","2019/07/26 18:09:41","新北市中和區中正路395號","121.489948333333","24.9935516666667","6500300","中和區"
"235065","098-UM","2019/07/26 18:09:54","新北市中和區莊敬路49巷18號","121.501623333333","25.0060883333333","6500300","中和區"
"235040","150-BY","2019/07/26 18:09:57","新北市中和區板南路218號","121.498","24.9939516666667","6500300","中和區"
"235058","151-BY","2019/07/26 18:09:40","新北市中和區圓通路367巷62-8號","121.493115","24.983115","6500300","中和區"
"235055","183-VK","2019/07/26 18:09:40","新北市中和區中正路637巷52弄11號","121.4849","24.9937016666667","6500300","中和區"
"235038","185-VK","2019/07/26 18:09:42","新北市中和區景平路342號","121.511605","24.9927716666667","6500300","中和區"
"235072","301-VK","2019/07/26 18:09:50","新北市中和區中正路585號","121.485958333333","24.9944933333333","6500300","中和區"
"235043","352-BY","2019/07/26 18:09:46","新北市中和區錦和路350-1號","121.490218333333","24.9935866666667","6500300","中和區"
"235042","KEA-2878","2019/07/26 18:09:42","新北市中和區景平路247號","121.508896666667","24.9929666666667","6500300","中和區"
"235070","558-UM","2019/07/26 18:09:52","新北市中和區圓通路176-1號","121.497163333333","24.9945033333333","6500300","中和區"
"235045","565-BX","2019/07/26 18:09:51","新北市中和區景安路200巷1弄2號","121.503775","24.991485","6500300","中和區"
"235060","KED-0823","2019/07/26 18:09:45","新北市中和區和城路一段271巷1號","121.48542","24.9919116666667","6500300","中和區"
"235054","640-BX","2019/07/26 18:09:46","新北市中和區連城路607號","121.477878333333","24.9931416666667","6500300","中和區"
"235046","733-UM","2019/07/26 18:09:47","新北市中和區員山路36巷13號","121.484136666667","24.990975","6500300","中和區"
"235062","800-TS","2019/07/26 18:09:56","新北市中和區橋和路77號","121.489165","25.005165","6500300","中和區"
"235057","801-TS","2019/07/26 18:09:39","新北市中和區民享街97巷19號","121.475373333333","24.9995883333333","6500300","中和區"
"235052","805-TS","2019/07/26 18:09:51","新北市中和區中正路23號","121.502543333333","24.993475","6500300","中和區"
"235051","157-BY","2019/07/26 18:09:50","新北市中和區中興街127號","121.499983333333","24.9916783333333","6500300","中和區"
"235037","AAC-213","2019/07/26 18:09:51","新北市中和區景德街56號","121.517443333333","24.99152","6500300","中和區"
"235059","AAC-215","2019/07/26 18:09:41","新北市中和區員山路36巷16-3號","121.4849","24.9910866666667","6500300","中和區"
"247002","336-TH","2019/07/26 18:09:55","新北市蘆洲區環堤大道206號","121.45738","25.0918583333333","6501400","蘆洲區"
"247012","056-VK","2019/07/26 18:09:41","新北市蘆洲區中山一路253號","121.472981666667","25.08023","6501400","蘆洲區"
"226004","312-R5","2019/07/26 18:09:44","新北市平溪區白石里白石腳21號","121.720578333333","25.02166","6502400","平溪區"
"228002","663-BX","2019/07/26 18:09:52","新北市貢寮區福連里馬崗街1號","121.997136666667","25.0169416666667","6502600","貢寮區"
"228001","670-TC","2019/07/26 18:09:37","新北市貢寮區真理里新港街26巷55弄2-1號","121.92732","25.0528083333333","6502600","貢寮區"
"228003","828-UM","2019/07/26 18:09:53","新北市貢寮區真理里美艷山街6-2號","121.928811666667","25.0607733333333","6502600","貢寮區"
"224006","676-BX","2019/07/26 18:09:51","新北市瑞芳區中山路87號","121.803728333333","25.1061916666667","6501200","瑞芳區"
"224007","285-BY","2019/07/26 18:09:57","新北市瑞芳區四腳亭坑路3-1號","121.77706","25.1094183333333","6501200","瑞芳區"
"224009","275-VK","2019/07/26 18:09:49","新北市瑞芳區金光路221號","121.852033333333","25.10685","6501200","瑞芳區"
"224008","273-VK","2019/07/26 18:09:44","新北市瑞芳區員山子路23號","121.821395","25.10302","6501200","瑞芳區"
"224005","271-BY","2019/07/26 18:09:50","新北市瑞芳區建基路二段72號","121.814815","25.1289233333333","6501200","瑞芳區"
"227001","642-TC","2019/07/26 18:09:49","新北市雙溪區三貂里政光路3-1號","121.850785","25.0633433333333","6502500","雙溪區"
"227002","400-TW","2019/07/26 18:09:46","新北市雙溪區共和里東榮街52號","121.8663","25.0336633333333","6502500","雙溪區"
"253006","032-BX","2019/07/26 18:09:41","新北市石門區老梅路52巷25弄1號","121.546363333333","25.2882333333333","6502200","石門區"
"253005","295-VK","2019/07/26 18:09:39","新北市石門區中央路16-1號","121.568305","25.2915033333333","6502200","石門區"
"222001","KEA-2212","2019/07/26 18:09:46","新北市深坑區北深路二段155號","121.614041666667","25.00208","6501800","深坑區"
"208002","KEA-2872","2019/07/26 18:09:44","新北市金山區三界壇路40巷9號","121.622695","25.2329016666667","6502700","金山區"
"208003","665-BX","2019/07/26 18:09:32","新北市金山區民生路17號","121.644083333333","25.2218683333333","6502700","金山區"
"251009","008-UM","2019/07/26 18:09:57","新北市淡水區大仁街6巷29號","121.443086666667","25.1754133333333","6501000","淡水區"
"251004","009-UM","2019/07/26 18:09:45","新北市淡水區民族路110巷43弄1號","121.461553333333","25.13521","6501000","淡水區"
"251001","011-UM","2019/07/26 18:09:45","新北市淡水區自立路8-2號","121.462818333333","25.1296883333333","6501000","淡水區"
"251008","181-VK","2019/07/26 18:09:51","新北市淡水區中正東路二段5巷1號","121.458583333333","25.159045","6501000","淡水區"
"251010","413-VK","2019/07/26 18:09:47","新北市淡水區淡海路90號","121.422961666667","25.181905","6501000","淡水區"
"251012","441-VK","2019/07/26 18:09:49","新北市淡水區北新路三段82號","121.485521666667","25.1879066666667","6501000","淡水區"
"251005","443-VK","2019/07/26 18:09:48","新北市淡水區水源街一段141號","121.447205","25.17188","6501000","淡水區"
"251006","561-UM","2019/07/26 18:09:39","新北市淡水區新民街74號","121.438675","25.1764066666667","6501000","淡水區"
"251011","650-BX","2019/07/26 18:09:48","新北市淡水區三空泉5-1號","121.477995","25.1619916666667","6501000","淡水區"
"251002","672-BX","2019/07/26 18:09:49","新北市淡水區中正東路40號","121.450135","25.1650933333333","6501000","淡水區"
"251003","766-UM","2019/07/26 18:09:42","新北市淡水區大忠街113巷6號","121.446746666667","25.1775866666667","6501000","淡水區"
"207003","550-UM","2019/07/26 18:09:56","新北市萬里區港東路野柳風景區攤販98號","121.691128333333","25.205635","6502800","萬里區"
"207004","225-TW","2019/07/26 18:09:45","新北市萬里區中幅里中福路68號","121.67696","25.1711166666667","6502800","萬里區"
"252002","178-VK","2019/07/26 18:09:55","新北市三芝區中山路二段39號","121.502916666667","25.2550916666667","6502100","三芝區"
"252003","249-BX","2019/07/26 18:09:49","新北市三芝區埔頭里埔頭37號","121.498466666667","25.260325","6502100","三芝區"
"208001","170-UY","2019/07/26 18:09:54","新北市金山區磺港里磺港路36號","121.649226666667","25.2286866666667","6502700","金山區"
"237004","KEA-2597","2019/07/26 18:09:46","新北市三峽區大埔1-3號","121.374806666667","24.89041","6500900","三峽區"
"237007","153-BY","2019/07/26 18:09:50","新北市三峽區中正路二段370巷16號","121.365018333333","24.91047","6500900","三峽區"
"237009","210-TH","2019/07/26 18:09:44","新北市三峽區大仁路52號","121.365318333333","24.9374933333333","6500900","三峽區"
"237013","252-BX","2019/07/26 18:09:41","新北市三峽區長泰街45號","121.377713333333","24.93252","6500900","三峽區"
"237012","275-BY","2019/07/26 18:09:38","新北市三峽區民生街1巷1-25號","121.37764","24.9353816666667","6500900","三峽區"
"237008","302-VK","2019/07/26 18:09:38","新北市三峽區白雞43號","121.382406666667","24.9122566666667","6500900","三峽區"
"237014","433-BY","2019/07/26 18:09:49","新北市三峽區復興路110巷4弄8號","121.373165","24.9383916666667","6500900","三峽區"
"237006","5529-G3","2019/07/26 18:09:46","新北市三峽區介壽路二段167號","121.394806666667","24.9360483333333","6500900","三峽區"
"237011","KEA-2596","2019/07/26 18:09:43","新北市三峽區大同路33號","121.376793333333","24.92832","6500900","三峽區"
"237015","649-BX","2019/07/26 18:09:40","新北市三峽區紫新路38巷2號","121.422058333333","24.9225116666667","6500900","三峽區"
"237010","706-TV","2019/07/26 18:09:50","新北市三峽區民族街158號","121.368965","24.92821","6500900","三峽區"
"237005","AKY-6261","2019/07/26 18:09:46","新北市三峽區文化路65巷2號","121.37193","24.9357916666667","6500900","三峽區"
"236042","KED-0685","2019/07/26 18:09:44","新北市土城區城林路6巷80號","121.438435","24.9796683333333","6501300","土城區"
"236079","166-UM","2019/07/26 18:09:55","新北市土城區永和街2巷24號","121.43385","24.9644083333333","6501300","土城區"
"236030","253-BX","2019/07/26 18:09:52","新北市土城區城林路6巷80號","121.438618333333","24.9795633333333","6501300","土城區"
"236026","269-VK","2019/07/26 18:09:38","新北市土城區承天路18號","121.439411666667","24.963435","6501300","土城區"
"236014","270-VK","2019/07/26 18:09:56","新北市土城區學府路一段26號","121.458336666667","24.9884516666667","6501300","土城區"
"236039","271-VK","2019/07/26 18:09:46","新北市土城區青雲路449-1號","121.458953333333","24.97467","6501300","土城區"
"236069","KEA-2877","2019/07/26 18:09:48","新北市土城區明德路一段355-1號","121.45739","24.9774366666667","6501300","土城區"
"252001","KED-0821","2019/07/26 18:09:44","新北市三芝區中興街二段2號","121.49838","25.2566266666667","6502100","三芝區"
"236020","401-BY","2019/07/26 18:09:45","新北市土城區中華路二段2號","121.43902","24.9797583333333","6501300","土城區"
"236059","912-UM","2019/07/26 18:09:48","新北市土城區中央路四段159-3號","121.415193333333","24.95693","6501300","土城區"
"236048","913-UM","2019/07/26 18:09:38","新北市土城區明德路一段365-1號","121.453548333333","24.979025","6501300","土城區"
"236063","915-UM","2019/07/26 18:09:52","新北市土城區金城路二段258號","121.457236666667","24.9834616666667","6501300","土城區"
"236055","AAC-216","2019/07/26 18:09:48","新北市土城區中華路二段92號","121.438211666667","24.974755","6501300","土城區"
"242039","AAC-296","2019/07/26 18:09:57","新北市新莊區民安東路152號","121.431626666667","25.020585","6500500","新莊區"
"242060","986-R7","2019/07/26 18:09:49","新北市新莊區新樹路229號","121.43513","25.0226083333333","6500500","新莊區"
"242002","751-BX","2019/07/26 18:09:40","新北市新莊區新莊路84號","121.456901666667","25.03636","6500500","新莊區"
"242029","615-BX","2019/07/26 18:09:49","新北市新莊區幸福路904號","121.443028333333","25.0490166666667","6500500","新莊區"
"242027","613-BX","2019/07/26 18:09:53","新北市新莊區幸福路61號","121.45732","25.0493966666667","6500500","新莊區"
"242058","612-BX","2019/07/26 18:09:55","新北市新莊區壽山路49-2號","121.414251666667","25.0308083333333","6500500","新莊區"
"242046","566-BX","2019/07/26 18:09:51","新北市新莊區福營路226號","121.427273333333","25.0293983333333","6500500","新莊區"
"242050","497-BY","2019/07/26 18:09:35","新北市新莊區民本街23巷1號","121.428375","25.019755","6500500","新莊區"
"242056","441-UM","2019/07/26 18:09:47","新北市新莊區豐年街豐2巷44號","121.447868333333","25.030855","6500500","新莊區"
"242005","440-UM","2019/07/26 18:09:46","新北市新莊區自由街46號","121.45591","25.04603","6500500","新莊區"
"242041","415-TV","2019/07/26 18:09:46","新北市新莊區中正路694巷45號","121.417676666667","25.028665","6500500","新莊區"
"242011","413-TV","2019/07/26 18:09:44","新北市新莊區中榮街47號","121.44941","25.05277","6500500","新莊區"
"242048","400-BY","2019/07/26 18:09:48","新北市新莊區富國路126號","121.422416666667","25.0250833333333","6500500","新莊區"
"242025","362-BY","2019/07/26 18:09:47","新北市新莊區五權一路5-7號","121.458178333333","25.0663133333333","6500500","新莊區"
"242013","132-UY","2019/07/26 18:09:51","新北市新莊區新泰路255巷83號","121.442058333333","25.0388466666667","6500500","新莊區"
"242037","135-UY","2019/07/26 18:09:44","新北市新莊區後港一路65巷11弄11號","121.425751666667","25.0271133333333","6500500","新莊區"
"242054","172-VK","2019/07/26 18:09:51","新北市新莊區民安西路358號","121.427385","25.0111816666667","6500500","新莊區"
"242015","173-VK","2019/07/26 18:09:53","新北市新莊區中平路152巷45號","121.446666666667","25.0474133333333","6500500","新莊區"
"242021","175-VK","2019/07/26 18:09:49","新北市新莊區建興街58號","121.44994","25.03868","6500500","新莊區"
"242019","KED-0687","2019/07/26 18:09:43","新北市新莊區中港路132巷10號","121.455728333333","25.0405483333333","6500500","新莊區"
"242034","348-TH","2019/07/26 18:09:55","新北市新莊區景德路279號","121.447891666667","25.0335533333333","6500500","新莊區"
"242007","349-TH","2019/07/26 18:09:51","新北市新莊區中華路二段9號","121.453751666667","25.0455333333333","6500500","新莊區"
"242032","350-TH","2019/07/26 18:09:44","新北市新莊區新泰路255巷3號","121.445806666667","25.0397433333333","6500500","新莊區"
"242017","351-TH","2019/07/26 18:09:38","新北市新莊區復興路一段213號","121.4525","25.0436916666667","6500500","新莊區"
"238015","755-BX","2019/07/26 18:09:50","新北市樹林區啟智街86巷9號","121.418323333333","24.9907883333333","6500700","樹林區"
"238023","601-UM","2019/07/26 18:09:41","新北市樹林區忠信街15號","121.407663333333","25.01498","6500700","樹林區"
"238019","599-UM","2019/07/26 18:09:46","新北市樹林區八德街253號","121.421763333333","24.978475","6500700","樹林區"
"238024","5061-A6","2019/07/26 18:09:40","新北市樹林區豐林街46號","121.421251666667","24.9981116666667","6500700","樹林區"
"238018","KEA-2217","2019/07/26 18:09:44","新北市板橋區大觀路三段160巷36號","121.429918333333","24.9939683333333","6500700","樹林區"
"238022","KEA-2213","2019/07/26 18:09:56","新北市樹林區太平路150巷1號","121.418561666667","24.9779916666667","6500700","樹林區"
"238021","KEA-2539","2019/07/26 18:09:52","新北市樹林區柑園街二段175號","121.380451666667","24.952905","6500700","樹林區"
"238025","303-VK","2019/07/26 18:09:42","新北市樹林區保安街二段185號","121.414705","25.0034933333333","6500700","樹林區"
"238017","283-BY","2019/07/26 18:09:47","新北市樹林區中正路837號","121.409118333333","25.0173966666667","6500700","樹林區"
"238014","282-BY","2019/07/26 18:09:51","新北市樹林區大安路109號","121.422455","24.997755","6500700","樹林區"
"238020","268-VK","2019/07/26 18:09:39","新北市樹林區俊興街288號","121.418468333333","25.01718","6500700","樹林區"
"238026","172-UY","2019/07/26 18:09:42","新北市樹林區佳園路一段50號","121.39283","24.97064","6500700","樹林區"
"238016","169-UY","2019/07/26 18:09:06","新北市樹林區文化街10巷18號","121.420613333333","24.98757","6500700","樹林區"
"239007","AAC-297","2019/07/26 18:09:53","新北市鶯歌區育英街67號","121.347281666667","24.95216","6500800","鶯歌區"
"239006","891-R6","2019/07/26 18:09:43","新北市鶯歌區鶯桃路381巷2弄5號","121.333163333333","24.9634683333333","6500800","鶯歌區"
"239008","527-UM","2019/07/26 18:09:43","新北市鶯歌區朝陽街61巷35號","121.339035","24.9777133333333","6500800","鶯歌區"
"239005","526-UM","2019/07/26 18:09:47","新北市鶯歌區鶯桃路668巷73號","121.329891666667","24.9717683333333","6500800","鶯歌區"
"239001","417-VK","2019/07/26 18:09:39","新北市鶯歌區高職東街23號","121.340486666667","24.9412533333333","6500800","鶯歌區"
"239003","360-BY","2019/07/26 18:09:40","新北市鶯歌區福安街1號","121.33415","24.96404","6500800","鶯歌區"
"239002","359-BY","2019/07/26 18:09:37","新北市鶯歌區光明街100號","121.345853333333","24.956105","6500800","鶯歌區"
"239004","193-VK","2019/07/26 18:09:54","新北市鶯歌區尖山路68號","121.348893333333","24.949465","6500800","鶯歌區"
"221008","489-VK","2019/07/26 18:09:49","新北市汐止區明峰街281號","121.626685","25.0683483333333","6501100","汐止區"
"221036","130-UY","2019/07/26 18:09:46","新北市汐止區大同路三段116號","121.672083333333","25.07677","6501100","汐止區"
"221015","131-UY","2019/07/26 18:09:34","新北市汐止區長江街285-1號","121.665173333333","25.0810816666667","6501100","汐止區"
"244019","KED-0667","2019/07/26 18:09:46","新北市林口區忠孝路581巷6號","121.3751","25.0684333333333","6501700","林口區"
"221010","269-BY","2019/07/26 18:09:51","新北市汐止區汐萬路二段246號","121.646278333333","25.0887516666667","6501100","汐止區"
"221012","278-VK","2019/07/26 18:09:54","新北市汐止區長興街二段50巷30弄1號","121.674808333333","25.0810433333333","6501100","汐止區"
"221023","279-VK","2019/07/26 18:09:40","新北市汐止區民族六街2巷23號","121.628405","25.0701833333333","6501100","汐止區"
"221032","280-BY","2019/07/26 18:09:40","新北市汐止區橫科路73巷22-2號","121.619401666667","25.05148","6501100","汐止區"
"221033","297-VK","2019/07/26 18:09:46","新北市汐止區宜興街20巷19號","121.622196666667","25.04092","6501100","汐止區"
"221029","298-VK","2019/07/26 18:09:38","新北市汐止區樟樹二路134號","121.640013333333","25.06565","6501100","汐止區"
"221021","299-VK","2019/07/26 18:09:45","新北市汐止區新興路20號","121.656465","25.0645783333333","6501100","汐止區"
"221031","353-TW","2019/07/26 18:09:37","新北市汐止區中興路163號","121.630998333333","25.06622","6501100","汐止區"
"221035","622-UM","2019/07/26 18:09:35","新北市汐止區汐萬路一段115巷50號","121.653056666667","25.0702033333333","6501100","汐止區"
"221025","623-UM","2019/07/26 18:09:38","新北市汐止區勤進路1號","121.660471666667","25.0620333333333","6501100","汐止區"
"221038","646-BX","2019/07/26 18:09:42","新北市汐止區南興路102號","121.653605","25.0586533333333","6501100","汐止區"
"221002","707-TV","2019/07/26 18:09:46","新北市汐止區福德一路233號","121.634076666667","25.0649333333333","6501100","汐止區"
"221018","753-BX","2019/07/26 18:09:54","新北市汐止區招商街19巷21號","121.667761666667","25.0684766666667","6501100","汐止區"
"233002","KEA-2870","2019/07/26 18:09:48","新北市烏來區天仁7-1號","121.5426","24.8827816666667","6502900","烏來區"
"233001","KEC-0709","2019/07/26 18:09:44","新北市烏來區新烏路五段69號","121.547163333333","24.8746316666667","6502900","烏來區"
"224002","257-TC","2019/07/26 18:09:51","新北市瑞芳區三爪子坑路58號","121.810176666667","25.1055983333333","6501200","瑞芳區"
"242044","281-VK","2019/07/26 18:09:53","新北市新莊區雙鳳路150號","121.412851666667","25.0274583333333","6500500","新莊區"
"242009","280-VK","2019/07/26 18:09:50","新北市新莊區中華路二段260號","121.452755","25.05317","6500500","新莊區"
"220073","985-R7","2019/07/26 18:09:38","新北市板橋區華東街1-10號","121.448216666667","24.9950266666667","6500100","板橋區"
"235061","KEA-2875","2019/07/26 18:09:42","新北市中和區民德路274號","121.468105","24.9964933333333","6500300","中和區"
