"lineid","car","time","location","longitude","latitude","cityid","cityname"
"234007","KED-0605","2019/07/26 18:19:50","新北市永和區環河西路二段45號","121.50714","25.0156566666667","6500400","永和區"
"234026","9371-KE","2019/07/26 18:19:50","新北市永和區豫溪街42巷14號","121.51539","25.0092733333333","6500400","永和區"
"234011","9373-KE","2019/07/26 18:19:51","新北市永和區豫溪街217巷1號","121.525371666667","25.0098316666667","6500400","永和區"
"249005","172-UM","2019/07/26 18:19:49","新北市八里區荖阡坑路15-27號","121.400411666667","25.14029","6502300","八里區"
"249001","173-UM","2019/07/26 18:19:41","新北市八里區龍米路一段129號","121.452198333333","25.1266866666667","6502300","八里區"
"249004","303-UY","2019/07/26 18:19:46","新北市八里區龍米路二段232巷1弄1號","121.430833333333","25.159315","6502300","八里區"
"249002","305-UY","2019/07/26 18:19:41","新北市八里區龍形二街35號","121.450503333333","25.132785","6502300","八里區"
"248016","026-BX","2019/07/26 18:19:44","新北市五股區成泰路三段477巷18號","121.44987","25.0989166666667","6501500","五股區"
"248006","077-UY","2019/07/26 18:19:55","新北市五股區中興路一段131號","121.465598333333","25.073365","6501500","五股區"
"248008","KED-0815","2019/07/26 18:19:45","新北市五股區更洲路32巷8弄14號","121.459231666667","25.0796233333333","6501500","五股區"
"248018","KED-0813","2019/07/26 18:19:40","新北市五股區御史路136號","121.433598333333","25.098715","6501500","五股區"
"248012","247-BX","2019/07/26 18:19:40","新北市五股區御史路1巷101弄2號","121.441043333333","25.0911666666667","6501500","五股區"
"248014","261-SL","2019/07/26 18:19:49","新北市五股區自強路21號","121.434468333333","25.0740366666667","6501500","五股區"
"248010","272-BY","2019/07/26 18:19:48","新北市五股區成泰路一段189巷2號","121.434586666667","25.0765933333333","6501500","五股區"
"248004","677-BX","2019/07/26 18:19:52","新北市五股區成泰路二段202號","121.43892","25.0851","6501500","五股區"
"232011","375-UM","2019/07/26 18:19:53","新北市坪林區坪雙路一段41號","121.711705","24.94241","6502000","坪林區"
"244007","080-UY","2019/07/26 18:19:48","新北市林口區後湖18-4號","121.387368333333","25.09776","6501700","林口區"
"244013","KEA-2802","2019/07/26 18:19:42","新北市林口區中山路297巷86號","121.38315","25.0795783333333","6501700","林口區"
"244023","483-VK","2019/07/26 18:19:40","新北市林口區東湖路153巷135號","121.382195","25.0736116666667","6501700","林口區"
"244017","485-VK","2019/07/26 18:19:55","新北市林口區公園路10號","121.366236666667","25.066595","6501700","林口區"
"244009","657-BX","2019/07/26 18:19:47","新北市林口區文林一街11巷8號","121.376556666667","25.0858683333333","6501700","林口區"
"244011","701-TV","2019/07/26 18:19:44","新北市林口區中正路146號","121.392733333333","25.07752","6501700","林口區"
"244025","837-TS","2019/07/26 18:19:38","新北市林口區南勢七街28-10號","121.355513333333","25.068835","6501700","林口區"
"244021","838-TS","2019/07/26 18:19:47","新北市林口區自強三街7號","121.397438333333","25.0779633333333","6501700","林口區"
"222003","436-BY","2019/07/26 18:19:42","新北市深坑區旺耽路67號","121.626246666667","25.0029783333333","6501800","深坑區"
"222002","659-BX","2019/07/26 18:19:56","新北市深坑區雲鄉路32號","121.621726666667","24.999745","6501800","深坑區"
"231061","002-UM","2019/07/26 18:19:47","新北市新店區安華路28-1號","121.519783333333","24.960685","6500600","新店區"
"231058","0293-UT","2019/07/26 18:19:38","新北市新店區安一路一段1-1號","121.519716666667","24.9614766666667","6500600","新店區"
"231044","046-UY","2019/07/26 18:19:44","新北市新店區安華路3號","121.519013333333","24.96049","6500600","新店區"
"231051","107-UY","2019/07/26 18:19:11","新北市新店區安一路一段1-1號","121.519198333333","24.96122","6500600","新店區"
"231042","268-BY","2019/07/26 18:19:52","新北市新店區安一路一段1-1號","121.519815","24.96133","6500600","新店區"
"231050","AAD-862","2019/07/26 18:19:39","新北市新店區安一路一段1-1號","121.519763333333","24.9611483333333","6500600","新店區"
"231045","355-BY","2019/07/26 18:19:36","新北市新店區安華路3號","121.519105","24.9604433333333","6500600","新店區"
"231055","4716-K9","2019/07/26 18:19:46","新北市新店區安康路一段126號","121.526846666667","24.9627483333333","6500600","新店區"
"231056","4715-K9","2019/07/26 18:19:57","新北市新店區中央路226號","121.52961","24.97288","6500600","新店區"
"231053","513-UM","2019/07/26 18:19:45","新北市新店區安康路一段35-1號","121.531968333333","24.960605","6500600","新店區"
"231040","617-UM","2019/07/26 18:19:54","新北市新店區安一路一段1-1號","121.51909","24.9610966666667","6500600","新店區"
"235064","005-UY","2019/07/26 18:19:43","新北市中和區圓通路146-1號","121.498075","24.9957216666667","6500300","中和區"
"235063","006-UY","2019/07/26 18:19:53","新北市中和區中正路506號","121.488683333333","24.9946116666667","6500300","中和區"
"235056","096-UM","2019/07/26 18:19:49","新北市中和區中山路二段568巷22號","121.482476666667","25.0062933333333","6500300","中和區"
"235039","097-UM","2019/07/26 18:19:41","新北市中和區景平路404號","121.508955","24.9932166666667","6500300","中和區"
"235065","098-UM","2019/07/26 18:19:34","新北市中和區莊敬路49巷18號","121.501593333333","25.0061166666667","6500300","中和區"
"235040","150-BY","2019/07/26 18:19:37","新北市中和區安平路59號","121.509563333333","24.9950983333333","6500300","中和區"
"235058","151-BY","2019/07/26 18:19:40","新北市中和區圓通路369巷39-30號","121.489706666667","24.98575","6500300","中和區"
"235055","183-VK","2019/07/26 18:19:40","新北市中和區莒光路222-8號","121.4691","24.9948016666667","6500300","中和區"
"235038","185-VK","2019/07/26 18:19:42","新北市中和區大智街42巷5號","121.522295","24.9920216666667","6500300","中和區"
"235049","186-VK","2019/07/26 18:19:46","新北市中和區錦和路350-1號","121.490398333333","24.9935716666667","6500300","中和區"
"235072","301-VK","2019/07/26 18:19:50","新北市中和區連城路237-1號","121.493748333333","24.9973833333333","6500300","中和區"
"235043","352-BY","2019/07/26 18:19:46","新北市中和區南山路231號","121.503746666667","24.9933783333333","6500300","中和區"
"235042","KEA-2878","2019/07/26 18:19:42","新北市中和區自強路29號","121.520791666667","24.9928716666667","6500300","中和區"
"235069","4980-A6","2019/07/26 18:19:55","新北市中和區連城路169號","121.495478333333","24.9984433333333","6500300","中和區"
"235041","551-UM","2019/07/26 18:19:37","新北市中和區圓通路208號","121.49592","24.9939483333333","6500300","中和區"
"235070","558-UM","2019/07/26 18:19:52","新北市中和區圓通路74號","121.50008","24.9972333333333","6500300","中和區"
"235045","565-BX","2019/07/26 18:19:51","新北市中和區南山路236巷22弄23號","121.504988333333","24.9892966666667","6500300","中和區"
"235060","KED-0823","2019/07/26 18:19:45","新北市中和區員山路88號","121.48089","24.9942966666667","6500300","中和區"
"235054","640-BX","2019/07/26 18:19:46","新北市中和區民享街112號","121.474578333333","24.9992883333333","6500300","中和區"
"235047","732-UM","2019/07/26 18:19:43","新北市中和區錦和路350-1號","121.490098333333","24.99351","6500300","中和區"
"235046","733-UM","2019/07/26 18:19:47","新北市中和區中正路637巷52弄1號","121.48545","24.99361","6500300","中和區"
"235062","800-TS","2019/07/26 18:19:56","新北市中和區中山路二段312巷45弄23號","121.495016666667","25.0048033333333","6500300","中和區"
"235057","801-TS","2019/07/26 18:19:39","新北市中和區民享街97巷15號","121.475516666667","24.9999766666667","6500300","中和區"
"235052","805-TS","2019/07/26 18:19:51","新北市中和區興南路二段96號","121.505176666667","24.9842283333333","6500300","中和區"
"235048","896-TW","2019/07/26 18:19:39","新北市中和區中正路395號","121.489881666667","24.9935433333333","6500300","中和區"
"235053","900-TW","2019/07/26 18:19:41","新北市中和區員山路36巷16-2號","121.485408333333","24.9915616666667","6500300","中和區"
"235051","157-BY","2019/07/26 18:19:50","新北市中和區興南路二段142巷17弄32號","121.50273","24.98274","6500300","中和區"
"235037","AAC-213","2019/07/26 18:19:51","新北市中和區景德街88號","121.51609","24.9914866666667","6500300","中和區"
"235059","AAC-215","2019/07/26 18:19:41","新北市中和區員山路36巷16-3號","121.485201666667","24.9912183333333","6500300","中和區"
"220065","072-UY","2019/07/26 18:19:45","新北市板橋區華東街1-9號","121.44813","24.994925","6500100","板橋區"
"226004","312-R5","2019/07/26 18:19:39","新北市平溪區靜安路二段22號","121.712711666667","25.020185","6502400","平溪區"
"228002","663-BX","2019/07/26 18:19:52","新北市貢寮區福連里福興街39-3號","121.993443333333","25.0129766666667","6502600","貢寮區"
"228001","670-TC","2019/07/26 18:19:57","新北市貢寮區仁理村仁愛路66巷27號","121.92662","25.0523733333333","6502600","貢寮區"
"228003","828-UM","2019/07/26 18:19:53","新北市貢寮區真理里美艷山街63號","121.921383333333","25.071795","6502600","貢寮區"
"224010","AGQ-8101","2019/07/26 18:19:52","新北市瑞芳區崙頂路39-2號","121.844945","25.1072","6501200","瑞芳區"
"224006","676-BX","2019/07/26 18:19:43","新北市瑞芳區民權街3-2號","121.808128333333","25.1074133333333","6501200","瑞芳區"
"224007","285-BY","2019/07/26 18:19:45","新北市瑞芳區大埔路有勝新村5號","121.764863333333","25.10119","6501200","瑞芳區"
"224009","275-VK","2019/07/26 18:19:49","新北市瑞芳區祈堂路184號","121.857666666667","25.1095883333333","6501200","瑞芳區"
"224008","273-VK","2019/07/26 18:19:44","新北市瑞芳區逢甲路34號","121.811383333333","25.108385","6501200","瑞芳區"
"224005","271-BY","2019/07/26 18:19:50","新北市瑞芳區建基新村20-15號","121.811241666667","25.1309083333333","6501200","瑞芳區"
"227001","642-TC","2019/07/26 18:19:49","新北市雙溪區牡丹里牡丹73號","121.851728333333","25.0593416666667","6502500","雙溪區"
"227002","400-TW","2019/07/26 18:19:46","新北市雙溪區共和里中山路8號","121.864956666667","25.0329283333333","6502500","雙溪區"
"253006","032-BX","2019/07/26 18:19:39","新北市石門區老梅路76號","121.546935","25.2891716666667","6502200","石門區"
"253005","295-VK","2019/07/26 18:19:57","新北市石門區中央路25-5號","121.567998333333","25.2931766666667","6502200","石門區"
"222001","KEA-2212","2019/07/26 18:19:46","新北市深坑區北深路二段51-1號","121.619073333333","25.0040733333333","6501800","深坑區"
"208002","KEA-2872","2019/07/26 18:19:44","新北市金山區磺清路121號","121.639633333333","25.2278033333333","6502700","金山區"
"208003","665-BX","2019/07/26 18:19:52","新北市金山區中山路79號","121.640486666667","25.2186433333333","6502700","金山區"
"251004","009-UM","2019/07/26 18:19:45","新北市淡水區民權路215巷100號","121.462628333333","25.1336016666667","6501000","淡水區"
"251001","011-UM","2019/07/26 18:19:45","新北市淡水區自強路108-19號","121.461513333333","25.1313183333333","6501000","淡水區"
"251008","181-VK","2019/07/26 18:19:51","新北市淡水區淡金路16巷25-1號","121.458163333333","25.1604116666667","6501000","淡水區"
"251010","413-VK","2019/07/26 18:19:47","新北市淡水區淡海路202號","121.420211666667","25.1855083333333","6501000","淡水區"
"251012","441-VK","2019/07/26 18:19:49","新北市淡水區北新路二段77-5號","121.480558333333","25.1855333333333","6501000","淡水區"
"251005","443-VK","2019/07/26 18:19:48","新北市淡水區水源街一段122巷40號","121.447075","25.170595","6501000","淡水區"
"251006","561-UM","2019/07/26 18:19:43","新北市淡水區新民街33號","121.438958333333","25.175835","6501000","淡水區"
"251011","650-BX","2019/07/26 18:19:48","新北市淡水區三空泉9號","121.475225","25.1627616666667","6501000","淡水區"
"251002","672-BX","2019/07/26 18:19:49","新北市淡水區中正東路一段125號","121.45494","25.159355","6501000","淡水區"
"251003","766-UM","2019/07/26 18:19:42","新北市淡水區北新路180號","121.44944","25.1787133333333","6501000","淡水區"
"207003","550-UM","2019/07/26 18:19:37","新北市萬里區野柳里港西路70-3號","121.685425","25.2048433333333","6502800","萬里區"
"207004","225-TW","2019/07/26 18:19:51","新北市萬里區中幅里中福路197號","121.672758333333","25.1651016666667","6502800","萬里區"
"252002","178-VK","2019/07/26 18:19:55","新北市三芝區中山路二段39號","121.502905","25.2550983333333","6502100","三芝區"
"252003","249-BX","2019/07/26 18:19:49","新北市三芝區錫板里南勢崗5-6號","121.479733333333","25.2623883333333","6502100","三芝區"
"208001","170-UY","2019/07/26 18:19:44","新北市金山區自強路22號","121.640356666667","25.2167283333333","6502700","金山區"
"237004","KEA-2597","2019/07/26 18:19:46","新北市三峽區五寮36-7號","121.372581666667","24.86861","6500900","三峽區"
"237007","153-BY","2019/07/26 18:19:50","新北市三峽區中正路二段588號","121.359245","24.9058733333333","6500900","三峽區"
"237009","210-TH","2019/07/26 18:19:44","新北市三峽區大勇路36巷31號","121.365148333333","24.93681","6500900","三峽區"
"237013","252-BX","2019/07/26 18:19:41","新北市三峽區永安街9巷40號","121.376465","24.92984","6500900","三峽區"
"237012","275-BY","2019/07/26 18:19:38","新北市三峽區民生街1巷1-6號","121.377165","24.9368833333333","6500900","三峽區"
"237008","302-VK","2019/07/26 18:19:58","新北市三峽區白雞68-293號","121.392088333333","24.9071116666667","6500900","三峽區"
"237014","433-BY","2019/07/26 18:19:49","新北市三峽區民生街104巷5號","121.373673333333","24.935475","6500900","三峽區"
"237006","5529-G3","2019/07/26 18:19:46","新北市三峽區溪東路238巷9號","121.408111666667","24.9312466666667","6500900","三峽區"
"237011","KEA-2596","2019/07/26 18:19:43","新北市三峽區橫溪路1號","121.396025","24.9361633333333","6500900","三峽區"
"237015","649-BX","2019/07/26 18:19:40","新北市三峽區竹崙路10號","121.426706666667","24.9228283333333","6500900","三峽區"
"237010","706-TV","2019/07/26 18:19:50","新北市三峽區中山路131號","121.365263333333","24.9360083333333","6500900","三峽區"
"237005","AKY-6261","2019/07/26 18:19:45","新北市三峽區民生街152-8號","121.371898333333","24.935115","6500900","三峽區"
"236042","KED-0685","2019/07/26 18:19:44","新北市土城區裕生路21巷6弄21號","121.44876","24.9868416666667","6501300","土城區"
"236079","166-UM","2019/07/26 18:19:55","新北市土城區中央路三段281巷23弄20號","121.426375","24.96149","6501300","土城區"
"236030","253-BX","2019/07/26 18:19:52","新北市土城區順風路27號","121.44034","24.9769216666667","6501300","土城區"
"236026","269-VK","2019/07/26 18:19:58","新北市土城區承天路73號","121.44005","24.9630316666667","6501300","土城區"
"236014","270-VK","2019/07/26 18:19:36","新北市土城區青雲路39巷7號","121.460298333333","24.9874216666667","6501300","土城區"
"236039","271-VK","2019/07/26 18:19:46","新北市土城區青雲路483巷10弄37號","121.459545","24.972425","6501300","土城區"
"236069","KEA-2877","2019/07/26 18:19:48","新北市土城區永豐路202巷14號","121.466405","24.983485","6501300","土城區"
"252001","KED-0821","2019/07/26 18:19:44","新北市三芝區中興街二段2號","121.498325","25.2565916666667","6502100","三芝區"
"236020","401-BY","2019/07/26 18:19:44","新北市土城區明德路一段365-1號","121.453968333333","24.97868","6501300","土城區"
"236059","912-UM","2019/07/26 18:19:48","新北市土城區中央路四段466號","121.409946666667","24.950575","6501300","土城區"
"236048","913-UM","2019/07/26 18:19:38","新北市土城區明德路一段375-1號","121.454663333333","24.9781983333333","6501300","土城區"
"236063","915-UM","2019/07/26 18:19:51","新北市土城區金城路三段202-3號","121.469541666667","24.98863","6501300","土城區"
"236055","AAC-216","2019/07/26 18:19:54","新北市土城區中華路二段118號","121.437851666667","24.97392","6501300","土城區"
"242039","AAC-296","2019/07/26 18:19:37","新北市新莊區新樹路443號","121.43263","25.0136","6500500","新莊區"
"242060","986-R7","2019/07/26 18:19:48","新北市新莊區建國二路1號","121.435175","25.0235333333333","6500500","新莊區"
"242002","751-BX","2019/07/26 18:19:51","新北市新莊區碧江街39號","121.451825","25.0330466666667","6500500","新莊區"
"242027","613-BX","2019/07/26 18:19:35","新北市新莊區幸福路600號","121.453216666667","25.0492883333333","6500500","新莊區"
"242058","612-BX","2019/07/26 18:19:54","新北市新莊區中正路742-1號","121.41355","25.0229183333333","6500500","新莊區"
"242046","566-BX","2019/07/26 18:19:51","新北市新莊區中正路855巷23弄2號","121.420645","25.02689","6500500","新莊區"
"242056","441-UM","2019/07/26 18:19:47","新北市新莊區瓊林路46-11號","121.44688","25.0291333333333","6500500","新莊區"
"242041","415-TV","2019/07/26 18:19:53","新北市新莊區天祥街121巷24號","121.414066666667","25.0290066666667","6500500","新莊區"
"242011","413-TV","2019/07/26 18:19:44","新北市新莊區中港路中慶巷27弄13號","121.45005","25.0532233333333","6500500","新莊區"
"242025","362-BY","2019/07/26 18:19:47","新北市新莊區五工二路94巷15號","121.459875","25.0672733333333","6500500","新莊區"
"242054","172-VK","2019/07/26 18:19:51","新北市新莊區民安西路410巷9弄2號","121.42828","25.00917","6500500","新莊區"
"242015","173-VK","2019/07/26 18:19:53","新北市新莊區中和街122號","121.447536666667","25.0478666666667","6500500","新莊區"
"242021","175-VK","2019/07/26 18:19:49","新北市新莊區新興街16號","121.450731666667","25.036435","6500500","新莊區"
"242007","349-TH","2019/07/26 18:19:51","新北市新莊區自強街37巷9號","121.454033333333","25.0464833333333","6500500","新莊區"
"242032","350-TH","2019/07/26 18:19:51","新北市新莊區新泰路277巷38號","121.444038333333","25.0402066666667","6500500","新莊區"
"238015","755-BX","2019/07/26 18:19:50","新北市樹林區啟智街151巷8號","121.416463333333","24.98788","6500700","樹林區"
"238023","601-UM","2019/07/26 18:19:41","新北市樹林區三福街114號","121.406416666667","25.016345","6500700","樹林區"
"238019","599-UM","2019/07/26 18:19:46","新北市樹林區水源街62號","121.425818333333","24.9809233333333","6500700","樹林區"
"238024","5061-A6","2019/07/26 18:19:40","新北市樹林區立仁街4號","121.422908333333","24.988585","6500700","樹林區"
"238018","KEA-2217","2019/07/26 18:19:44","新北市樹林區保安街一段20巷11號","121.427758333333","24.99383","6500700","樹林區"
"238025","303-VK","2019/07/26 18:19:42","新北市樹林區保安街一段183號","121.421163333333","24.9958","6500700","樹林區"
"238017","283-BY","2019/07/26 18:19:47","新北市樹林區中正路691號","121.411786666667","25.013625","6500700","樹林區"
"238014","282-BY","2019/07/26 18:19:51","新北市樹林區大安路111巷8號","121.423133333333","24.9974566666667","6500700","樹林區"
"238020","268-VK","2019/07/26 18:19:39","新北市樹林區三俊街65巷40弄22號","121.414391666667","25.0175466666667","6500700","樹林區"
"238026","172-UY","2019/07/26 18:19:42","新北市樹林區佳園路一段92號","121.39349","24.969235","6500700","樹林區"
"238016","169-UY","2019/07/26 18:18:06","新北市樹林區鎮前街327-4號","121.41682","24.98455","6500700","樹林區"
"239007","AAC-297","2019/07/26 18:19:53","新北市鶯歌區重慶街81號","121.348446666667","24.9520916666667","6500800","鶯歌區"
"239006","891-R6","2019/07/26 18:19:43","新北市鶯歌區德昌街140巷47號","121.332471666667","24.961625","6500800","鶯歌區"
"239008","527-UM","2019/07/26 18:19:43","新北市鶯歌區朝陽街2號","121.336221666667","24.976615","6500800","鶯歌區"
"239005","526-UM","2019/07/26 18:19:47","新北市鶯歌區鶯桃路668巷7號","121.328926666667","24.9699366666667","6500800","鶯歌區"
"239001","417-VK","2019/07/26 18:19:39","新北市鶯歌區國中街178號","121.338208333333","24.9392283333333","6500800","鶯歌區"
"239003","360-BY","2019/07/26 18:19:40","新北市鶯歌區福安街58號","121.335573333333","24.9652333333333","6500800","鶯歌區"
"239002","359-BY","2019/07/26 18:19:57","新北市鶯歌區中山路194-11號","121.347401666667","24.957125","6500800","鶯歌區"
"239004","193-VK","2019/07/26 18:19:54","新北市鶯歌區尖山路137巷15號","121.347208333333","24.94816","6500800","鶯歌區"
"221036","130-UY","2019/07/26 18:19:46","新北市汐止區大同路三段110號","121.67104","25.0773016666667","6501100","汐止區"
"221015","131-UY","2019/07/26 18:19:54","新北市汐止區鄉長路二段29-1號","121.668271666667","25.08301","6501100","汐止區"
"244019","KED-0667","2019/07/26 18:19:46","新北市林口區忠孝路622巷15號","121.378305","25.0671","6501700","林口區"
"221010","269-BY","2019/07/26 18:19:51","新北市汐止區祥雲街18巷12號","121.646778333333","25.0895483333333","6501100","汐止區"
"221012","278-VK","2019/07/26 18:19:54","新北市汐止區保一街35巷12號","121.674601666667","25.0806966666667","6501100","汐止區"
"221023","279-VK","2019/07/26 18:19:40","新北市汐止區中興路201號","121.629205","25.0684383333333","6501100","汐止區"
"221032","280-BY","2019/07/26 18:19:40","新北市汐止區力行街39巷1號","121.616695","25.050095","6501100","汐止區"
"221033","297-VK","2019/07/26 18:19:46","新北市汐止區宜興街92號","121.62273","25.0429216666667","6501100","汐止區"
"221021","299-VK","2019/07/26 18:19:45","新北市汐止區連興街22-1號","121.655371666667","25.06383","6501100","汐止區"
"221031","353-TW","2019/07/26 18:19:51","新北市汐止區中興路200號","121.631421666667","25.0659416666667","6501100","汐止區"
"221035","622-UM","2019/07/26 18:19:55","新北市汐止區汐萬路一段39-3號","121.654983333333","25.0693966666667","6501100","汐止區"
"221025","623-UM","2019/07/26 18:19:38","新北市汐止區勤進路12巷42號","121.65916","25.0628","6501100","汐止區"
"221038","646-BX","2019/07/26 18:19:42","新北市汐止區仁愛路320號","121.664791666667","25.0675166666667","6501100","汐止區"
"221002","707-TV","2019/07/26 18:19:46","新北市汐止區福德一路201巷25號","121.636018333333","25.0647233333333","6501100","汐止區"
"221018","753-BX","2019/07/26 18:19:34","新北市汐止區茄苳路72巷6號","121.666578333333","25.0704316666667","6501100","汐止區"
"224002","257-TC","2019/07/26 18:19:43","新北市瑞芳區三爪子坑路91巷2號","121.811465","25.1073616666667","6501200","瑞芳區"
"242044","281-VK","2019/07/26 18:19:52","新北市新莊區天泉二街10號","121.415098333333","25.0248366666667","6500500","新莊區"
"220073","985-R7","2019/07/26 18:19:38","新北市板橋區華東街1-10號","121.44825","24.99502","6500100","板橋區"
"235068","KEA-2873","2019/07/26 18:19:45","新北市中和區員山路36巷16-2號","121.485346666667","24.9914016666667","6500300","中和區"
"235061","KEA-2875","2019/07/26 18:19:42","新北市中和區民享街116巷6-1號","121.474258333333","24.9988166666667","6500300","中和區"
