"lineid","car","time","location","longitude","latitude","cityid","cityname"
"234046","148-BY","2019/07/26 18:59:37","新北市永和區得和路373巷31弄5號","121.524766666667","25.000555","6500400","永和區"
"234081","298-R6","2019/07/26 18:59:43","新北市永和區永貞路39巷13號","121.522508333333","25.0063783333333","6500400","永和區"
"234038","336-UY","2019/07/26 18:59:45","新北市永和區成功路二段207號","121.526603333333","24.995915","6500400","永和區"
"234064","337-UY","2019/07/26 18:59:52","新北市永和區秀朗路一段146號","121.518276666667","25.0033483333333","6500400","永和區"
"234086","338-UY","2019/07/26 18:59:41","新北市永和區中正路470號","121.517366666667","25.0031983333333","6500400","永和區"
"234017","745-BX","2019/07/26 18:59:38","新北市永和區永和路二段290號","121.516065","25.0157133333333","6500400","永和區"
"234030","746-BX","2019/07/26 18:59:54","新北市永和區秀朗路二段291號","121.526171666667","24.9979733333333","6500400","永和區"
"234054","KEA-2590","2019/07/26 18:59:56","新北市永和區竹林路64號","121.518248333333","25.0135283333333","6500400","永和區"
"234007","KED-0605","2019/07/26 18:59:50","新北市永和區中山路一段73號","121.512493333333","25.0106066666667","6500400","永和區"
"234013","KEA-2591","2019/07/26 18:59:38","新北市永和區中山路一段60巷6號","121.5131","25.0109466666667","6500400","永和區"
"234061","AAD-866","2019/07/26 18:59:54","新北市永和區福和路295號","121.51661","25.0071583333333","6500400","永和區"
"234070","748-BX","2019/07/26 18:59:52","新北市永和區竹林路124巷38號","121.51786","25.0113283333333","6500400","永和區"
"234042","862-TW","2019/07/26 18:59:44","新北市永和區永貞路267號","121.51182","25.0046933333333","6500400","永和區"
"234050","863-TW","2019/07/26 18:59:50","新北市永和區文化路208號","121.510223333333","25.0165633333333","6500400","永和區"
"234026","9371-KE","2019/07/26 18:59:50","新北市永和區安樂路451號","121.514321666667","25.0049333333333","6500400","永和區"
"234011","9373-KE","2019/07/26 18:59:51","新北市永和區仁愛路141巷3弄1號","121.511706666667","25.0124783333333","6500400","永和區"
"249005","172-UM","2019/07/26 18:59:49","新北市八里區長道坑14號","121.396421666667","25.12317","6502300","八里區"
"249001","173-UM","2019/07/26 18:59:45","新北市八里區龍米路二段222號","121.432921666667","25.158455","6502300","八里區"
"248016","026-BX","2019/07/26 18:59:44","新北市五股區成泰路三段577巷22號","121.451541666667","25.1028633333333","6501500","五股區"
"248006","077-UY","2019/07/26 18:59:35","新北市五股區四維路177號","121.467988333333","25.0751183333333","6501500","五股區"
"248008","KED-0815","2019/07/26 18:59:45","新北市五股區中興路一段128巷36號","121.465745","25.0753133333333","6501500","五股區"
"248018","KED-0813","2019/07/26 18:59:40","新北市五股區民義路一段287巷3號","121.425185","25.0921633333333","6501500","五股區"
"248012","247-BX","2019/07/26 18:59:40","新北市五股區工商路34號","121.439428333333","25.083715","6501500","五股區"
"248010","272-BY","2019/07/26 18:59:48","新北市五股區水碓一路23號","121.430606666667","25.0712866666667","6501500","五股區"
"248004","677-BX","2019/07/26 18:59:52","新北市五股區民義路一段216-2號","121.430071666667","25.0893766666667","6501500","五股區"
"248002","678-BX","2019/07/26 18:59:46","新北市五股區凌雲路一段161號","121.44901","25.1025433333333","6501500","五股區"
"234023","9380-KE","2019/07/26 18:59:51","新北市永和區竹林路75巷33弄3號","121.520505","25.014265","6500400","永和區"
"234077","969-R7","2019/07/26 18:59:44","新北市永和區智光街22號","121.518026666667","24.999265","6500400","永和區"
"234074","AAC-211","2019/07/26 18:59:45","新北市永和區福和路1號","121.525765","25.0094483333333","6500400","永和區"
"234067","AAC-212","2019/07/26 18:59:52","新北市永和區自由街47號","121.513971666667","25.005975","6500400","永和區"
"234003","AAC-295","2019/07/26 18:59:53","新北市永和區保福路一段68號","121.512725","25.00983","6500400","永和區"
"232011","375-UM","2019/07/26 18:59:56","新北市坪林區水聳淒坑25號","121.711493333333","24.9342016666667","6502000","坪林區"
"244013","KEA-2802","2019/07/26 18:59:51","新北市林口區文化一路一段126號","121.375698333333","25.0722933333333","6501700","林口區"
"244023","483-VK","2019/07/26 18:59:40","新北市林口區民權路110號","121.373593333333","25.0832516666667","6501700","林口區"
"244017","485-VK","2019/07/26 18:59:54","新北市林口區公園路89號","121.368736666667","25.0696866666667","6501700","林口區"
"244011","701-TV","2019/07/26 18:59:44","新北市林口區中正路343號","121.388006666667","25.0775883333333","6501700","林口區"
"244025","837-TS","2019/07/26 18:59:38","新北市林口區文化北路一段396-2號","121.363675","25.0754433333333","6501700","林口區"
"243012","AAD-798","2019/07/26 18:58:42","新北市泰山區福興三街11號","121.43452","25.05771","6501600","泰山區"
"243010","297-R6","2019/07/26 18:59:44","新北市泰山區辭修路22號","121.429111666667","25.05812","6501600","泰山區"
"243014","KEA-2801","2019/07/26 18:59:53","新北市泰山區黎明路2-5號","121.420861666667","25.0625933333333","6501600","泰山區"
"243016","421-VK","2019/07/26 18:59:55","新北市泰山區明志路二段137號","121.427608333333","25.0506366666667","6501600","泰山區"
"243009","KEA-2215","2019/07/26 18:59:53","新北市泰山區泰林路二段364號","121.428661666667","25.06363","6501600","泰山區"
"243011","KEA-2216","2019/07/26 18:59:48","新北市泰山區明志路二段279號","121.426903333333","25.047135","6501600","泰山區"
"243015","680-BX","2019/07/26 18:59:43","新北市泰山區美寧街48號","121.430476666667","25.0643716666667","6501600","泰山區"
"222003","436-BY","2019/07/26 18:59:42","新北市深坑區深南路88巷1號","121.621415","25.0108116666667","6501800","深坑區"
"222002","659-BX","2019/07/26 18:59:56","新北市深坑區文山路一段33號","121.629738333333","25.003525","6501800","深坑區"
"231060","001-UM","2019/07/26 18:59:52","新北市新店區安華路16號","121.515563333333","24.95797","6500600","新店區"
"231061","002-UM","2019/07/26 18:59:47","新北市新店區安康路二段1-4號","121.516848333333","24.9629366666667","6500600","新店區"
"231058","0293-UT","2019/07/26 18:59:38","新北市新店區中興路一段284號","121.545798333333","24.9688766666667","6500600","新店區"
"231044","046-UY","2019/07/26 18:59:44","新北市新店區寶中路72號","121.547776666667","24.9805166666667","6500600","新店區"
"231051","107-UY","2019/07/26 18:59:51","新北市新店區三民路187號","121.535058333333","24.9755516666667","6500600","新店區"
"231049","108-UY","2019/07/26 18:59:44","新北市新店區中正路454-5號","121.5344","24.9790583333333","6500600","新店區"
"231065","110-UY","2019/07/26 18:59:43","新北市新店區安祥路147巷55號","121.476298333333","24.9557483333333","6500600","新店區"
"231062","256-BX","2019/07/26 18:59:45","新北市新店區安康路二段330號","121.50382","24.957795","6500600","新店區"
"231054","260-TV","2019/07/26 18:59:51","新北市新店區北新路一段41號","121.538103333333","24.95935","6500600","新店區"
"231042","268-BY","2019/07/26 18:59:51","新北市新店區中興路一段280號","121.545571666667","24.96842","6500600","新店區"
"231064","278-BY","2019/07/26 18:59:55","新北市新店區安華路8號","121.519871666667","24.9625366666667","6500600","新店區"
"231050","AAD-862","2019/07/26 18:59:59","新北市新店區北宜路一段316號","121.547503333333","24.952065","6500600","新店區"
"231045","355-BY","2019/07/26 18:59:36","新北市新店區安康路一段33-1號","121.532246666667","24.9604633333333","6500600","新店區"
"231055","4716-K9","2019/07/26 18:59:46","新北市新店區北新路一段271巷31號","121.53996","24.9671183333333","6500600","新店區"
"231056","4715-K9","2019/07/26 18:59:41","新北市新店區二十張路46巷37弄16號","121.536183333333","24.9818833333333","6500600","新店區"
"231067","4772-VM","2019/07/26 18:59:46","新北市新店區安康路一段76巷6號","121.528516666667","24.9623916666667","6500600","新店區"
"231053","513-UM","2019/07/26 18:59:45","新北市新店區湖子內路1號","121.542145","24.9300833333333","6500600","新店區"
"231040","617-UM","2019/07/26 18:59:54","新北市新店區中央路27號","121.533076666667","24.9779333333333","6500600","新店區"
"231041","619-UM","2019/07/26 18:59:54","新北市新店區安康路一段35-1號","121.532171666667","24.9605466666667","6500600","新店區"
"231063","641-BX","2019/07/26 18:59:53","新北市新店區安華路30巷3號","121.518783333333","24.9585966666667","6500600","新店區"
"231048","KED-0819","2019/07/26 18:59:55","新北市新店區德正街23巷12-1號","121.54467","24.972155","6500600","新店區"
"231046","719-UM","2019/07/26 18:59:54","新北市新店區直潭二街23號","121.535478333333","24.9420566666667","6500600","新店區"
"231057","720-UM","2019/07/26 18:59:38","新北市新店區百齡一路12號","121.55311","24.93243","6500600","新店區"
"231059","897-TW","2019/07/26 18:59:46","新北市新店區安華路28-1號","121.519631666667","24.9606983333333","6500600","新店區"
"231043","899-TW","2019/07/26 18:59:56","新北市新店區北新路一段150號","121.542585","24.9705466666667","6500600","新店區"
"231066","AKT-0513","2019/07/26 18:59:49","新北市新店區安豐路22巷1號","121.501393333333","24.956085","6500600","新店區"
"241035","462-BY","2019/07/26 18:59:54","新北市三重區重新路四段121號","121.484531666667","25.0519866666667","6500200","三重區"
"235066","003-UY","2019/07/26 18:59:34","新北市中和區中山路二段131巷5弄3號","121.502871666667","25.00285","6500300","中和區"
"235064","005-UY","2019/07/26 18:59:43","新北市中和區連城路21號","121.498896666667","25.00194","6500300","中和區"
"235063","006-UY","2019/07/26 18:59:53","新北市中和區中正路586號","121.485891666667","24.9947733333333","6500300","中和區"
"235056","096-UM","2019/07/26 18:59:49","新北市板橋區三民路二段222號","121.47893","25.0116166666667","6500300","中和區"
"235039","097-UM","2019/07/26 18:59:41","新北市中和區自強路58號","121.520118333333","24.9945233333333","6500300","中和區"
"235065","098-UM","2019/07/26 18:59:54","新北市中和區莊敬路49巷18號","121.501721666667","25.0061283333333","6500300","中和區"
"235040","150-BY","2019/07/26 18:59:36","新北市中和區宜安路23巷21號","121.512298333333","24.9951333333333","6500300","中和區"
"235058","151-BY","2019/07/26 18:59:40","新北市中和區員山路105號","121.48058","24.9943316666667","6500300","中和區"
"235055","183-VK","2019/07/26 18:59:52","新北市中和區德光路20號","121.471036666667","25.0044883333333","6500300","中和區"
"235038","185-VK","2019/07/26 18:59:42","新北市中和區立人街24-5號","121.518936666667","24.9941483333333","6500300","中和區"
"235049","186-VK","2019/07/26 18:59:46","新北市中和區景安路68號","121.505826666667","24.9966566666667","6500300","中和區"
"235044","293-VK","2019/07/26 18:59:38","新北市中和區中興街163號","121.500001666667","24.9907733333333","6500300","中和區"
"235072","301-VK","2019/07/26 18:59:50","新北市中和區福美路307號","121.497023333333","25.0046766666667","6500300","中和區"
"235043","352-BY","2019/07/26 18:59:46","新北市中和區成功路9號","121.526278333333","24.9939083333333","6500300","中和區"
"235042","KEA-2878","2019/07/26 18:59:47","新北市中和區自立路117巷2弄1號","121.52248","24.99441","6500300","中和區"
"235050","4979-A6","2019/07/26 18:59:51","新北市中和區忠孝街1巷2-1號","121.509115","24.98299","6500300","中和區"
"235069","4980-A6","2019/07/26 18:59:55","新北市中和區景平路618巷2號","121.500778333333","24.9970333333333","6500300","中和區"
"235041","551-UM","2019/07/26 18:59:37","新北市中和區景安路10號","121.507675","24.9989266666667","6500300","中和區"
"235070","558-UM","2019/07/26 18:59:52","新北市中和區中和路169號","121.503053333333","24.9998966666667","6500300","中和區"
"235045","565-BX","2019/07/26 18:59:51","新北市中和區景新街467巷20弄21號","121.515141666667","24.9872666666667","6500300","中和區"
"235060","KED-0823","2019/07/26 18:59:45","新北市中和區民治街9巷2號","121.475138333333","25.0044216666667","6500300","中和區"
"235054","640-BX","2019/07/26 18:59:46","新北市中和區民德路143號","121.46875","25.0004666666667","6500300","中和區"
"235047","732-UM","2019/07/26 18:59:43","新北市中和區興南路二段74巷10號","121.505155","24.98491","6500300","中和區"
"235046","733-UM","2019/07/26 18:59:47","新北市中和區興南路二段31巷5號","121.507928333333","24.985575","6500300","中和區"
"235062","800-TS","2019/07/26 18:59:55","新北市中和區中山路二段526巷30號","121.4859","25.005925","6500300","中和區"
"235057","801-TS","2019/07/26 18:59:39","新北市中和區民利街80號","121.478118333333","24.9982033333333","6500300","中和區"
"235052","805-TS","2019/07/26 18:59:51","新北市中和區興南路二段252號","121.50303","24.9818466666667","6500300","中和區"
"235048","896-TW","2019/07/26 18:59:39","新北市中和區華新街137號","121.506648333333","24.981685","6500300","中和區"
"235053","900-TW","2019/07/26 18:59:41","新北市中和區和平路200巷33-3號","121.465246666667","24.9945433333333","6500300","中和區"
"235051","157-BY","2019/07/26 18:59:50","新北市中和區忠孝街19巷35號","121.509595","24.9848033333333","6500300","中和區"
"235037","AAC-213","2019/07/26 18:59:51","新北市中和區秀朗路三段58-3號","121.525843333333","24.99517","6500300","中和區"
"235059","AAC-215","2019/07/26 18:59:41","新北市中和區圓通路369巷33弄3號","121.490956666667","24.9880233333333","6500300","中和區"
"220068","015-TV","2019/07/26 18:59:53","新北市板橋區中山路二段443巷86號","121.481088333333","25.0226716666667","6500100","板橋區"
"220065","072-UY","2019/07/26 18:59:45","新北市板橋區漢生東路324號","121.471758333333","25.00789","6500100","板橋區"
"220086","073-UY","2019/07/26 18:59:55","新北市板橋區大智街23號","121.455156666667","25.0148933333333","6500100","板橋區"
"220106","075-UY","2019/07/26 18:59:42","新北市板橋區雙十路三段8-1號","121.472013333333","25.0306666666667","6500100","板橋區"
"220069","AAD-861","2019/07/26 18:59:39","新北市板橋區華興街72號","121.457308333333","25.0050633333333","6500100","板橋區"
"226004","312-R5","2019/07/26 18:59:59","新北市平溪區靜安路二段430號","121.739813333333","25.0247433333333","6502400","平溪區"
"228002","663-BX","2019/07/26 18:59:52","新北市貢寮區福隆里東興街106巷25弄1號","121.946403333333","25.01834","6502600","貢寮區"
"228001","670-TC","2019/07/26 18:59:57","新北市貢寮區仁理村保健街85號","121.92387","25.0521233333333","6502600","貢寮區"
"228003","828-UM","2019/07/26 18:59:53","新北市貢寮區和美里龍洞街56-3號","121.912621666667","25.1144033333333","6502600","貢寮區"
"224006","676-BX","2019/07/26 18:59:39","新北市瑞芳區三爪子坑路118-5號","121.806666666667","25.10526","6501200","瑞芳區"
"224007","285-BY","2019/07/26 18:59:45","新北市瑞芳區大埔路132-7號","121.761638333333","25.100295","6501200","瑞芳區"
"224009","275-VK","2019/07/26 18:59:49","新北市瑞芳區長仁路40號","121.863618333333","25.1178483333333","6501200","瑞芳區"
"224008","273-VK","2019/07/26 18:59:44","新北市瑞芳區逢甲路340-9號","121.798531666667","25.1169116666667","6501200","瑞芳區"
"224005","271-BY","2019/07/26 18:59:50","新北市瑞芳區瑞濱路185號","121.81634","25.1136383333333","6501200","瑞芳區"
"227001","642-TC","2019/07/26 18:59:49","新北市雙溪區牡丹里中正路60號","121.866076666667","25.042435","6502500","雙溪區"
"227002","400-TW","2019/07/26 18:59:46","新北市雙溪區平林里外平林10-3號","121.859091666667","25.0380683333333","6502500","雙溪區"
"253006","032-BX","2019/07/26 18:59:39","新北市石門區八甲4-6號","121.521428333333","25.2822733333333","6502200","石門區"
"253005","295-VK","2019/07/26 18:59:37","新北市石門區中央路42號","121.568055","25.2927733333333","6502200","石門區"
"222001","KEA-2212","2019/07/26 18:59:46","新北市深坑區北深路一段300號","121.624255","25.005745","6501800","深坑區"
"208002","KEA-2872","2019/07/26 18:59:44","新北市金山區仁愛路37-14號","121.635663333333","25.220365","6502700","金山區"
"208003","665-BX","2019/07/26 18:59:51","新北市金山區中正路51號","121.634625","25.2220116666667","6502700","金山區"
"251009","008-UM","2019/07/26 18:59:48","新北市淡水區文化路16號","121.43983","25.1725416666667","6501000","淡水區"
"251001","011-UM","2019/07/26 18:59:45","新北市淡水區自強路237號","121.463228333333","25.1272383333333","6501000","淡水區"
"251010","413-VK","2019/07/26 18:59:47","新北市淡水區淡海路69巷8弄3號","121.422415","25.1813016666667","6501000","淡水區"
"251012","441-VK","2019/07/26 18:59:49","新北市淡水區新興街109號","121.440661666667","25.180775","6501000","淡水區"
"251007","442-VK","2019/07/26 18:59:41","新北市淡水區民生路113巷1弄36號","121.46326","25.1386583333333","6501000","淡水區"
"251011","650-BX","2019/07/26 18:59:48","新北市淡水區鄧公路30巷2弄27號","121.453273333333","25.1690583333333","6501000","淡水區"
"251002","672-BX","2019/07/26 18:59:49","新北市淡水區學府路28號","121.447798333333","25.1684216666667","6501000","淡水區"
"251003","766-UM","2019/07/26 18:59:42","新北市淡水區中山北路一段149巷24號","121.442961666667","25.177935","6501000","淡水區"
"207003","681-TV","2019/07/26 18:59:45","新北市萬里區大鵬里頂社39號","121.656388333333","25.210815","6502800","萬里區"
"207004","225-TW","2019/07/26 18:59:45","新北市萬里區萬里里獅頭路23號","121.693238333333","25.1782583333333","6502800","萬里區"
"252002","178-VK","2019/07/26 18:59:55","新北市三芝區中正路一段32號","121.503271666667","25.2584433333333","6502100","三芝區"
"252003","249-BX","2019/07/26 18:59:50","新北市三芝區後厝里北勢子42-1號","121.47193","25.2523233333333","6502100","三芝區"
"208001","170-UY","2019/07/26 18:59:43","新北市金山區中山路16號","121.641316666667","25.21756","6502700","金山區"
"237004","KEA-2597","2019/07/26 18:59:46","新北市三峽區有木145號","121.444578333333","24.8489","6500900","三峽區"
"237007","153-BY","2019/07/26 18:59:57","新北市三峽區中正路二段81號","121.366783333333","24.91789","6500900","三峽區"
"237009","210-TH","2019/07/26 18:59:44","新北市三峽區中山路459巷135號","121.348791666667","24.9329883333333","6500900","三峽區"
"237013","252-BX","2019/07/26 18:59:41","新北市三峽區光明路69巷25號","121.37674","24.92922","6500900","三峽區"
"237012","275-BY","2019/07/26 18:59:58","新北市三峽區三樹路222巷72號","121.383203333333","24.9422333333333","6500900","三峽區"
"237008","302-VK","2019/07/26 18:59:38","新北市三峽區大同路174巷18號","121.372738333333","24.9274716666667","6500900","三峽區"
"237014","433-BY","2019/07/26 18:59:49","新北市三峽區隆恩街232號","121.357818333333","24.9411716666667","6500900","三峽區"
"237006","5529-G3","2019/07/26 18:59:46","新北市三峽區溪東路205巷25號","121.405168333333","24.9341783333333","6500900","三峽區"
"237011","KEA-2596","2019/07/26 18:59:43","新北市三峽區介壽路三段245號","121.407583333333","24.9492616666667","6500900","三峽區"
"237015","649-BX","2019/07/26 18:59:40","新北市三峽區建安73-2號","121.448311666667","24.9264183333333","6500900","三峽區"
"237010","706-TV","2019/07/26 18:59:50","新北市三峽區復興路279號","121.366216666667","24.9388783333333","6500900","三峽區"
"237005","AKY-6261","2019/07/26 18:59:45","新北市三峽區民生街120號","121.372796666667","24.9352766666667","6500900","三峽區"
"236042","KED-0685","2019/07/26 18:59:44","新北市土城區學府路一段189巷9號","121.452666666667","24.9845583333333","6501300","土城區"
"236079","166-UM","2019/07/26 18:59:55","新北市土城區中央路四段462號","121.410245","24.9508733333333","6501300","土城區"
"236030","253-BX","2019/07/26 18:59:52","新北市土城區興城路75號","121.440051666667","24.970815","6501300","土城區"
"236026","269-VK","2019/07/26 18:59:44","新北市土城區光明街1號","121.442","24.9748383333333","6501300","土城區"
"236014","270-VK","2019/07/26 18:59:56","新北市土城區延和路11號","121.464003333333","24.9879766666667","6501300","土城區"
"236039","271-VK","2019/07/26 18:59:46","新北市土城區仁愛路6巷1號","121.459873333333","24.9811466666667","6501300","土城區"
"236069","KEA-2877","2019/07/26 18:59:48","新北市土城區清水路70號","121.456493333333","24.9816766666667","6501300","土城區"
"252001","KED-0821","2019/07/26 18:59:44","新北市三芝區中興街二段260號","121.501831666667","25.2529516666667","6502100","三芝區"
"236020","401-BY","2019/07/26 18:59:45","新北市土城區延吉街215號","121.468428333333","24.9852883333333","6501300","土城區"
"236059","912-UM","2019/07/26 18:59:48","新北市土城區金城路二段266號","121.458191666667","24.984035","6501300","土城區"
"236048","913-UM","2019/07/26 18:59:38","新北市土城區明德路一段280號","121.457836666667","24.9773716666667","6501300","土城區"
"236063","915-UM","2019/07/26 18:59:51","新北市土城區延和路41巷6弄20號","121.466635","24.9903483333333","6501300","土城區"
"236055","AAC-216","2019/07/26 18:59:48","新北市土城區學成路147號","121.448715","24.9895166666667","6501300","土城區"
"242039","AAC-296","2019/07/26 18:59:37","新北市板橋區大觀路三段59巷47號","121.435165","24.9932733333333","6500500","新莊區"
"238023","601-UM","2019/07/26 18:59:41","新北市樹林區大慶街66號","121.396451666667","25.0140266666667","6500700","樹林區"
"238019","599-UM","2019/07/26 18:59:46","新北市樹林區中華路190-16號","121.41173","24.9805416666667","6500700","樹林區"
"238024","5061-A6","2019/07/26 18:59:40","新北市樹林區育德街78號","121.387865","24.968305","6500700","樹林區"
"238022","KEA-2213","2019/07/26 18:59:56","新北市樹林區東興街43號","121.410706666667","24.9775666666667","6500700","樹林區"
"238021","KEA-2539","2019/07/26 18:59:43","新北市樹林區柑園街二段322號","121.373213333333","24.9516833333333","6500700","樹林區"
"238025","303-VK","2019/07/26 18:59:45","新北市樹林區中山路三段198號","121.387018333333","24.9688766666667","6500700","樹林區"
"238017","283-BY","2019/07/26 18:59:47","新北市樹林區光興街50號","121.409825","25.0027016666667","6500700","樹林區"
"238014","282-BY","2019/07/26 18:59:51","新北市樹林區千歲街90號","121.426518333333","24.99784","6500700","樹林區"
"238020","268-VK","2019/07/26 18:59:39","新北市樹林區俊英街219-3號","121.422156666667","25.01203","6500700","樹林區"
"238026","172-UY","2019/07/26 18:59:42","新北市樹林區信和街66號","121.389513333333","24.9736166666667","6500700","樹林區"
"238016","169-UY","2019/07/26 18:59:46","新北市樹林區備前街50號","121.416953333333","24.9859766666667","6500700","樹林區"
"239007","AAC-297","2019/07/26 18:59:53","新北市鶯歌區中正一路329號","121.357226666667","24.9570616666667","6500800","鶯歌區"
"239006","891-R6","2019/07/26 18:59:43","新北市鶯歌區鶯桃路91巷29號","121.338051666667","24.9522883333333","6500800","鶯歌區"
"239008","527-UM","2019/07/26 18:59:42","新北市鶯歌區國際二路20巷17號","121.337006666667","24.9754283333333","6500800","鶯歌區"
"239005","526-UM","2019/07/26 18:59:47","新北市鶯歌區永和街249號","121.337066666667","24.9722883333333","6500800","鶯歌區"
"239001","417-VK","2019/07/26 18:59:39","新北市鶯歌區永智街29號","121.33672","24.954545","6500800","鶯歌區"
"239003","360-BY","2019/07/26 18:59:39","新北市鶯歌區鶯桃路658巷49-2號","121.330893333333","24.9703633333333","6500800","鶯歌區"
"239002","359-BY","2019/07/26 18:59:37","新北市鶯歌區中山路291號","121.344558333333","24.9568766666667","6500800","鶯歌區"
"239004","193-VK","2019/07/26 18:59:33","新北市鶯歌區中正三路230巷12號","121.330238333333","24.9390566666667","6500800","鶯歌區"
"221008","489-VK","2019/07/26 18:59:40","新北市汐止區康寧街582號","121.63496","25.06979","6501100","汐止區"
"221036","130-UY","2019/07/26 18:59:46","新北市汐止區忠孝東路314巷19弄12號","121.665068333333","25.0684516666667","6501100","汐止區"
"221015","131-UY","2019/07/26 18:59:54","新北市汐止區鄉長路一段55巷22號","121.66474","25.0762933333333","6501100","汐止區"
"244019","KED-0667","2019/07/26 18:59:26","新北市林口區文化二路一段384號","121.374868333333","25.076545","6501700","林口區"
"221032","280-BY","2019/07/26 18:59:40","新北市汐止區橫科路407巷30弄28號","121.627263333333","25.04827","6501100","汐止區"
"221029","298-VK","2019/07/26 18:59:38","新北市汐止區樟樹一路230號","121.642323333333","25.0667016666667","6501100","汐止區"
"221031","353-TW","2019/07/26 18:59:37","新北市汐止區福德一路300巷33號","121.630491666667","25.06434","6501100","汐止區"
"221035","622-UM","2019/07/26 18:59:55","新北市汐止區大同路二段342號","121.656641666667","25.06705","6501100","汐止區"
"221002","707-TV","2019/07/26 18:59:46","台北市南港區經貿一路55號","121.619828333333","25.0560266666667","6501100","汐止區"
"220079","145-BY","2019/07/26 18:59:42","新北市板橋區大智街69號","121.453593333333","25.015565","6500100","板橋區"
"220080","200-UY","2019/07/26 18:59:54","新北市板橋區大觀路二段文和巷88號","121.444568333333","24.9981733333333","6500100","板橋區"
"220082","610-BX","2019/07/26 18:59:41","新北市板橋區篤行路三段玉平巷45號","121.428593333333","24.986845","6500100","板橋區"
"220091","267-BY","2019/07/26 18:59:45","新北市板橋區大同街14-4號","121.47757","25.0268816666667","6500100","板橋區"
"220056","276-BY","2019/07/26 18:59:52","新北市板橋區信義路87號","121.457461666667","24.9939916666667","6500100","板橋區"
"220072","277-BY","2019/07/26 18:59:52","新北市板橋區篤行路一段33號","121.43201","24.9944116666667","6500100","板橋區"
"220101","280-UM","2019/07/26 18:59:43","新北市板橋區莊敬路221號","121.471735","25.0218283333333","6500100","板橋區"
"220094","283-UM","2019/07/26 18:59:50","新北市板橋區光武街161號","121.465396666667","25.0297683333333","6500100","板橋區"
"220071","283-VK","2019/07/26 18:59:50","新北市板橋區重慶路245巷71號","121.465698333333","25.0011566666667","6500100","板橋區"
"220088","285-UM","2019/07/26 18:59:55","新北市板橋區文化路二段182巷1弄30號","121.47173","25.0284383333333","6500100","板橋區"
"220053","285-VK","2019/07/26 18:59:28","新北市板橋區永豐街89巷3弄1號","121.473406666667","25.0193566666667","6500100","板橋區"
"220083","286-VK","2019/07/26 18:59:47","新北市板橋區大觀路一段38巷156弄71號","121.442591666667","25.0068716666667","6500100","板橋區"
"220081","287-VK","2019/07/26 18:59:40","新北市板橋區光華街19巷36號","121.453281666667","25.0120566666667","6500100","板橋區"
"220090","288-VK","2019/07/26 18:59:50","新北市板橋區裕民街16號","121.4621","25.0290616666667","6500100","板橋區"
"220061","293-UM","2019/07/26 18:59:50","新北市板橋區中山路二段295巷17號","121.477785","25.0187616666667","6500100","板橋區"
"220075","303-R5","2019/07/26 18:59:57","新北市板橋區館前西路227號","121.454635","25.00849","6500100","板橋區"
"220062","305-R5","2019/07/26 18:59:52","新北市板橋區三民路二段正隆巷44號","121.476946666667","25.013825","6500100","板橋區"
"220092","307-R5","2019/07/26 18:59:38","新北市板橋區文化路二段225巷60弄58號","121.469111666667","25.0297666666667","6500100","板橋區"
"220074","461-BY","2019/07/26 18:59:49","新北市板橋區館前西路145號","121.456263333333","25.007835","6500100","板橋區"
"220089","487-VK","2019/07/26 18:59:38","新北市板橋區文化路二段164號","121.470263333333","25.0270216666667","6500100","板橋區"
"220035","560-BX","2019/07/26 18:59:38","新北市板橋區中正路283號","121.455483333333","25.0192266666667","6500100","板橋區"
"220103","561-BX","2019/07/26 18:59:53","新北市板橋區介壽街55號","121.469066666667","25.0196566666667","6500100","板橋區"
"220063","609-BX","2019/07/26 18:59:50","新北市板橋區中山路二段291-16號","121.478456666667","25.018335","6500100","板橋區"
"220057","686-BX","2019/07/26 18:59:39","新北市板橋區重慶路344號","121.464338333333","24.997345","6500100","板橋區"
"220077","687-BX","2019/07/26 18:59:45","新北市板橋區龍興街48號","121.44325","25.0009433333333","6500100","板橋區"
"220093","689-BX","2019/07/26 18:59:49","新北市板橋區民生路三段147號","121.465978333333","25.0264066666667","6500100","板橋區"
"220054","741-BX","2019/07/26 18:59:32","新北市板橋區重慶路139巷13號","121.463318333333","25.0047016666667","6500100","板橋區"
"220102","KEA-2699","2019/07/26 18:59:54","新北市板橋區萬板路810-1號","121.48289","25.027365","6500100","板橋區"
"220055","827-TW","2019/07/26 18:59:43","新北市板橋區中山路一段160-6號","121.466451666667","25.0122","6500100","板橋區"
"220067","829-TW","2019/07/26 18:59:41","新北市板橋區三民路二段154巷11號","121.478673333333","25.0150166666667","6500100","板橋區"
"220098","831-TW","2019/07/26 18:59:50","新北市板橋區萬板路53巷2號","121.471405","25.0216","6500100","板橋區"
"220073","985-R7","2019/07/26 18:59:51","新北市板橋區民權路200號","121.459093333333","25.013825","6500100","板橋區"
"220097","AAC-210","2019/07/26 18:59:55","新北市板橋區幸福路70巷14號","121.460541666667","25.020485","6500100","板橋區"
"220064","AAC-253","2019/07/26 18:59:56","新北市板橋區縣民大道二段110號","121.467155","25.0155616666667","6500100","板橋區"
"235068","KEA-2873","2019/07/26 18:59:45","新北市中和區圓通路162巷3號","121.497145","24.9953133333333","6500300","中和區"
"235061","KEA-2875","2019/07/26 18:59:42","新北市中和區中山路三段63巷13弄41號","121.47668","25.0035133333333","6500300","中和區"
