"lineid","car","time","location","longitude","latitude","cityid","cityname"
"234046","148-BY","2019/07/26 19:09:57","新北市永和區永元路18巷37號","121.524086666667","25.0003066666667","6500400","永和區"
"234081","298-R6","2019/07/26 19:09:43","新北市永和區國中路206號","121.522241666667","25.0059216666667","6500400","永和區"
"234038","336-UY","2019/07/26 19:09:45","新北市永和區民樂街69巷3號","121.527476666667","24.997735","6500400","永和區"
"234064","337-UY","2019/07/26 19:09:52","新北市永和區秀朗路二段45號","121.52163","25.0023466666667","6500400","永和區"
"234086","338-UY","2019/07/26 19:09:41","新北市永和區中正路399號","121.517173333333","25.0043016666667","6500400","永和區"
"234017","745-BX","2019/07/26 19:09:58","新北市永和區文化路90巷17號","121.513683333333","25.016225","6500400","永和區"
"234030","746-BX","2019/07/26 19:09:54","新北市永和區民生路29號","121.522806666667","24.9984566666667","6500400","永和區"
"234054","KEA-2590","2019/07/26 19:09:56","新北市永和區竹林路78號","121.519308333333","25.012765","6500400","永和區"
"234007","KED-0605","2019/07/26 19:09:50","新北市永和區中山路一段236號","121.50723","25.007335","6500400","永和區"
"234013","KEA-2591","2019/07/26 19:09:38","新北市永和區永和路二段94號","121.514985","25.011605","6500400","永和區"
"234061","AAD-866","2019/07/26 19:09:54","新北市永和區安樂路330號","121.514391666667","25.00585","6500400","永和區"
"234070","748-BX","2019/07/26 19:09:52","新北市永和區豫溪街137巷1弄21號","121.518565","25.01035","6500400","永和區"
"234042","862-TW","2019/07/26 19:09:44","新北市永和區保平路202號","121.51005","25.006125","6500400","永和區"
"234050","863-TW","2019/07/26 19:09:50","新北市永和區文化路135巷32弄1號","121.510941666667","25.014025","6500400","永和區"
"234026","9371-KE","2019/07/26 19:09:50","新北市永和區安樂路270號","121.514593333333","25.0040866666667","6500400","永和區"
"234011","9373-KE","2019/07/26 19:09:51","新北市永和區信義路25巷53號","121.512335","25.0115266666667","6500400","永和區"
"249005","172-UM","2019/07/26 19:09:49","新北市八里區中華路三段73號","121.39454","25.1406816666667","6502300","八里區"
"249001","173-UM","2019/07/26 19:09:41","新北市八里區龍米路二段246號","121.43039","25.1587383333333","6502300","八里區"
"248016","026-BX","2019/07/26 19:09:44","新北市五股區成泰路三段543巷12弄2號","121.451355","25.1019666666667","6501500","五股區"
"248008","KED-0815","2019/07/26 19:09:45","新北市五股區中興路一段118巷12號","121.465995","25.074035","6501500","五股區"
"248018","KED-0813","2019/07/26 19:09:40","新北市五股區民義路一段283號","121.425616666667","25.0928566666667","6501500","五股區"
"248012","247-BX","2019/07/26 19:09:40","新北市五股區中興路四段48巷16號","121.43864","25.0834266666667","6501500","五股區"
"248010","272-BY","2019/07/26 19:09:48","新北市五股區自強路90巷72號","121.43067","25.071235","6501500","五股區"
"248004","677-BX","2019/07/26 19:09:52","新北市五股區五福路27號","121.433913333333","25.0892133333333","6501500","五股區"
"248002","678-BX","2019/07/26 19:09:46","新北市五股區凌雲路一段158巷6號","121.447798333333","25.102955","6501500","五股區"
"234023","9380-KE","2019/07/26 19:09:51","新北市永和區中興街10巷19號","121.515901666667","25.0112","6500400","永和區"
"234077","969-R7","2019/07/26 19:09:46","新北市永和區民權路44號","121.520265","24.9986366666667","6500400","永和區"
"234074","AAC-211","2019/07/26 19:09:45","新北市永和區竹林路222號","121.520678333333","25.008035","6500400","永和區"
"234067","AAC-212","2019/07/26 19:09:51","新北市永和區永和路一段63號","121.512891666667","25.0070166666667","6500400","永和區"
"234003","AAC-295","2019/07/26 19:09:49","新北市永和區保福路一段35巷4號","121.512388333333","25.0092466666667","6500400","永和區"
"244013","KEA-2802","2019/07/26 19:09:42","新北市林口區仁愛路二段168號","121.381238333333","25.0739783333333","6501700","林口區"
"244023","483-VK","2019/07/26 19:09:40","新北市林口區文林六街20號","121.371253333333","25.0807283333333","6501700","林口區"
"244011","701-TV","2019/07/26 19:09:44","新北市林口區中正路264巷16號","121.388513333333","25.0784083333333","6501700","林口區"
"244025","837-TS","2019/07/26 19:09:58","新北市林口區文化三路一段447巷41號","121.36728","25.0755383333333","6501700","林口區"
"243012","AAD-798","2019/07/26 19:09:42","新北市泰山區辭修路34巷1號","121.428826666667","25.05804","6501600","泰山區"
"243010","297-R6","2019/07/26 19:09:44","新北市泰山區明志路一段483巷1弄6號","121.431145","25.0555066666667","6501600","泰山區"
"243014","KEA-2801","2019/07/26 19:09:53","新北市泰山區泰林路二段440號","121.426501666667","25.06427","6501600","泰山區"
"243016","421-VK","2019/07/26 19:09:55","新北市泰山區明志路二段373號","121.42509","25.0438983333333","6501600","泰山區"
"243009","KEA-2215","2019/07/26 19:09:53","新北市泰山區明志路一段122巷11號","121.43304","25.0635816666667","6501600","泰山區"
"243011","KEA-2216","2019/07/26 19:09:48","新北市泰山區明志路二段323號","121.426416666667","25.0458683333333","6501600","泰山區"
"243013","646-TV","2019/07/26 19:09:48","新北市泰山區明志路三段267號","121.423198333333","25.037165","6501600","泰山區"
"243015","680-BX","2019/07/26 19:09:43","新北市泰山區明志路一段385號","121.430846666667","25.0577583333333","6501600","泰山區"
"222003","436-BY","2019/07/26 19:09:42","新北市深坑區深南路170號","121.625813333333","25.01512","6501800","深坑區"
"222002","659-BX","2019/07/26 19:09:56","新北市深坑區北深路一段199號","121.63105","25.0098833333333","6501800","深坑區"
"231060","001-UM","2019/07/26 19:09:52","新北市新店區安康路二段308-1號","121.50682","24.9581666666667","6500600","新店區"
"231061","002-UM","2019/07/26 19:09:47","新北市新店區安康路一段226號","121.52363","24.9635483333333","6500600","新店區"
"231058","0293-UT","2019/07/26 19:09:38","新北市新店區光明街94號","121.53892","24.960335","6500600","新店區"
"231044","046-UY","2019/07/26 19:09:44","新北市新店區中興路三段188號","121.54404","24.9815616666667","6500600","新店區"
"231051","107-UY","2019/07/26 19:09:51","新北市新店區中正路382巷22號","121.535388333333","24.97778","6500600","新店區"
"231049","108-UY","2019/07/26 19:09:44","新北市新店區二十張路25巷18弄35號","121.539345","24.981185","6500600","新店區"
"231065","110-UY","2019/07/26 19:09:43","新北市新店區安祥路145巷1號","121.47476","24.9556383333333","6500600","新店區"
"231062","256-BX","2019/07/26 19:07:25","新北市新店區安平路53號","121.519496666667","24.9684733333333","6500600","新店區"
"231054","260-TV","2019/07/26 19:09:51","新北市新店區新店路122號","121.537166666667","24.9549116666667","6500600","新店區"
"231042","268-BY","2019/07/26 19:09:51","新北市新店區中興路一段187號","121.543221666667","24.9649383333333","6500600","新店區"
"231064","278-BY","2019/07/26 19:09:55","新北市新店區安忠路56巷1號","121.512555","24.9589566666667","6500600","新店區"
"231050","AAD-862","2019/07/26 19:09:59","新北市新店區竹林路2巷32號","121.550151666667","24.95042","6500600","新店區"
"231045","355-BY","2019/07/26 19:09:56","新北市新店區北宜路一段130號","121.539481666667","24.95486","6500600","新店區"
"231055","4716-K9","2019/07/26 19:09:46","新北市新店區中央一街43號","121.52722","24.9736066666667","6500600","新店區"
"231056","4715-K9","2019/07/26 19:09:57","新北市新店區安業街8巷2號","121.515056666667","24.9779033333333","6500600","新店區"
"231067","4772-VM","2019/07/26 19:09:46","新北市新店區安康路一段263巷18號","121.524143333333","24.9625733333333","6500600","新店區"
"231053","513-UM","2019/07/26 19:09:45","新北市新店區自強路23巷1號","121.546118333333","24.926605","6500600","新店區"
"231040","617-UM","2019/07/26 19:09:54","新北市新店區三民路98-4號","121.533961666667","24.9733516666667","6500600","新店區"
"231041","619-UM","2019/07/26 19:09:54","新北市新店區中央二街81號","121.525628333333","24.975115","6500600","新店區"
"231063","641-BX","2019/07/26 19:09:53","新北市新店區車子路121號","121.505278333333","24.9507683333333","6500600","新店區"
"231048","KED-0819","2019/07/26 19:09:55","新北市新店區德正街27巷29弄88號","121.545805","24.9736066666667","6500600","新店區"
"231046","719-UM","2019/07/26 19:09:53","新北市新店區華城路36號","121.52845","24.9555833333333","6500600","新店區"
"231057","720-UM","2019/07/26 19:09:38","新北市新店區百齡一路12號","121.553078333333","24.9324333333333","6500600","新店區"
"231059","897-TW","2019/07/26 19:09:46","新北市新店區安康路一段351-1號","121.519373333333","24.964045","6500600","新店區"
"231043","899-TW","2019/07/26 19:09:56","新北市新店區寶橋路97號","121.546968333333","24.97617","6500600","新店區"
"231066","AKT-0513","2019/07/26 19:09:49","新北市新店區安康路二段458號","121.49428","24.95429","6500600","新店區"
"241035","462-BY","2019/07/26 19:09:54","新北市三重區大仁街29號","121.49258","25.0650983333333","6500200","三重區"
"241026","480-VK","2019/07/26 19:09:49","新北市三重區重安街139號","121.495428333333","25.0546083333333","6500200","三重區"
"241022","KED-0820","2019/07/26 19:09:39","新北市三重區三民街155巷22號","121.48439","25.0648266666667","6500200","三重區"
"241029","942-UM","2019/07/26 19:09:44","新北市三重區集美街238號","121.492363333333","25.0558416666667","6500200","三重區"
"235066","003-UY","2019/07/26 19:09:54","新北市中和區廣福路44號","121.504188333333","25.0021016666667","6500300","中和區"
"235064","005-UY","2019/07/26 19:09:43","新北市中和區連城路2號","121.499235","25.002415","6500300","中和區"
"235063","006-UY","2019/07/26 19:09:53","新北市中和區連城路249巷5號","121.4937","24.9967766666667","6500300","中和區"
"235056","096-UM","2019/07/26 19:09:49","新北市中和區中山路二段568巷66號","121.482118333333","25.007555","6500300","中和區"
"235039","097-UM","2019/07/26 19:09:41","新北市中和區秀朗路三段179號","121.52439","24.9907783333333","6500300","中和區"
"235065","098-UM","2019/07/26 19:09:54","新北市中和區中山路二段64巷8號","121.503693333333","25.0049566666667","6500300","中和區"
"235040","150-BY","2019/07/26 19:09:57","新北市中和區保健路48巷38號","121.509471666667","24.996265","6500300","中和區"
"235058","151-BY","2019/07/26 19:09:40","新北市中和區連城路523巷11弄16號","121.48205","24.9940783333333","6500300","中和區"
"235055","183-VK","2019/07/26 19:09:40","新北市中和區德光路81號","121.469276666667","25.00365","6500300","中和區"
"235038","185-VK","2019/07/26 19:09:42","新北市中和區大仁街20巷34號","121.519333333333","24.9930666666667","6500300","中和區"
"235049","186-VK","2019/07/26 19:07:26","新北市中和區景新街137號","121.506001666667","24.9968916666667","6500300","中和區"
"235044","293-VK","2019/07/26 19:09:58","新北市中和區中興街263-1號","121.500021666667","24.988695","6500300","中和區"
"235072","301-VK","2019/07/26 19:09:50","新北市中和區永和路1號","121.499838333333","25.002875","6500300","中和區"
"235043","352-BY","2019/07/26 19:09:46","新北市中和區景平路154號","121.517801666667","24.9921633333333","6500300","中和區"
"235042","KEA-2878","2019/07/26 19:09:42","新北市中和區大勇街60巷16號","121.518715","24.9947083333333","6500300","中和區"
"235050","4979-A6","2019/07/26 19:09:51","新北市中和區復興路249巷11弄3號","121.50349","24.9897066666667","6500300","中和區"
"235069","4980-A6","2019/07/26 19:09:55","新北市中和區中和路217巷16號","121.50468","25.000285","6500300","中和區"
"235041","551-UM","2019/07/26 19:09:37","新北市中和區中和路294號","121.50854","24.99977","6500300","中和區"
"235070","558-UM","2019/07/26 19:09:52","新北市中和區連城路72號","121.4974","25.00137","6500300","中和區"
"235045","565-BX","2019/07/26 19:09:51","新北市中和區景新街437巷8號","121.513796666667","24.9892333333333","6500300","中和區"
"235060","KED-0823","2019/07/26 19:09:44","新北市中和區民享街2巷2號","121.473785","25.005875","6500300","中和區"
"235054","640-BX","2019/07/26 19:09:46","新北市中和區國光街110號","121.470003333333","25.000695","6500300","中和區"
"235047","732-UM","2019/07/26 19:09:43","新北市中和區興南路一段56巷6-1號","121.510716666667","24.9909633333333","6500300","中和區"
"235046","733-UM","2019/07/26 19:09:47","新北市中和區華新街129號","121.506818333333","24.9819133333333","6500300","中和區"
"235071","783-BX","2019/07/26 19:09:51","新北市中和區連城路469巷79弄6號","121.483615","24.9936566666667","6500300","中和區"
"235062","800-TS","2019/07/26 19:09:35","新北市中和區新生街195號","121.48376","25.0001716666667","6500300","中和區"
"235057","801-TS","2019/07/26 19:09:39","新北市中和區員山路423巷9號","121.4805","25.0031033333333","6500300","中和區"
"235052","805-TS","2019/07/26 19:09:54","新北市中和區興南路二段142巷31弄63號","121.501571666667","24.98351","6500300","中和區"
"235048","896-TW","2019/07/26 19:09:39","新北市中和區忠孝街29號","121.510508333333","24.9830683333333","6500300","中和區"
"235053","900-TW","2019/07/26 19:09:41","新北市中和區華福街71巷32號","121.467693333333","24.9969433333333","6500300","中和區"
"235051","157-BY","2019/07/26 19:09:50","新北市中和區興南路一段61號","121.51045","24.9897783333333","6500300","中和區"
"235037","AAC-213","2019/07/26 19:09:51","新北市中和區自立路15巷25號","121.523183333333","24.99594","6500300","中和區"
"235059","AAC-215","2019/07/26 19:09:41","新北市中和區圓通路294巷17-5號","121.48863","24.99041","6500300","中和區"
"220068","015-TV","2019/07/26 19:09:53","新北市板橋區中山路二段443巷79號","121.480653333333","25.02255","6500100","板橋區"
"220065","072-UY","2019/07/26 19:09:50","新北市板橋區民族路219巷23號","121.469241666667","25.008","6500100","板橋區"
"220086","073-UY","2019/07/26 19:09:53","新北市板橋區中正路250巷35號","121.45713","25.01958","6500100","板橋區"
"220106","075-UY","2019/07/26 19:09:42","新北市板橋區長江路二段280-1號","121.470006666667","25.032805","6500100","板橋區"
"220069","AAD-861","2019/07/26 19:09:55","新北市板橋區大明街20巷35號","121.458386666667","25.0036983333333","6500100","板橋區"
"226004","312-R5","2019/07/26 19:09:39","新北市平溪區望古里灰3號","121.758688333333","25.0304216666667","6502400","平溪區"
"228002","663-BX","2019/07/26 19:09:52","新北市貢寮區福隆里福隆街32-1號","121.945123333333","25.0174133333333","6502600","貢寮區"
"228001","670-TC","2019/07/26 19:09:37","新北市貢寮區真理里新港街10號","121.925481666667","25.05428","6502600","貢寮區"
"228003","828-UM","2019/07/26 19:09:53","新北市貢寮區和美里和美街36號","121.912303333333","25.0851833333333","6502600","貢寮區"
"224010","AGQ-8101","2019/07/26 19:09:53","新北市瑞芳區基山街155號","121.843695","25.10813","6501200","瑞芳區"
"224009","275-VK","2019/07/26 19:09:49","新北市瑞芳區洞頂路101巷56號","121.86048","25.1219733333333","6501200","瑞芳區"
"224008","273-VK","2019/07/26 19:09:44","新北市瑞芳區瑞芳街86號","121.802388333333","25.1101633333333","6501200","瑞芳區"
"224005","271-BY","2019/07/26 19:09:50","新北市瑞芳區中山路344號","121.795958333333","25.1102033333333","6501200","瑞芳區"
"227001","642-TC","2019/07/26 19:09:49","新北市雙溪區牡丹里中正路23號","121.864676666667","25.0374866666667","6502500","雙溪區"
"227002","400-TW","2019/07/26 19:09:46","新北市雙溪區平林里外平林9-5號","121.85915","25.0378866666667","6502500","雙溪區"
"253006","032-BX","2019/07/26 19:09:59","新北市石門區海灣新城19號","121.525961666667","25.28497","6502200","石門區"
"253005","295-VK","2019/07/26 19:09:52","新北市石門區阿里荖40-1號","121.606196666667","25.2806483333333","6502200","石門區"
"222001","KEA-2212","2019/07/26 19:09:46","新北市深坑區北深路一段300號","121.624243333333","25.0057516666667","6501800","深坑區"
"208002","KEA-2872","2019/07/26 19:09:44","新北市金山區中正路71巷5號","121.633611666667","25.22149","6502700","金山區"
"208003","665-BX","2019/07/26 19:09:55","新北市金山區中正路6號","121.636518333333","25.2224066666667","6502700","金山區"
"251009","008-UM","2019/07/26 19:09:40","新北市淡水區重建街38號","121.43995","25.1712916666667","6501000","淡水區"
"251001","011-UM","2019/07/26 19:09:45","新北市淡水區民權路92巷35-1號","121.462088333333","25.1267033333333","6501000","淡水區"
"251008","181-VK","2019/07/26 19:09:51","新北市淡水區下圭柔山91-3號","121.430908333333","25.2097233333333","6501000","淡水區"
"251010","413-VK","2019/07/26 19:09:47","新北市淡水區中正路一段156巷3號","121.421245","25.1802716666667","6501000","淡水區"
"251007","442-VK","2019/07/26 19:09:40","新北市淡水區民生路137號","121.465593333333","25.1388133333333","6501000","淡水區"
"251002","672-BX","2019/07/26 19:09:49","新北市淡水區中山路47號","121.443346666667","25.1704533333333","6501000","淡水區"
"251003","766-UM","2019/07/26 19:09:42","新北市淡水區中山北路一段173號","121.443631666667","25.1777383333333","6501000","淡水區"
"207004","225-TW","2019/07/26 19:09:45","新北市萬里區萬里里瑪鋉下街52號","121.691623333333","25.179585","6502800","萬里區"
"252002","178-VK","2019/07/26 19:09:55","新北市三芝區忠孝街15號","121.50613","25.2552","6502100","三芝區"
"252003","249-BX","2019/07/26 19:09:49","新北市三芝區錫板里南勢崗5-5號","121.480758333333","25.2628433333333","6502100","三芝區"
"208001","170-UY","2019/07/26 19:09:43","新北市金山區福德街14號","121.639185","25.2216666666667","6502700","金山區"
"237004","KEA-2597","2019/07/26 19:03:53","新北市三峽區有木205-1號","121.439053333333","24.8515183333333","6500900","三峽區"
"237007","153-BY","2019/07/26 19:09:50","新北市三峽區中正路二段42巷50號","121.364301666667","24.9205616666667","6500900","三峽區"
"237009","210-TH","2019/07/26 19:09:44","新北市三峽區中山路138-2號","121.365096666667","24.9362283333333","6500900","三峽區"
"237013","252-BX","2019/07/26 19:09:41","新北市三峽區光明路69巷25號","121.376653333333","24.9292716666667","6500900","三峽區"
"237012","275-BY","2019/07/26 19:09:38","新北市三峽區三樹路222巷254弄68-22號","121.394201666667","24.9445833333333","6500900","三峽區"
"237008","302-VK","2019/07/26 19:09:38","新北市三峽區光明路106巷36號","121.375696666667","24.927105","6500900","三峽區"
"237014","433-BY","2019/07/26 19:09:49","新北市三峽區大仁路33號","121.365861666667","24.93751","6500900","三峽區"
"237006","5529-G3","2019/07/26 19:09:46","新北市三峽區橫溪路122號","121.398456666667","24.9353816666667","6500900","三峽區"
"237011","KEA-2596","2019/07/26 19:09:43","新北市三峽區介壽路三段115號","121.397941666667","24.941765","6500900","三峽區"
"237015","649-BX","2019/07/26 19:09:40","新北市三峽區安坑38號","121.454623333333","24.9320133333333","6500900","三峽區"
"237010","706-TV","2019/07/26 19:09:50","新北市三峽區國光街362號","121.371006666667","24.9396883333333","6500900","三峽區"
"237005","AKY-6261","2019/07/26 19:09:45","新北市三峽區中山路459巷90-1號","121.35476","24.9361266666667","6500900","三峽區"
"236079","166-UM","2019/07/26 19:09:55","新北市土城區龍泉路14號","121.409765","24.948915","6501300","土城區"
"236026","269-VK","2019/07/26 19:09:38","新北市土城區中央路二段189巷24號","121.442916666667","24.9756933333333","6501300","土城區"
"236014","270-VK","2019/07/26 19:09:36","新北市土城區學府路一段37巷30號","121.457356666667","24.9875766666667","6501300","土城區"
"236069","KEA-2877","2019/07/26 19:09:48","新北市土城區裕生路84巷1號","121.447306666667","24.9853033333333","6501300","土城區"
"252001","KED-0821","2019/07/26 19:09:44","新北市三芝區長勤街45巷2號","121.500321666667","25.2550383333333","6502100","三芝區"
"236020","401-BY","2019/07/26 19:09:48","新北市土城區延峰街23號","121.46904","24.9858683333333","6501300","土城區"
"236059","912-UM","2019/07/26 19:09:48","新北市土城區金城路一段131號","121.444866666667","24.9736983333333","6501300","土城區"
"236055","AAC-216","2019/07/26 19:09:55","新北市土城區學府路一段231號","121.451146666667","24.98414","6501300","土城區"
"242039","AAC-296","2019/07/26 19:09:37","新北市新莊區新樹路395號","121.432861666667","25.0169366666667","6500500","新莊區"
"238015","755-BX","2019/07/26 19:09:54","新北市樹林區備內街136號","121.409418333333","24.9894683333333","6500700","樹林區"
"238023","601-UM","2019/07/26 19:09:41","新北市樹林區三興路2-2號","121.397735","25.0154883333333","6500700","樹林區"
"238019","599-UM","2019/07/26 19:09:46","新北市樹林區東榮街147巷27弄1號","121.414731666667","24.9806866666667","6500700","樹林區"
"238022","KEA-2213","2019/07/26 19:09:36","新北市樹林區東順街90巷3弄1號","121.408023333333","24.9762483333333","6500700","樹林區"
"238021","KEA-2539","2019/07/26 19:09:43","新北市樹林區柑園街二段447號","121.363606666667","24.9463733333333","6500700","樹林區"
"238025","303-VK","2019/07/26 19:09:42","新北市樹林區中山路三段202-1號","121.386141666667","24.9683433333333","6500700","樹林區"
"238017","283-BY","2019/07/26 19:09:47","新北市樹林區光興街50號","121.409825","25.00271","6500700","樹林區"
"238014","282-BY","2019/07/26 19:09:53","新北市樹林區千歲街63-12號","121.426965","24.9985433333333","6500700","樹林區"
"238020","268-VK","2019/07/26 19:09:59","新北市樹林區俊英街131號","121.424295","25.01139","6500700","樹林區"
"238026","172-UY","2019/07/26 19:09:42","新北市樹林區中山路三段345號","121.39019","24.9707333333333","6500700","樹林區"
"238016","169-UY","2019/07/26 19:09:45","新北市樹林區復興路335巷6弄13號","121.417978333333","24.986985","6500700","樹林區"
"239007","AAC-297","2019/07/26 19:09:53","新北市鶯歌區中山路138巷17-5號","121.3513","24.95963","6500800","鶯歌區"
"239006","891-R6","2019/07/26 19:09:43","新北市鶯歌區建國路468號","121.341421666667","24.9511316666667","6500800","鶯歌區"
"239008","527-UM","2019/07/26 19:09:51","新北市鶯歌區國際二路12巷27號","121.338405","24.9748533333333","6500800","鶯歌區"
"239005","526-UM","2019/07/26 19:09:47","新北市鶯歌區東湖路14號","121.352511666667","24.9713316666667","6500800","鶯歌區"
"239001","417-VK","2019/07/26 19:09:39","新北市鶯歌區建國路473號","121.339923333333","24.9524716666667","6500800","鶯歌區"
"239003","360-BY","2019/07/26 19:09:40","新北市鶯歌區鶯桃路336號","121.333881666667","24.962205","6500800","鶯歌區"
"239002","359-BY","2019/07/26 19:09:37","新北市鶯歌區中正一路373號","121.358191666667","24.9570733333333","6500800","鶯歌區"
"239004","193-VK","2019/07/26 19:09:53","新北市鶯歌區中正三路388巷1弄2號","121.32651","24.9349616666667","6500800","鶯歌區"
"221008","489-VK","2019/07/26 19:09:40","新北市汐止區康寧街418-1號","121.63045","25.0680633333333","6501100","汐止區"
"221036","130-UY","2019/07/26 19:09:46","新北市汐止區忠孝東路269號","121.663323333333","25.0682116666667","6501100","汐止區"
"221031","353-TW","2019/07/26 19:09:37","新北市汐止區福德二路156巷62號","121.629695","25.066135","6501100","汐止區"
"221035","622-UM","2019/07/26 19:09:55","新北市汐止區中正路297號","121.656268333333","25.0679766666667","6501100","汐止區"
"221002","707-TV","2019/07/26 19:09:46","新北市汐止區大同路一段161號","121.632635","25.0564516666667","6501100","汐止區"
"220079","145-BY","2019/07/26 19:09:42","新北市板橋區中正路12巷135弄13號","121.456233333333","25.0122383333333","6500100","板橋區"
"220080","200-UY","2019/07/26 19:09:54","新北市板橋區合安一路77-6號","121.448311666667","24.998725","6500100","板橋區"
"220082","610-BX","2019/07/26 19:09:45","新北市板橋區溪北路20號","121.426801666667","24.99041","6500100","板橋區"
"220091","267-BY","2019/07/26 19:09:49","新北市板橋區縣民大道三段187巷1號","121.47941","25.0248383333333","6500100","板橋區"
"220056","276-BY","2019/07/26 19:09:56","新北市板橋區信義路112號","121.458318333333","24.9925816666667","6500100","板橋區"
"220072","277-BY","2019/07/26 19:09:52","新北市板橋區金門街369巷58號","121.42825","24.9816283333333","6500100","板橋區"
"220101","280-UM","2019/07/26 19:09:43","新北市板橋區莊敬路2號","121.474165","25.0286633333333","6500100","板橋區"
"220094","283-UM","2019/07/26 19:09:48","新北市板橋區吳鳳路19巷16號","121.466808333333","25.0306666666667","6500100","板橋區"
"220071","283-VK","2019/07/26 19:09:50","新北市板橋區重慶路245巷54號","121.465246666667","25.0007516666667","6500100","板橋區"
"220088","285-UM","2019/07/26 19:09:55","新北市板橋區雙十路一段44巷36號","121.477308333333","25.0248733333333","6500100","板橋區"
"220053","285-VK","2019/07/26 19:09:48","新北市板橋區懷仁街35巷4弄2號","121.47708","25.01972","6500100","板橋區"
"220083","286-VK","2019/07/26 19:09:47","新北市板橋區龍興街99巷5號","121.444001666667","25.0029633333333","6500100","板橋區"
"220081","287-VK","2019/07/26 19:09:56","新北市板橋區南雅西路二段156巷24號","121.452356666667","25.0128533333333","6500100","板橋區"
"220090","288-VK","2019/07/26 19:09:50","新北市板橋區長江路一段106巷13弄11號","121.46047","25.029295","6500100","板橋區"
"220061","293-UM","2019/07/26 19:09:52","新北市板橋區中山路二段318巷27弄2號","121.480546666667","25.018485","6500100","板橋區"
"220075","303-R5","2019/07/26 19:09:48","新北市板橋區南雅南路一段1巷21號","121.457091666667","25.0068433333333","6500100","板橋區"
"220062","305-R5","2019/07/26 19:09:52","新北市板橋區三民路二段居仁巷1弄31號","121.480165","25.0136616666667","6500100","板橋區"
"220092","307-R5","2019/07/26 19:09:47","新北市板橋區松江街72巷31號","121.4697","25.027945","6500100","板橋區"
"220074","461-BY","2019/07/26 19:09:49","新北市板橋區文昌街1號","121.456016666667","25.0100716666667","6500100","板橋區"
"220089","487-VK","2019/07/26 19:09:57","新北市板橋區文化路一段311號","121.466218333333","25.020195","6500100","板橋區"
"220035","560-BX","2019/07/26 19:09:38","新北市板橋區中正路377-3號","121.454205","25.021475","6500100","板橋區"
"220103","561-BX","2019/07/26 19:09:53","新北市板橋區文化路一段270巷1號","121.46746","25.02072","6500100","板橋區"
"220063","609-BX","2019/07/26 19:09:50","新北市板橋區三民路二段251號","121.479003333333","25.0120966666667","6500100","板橋區"
"220057","686-BX","2019/07/26 19:09:39","新北市板橋區五權街39-2號","121.464458333333","24.99397","6500100","板橋區"
"220077","687-BX","2019/07/26 19:09:59","新北市板橋區大觀路二段155號","121.445468333333","25.00074","6500100","板橋區"
"220093","689-BX","2019/07/26 19:09:49","新北市板橋區文化路一段309-1號","121.466041666667","25.020005","6500100","板橋區"
"220054","741-BX","2019/07/26 19:09:52","新北市板橋區重慶路71-12號","121.462133333333","25.00679","6500100","板橋區"
"220102","KEA-2699","2019/07/26 19:09:53","新北市板橋區文聖街131號","121.478118333333","25.028655","6500100","板橋區"
"220055","827-TW","2019/07/26 19:09:54","新北市板橋區新民街13號","121.464","25.00987","6500100","板橋區"
"220067","829-TW","2019/07/26 19:09:41","新北市板橋區三民路二段正隆巷65號","121.476445","25.0132083333333","6500100","板橋區"
"220098","831-TW","2019/07/26 19:09:52","新北市板橋區民有街45號","121.465581666667","25.0258016666667","6500100","板橋區"
"220073","985-R7","2019/07/26 19:09:58","新北市板橋區中正路347號","121.45471","25.0206633333333","6500100","板橋區"
"220097","AAC-210","2019/07/26 19:09:35","新北市板橋區幸福路60巷67號","121.460093333333","25.021755","6500100","板橋區"
"220064","AAC-253","2019/07/26 19:09:49","新北市板橋區板新路12號","121.474725","25.0131916666667","6500100","板橋區"
"235068","KEA-2873","2019/07/26 19:09:45","新北市中和區連勝街38巷7號","121.497675","24.9978766666667","6500300","中和區"
"235061","KEA-2875","2019/07/26 19:09:42","新北市中和區員山路333號","121.481278333333","25.001375","6500300","中和區"
