"lineid","car","time","location","longitude","latitude","cityid","cityname"
"234081","298-R6","2019/07/26 20:29:43","新北市永和區福和路59號","121.522983333333","25.007755","6500400","永和區"
"234038","336-UY","2019/07/26 20:29:45","新北市永和區環河東路四段38號","121.528771666667","24.9989666666667","6500400","永和區"
"234064","337-UY","2019/07/26 20:29:52","新北市永和區中正路419號","121.517145","25.005015","6500400","永和區"
"234086","338-UY","2019/07/26 20:29:41","新北市永和區永和路二段334號","121.516273333333","25.0166033333333","6500400","永和區"
"234030","746-BX","2019/07/26 20:29:54","新北市中和區景平路59號","121.52133","24.9905983333333","6500400","永和區"
"234054","KEA-2590","2019/07/26 20:29:56","新北市永和區環河東路一段80號","121.51955","25.0163983333333","6500400","永和區"
"234013","KEA-2591","2019/07/26 20:29:57","新北市永和區環河西路二段157號","121.505391666667","25.013785","6500400","永和區"
"234061","AAD-866","2019/07/26 20:29:54","新北市永和區安樂路194巷18號","121.516376666667","25.0009366666667","6500400","永和區"
"234070","748-BX","2019/07/26 20:29:52","新北市永和區永寧街52號","121.51965","25.006925","6500400","永和區"
"234042","862-TW","2019/07/26 20:29:44","新北市永和區安樂路248-2號","121.514561666667","25.003405","6500400","永和區"
"234050","863-TW","2019/07/26 20:29:50","新北市永和區環河西路二段97號","121.506496666667","25.0147983333333","6500400","永和區"
"249001","173-UM","2019/07/26 20:29:49","新北市八里區中山路三段135號","121.388056666667","25.1424266666667","6502300","八里區"
"249004","303-UY","2019/07/26 20:29:54","新北市八里區中山路一段129巷45號","121.413831666667","25.15859","6502300","八里區"
"249002","305-UY","2019/07/26 20:29:40","新北市八里區龍米路二段71號","121.448011666667","25.1411583333333","6502300","八里區"
"249003","593-UM","2019/07/26 20:29:59","新北市八里區華峰一街18號","121.39926","25.146855","6502300","八里區"
"248008","KED-0815","2019/07/26 20:28:45","新北市五股區中直路13-7號","121.424658333333","25.1105266666667","6501500","五股區"
"248002","678-BX","2019/07/26 20:29:56","新北市五股區成泰路三段45號","121.442701666667","25.0892","6501500","五股區"
"234023","9380-KE","2019/07/26 20:29:51","新北市永和區博愛街32巷17-1號","121.518918333333","25.015225","6500400","永和區"
"234074","AAC-211","2019/07/26 20:29:52","新北市永和區環河東路二段58號","121.52331","25.0112816666667","6500400","永和區"
"234067","AAC-212","2019/07/26 20:29:52","新北市永和區保平路290號","121.508043333333","25.0045933333333","6500400","永和區"
"234003","AAC-295","2019/07/26 20:29:49","新北市永和區中正路624巷4號","121.517255","25.0078166666667","6500400","永和區"
"243012","AAD-798","2019/07/26 20:29:42","新北市泰山區明志路一段168號","121.43326","25.0625966666667","6501600","泰山區"
"243010","297-R6","2019/07/26 20:29:44","新北市泰山區新生路33號","121.427598333333","25.0453283333333","6501600","泰山區"
"243014","KEA-2801","2019/07/26 20:29:53","新北市泰山區泰林路二段528號","121.423913333333","25.0638883333333","6501600","泰山區"
"243016","421-VK","2019/07/26 20:29:54","新北市泰山區文程路15號","121.428003333333","25.0494383333333","6501600","泰山區"
"243009","KEA-2215","2019/07/26 20:29:53","新北市泰山區忠孝街10-1號","121.427653333333","25.0647766666667","6501600","泰山區"
"243011","KEA-2216","2019/07/26 20:29:50","新北市泰山區新北大道六段315號","121.423585","25.03367","6501600","泰山區"
"243013","646-TV","2019/07/26 20:29:49","新北市泰山區中央路14巷3號","121.426485","25.0436866666667","6501600","泰山區"
"243015","680-BX","2019/07/26 20:29:43","新北市泰山區仁德路80號","121.432895","25.0563333333333","6501600","泰山區"
"222003","436-BY","2019/07/26 20:29:42","新北市深坑區深坑街32號","121.615273333333","25.0018366666667","6501800","深坑區"
"222002","659-BX","2019/07/26 20:29:56","新北市深坑區萬福路47號","121.599566666667","25.0068533333333","6501800","深坑區"
"231060","001-UM","2019/07/26 20:29:52","新北市新店區錦秀路11巷38號","121.480873333333","24.94388","6500600","新店區"
"231061","002-UM","2019/07/26 20:29:47","新北市新店區光華街38巷11號","121.515916666667","24.970345","6500600","新店區"
"231058","0293-UT","2019/07/26 20:29:38","新北市新店區中央路15號","121.53333","24.9783016666667","6500600","新店區"
"231044","046-UY","2019/07/26 20:29:43","新北市新店區建國路134號","121.539133333333","24.97902","6500600","新店區"
"231051","107-UY","2019/07/26 20:29:51","新北市新店區中央七街38號","121.528943333333","24.9756683333333","6500600","新店區"
"231049","108-UY","2019/07/26 20:29:44","新北市新店區永業路81巷1弄16號","121.53049","24.9501733333333","6500600","新店區"
"231065","110-UY","2019/07/26 20:29:43","新北市新店區安祥路102巷46弄70號","121.486925","24.9632483333333","6500600","新店區"
"231068","187-VK","2019/07/26 20:29:58","新北市新店區民權路10號","121.542361666667","24.9829833333333","6500600","新店區"
"231062","256-BX","2019/07/26 20:29:52","新北市新店區安泰路60巷78號","121.483873333333","24.9457916666667","6500600","新店區"
"231054","260-TV","2019/07/26 20:29:50","新北市新店區檳榔路109號","121.544475","24.96162","6500600","新店區"
"231042","268-BY","2019/07/26 20:29:51","新北市新店區寶橋路236號","121.551625","24.978875","6500600","新店區"
"231064","278-BY","2019/07/26 20:29:55","新北市新店區永安街74巷30號","121.518975","24.9859033333333","6500600","新店區"
"231050","AAD-862","2019/07/26 20:29:59","新北市新店區建興街7號","121.539903333333","24.9764233333333","6500600","新店區"
"231045","355-BY","2019/07/26 20:29:56","新北市新店區新坡一街56-1號","121.549895","24.9635116666667","6500600","新店區"
"231055","4716-K9","2019/07/26 20:29:46","新北市新店區光明街143號","121.539483333333","24.9621516666667","6500600","新店區"
"231056","4715-K9","2019/07/26 20:29:37","新北市新店區中央路31號","121.532945","24.9778216666667","6500600","新店區"
"231067","4772-VM","2019/07/26 20:29:45","新北市新店區安華路28-1號","121.519898333333","24.96097","6500600","新店區"
"231053","513-UM","2019/07/26 20:29:45","新北市新店區松林路38號","121.546248333333","24.9102716666667","6500600","新店區"
"231040","617-UM","2019/07/26 20:29:54","新北市新店區三民路66號","121.534953333333","24.9722866666667","6500600","新店區"
"231041","619-UM","2019/07/26 20:29:54","新北市新店區民權路149號","121.534445","24.98274","6500600","新店區"
"231063","641-BX","2019/07/26 20:29:53","新北市新店區玫瑰路4-1號","121.493595","24.9513683333333","6500600","新店區"
"231048","KED-0819","2019/07/26 20:29:55","新北市新店區寶慶街58巷21-1號","121.541956666667","24.9873533333333","6500600","新店區"
"231057","720-UM","2019/07/26 20:29:58","新北市新店區花園十路二段4號","121.555888333333","24.9332333333333","6500600","新店區"
"231059","897-TW","2019/07/26 20:29:46","新北市新店區安豐路30-1號","121.500888333333","24.9567216666667","6500600","新店區"
"231043","899-TW","2019/07/26 20:29:56","新北市新店區明德路65巷20號","121.540591666667","24.9767983333333","6500600","新店區"
"231066","AKT-0513","2019/07/26 20:29:49","新北市新店區安德街60巷35號","121.510896666667","24.9636616666667","6500600","新店區"
"241011","013-R5","2019/07/26 20:29:43","新北市三重區龍門路74號","121.496926666667","25.07267","6500200","三重區"
"241028","022-UY","2019/07/26 20:29:39","新北市三重區光興街91號","121.497416666667","25.0599516666667","6500200","三重區"
"241008","059-VK","2019/07/26 20:29:55","新北市三重區下竹圍街91號","121.481285","25.074885","6500200","三重區"
"241001","060-VK","2019/07/26 20:29:39","新北市三重區自強路四段12號","121.488423333333","25.0761966666667","6500200","三重區"
"241031","061-VK","2019/07/26 20:29:48","新北市三重區三寧街15號","121.489453333333","25.05965","6500200","三重區"
"241015","062-VK","2019/07/26 20:29:52","新北市三重區長元西街1號","121.498795","25.0655083333333","6500200","三重區"
"241017","063-VK","2019/07/26 20:29:43","新北市三重區自強路一段288號","121.491598333333","25.0682683333333","6500200","三重區"
"241024","065-VK","2019/07/26 20:29:31","新北市三重區三民街285號","121.478873333333","25.06827","6500200","三重區"
"241030","066-VK","2019/07/26 20:29:43","新北市三重區成功路62號","121.488585","25.0509716666667","6500200","三重區"
"241002","090-VK","2019/07/26 20:29:46","新北市三重區仁義街211巷19號","121.497521666667","25.08217","6500200","三重區"
"241003","091-VK","2019/07/26 20:29:54","新北市三重區富華街188號","121.492975","25.0848683333333","6500200","三重區"
"241016","266-UM","2019/07/26 20:29:41","新北市三重區正義北路86號","121.496895","25.06451","6500200","三重區"
"241009","267-UM","2019/07/26 20:29:49","新北市三重區碧華街61號","121.484861666667","25.0813783333333","6500200","三重區"
"241018","268-UM","2019/07/26 20:29:40","新北市三重區正義北路232號","121.495876666667","25.0677666666667","6500200","三重區"
"241032","269-UM","2019/07/26 20:29:43","新北市三重區興華街75號","121.484871666667","25.060205","6500200","三重區"
"241013","270-UM","2019/07/26 20:29:45","新北市三重區三和路三段167巷1號","121.492021666667","25.0740516666667","6500200","三重區"
"241025","271-UM","2019/07/26 20:29:55","新北市三重區頂崁街210巷23弄1號","121.475833333333","25.0682016666667","6500200","三重區"
"241007","398-BY","2019/07/26 20:29:49","新北市三重區自強路四段41號","121.489625","25.0775466666667","6500200","三重區"
"241035","462-BY","2019/07/26 20:29:54","新北市三重區正義北路196號","121.49635","25.0670516666667","6500200","三重區"
"241004","475-VK","2019/07/26 20:29:53","新北市三重區溪尾街216號","121.488005","25.08144","6500200","三重區"
"241020","478-VK","2019/07/26 20:29:45","新北市三重區三和路三段170巷8弄25號","121.492465","25.0723566666667","6500200","三重區"
"241026","480-VK","2019/07/26 20:29:49","新北市三重區福德南路24巷19號","121.503508333333","25.0632","6500200","三重區"
"241023","545-UM","2019/07/26 20:29:53","新北市三重區自由街17巷3號","121.480035","25.0667916666667","6500200","三重區"
"241019","KEA-2593","2019/07/26 20:29:51","新北市三重區重陽路四段126巷6號","121.492166666667","25.0710333333333","6500200","三重區"
"241006","AAD-863","2019/07/26 20:29:43","新北市三重區車路頭街139巷12號","121.484233333333","25.076215","6500200","三重區"
"241022","KED-0820","2019/07/26 20:29:39","新北市三重區中正北路20巷2號","121.488201666667","25.062845","6500200","三重區"
"241012","941-UM","2019/07/26 20:29:55","新北市三重區龍濱路269號","121.501385","25.0731216666667","6500200","三重區"
"241029","942-UM","2019/07/26 20:29:44","新北市三重區集美街225號","121.492015","25.0551416666667","6500200","三重區"
"241033","AAC-255","2019/07/26 20:29:43","新北市三重區五谷王北街181-2號","121.47649","25.0537883333333","6500200","三重區"
"235055","183-VK","2019/07/26 20:29:40","新北市八里區中山路三段382號","121.368658333333","25.13577","6500300","中和區"
"247014","KEA-2869","2019/07/26 20:29:47","新北市蘆洲區中山二路55號","121.473686666667","25.082045","6501400","蘆洲區"
"247008","KED-0682","2019/07/26 20:29:48","新北市蘆洲區永安北路二段70-7號","121.483351666667","25.0841616666667","6501400","蘆洲區"
"235050","4979-A6","2019/07/26 20:29:51","新北市中和區景新街160巷7號","121.505295","24.99696","6500300","中和區"
"235069","4980-A6","2019/07/26 20:29:55","新北市中和區中正路440號","121.491083333333","24.9943283333333","6500300","中和區"
"235059","AAC-215","2019/07/26 20:29:41","新北市中和區員山路37-8號","121.482195","24.9900666666667","6500300","中和區"
"247004","893-R6","2019/07/26 20:29:41","新北市蘆洲區長安街222號","121.4582","25.0848633333333","6501400","蘆洲區"
"247024","337-TH","2019/07/26 20:29:42","新北市蘆洲區長興路50巷53號","121.46516","25.0850466666667","6501400","蘆洲區"
"247002","336-TH","2019/07/26 20:29:54","新北市蘆洲區長安街361巷29-1號","121.455966666667","25.0874816666667","6501400","蘆洲區"
"247022","057-VK","2019/07/26 20:29:53","新北市蘆洲區中正路261號","121.46747","25.087305","6501400","蘆洲區"
"247012","056-VK","2019/07/26 20:29:55","新北市蘆洲區復興路247號","121.480516666667","25.089935","6501400","蘆洲區"
"247016","053-VK","2019/07/26 20:29:54","新北市蘆洲區中正路81號","121.470165","25.0835666666667","6501400","蘆洲區"
"247006","002-UY","2019/07/26 20:29:56","新北市蘆洲區光華路169號","121.464878333333","25.0819416666667","6501400","蘆洲區"
"222001","KEA-2212","2019/07/26 20:29:46","新北市深坑區北深路三段327號","121.597358333333","25.005045","6501800","深坑區"
"251001","011-UM","2019/07/26 20:29:45","新北市淡水區新市一路三段2號","121.444891666667","25.18285","6501000","淡水區"
"251008","181-VK","2019/07/26 20:29:51","新北市淡水區中正路二段52號","121.4198","25.1836116666667","6501000","淡水區"
"251010","413-VK","2019/07/26 20:29:47","新北市淡水區沙崙路181巷1號","121.424046666667","25.1843533333333","6501000","淡水區"
"251012","441-VK","2019/07/26 20:29:48","新北市淡水區頂田寮路39號","121.45622","25.2160516666667","6501000","淡水區"
"251005","443-VK","2019/07/26 20:29:48","新北市淡水區下圭柔山90-2號","121.431675","25.2117366666667","6501000","淡水區"
"251006","561-UM","2019/07/26 20:29:39","新北市淡水區商工路367號","121.469976666667","25.1851516666667","6501000","淡水區"
"251002","672-BX","2019/07/26 20:29:49","新北市淡水區中正路27號","121.442528333333","25.169645","6501000","淡水區"
"251003","766-UM","2019/07/26 20:29:42","新北市淡水區新生街108巷1-2號","121.44026","25.1747516666667","6501000","淡水區"
"207004","225-TW","2019/07/26 20:29:46","新北市萬里區北基里忠五街14號","121.684366666667","25.1761333333333","6502800","萬里區"
"252002","178-VK","2019/07/26 20:29:55","新北市三芝區淡金路二段47-2號","121.50372","25.260605","6502100","三芝區"
"247010","KED-0683","2019/07/26 20:29:48","新北市蘆洲區民族路75號","121.479281666667","25.0859283333333","6501400","蘆洲區"
"252001","KED-0821","2019/07/26 20:29:44","新北市三芝區中山路一段36號","121.500783333333","25.2575833333333","6502100","三芝區"
"242039","AAC-296","2019/07/26 20:29:56","新北市新莊區民安路302號","121.428256666667","25.021885","6500500","新莊區"
"242060","986-R7","2019/07/26 20:30:00","新北市新莊區民安東路139巷1號","121.43133","25.0210333333333","6500500","新莊區"
"242002","751-BX","2019/07/26 20:29:40","新北市新莊區明中街43巷29號","121.456958333333","25.038285","6500500","新莊區"
"242029","615-BX","2019/07/26 20:29:49","新北市新莊區昌平街19號","121.454413333333","25.0513816666667","6500500","新莊區"
"242027","613-BX","2019/07/26 20:29:49","新北市新莊區幸福路505號","121.456068333333","25.0492883333333","6500500","新莊區"
"242058","612-BX","2019/07/26 20:29:47","新北市新莊區四維路157號","121.422511666667","25.0218866666667","6500500","新莊區"
"242046","566-BX","2019/07/26 20:29:51","新北市新莊區裕民街83-6號","121.418506666667","25.0236183333333","6500500","新莊區"
"242050","497-BY","2019/07/26 20:29:54","新北市新莊區民安西路189巷13號","121.426656666667","25.0153683333333","6500500","新莊區"
"242056","441-UM","2019/07/26 20:29:42","新北市新莊區瓊泰路142號","121.443208333333","25.0321516666667","6500500","新莊區"
"242005","440-UM","2019/07/26 20:29:47","新北市新莊區頭前路36號","121.467451666667","25.0525383333333","6500500","新莊區"
"242041","415-TV","2019/07/26 20:29:54","新北市新莊區中正路694巷3弄2號","121.418433333333","25.0283133333333","6500500","新莊區"
"242011","413-TV","2019/07/26 20:29:45","新北市新莊區中義街35號","121.450076666667","25.0511266666667","6500500","新莊區"
"242048","400-BY","2019/07/26 20:29:48","新北市新莊區四維路297號","121.421263333333","25.0197283333333","6500500","新莊區"
"242025","362-BY","2019/07/26 20:29:47","新北市新莊區五工三路62巷11號","121.459935","25.0648566666667","6500500","新莊區"
"242023","353-BY","2019/07/26 20:29:54","新北市新莊區化成路1002號","121.465145","25.064725","6500500","新莊區"
"242013","132-UY","2019/07/26 20:29:44","新北市新莊區中平路270巷7弄2號","121.445433333333","25.050405","6500500","新莊區"
"242037","135-UY","2019/07/26 20:29:44","新北市新莊區後港一路46巷2號","121.426048333333","25.026035","6500500","新莊區"
"242054","172-VK","2019/07/26 20:29:51","新北市新莊區西盛街344巷22弄4號","121.427768333333","25.0144033333333","6500500","新莊區"
"242015","173-VK","2019/07/26 20:29:56","新北市新莊區中平路26巷21號","121.445956666667","25.043495","6500500","新莊區"
"242021","175-VK","2019/07/26 20:29:49","新北市新莊區公園路48號","121.449035","25.0393716666667","6500500","新莊區"
"242019","KED-0687","2019/07/26 20:29:49","新北市新莊區銘德街49巷4弄1號","121.457265","25.043","6500500","新莊區"
"242034","348-TH","2019/07/26 20:29:52","新北市新莊區中正路317號","121.447936666667","25.035095","6500500","新莊區"
"242007","349-TH","2019/07/26 20:29:55","新北市新莊區思源路335號","121.459725","25.0497833333333","6500500","新莊區"
"242032","350-TH","2019/07/26 20:29:59","新北市新莊區中正路508巷5弄2號","121.434981666667","25.03393","6500500","新莊區"
"242017","351-TH","2019/07/26 20:29:46","新北市新莊區中港三街11號","121.451075","25.0465033333333","6500500","新莊區"
"221008","489-VK","2019/07/26 20:29:40","新北市汐止區康寧街253號","121.62483","25.0669166666667","6501100","汐止區"
"221036","130-UY","2019/07/26 20:29:46","新北市汐止區仁愛路151巷40號","121.663568333333","25.0656","6501100","汐止區"
"221015","131-UY","2019/07/26 20:29:54","新北市汐止區建成路142巷19弄3號","121.662153333333","25.0738683333333","6501100","汐止區"
"221010","269-BY","2019/07/26 20:29:51","新北市汐止區八連路二段228巷1-1號","121.632615","25.0970733333333","6501100","汐止區"
"221012","278-VK","2019/07/26 20:29:54","新北市汐止區汐平路二段66號","121.698356666667","25.0610716666667","6501100","汐止區"
"221023","279-VK","2019/07/26 20:29:46","新北市汐止區明峰街117號","121.631086666667","25.0710783333333","6501100","汐止區"
"221027","281-BY","2019/07/26 20:29:52","新北市汐止區中正路214號","121.65836","25.0689583333333","6501100","汐止區"
"221033","297-VK","2019/07/26 20:29:46","新北市汐止區林森街73巷15號","121.623895","25.0413683333333","6501100","汐止區"
"221029","298-VK","2019/07/26 20:29:38","新北市汐止區工建路129巷34弄21號","121.640461666667","25.0653333333333","6501100","汐止區"
"221021","299-VK","2019/07/26 20:29:45","新北市汐止區水源路一段288號","121.654171666667","25.0581333333333","6501100","汐止區"
"221031","353-TW","2019/07/26 20:29:57","新北市汐止區中興路150巷13號","121.632895","25.0649866666667","6501100","汐止區"
"221035","622-UM","2019/07/26 20:29:54","新北市汐止區長江街97號","121.658163333333","25.072705","6501100","汐止區"
"221025","623-UM","2019/07/26 20:29:58","新北市汐止區水源路二段88巷1弄1號","121.65633","25.0559183333333","6501100","汐止區"
"221038","646-BX","2019/07/26 20:29:42","新北市汐止區新興路3號","121.656558333333","25.06516","6501100","汐止區"
"221002","707-TV","2019/07/26 20:29:46","新北市汐止區原興路69號","121.632206666667","25.0656666666667","6501100","汐止區"
"221018","753-BX","2019/07/26 20:29:54","新北市汐止區茄苳路212號","121.67068","25.0687733333333","6501100","汐止區"
"220083","286-VK","2019/07/26 20:29:47","新北市板橋區僑中二街102巷24號","121.445193333333","25.00853","6500100","板橋區"
"220081","287-VK","2019/07/26 20:29:40","新北市板橋區龍興街103巷2號","121.4446","25.003625","6500100","板橋區"
"242044","281-VK","2019/07/26 20:29:46","新北市新莊區中正路新建巷55號","121.414688333333","25.021415","6500500","新莊區"
"242009","280-VK","2019/07/26 20:29:40","新北市新莊區昌盛街81巷4弄1號","121.455595","25.05068","6500500","新莊區"
"220055","827-TW","2019/07/26 20:29:43","新北市板橋區南雅南路二段114號","121.453486666667","25.000505","6500100","板橋區"
