"lineid","car","time","location","longitude","latitude","cityid","cityname"
"251004","009-UM","2019/07/26 22:19:24","新北市淡水區民族路33號","121.462315","25.1358316666667","6501000","淡水區"
"251008","181-VK","2019/07/26 22:19:10","新北市淡水區學府路104號","121.44988","25.171775","6501000","淡水區"
"251010","413-VK","2019/07/26 22:19:27","新北市淡水區沙崙路200號","121.424681666667","25.1838783333333","6501000","淡水區"
"251007","442-VK","2019/07/26 22:19:20","新北市淡水區北新路180號","121.449456666667","25.1787116666667","6501000","淡水區"
"251005","443-VK","2019/07/26 22:19:28","新北市淡水區淡金路一段164-1號","121.454355","25.179655","6501000","淡水區"
"251011","650-BX","2019/07/26 22:19:10","新北市淡水區水碓街7號","121.443191666667","25.1771066666667","6501000","淡水區"
