"lineid","car","time","location","longitude","latitude","cityid","cityname"
"232005","291-BY","2019/12/09 08:43:26","新北市坪林區石6號","121.709638333333","24.9084916666667","6502000","坪林區"
"244006","080-UY","2019/12/09 08:43:17","新北市林口區林口路126號","121.388303333333","25.0816316666667","6501700","林口區"
"244001","248-BX","2019/12/09 08:43:20","新北市林口區嘉寶里15鄰43-2號","121.341976666667","25.1082383333333","6501700","林口區"
"244012","KEA-2802","2019/12/09 08:43:14","新北市林口區中山路160巷6號","121.391178333333","25.0793433333333","6501700","林口區"
"244022","483-VK","2019/12/09 08:43:23","新北市林口區興林路221巷9號","121.388878333333","25.0715516666667","6501700","林口區"
"244016","485-VK","2019/12/09 08:43:23","新北市林口區文化二路一段226-1號","121.369443333333","25.0725216666667","6501700","林口區"
"244008","656-BX","2019/12/09 08:43:14","新北市林口區佳林路43號","121.386321666667","25.0815916666667","6501700","林口區"
"244010","701-TV","2019/12/09 08:43:23","新北市林口區中正路74巷5弄2號","121.394608333333","25.078005","6501700","林口區"
"244024","837-TS","2019/12/09 08:43:13","新北市林口區文化北路一段245-1號","121.35795","25.071005","6501700","林口區"
"244020","838-TS","2019/12/09 08:43:25","新北市林口區自強二街1號","121.39746","25.0784933333333","6501700","林口區"
"222004","289-BY","2019/12/09 08:43:26","台北市南港區南深路76號","121.622413333333","25.02062","6501800","深坑區"
"231007","189-VK","2019/12/09 08:43:23","新北市新店區新潭路三段81巷2號","121.505366666667","24.9101766666667","6500600","新店區"
"231008","192-VK","2019/12/09 08:43:29","新北市新店區廣興路2-1號","121.546391666667","24.9118283333333","6500600","新店區"
"223003","205-TH","2019/12/09 08:43:21","新北市石碇區北宜路六段柑腳巷2號","121.659598333333","24.938065","6501900","石碇區"
"223008","406-TH","2019/12/09 08:43:19","新北市石碇區十八重溪13號","121.677828333333","25.011275","6501900","石碇區"
"223001","437-BY","2019/12/09 08:43:18","新北市石碇區北宜路六段柑腳巷2號","121.659628333333","24.9380483333333","6501900","石碇區"
"223004","660-BX","2019/12/09 08:43:28","新北市石碇區崩山14號","121.673785","24.9729633333333","6501900","石碇區"
"223007","661-BX","2019/12/09 08:43:16","新北市石碇區十八重溪67號","121.673658333333","25.01335","6501900","石碇區"
"223005","677-TV","2019/12/09 08:43:13","新北市石碇區崩山33-1號","121.677166666667","24.9654083333333","6501900","石碇區"
"224010","AGQ-8101","2019/12/09 08:43:11","新北市瑞芳區柴寮路115號","121.824016666667","25.0819883333333","6501200","瑞芳區"
"227003","282-VK","2019/12/09 08:43:22","新北市雙溪區外柑里四分子4號","121.839125","25.001365","6502500","雙溪區"
"252006","073-UM","2019/12/09 08:43:18","新北市三芝區錫板里海尾15-8號","121.47644","25.2554116666667","6502100","三芝區"
"252004","249-BX","2019/12/09 08:43:12","新北市三芝區興華里楓子林38號","121.490508333333","25.207905","6502100","三芝區"
"237013","760-BX","2019/12/09 08:43:19","新北市三峽區詩朗24號","121.377523333333","24.8499183333333","6500900","三峽區"
"242059","986-R7","2019/12/09 08:43:15","新北市新莊區新樹路69-25號","121.438575","25.0295383333333","6500500","新莊區"
"242003","751-BX","2019/12/09 08:43:17","新北市新莊區復興路二段198號","121.459435","25.0444116666667","6500500","新莊區"
"242028","615-BX","2019/12/09 08:43:27","新北市新莊區中平路310號","121.444755","25.0521066666667","6500500","新莊區"
"242026","613-BX","2019/12/09 08:43:17","新北市新莊區中平路256-1號","121.444926666667","25.0496433333333","6500500","新莊區"
"242057","612-BX","2019/12/09 08:43:25","新北市新莊區中正路923號","121.410883333333","25.0214483333333","6500500","新莊區"
"242047","566-BX","2019/12/09 08:43:25","新北市新莊區三和路12-21號","121.441858333333","25.03795","6500500","新莊區"
"242052","497-BY","2019/12/09 08:43:19","新北市新莊區西盛街395巷23弄13號","121.428111666667","25.0122083333333","6500500","新莊區"
"242040","442-UM","2019/12/09 08:43:21","新北市新莊區雙鳳路113號","121.41375","25.02806","6500500","新莊區"
"242038","441-UM","2019/12/09 08:43:30","新北市新莊區民安路299巷51號","121.429671666667","25.0237283333333","6500500","新莊區"
"242043","415-TV","2019/12/09 08:43:24","新北市新莊區天泉二街26巷2號","121.414578333333","25.0255016666667","6500500","新莊區"
"242012","413-TV","2019/12/09 08:43:27","新北市新莊區中泰街38巷12號","121.450745","25.0474016666667","6500500","新莊區"
"242049","400-BY","2019/12/09 08:43:10","新北市新莊區民本街29巷2號","121.428293333333","25.0188216666667","6500500","新莊區"
"242024","362-BY","2019/12/09 08:43:14","新北市新莊區五工三路95號","121.458226666667","25.06554","6500500","新莊區"
"242022","353-BY","2019/12/09 08:43:08","新北市新莊區化成路354號","121.465835","25.0492466666667","6500500","新莊區"
"242014","132-UY","2019/12/09 08:43:12","新北市新莊區中平路184巷10弄7號","121.445455","25.0483733333333","6500500","新莊區"
"242055","172-VK","2019/12/09 08:43:13","新北市新莊區豐年街豐2巷2號","121.446753333333","25.030725","6500500","新莊區"
"242016","173-VK","2019/12/09 08:43:18","新北市新莊區中港路397號","121.451943333333","25.046985","6500500","新莊區"
"242030","175-VK","2019/12/09 08:43:23","新北市新莊區新泰路255巷67號","121.44348","25.0394016666667","6500500","新莊區"
"242047","176-VK","2019/12/09 08:43:22","","121.419865","25.0212633333333","6500500","新莊區"
"242020","KED-0687","2019/12/09 08:43:28","新北市新莊區新泰路137號","121.448131666667","25.0363733333333","6500500","新莊區"
"242006","346-TH","2019/12/09 08:43:13","新北市新莊區思源路593巷5弄22號","121.457928333333","25.0594","6500500","新莊區"
"242001","347-TH","2019/12/09 08:43:24","新北市新莊區碧江街98號","121.450461666667","25.0325066666667","6500500","新莊區"
"242035","348-TH","2019/12/09 08:43:17","新北市新莊區民安路207巷4號","121.426525","25.02258","6500500","新莊區"
"242008","349-TH","2019/12/09 08:43:26","新北市新莊區昌平街71巷23號","121.453376666667","25.0535166666667","6500500","新莊區"
"242033","350-TH","2019/12/09 08:43:28","新北市新莊區仁愛街54巷12號","121.445005","25.0370916666667","6500500","新莊區"
"242018","351-TH","2019/12/09 08:43:20","新北市新莊區中華路一段136巷26號","121.453493333333","25.04121","6500500","新莊區"
"244018","KED-0667","2019/12/09 08:43:30","新北市林口區文化一路一段83巷14弄41號","121.371818333333","25.0710583333333","6501700","林口區"
"233003","KEA-2870","2019/12/09 08:43:16","新北市烏來區屯鹿92-1號","121.508856666667","24.8013683333333","6502900","烏來區"
"242045","281-VK","2019/12/09 08:43:21","新北市新莊區福營路312號","121.422303333333","25.0272416666667","6500500","新莊區"
"242010","280-VK","2019/12/09 08:43:26","新北市新莊區中港路531巷2號","121.451491666667","25.0515683333333","6500500","新莊區"
