"lineid","car","time","location","longitude","latitude","cityid","cityname"
"232005","291-BY","2019/12/09 08:59:26","新北市坪林區魚堀14-1號","121.70427","24.9078116666667","6502000","坪林區"
"244006","080-UY","2019/12/09 08:59:17","新北市林口區竹林路265-1號","121.389066666667","25.080595","6501700","林口區"
"244001","248-BX","2019/12/09 08:59:20","新北市林口區嘉寶里15鄰43-2號","121.34187","25.1082283333333","6501700","林口區"
"244012","KEA-2802","2019/12/09 08:59:14","新北市林口區佳林路130號","121.384803333333","25.0781733333333","6501700","林口區"
"244022","483-VK","2019/12/09 08:59:23","新北市林口區東湖路41巷8號","121.38608","25.0737533333333","6501700","林口區"
"244016","485-VK","2019/12/09 08:59:23","新北市林口區公園路40號","121.367206666667","25.0680566666667","6501700","林口區"
"244008","656-BX","2019/12/09 08:59:14","新北市林口區文化二路二段136號","121.380123333333","25.0831733333333","6501700","林口區"
"244010","701-TV","2019/12/09 08:59:23","新北市林口區興林路17巷3弄2號","121.39025","25.0769866666667","6501700","林口區"
"244024","837-TS","2019/12/09 08:59:13","新北市林口區過崙街88號","121.356036666667","25.07431","6501700","林口區"
"244020","838-TS","2019/12/09 08:59:25","新北市林口區工六路46號","121.39901","25.0781683333333","6501700","林口區"
"222004","289-BY","2019/12/09 08:59:26","新北市深坑區風格街51號","121.630165","25.0184816666667","6501800","深坑區"
"231007","189-VK","2019/12/09 08:59:23","新北市新店區新潭路三段211號","121.50535","24.9045583333333","6500600","新店區"
"231008","192-VK","2019/12/09 08:59:07","新北市新店區廣興路60巷35號","121.542561666667","24.9164433333333","6500600","新店區"
"223003","205-TH","2019/12/09 08:59:21","新北市石碇區北宜路六段水底寮巷12號","121.665488333333","24.9424566666667","6501900","石碇區"
"223008","406-TH","2019/12/09 08:59:19","新北市石碇區光明路8號","121.679806666667","25.02712","6501900","石碇區"
"223001","437-BY","2019/12/09 08:59:18","新北市石碇區北宜路六段柑腳巷1-1號","121.661063333333","24.9395083333333","6501900","石碇區"
"223004","660-BX","2019/12/09 08:59:08","新北市石碇區碇坪路二段56號","121.682708333333","24.9700116666667","6501900","石碇區"
"223007","661-BX","2019/12/09 08:59:16","新北市石碇區碇南路二段鹿窟巷2號","121.67334","25.0301233333333","6501900","石碇區"
"223005","677-TV","2019/12/09 08:59:13","新北市石碇區碇坪路二段66號","121.68382","24.9705633333333","6501900","石碇區"
"227003","282-VK","2019/12/09 08:59:22","新北市雙溪區泰平里泰平35號","121.826191666667","24.9708266666667","6502500","雙溪區"
"252006","073-UM","2019/12/09 08:59:18","新北市三芝區樂全街16號","121.486745","25.2586033333333","6502100","三芝區"
"252004","249-BX","2019/12/09 08:59:12","新北市三芝區興華里田心子31號","121.488805","25.2004616666667","6502100","三芝區"
"237013","760-BX","2019/12/09 08:59:19","新北市三峽區詩朗13號","121.371728333333","24.8567833333333","6500900","三峽區"
"242059","986-R7","2019/12/09 08:59:15","新北市新莊區四維路11號","121.424058333333","25.0242183333333","6500500","新莊區"
"242003","751-BX","2019/12/09 08:59:17","新北市新莊區化成路37號","121.465185","25.04452","6500500","新莊區"
"242028","615-BX","2019/12/09 08:59:27","新北市新莊區中原路303號","121.447398333333","25.0543916666667","6500500","新莊區"
"242026","613-BX","2019/12/09 08:59:17","新北市新莊區立信三街73號","121.444065","25.0510766666667","6500500","新莊區"
"242057","612-BX","2019/12/09 08:59:25","新北市新莊區中正路879-5號","121.417728333333","25.0262133333333","6500500","新莊區"
"242047","566-BX","2019/12/09 08:59:25","新北市新莊區三和路12-18號","121.442005","25.03762","6500500","新莊區"
"242052","497-BY","2019/12/09 08:59:10","新北市新莊區西盛街416巷2號","121.42723","25.012235","6500500","新莊區"
"242040","442-UM","2019/12/09 08:59:21","新北市新莊區天祥街90號","121.415348333333","25.0297183333333","6500500","新莊區"
"242038","441-UM","2019/12/09 08:59:30","新北市新莊區民安西路107號","121.426913333333","25.0184533333333","6500500","新莊區"
"242043","415-TV","2019/12/09 08:59:19","新北市新莊區龍安路101號","121.41627","25.0224366666667","6500500","新莊區"
"242012","413-TV","2019/12/09 08:59:27","新北市新莊區幸福路710巷1弄14號","121.449103333333","25.0496416666667","6500500","新莊區"
"242049","400-BY","2019/12/09 08:59:28","新北市新莊區民安西路212巷16弄13號","121.424945","25.0153066666667","6500500","新莊區"
"242024","362-BY","2019/12/09 08:59:14","新北市新莊區五工二路80號","121.459998333333","25.0662766666667","6500500","新莊區"
"242022","353-BY","2019/12/09 08:59:28","新北市新莊區化成路688號","121.465898333333","25.0561883333333","6500500","新莊區"
"242014","132-UY","2019/12/09 08:59:20","新北市新莊區中和街19號","121.448181666667","25.0436483333333","6500500","新莊區"
"242055","172-VK","2019/12/09 08:59:13","新北市新莊區瓊泰路77巷16號","121.442641666667","25.0292583333333","6500500","新莊區"
"242016","173-VK","2019/12/09 08:59:18","新北市新莊區中港二街46號","121.450441666667","25.045965","6500500","新莊區"
"242030","175-VK","2019/12/09 08:59:23","新北市新莊區新泰路213巷38號","121.445618333333","25.0386816666667","6500500","新莊區"
"242047","176-VK","2019/12/09 08:59:22","新北市新莊區富國路150號","121.423131666667","25.0249283333333","6500500","新莊區"
"242020","KED-0687","2019/12/09 08:59:07","新北市新莊區中興街2巷5號","121.449701666667","25.0360766666667","6500500","新莊區"
"242006","346-TH","2019/12/09 08:59:13","新北市新莊區福壽街124巷41弄2號","121.45928","25.0513433333333","6500500","新莊區"
"242001","347-TH","2019/12/09 08:59:18","新北市新莊區中正路145號","121.459431666667","25.038255","6500500","新莊區"
"242035","348-TH","2019/12/09 08:59:20","新北市新莊區建安街41巷5號","121.429193333333","25.0252266666667","6500500","新莊區"
"242008","349-TH","2019/12/09 08:59:26","新北市新莊區昌盛街52號","121.454996666667","25.04992","6500500","新莊區"
"242033","350-TH","2019/12/09 08:59:29","新北市新莊區建中街97號","121.446698333333","25.0360583333333","6500500","新莊區"
"242018","351-TH","2019/12/09 08:59:20","新北市新莊區長青街28號","121.45665","25.04241","6500500","新莊區"
"244018","KED-0667","2019/12/09 08:59:10","新北市林口區文化一路一段122號","121.374756666667","25.0721233333333","6501700","林口區"
"233003","KEA-2870","2019/12/09 08:59:16","新北市烏來區李茂岸8號","121.49595","24.78631","6502900","烏來區"
"242045","281-VK","2019/12/09 08:59:19","新北市新莊區民安路30號","121.422843333333","25.0279383333333","6500500","新莊區"
"242010","280-VK","2019/12/09 08:59:26","新北市新莊區中信街53號","121.449691666667","25.050735","6500500","新莊區"
