"lineid","car","time","location","longitude","latitude","cityid","cityname"
"234046","148-BY","2019/12/09 18:43:14","新北市永和區永元路40巷39號","121.523488333333","25.00066","6500400","永和區"
"234081","298-R6","2019/12/09 18:43:25","新北市永和區林森路81號","121.52394","25.00387","6500400","永和區"
"234038","336-UY","2019/12/09 18:43:21","新北市永和區福和路1號","121.526628333333","25.0101666666667","6500400","永和區"
"234086","338-UY","2019/12/09 18:43:15","新北市中和區安樂路73號","121.512575","24.9940416666667","6500400","永和區"
"234017","745-BX","2019/12/09 18:43:21","新北市永和區環河東路二段92號","121.524391666667","25.0106033333333","6500400","永和區"
"234030","746-BX","2019/12/09 18:43:16","新北市永和區得和路328號","121.523323333333","24.9994833333333","6500400","永和區"
"234054","KEA-2590","2019/12/09 18:43:29","新北市永和區福和路1號","121.526021666667","25.0094883333333","6500400","永和區"
"234007","KED-0605","2019/12/09 18:43:26","新北市永和區文化路123號","121.512148333333","25.0153516666667","6500400","永和區"
"234013","KEA-2591","2019/12/09 18:43:20","新北市永和區保福路二段109巷1弄1號","121.510085","25.0133666666667","6500400","永和區"
"234061","AAD-866","2019/12/09 18:43:22","新北市永和區環河東路二段102號","121.52454","25.0104983333333","6500400","永和區"
"234042","862-TW","2019/12/09 18:43:14","新北市永和區福和路376號","121.514301666667","25.0077366666667","6500400","永和區"
"234050","863-TW","2019/12/09 18:43:19","新北市永和區福和路1號","121.526323333333","25.0098033333333","6500400","永和區"
"234011","9373-KE","2019/12/09 18:43:22","新北市永和區永和路二段231巷5號","121.514745","25.0139733333333","6500400","永和區"
"249005","172-UM","2019/12/09 18:43:25","新北市八里區中華路三段238號","121.390775","25.124905","6502300","八里區"
"249001","173-UM","2019/12/09 18:43:19","新北市八里區龍米路一段470號","121.449985","25.1362066666667","6502300","八里區"
"249004","303-UY","2019/12/09 18:43:13","新北市八里區中山路一段41-1號","121.419476666667","25.15972","6502300","八里區"
"249002","305-UY","2019/12/09 18:43:09","新北市八里區頂寮二街138號","121.449321666667","25.1294366666667","6502300","八里區"
"248014","025-BX","2019/12/09 18:43:25","新北市五股區民義路一段107巷32號","121.43199","25.08488","6501500","五股區"
"248016","026-BX","2019/12/09 18:43:17","新北市五股區凌雲路一段133巷27-3號","121.448643333333","25.10088","6501500","五股區"
"248008","KED-0815","2019/12/09 18:43:23","新北市五股區中興路一段152號","121.46464","25.07385","6501500","五股區"
"248018","KED-0813","2019/12/09 18:43:25","新北市五股區民義路二段122號","121.405168333333","25.1145366666667","6501500","五股區"
"248012","247-BX","2019/12/09 18:43:20","新北市五股區成泰路二段151號","121.439055","25.0857083333333","6501500","五股區"
"248010","272-BY","2019/12/09 18:43:11","新北市五股區水碓九路140號","121.430206666667","25.073085","6501500","五股區"
"248004","677-BX","2019/12/09 18:43:21","新北市五股區民義路二段42號","121.414861666667","25.1006583333333","6501500","五股區"
"248002","678-BX","2019/12/09 18:43:23","新北市五股區西雲路245號","121.449233333333","25.0977983333333","6501500","五股區"
"234023","9380-KE","2019/12/09 18:43:24","新北市永和區福和路10巷17號","121.524151666667","25.009325","6500400","永和區"
"234077","969-R7","2019/12/09 18:43:16","新北市永和區中正路136號","121.514598333333","24.9961483333333","6500400","永和區"
"234067","AAC-212","2019/12/09 18:43:26","新北市永和區永貞路146號","121.51799","25.0044233333333","6500400","永和區"
"234003","AAC-295","2019/12/09 18:43:27","新北市永和區福和路51號","121.523238333333","25.0079883333333","6500400","永和區"
"232011","375-UM","2019/12/09 18:43:26","新北市坪林區坪雙路一段41號","121.711723333333","24.9424483333333","6502000","坪林區"
"244007","080-UY","2019/12/09 18:43:31","新北市林口區太平里19號","121.377776666667","25.11599","6501700","林口區"
"244013","KEA-2802","2019/12/09 18:43:27","新北市林口區麗園一街6巷5-3號","121.375336666667","25.0703483333333","6501700","林口區"
"244023","483-VK","2019/12/09 18:43:13","新北市林口區文化一路二段68號","121.381193333333","25.0779133333333","6501700","林口區"
"244017","485-VK","2019/12/09 18:43:27","新北市林口區文化二路一段20巷35號","121.365278333333","25.0668666666667","6501700","林口區"
"244009","656-BX","2019/12/09 18:43:16","新北市林口區竹林路330巷3號","121.391623333333","25.08317","6501700","林口區"
"244011","701-TV","2019/12/09 18:43:11","新北市林口區仁愛路一段246號","121.395658333333","25.075775","6501700","林口區"
"244025","837-TS","2019/12/09 18:43:22","新北市林口區南勢里53-6號","121.355046666667","25.07489","6501700","林口區"
"244021","838-TS","2019/12/09 18:43:27","新北市林口區工六路38號","121.398701666667","25.0785133333333","6501700","林口區"
"208001","267-VK","2019/12/09 18:43:17","新北市金山區文化三路66巷1號","121.634176666667","25.225615","6502700","金山區"
"243014","KEA-2801","2019/12/09 18:43:26","新北市泰山區犁頭窠3-1號","121.422258333333","25.06054","6501600","泰山區"
"243016","421-VK","2019/12/09 18:43:25","新北市泰山區明志路二段1號","121.430165","25.05383","6501600","泰山區"
"243015","680-BX","2019/12/09 18:43:26","新北市泰山區美寧街57巷37弄2號","121.42916","25.065055","6501600","泰山區"
"222003","436-BY","2019/12/09 18:43:15","新北市深坑區翠谷街17巷40號","121.625265","25.01008","6501800","深坑區"
"222002","659-BX","2019/12/09 18:43:16","新北市深坑區文山路一段69號","121.627011666667","25.0019033333333","6501800","深坑區"
"231043","001-UM","2019/12/09 18:43:24","新北市新店區安一路一段1-1號","121.519706666667","24.9615383333333","6500600","新店區"
"231061","002-UM","2019/12/09 18:43:11","新北市新店區安華路28-1號","121.519575","24.9607483333333","6500600","新店區"
"231055","0291-UT","2019/12/09 18:43:13","新北市新店區華興街9號","121.537916666667","24.9696966666667","6500600","新店區"
"231060","106-UY","2019/12/09 18:43:17","新北市新店區安華路28-1號","121.519646666667","24.9608333333333","6500600","新店區"
"231051","107-UY","2019/12/09 18:43:25","新北市新店區中央路81號","121.532353333333","24.976655","6500600","新店區"
"231049","108-UY","2019/12/09 18:43:11","新北市新店區安康路一段226-2號","121.52343","24.9636066666667","6500600","新店區"
"231065","110-UY","2019/12/09 18:43:19","新北市新店區安豐路68號","121.497771666667","24.953295","6500600","新店區"
"231050","KEA-2219","2019/12/09 18:43:14","新北市新店區安一路一段1-1號","121.519816666667","24.961205","6500600","新店區"
"221031","KEA-2785","2019/12/09 18:43:19","新北市汐止區大同路一段255號","121.635973333333","25.0582283333333","6501100","汐止區"
"231062","256-BX","2019/12/09 18:43:23","新北市新店區安一路一段1-1號","121.519788333333","24.961065","6500600","新店區"
"231054","260-TV","2019/12/09 18:43:26","新北市新店區安一路一段1-1號","121.519245","24.961365","6500600","新店區"
"231042","268-BY","2019/12/09 18:43:27","新北市新店區安康路一段299-1號","121.522265","24.9636316666667","6500600","新店區"
"231064","278-BY","2019/12/09 18:43:14","新北市新店區安一路一段1-1號","121.519645","24.9610883333333","6500600","新店區"
"231045","355-BY","2019/12/09 18:43:29","新北市新店區安華路28-1號","121.51933","24.9609833333333","6500600","新店區"
"231058","3713-VJ","2019/12/09 18:43:15","新北市新店區國校路76-1號","121.538566666667","24.9531","6500600","新店區"
"231056","4715-K9","2019/12/09 18:43:13","新北市新店區大豐路71號","121.539246666667","24.979535","6500600","新店區"
"231067","4772-VM","2019/12/09 18:43:25","新北市新店區安華路28-1號","121.519338333333","24.9606016666667","6500600","新店區"
"231052","513-UM","2019/12/09 18:43:20","新北市新店區永興路34號","121.543593333333","24.9387866666667","6500600","新店區"
"231040","617-UM","2019/12/09 18:43:24","新北市新店區安華路28-1號","121.51941","24.960865","6500600","新店區"
"231041","619-UM","2019/12/09 18:43:23","新北市新店區安華路28-1號","121.51948","24.9608333333333","6500600","新店區"
"231063","641-BX","2019/12/09 18:43:29","新北市新店區安華路1-1號","121.519543333333","24.9604766666667","6500600","新店區"
"231047","KED-0819","2019/12/09 18:43:16","新北市新店區安一路一段1-1號","121.519856666667","24.9610933333333","6500600","新店區"
"231046","719-UM","2019/12/09 18:43:10","新北市新店區直潭二街1號","121.535403333333","24.9431366666667","6500600","新店區"
"231057","720-UM","2019/12/09 18:43:20","新北市新店區新烏路一段87巷9號","121.546353333333","24.9421183333333","6500600","新店區"
"231066","AKT-0513","2019/12/09 18:43:12","新北市新店區安華路1-1號","121.51942","24.9604833333333","6500600","新店區"
"235066","003-UY","2019/12/09 18:43:10","新北市中和區水源路102號","121.506108333333","25.0033866666667","6500300","中和區"
"235064","005-UY","2019/12/09 18:43:30","新北市中和區泰和街38號","121.49929","25.0000116666667","6500300","中和區"
"235063","006-UY","2019/12/09 18:43:16","新北市中和區連城路347巷4弄30號","121.486983333333","24.9956466666667","6500300","中和區"
"235056","096-UM","2019/12/09 18:43:28","新北市中和區員山路506巷2號","121.479378333333","25.0083483333333","6500300","中和區"
"235039","097-UM","2019/12/09 18:43:19","新北市中和區安樂路217巷67弄12號","121.51325","24.9968766666667","6500300","中和區"
"235065","098-UM","2019/12/09 18:43:17","新北市中和區中山路二段2巷81弄11號","121.50071","25.007225","6500300","中和區"
"235040","150-BY","2019/12/09 18:43:10","新北市中和區保健路106巷20弄9號","121.511245","24.9949483333333","6500300","中和區"
"235058","151-BY","2019/12/09 18:43:13","新北市中和區連城路428巷12號","121.479965","24.9953733333333","6500300","中和區"
"235055","183-VK","2019/12/09 18:43:10","新北市中和區民生街85巷1弄2號","121.469048333333","25.004505","6500300","中和區"
"235038","185-VK","2019/12/09 18:43:27","新北市中和區自強路60號","121.520023333333","24.9944683333333","6500300","中和區"
"235067","255-BX","2019/12/09 18:43:24","新北市中和區中正路861巷1號","121.484521666667","25.00325","6500300","中和區"
"235044","293-VK","2019/12/09 18:43:15","新北市中和區復興路280巷28號","121.50174","24.9917383333333","6500300","中和區"
"235072","301-VK","2019/12/09 18:43:11","新北市中和區中山路二段57號","121.504268333333","25.0047666666667","6500300","中和區"
"235043","352-BY","2019/12/09 18:43:13","新北市中和區景平路69號","121.519875","24.991275","6500300","中和區"
"235042","KEA-2878","2019/12/09 18:43:21","新北市中和區秀朗路三段135巷7弄7號","121.525665","24.9919283333333","6500300","中和區"
"235050","4979-A6","2019/12/09 18:43:29","新北市中和區景新街496巷28弄12號","121.512943333333","24.98593","6500300","中和區"
"235069","4980-A6","2019/12/09 18:43:18","新北市中和區南山路7號","121.502128333333","24.99954","6500300","中和區"
"235070","558-UM","2019/12/09 18:43:25","新北市中和區安和路179-1號","121.506036666667","24.9980083333333","6500300","中和區"
"235045","565-BX","2019/12/09 18:43:23","新北市中和區興南路一段17號","121.511391666667","24.9909633333333","6500300","中和區"
"235060","KED-0823","2019/12/09 18:43:17","新北市中和區中山路三段156號","121.473226666667","25.0063083333333","6500300","中和區"
"235054","640-BX","2019/12/09 18:43:30","新北市中和區民享街29-1號","121.474005","25.0042783333333","6500300","中和區"
"235047","732-UM","2019/12/09 18:43:13","新北市中和區興南路二段74巷8號","121.505235","24.9846833333333","6500300","中和區"
"235046","733-UM","2019/12/09 18:43:20","新北市中和區仁愛街36巷55號","121.51144","24.986305","6500300","中和區"
"235062","800-TS","2019/12/09 18:43:30","新北市中和區橋安街1號","121.492713333333","25.0029583333333","6500300","中和區"
"235057","801-TS","2019/12/09 18:43:15","新北市中和區民利街27號","121.480138333333","24.9990183333333","6500300","中和區"
"235041","802-TS","2019/12/09 18:43:25","新北市中和區中安街218號","121.511931666667","24.9989666666667","6500300","中和區"
"235052","805-TS","2019/12/09 18:43:11","新北市中和區興南路三段46號","121.495625","24.9763666666667","6500300","中和區"
"235048","896-TW","2019/12/09 18:43:27","新北市中和區華新街13號","121.507513333333","24.9851166666667","6500300","中和區"
"235053","900-TW","2019/12/09 18:43:27","新北市中和區華福街8號","121.465536666667","24.9967966666667","6500300","中和區"
"235059","911-UM","2019/12/09 18:43:10","新北市中和區錦和路400號","121.491018333333","24.9898266666667","6500300","中和區"
"235051","157-BY","2019/12/09 18:43:12","新北市中和區華新街111號","121.508633333333","24.9813333333333","6500300","中和區"
"235037","AAC-213","2019/12/09 18:43:24","新北市中和區秀朗路三段128巷25弄5號","121.524073333333","24.9938933333333","6500300","中和區"
"220065","072-UY","2019/12/09 18:43:29","新北市板橋區成都街95號","121.463156666667","25.0053616666667","6500100","板橋區"
"220086","073-UY","2019/12/09 18:43:23","新北市板橋區南雅西路二段145巷3號","121.451696666667","25.0114833333333","6500100","板橋區"
"220106","075-UY","2019/12/09 18:43:10","新北市板橋區文化路二段16-2號","121.468856666667","25.0243266666667","6500100","板橋區"
"220069","AAD-861","2019/12/09 18:43:28","新北市板橋區大華街72號","121.459158333333","25.0056966666667","6500100","板橋區"
"226004","312-R5","2019/12/09 18:43:29","新北市平溪區石底里石筍尖3號","121.736348333333","25.025675","6502400","平溪區"
"235049","251-BX","2019/12/09 18:43:24","新北市中和區景安路132巷16號","121.504138333333","24.9942766666667","6500300","中和區"
"228003","097-TW","2019/12/09 18:43:13","新北市貢寮區和美里龍洞街3號","121.91876","25.1121183333333","6502600","貢寮區"
"228002","663-BX","2019/12/09 18:43:23","新北市貢寮區福隆里東興街6-11號","121.950733333333","25.0210816666667","6502600","貢寮區"
"228001","670-TC","2019/12/09 18:43:30","新北市貢寮區仁理村研海街12-1號","121.923823333333","25.0516966666667","6502600","貢寮區"
"224010","AGQ-8101","2019/12/09 18:43:24","新北市瑞芳區基山街8號","121.84541","25.10912","6501200","瑞芳區"
"224006","676-BX","2019/12/09 18:43:26","新北市瑞芳區一坑路50號","121.803546666667","25.1089633333333","6501200","瑞芳區"
"224007","285-BY","2019/12/09 18:43:23","新北市瑞芳區大埔路146-1號","121.761623333333","25.10106","6501200","瑞芳區"
"224009","275-VK","2019/12/09 18:43:10","新北市瑞芳區祈堂路53-1號","121.85959","25.11045","6501200","瑞芳區"
"224008","273-VK","2019/12/09 18:43:12","新北市瑞芳區瑞芳街127號","121.805426666667","25.109805","6501200","瑞芳區"
"224005","271-BY","2019/12/09 18:43:29","新北市瑞芳區瑞濱路20號","121.826068333333","25.1212266666667","6501200","瑞芳區"
"227002","642-TC","2019/12/09 18:43:27","新北市雙溪區魚行里坤溪3-5號","121.87619","25.0209016666667","6502500","雙溪區"
"227001","400-TW","2019/12/09 18:43:11","新北市雙溪區牡丹里下坑11號","121.851013333333","25.056165","6502500","雙溪區"
"253005","032-BX","2019/12/09 18:43:21","新北市石門區中山路28-3號","121.565868333333","25.2899033333333","6502200","石門區"
"253006","295-VK","2019/12/09 18:43:14","新北市石門區八甲1號","121.52152","25.2845116666667","6502200","石門區"
"222001","KEA-2212","2019/12/09 18:43:28","新北市深坑區松柏街43巷1號","121.638741666667","25.011825","6501800","深坑區"
"208002","KEA-2872","2019/12/09 18:43:26","新北市金山區忠孝一路30號","121.638113333333","25.2197366666667","6502700","金山區"
"208003","665-BX","2019/12/09 18:43:25","新北市金山區中山路379號","121.634218333333","25.2247233333333","6502700","金山區"
"251004","009-UM","2019/12/09 18:43:15","新北市淡水區民權路3巷20號","121.46172","25.14289","6501000","淡水區"
"251002","012-UM","2019/12/09 18:43:18","新北市淡水區中正東路77號","121.447541666667","25.1673583333333","6501000","淡水區"
"251015","KEA-2871","2019/12/09 18:43:27","新北市淡水區興福寮66巷81號","121.486241666667","25.161275","6501000","淡水區"
"251016","180-VK","2019/12/09 18:43:27","新北市淡水區下圭柔山72號","121.446023333333","25.2047283333333","6501000","淡水區"
"251008","181-VK","2019/12/09 18:43:12","新北市淡水區北新路一段28號","121.454943333333","25.1809633333333","6501000","淡水區"
"251013","182-VK","2019/12/09 18:43:16","新北市淡水區雲廣坑5號","121.474675","25.2131066666667","6501000","淡水區"
"251010","413-VK","2019/12/09 18:43:18","新北市淡水區沙崙路126號","121.423418333333","25.182895","6501000","淡水區"
"251012","441-VK","2019/12/09 18:43:14","新北市淡水區北新路121號","121.449041666667","25.1786383333333","6501000","淡水區"
"251001","559-UM","2019/12/09 18:43:23","新北市淡水區自強路166號","121.465575","25.1341766666667","6501000","淡水區"
"251006","561-UM","2019/12/09 18:43:22","新北市淡水區崁頂36號","121.438963333333","25.1946633333333","6501000","淡水區"
"251014","577-R6","2019/12/09 18:43:10","新北市淡水區崙頂12-8號","121.49557","25.2171933333333","6501000","淡水區"
"251011","650-BX","2019/12/09 18:43:28","新北市淡水區學府路32巷87號","121.448085","25.1677233333333","6501000","淡水區"
"251003","673-BX","2019/12/09 18:43:13","新北市淡水區北新路69巷26號","121.446655","25.1800916666667","6501000","淡水區"
"207003","681-TV","2019/12/09 18:43:22","新北市萬里區野柳里港東路153號","121.68948","25.20517","6502800","萬里區"
"207004","291-VK","2019/12/09 18:43:26","新北市萬里區萬里里獅頭路23號","121.693528333333","25.17817","6502800","萬里區"
"252003","249-BX","2019/12/09 18:43:18","新北市三芝區後厝里大片頭81-1號","121.458955","25.2446883333333","6502100","三芝區"
"252001","292-VK","2019/12/09 18:43:17","新北市三芝區中正路三段9號","121.502888333333","25.2539816666667","6502100","三芝區"
"237004","KEA-2597","2019/12/09 18:43:09","新北市三峽區插角115號","121.408136666667","24.870395","6500900","三峽區"
"237007","153-BY","2019/12/09 18:43:23","新北市三峽區柑樹路6巷13號","121.362268333333","24.90476","6500900","三峽區"
"237009","210-TH","2019/12/09 18:43:13","新北市三峽區大同路202-1號","121.367641666667","24.9278266666667","6500900","三峽區"
"237013","252-BX","2019/12/09 18:43:24","新北市三峽區大同路48巷17弄8-1號","121.376768333333","24.92907","6500900","三峽區"
"237012","275-BY","2019/12/09 18:43:27","新北市三峽區三樹路340號","121.383966666667","24.9433266666667","6500900","三峽區"
"237008","302-VK","2019/12/09 18:43:16","新北市三峽區白雞33-60號","121.37091","24.9131183333333","6500900","三峽區"
"237014","433-BY","2019/12/09 18:43:13","新北市三峽區復興路480巷52號","121.361855","24.9412766666667","6500900","三峽區"
"237006","5529-G3","2019/12/09 18:43:17","新北市三峽區溪東路371巷4弄2號","121.412151666667","24.929835","6500900","三峽區"
"237011","KEA-2596","2019/12/09 18:43:22","新北市三峽區溪東路436號","121.4156","24.927635","6500900","三峽區"
"237015","649-BX","2019/12/09 18:43:19","新北市三峽區成福路337號","121.432841666667","24.924045","6500900","三峽區"
"237010","706-TV","2019/12/09 18:43:14","新北市三峽區復興路487號","121.361293333333","24.93847","6500900","三峽區"
"237005","AKY-6261","2019/12/09 18:43:23","新北市三峽區民生街104巷3-1號","121.373626666667","24.9359683333333","6500900","三峽區"
"236042","KED-0685","2019/12/09 18:43:22","新北市土城區裕民路55巷1號","121.449003333333","24.98806","6501300","土城區"
"236078","166-UM","2019/12/09 18:43:19","新北市土城區頂埔街26-1號","121.41713","24.9588866666667","6501300","土城區"
"236030","253-BX","2019/12/09 18:43:11","新北市土城區中華路二段126號","121.437768333333","24.973605","6501300","土城區"
"236026","269-VK","2019/12/09 18:43:10","新北市土城區金城路一段66號","121.443091666667","24.971535","6501300","土城區"
"236014","270-VK","2019/12/09 18:43:13","新北市土城區清水路278巷16號","121.462423333333","24.9829316666667","6501300","土城區"
"236039","271-VK","2019/12/09 18:43:10","新北市土城區明德路一段237號","121.462836666667","24.9782516666667","6501300","土城區"
"236069","KEA-2877","2019/12/09 18:43:28","新北市土城區永豐路157巷4號","121.468245","24.98149","6501300","土城區"
"252002","KED-0821","2019/12/09 18:43:26","新北市三芝區民生街5號","121.503666666667","25.2573283333333","6502100","三芝區"
"236020","401-BY","2019/12/09 18:43:19","新北市土城區延吉街253巷1號","121.467548333333","24.984715","6501300","土城區"
"236059","912-UM","2019/12/09 18:43:13","新北市土城區中央路三段85-5號","121.43796","24.968","6501300","土城區"
"236048","913-UM","2019/12/09 18:43:10","新北市土城區立清街1號","121.459931666667","24.984745","6501300","土城區"
"236063","915-UM","2019/12/09 18:43:14","新北市土城區延和路125巷77號","121.469111666667","24.991105","6501300","土城區"
"236055","AAC-216","2019/12/09 18:43:27","新北市土城區裕民路131號","121.451428333333","24.9864916666667","6501300","土城區"
"242060","986-R7","2019/12/09 18:43:25","新北市新莊區民安路143號","121.425251666667","25.02399","6500500","新莊區"
"242058","612-BX","2019/12/09 18:43:11","桃園市龜山區萬壽路一段78號","121.408326666667","25.0189933333333","6500500","新莊區"
"242042","442-UM","2019/12/09 18:43:22","新北市泰山區中山路三段19號","121.420116666667","25.032055","6500500","新莊區"
"242044","415-TV","2019/12/09 18:43:28","新北市新莊區中正路新旺巷45弄2號","121.416501666667","25.022405","6500500","新莊區"
"238023","601-UM","2019/12/09 18:43:25","新北市樹林區三福街114號","121.406443333333","25.0163383333333","6500700","樹林區"
"238024","5061-A6","2019/12/09 18:43:14","新北市樹林區太順街79巷17號","121.417176666667","24.97809","6500700","樹林區"
"238018","KEA-2217","2019/12/09 18:43:16","新北市樹林區樹新路13號","121.426695","24.9938816666667","6500700","樹林區"
"238022","KEA-2213","2019/12/09 18:43:21","新北市樹林區中華路393號","121.41136","24.9804733333333","6500700","樹林區"
"238020","268-VK","2019/12/09 18:43:25","新北市樹林區三俊街252巷26號","121.420916666667","25.0135","6500700","樹林區"
"238026","172-UY","2019/12/09 18:43:11","新北市樹林區育德街78-1號","121.388056666667","24.9680783333333","6500700","樹林區"
"238016","169-UY","2019/12/09 18:43:20","新北市樹林區中山路一段412號","121.417403333333","24.98512","6500700","樹林區"
"239008","527-UM","2019/12/09 18:43:18","新北市鶯歌區朝陽街1號","121.336303333333","24.9766083333333","6500800","鶯歌區"
"239005","526-UM","2019/12/09 18:43:21","新北市鶯歌區鳳吉三街25號","121.327005","24.97367","6500800","鶯歌區"
"239001","417-VK","2019/12/09 18:43:09","新北市鶯歌區國中街199號","121.338175","24.9391116666667","6500800","鶯歌區"
"239003","360-BY","2019/12/09 18:43:26","新北市鶯歌區福安街58號","121.335625","24.96518","6500800","鶯歌區"
"239004","193-VK","2019/12/09 18:43:26","新北市鶯歌區尖山路168巷9號","121.344911666667","24.9484133333333","6500800","鶯歌區"
"221036","130-UY","2019/12/09 18:43:15","新北市汐止區長興街一段53號","121.670436666667","25.07991","6501100","汐止區"
"221015","131-UY","2019/12/09 18:43:31","新北市汐止區鄉長路二段16號","121.668586666667","25.0814166666667","6501100","汐止區"
"244019","KED-0667","2019/12/09 18:43:22","新北市林口區麗園二街42巷25號","121.382451666667","25.066535","6501700","林口區"
"221010","269-BY","2019/12/09 18:43:28","新北市汐止區汐萬路三段247-1號","121.642386666667","25.107405","6501100","汐止區"
"221018","277-VK","2019/12/09 18:43:27","新北市汐止區茄苳路250巷9號","121.671538333333","25.0678683333333","6501100","汐止區"
"221012","278-VK","2019/12/09 18:43:31","新北市汐止區保長路147巷2號","121.676991666667","25.07654","6501100","汐止區"
"221029","298-VK","2019/12/09 18:43:17","新北市汐止區樟樹一路118號","121.642051666667","25.0639066666667","6501100","汐止區"
"221032","567-BX","2019/12/09 18:43:22","台北市南港區福山街44巷15弄31號","121.617878333333","25.045435","6501100","汐止區"
"221035","622-UM","2019/12/09 18:43:28","新北市汐止區汐萬路一段256巷1號","121.651931666667","25.0747633333333","6501100","汐止區"
"221025","623-UM","2019/12/09 18:43:11","新北市汐止區仁愛路121巷1號","121.662918333333","25.0638916666667","6501100","汐止區"
"221038","646-BX","2019/12/09 18:43:21","新北市汐止區汐萬路一段121號","121.654073333333","25.071095","6501100","汐止區"
"221002","707-TV","2019/12/09 18:43:17","新北市汐止區大同路一段221號","121.634056666667","25.057485","6501100","汐止區"
"220079","145-BY","2019/12/09 18:43:24","新北市板橋區南雅西路二段145巷10號","121.451708333333","25.0120183333333","6500100","板橋區"
"220080","200-UY","2019/12/09 18:43:24","新北市板橋區大觀路二段265巷76弄7號","121.442146666667","24.996555","6500100","板橋區"
"220082","610-BX","2019/12/09 18:43:21","新北市板橋區篤行路二段99號","121.431578333333","24.9914633333333","6500100","板橋區"
"220101","245-BX","2019/12/09 18:43:24","新北市板橋區文化路二段26號","121.468933333333","25.0244916666667","6500100","板橋區"
"224002","257-TC","2019/12/09 18:43:09","新北市瑞芳區明燈路二段56號","121.809965","25.1075566666667","6501200","瑞芳區"
"220056","276-BY","2019/12/09 18:43:21","新北市板橋區四川路一段159號","121.460025","25.00394","6500100","板橋區"
"220072","277-BY","2019/12/09 18:43:27","新北市板橋區大觀路三段97號","121.432815","24.9945333333333","6500100","板橋區"
"220094","283-UM","2019/12/09 18:43:28","新北市板橋區民生路二段120號","121.47057","25.0194483333333","6500100","板橋區"
"220071","283-VK","2019/12/09 18:43:15","新北市板橋區四川路一段467號","121.457298333333","24.9976233333333","6500100","板橋區"
"220083","286-VK","2019/12/09 18:43:15","新北市板橋區大觀路二段20號","121.446716666667","25.00338","6500100","板橋區"
"220081","287-VK","2019/12/09 18:43:28","新北市板橋區館前西路166-1號","121.452425","25.0085733333333","6500100","板橋區"
"220090","288-VK","2019/12/09 18:43:21","新北市板橋區民生路三段111號","121.466576666667","25.0255016666667","6500100","板橋區"
"220061","293-UM","2019/12/09 18:43:10","新北市板橋區民生路二段89-4號","121.471243333333","25.01843","6500100","板橋區"
"220084","296-UM","2019/12/09 18:43:15","新北市板橋區大觀路二段148巷26號","121.441983333333","24.99978","6500100","板橋區"
"220075","303-R5","2019/12/09 18:43:22","新北市板橋區華東街330號","121.452856666667","25.0036916666667","6500100","板橋區"
"220062","305-R5","2019/12/09 18:43:25","新北市板橋區民生路二段120號","121.470473333333","25.0195683333333","6500100","板橋區"
"220098","317-R6","2019/12/09 18:42:52","新北市板橋區民生路二段89-6號","121.47054","25.0193583333333","6500100","板橋區"
"220089","487-VK","2019/12/09 18:43:19","新北市板橋區民生路二段236號","121.468435","25.0231883333333","6500100","板橋區"
"220088","491-VK","2019/12/09 18:43:19","新北市板橋區民生路二段148號","121.471421666667","25.0198133333333","6500100","板橋區"
"220035","560-BX","2019/12/09 18:43:17","新北市板橋區南雅西路二段303號","121.452116666667","25.0156216666667","6500100","板橋區"
"220103","561-BX","2019/12/09 18:43:12","新北市板橋區民生路二段56-6號","121.471288333333","25.0187316666667","6500100","板橋區"
"220063","609-BX","2019/12/09 18:43:26","新北市板橋區民生路一段135號","121.473586666667","25.0150366666667","6500100","板橋區"
"220091","637-BX","2019/12/09 18:43:13","新北市板橋區民生路二段161巷1號","121.470076666667","25.0199183333333","6500100","板橋區"
"220057","686-BX","2019/12/09 18:43:21","新北市板橋區館前東路66號","121.461238333333","25.0072983333333","6500100","板橋區"
"220077","687-BX","2019/12/09 18:43:12","新北市板橋區大觀路二段431-1號","121.44135","24.9950983333333","6500100","板橋區"
"220093","689-BX","2019/12/09 18:43:12","新北市板橋區民生路二段89-6號","121.470741666667","25.01912","6500100","板橋區"
"220054","741-BX","2019/12/09 18:43:15","新北市板橋區縣民大道一段106號","121.456943333333","25.005685","6500100","板橋區"
"220102","KEA-2699","2019/12/09 18:43:22","新北市板橋區民生路二段89-6號","121.470598333333","25.01938","6500100","板橋區"
"220055","827-TW","2019/12/09 18:43:28","新北市板橋區忠孝路101號","121.462483333333","25.0024","6500100","板橋區"
"220067","829-TW","2019/12/09 18:43:15","新北市板橋區民生路一段71號","121.4751","25.0135316666667","6500100","板橋區"
"220068","830-TW","2019/12/09 18:43:29","新北市板橋區萬板路182號","121.475971666667","25.0238016666667","6500100","板橋區"
"220074","895-R6","2019/12/09 18:43:17","新北市板橋區南門街10號","121.457368333333","25.0090216666667","6500100","板橋區"
"220073","985-R7","2019/12/09 18:43:24","新北市板橋區貴興路31號","121.457603333333","25.0039883333333","6500100","板橋區"
"220097","AAC-210","2019/12/09 18:43:19","新北市板橋區民生路三段64號","121.46688","25.0253283333333","6500100","板橋區"
"220064","AAC-253","2019/12/09 18:43:18","新北市板橋區中山路一段272巷18-1號","121.469273333333","25.0136616666667","6500100","板橋區"
"235061","KEA-2875","2019/12/09 18:43:20","新北市中和區民治街132巷5號","121.475011666667","25.00227","6500300","中和區"
"235068","KEA-2876","2019/12/09 18:43:18","新北市中和區中正路211巷13弄1號","121.497113333333","24.992795","6500300","中和區"
