"lineid","car","time","location","longitude","latitude","cityid","cityname"
"234046","148-BY","2019/12/09 19:59:14","新北市永和區成功路一段16巷2號","121.526698333333","25.0054266666667","6500400","永和區"
"234081","298-R6","2019/12/09 19:59:17","新北市永和區永利路81巷15號","121.522183333333","25.003795","6500400","永和區"
"234038","336-UY","2019/12/09 19:59:21","新北市永和區成功路二段163號","121.526671666667","24.99729","6500400","永和區"
"234064","337-UY","2019/12/09 19:59:06","新北市永和區中正路412巷20弄14號","121.518831666667","25.0015433333333","6500400","永和區"
"234086","338-UY","2019/12/09 19:59:15","新北市永和區福和路278號","121.517788333333","25.0074783333333","6500400","永和區"
"234070","552-UM","2019/12/09 19:59:28","新北市永和區國光路14號","121.519121666667","25.0083783333333","6500400","永和區"
"234017","745-BX","2019/12/09 19:59:21","新北市永和區文化路95-1號","121.513161666667","25.0152116666667","6500400","永和區"
"234030","746-BX","2019/12/09 19:59:16","新北市永和區民權路49巷5弄28號","121.521815","24.99787","6500400","永和區"
"234054","KEA-2590","2019/12/09 19:59:29","新北市永和區環河東路一段124號","121.520718333333","25.01546","6500400","永和區"
"234007","KED-0605","2019/12/09 19:59:26","新北市永和區保生路22巷10號","121.507276666667","25.0080733333333","6500400","永和區"
"234013","KEA-2591","2019/12/09 19:59:20","新北市永和區保生路55號","121.504746666667","25.0105533333333","6500400","永和區"
"234061","AAD-866","2019/12/09 19:59:22","新北市永和區得和路49號","121.516653333333","25.0000966666667","6500400","永和區"
"234042","862-TW","2019/12/09 19:59:16","新北市永和區中和路421巷5弄1號","121.508733333333","25.0009533333333","6500400","永和區"
"234050","863-TW","2019/12/09 19:59:19","新北市永和區保安路214號","121.507413333333","25.0136733333333","6500400","永和區"
"234026","9371-KE","2019/12/09 19:59:20","新北市永和區水源街33巷5號","121.510843333333","25.004185","6500400","永和區"
"234011","9373-KE","2019/12/09 19:59:22","新北市永和區仁愛路352巷126號","121.500098333333","25.008605","6500400","永和區"
"249005","172-UM","2019/12/09 19:59:25","新北市八里區楓林路1-6號","121.387071666667","25.13146","6502300","八里區"
"249001","173-UM","2019/12/09 19:59:11","新北市八里區中華路二段312號","121.403738333333","25.1483916666667","6502300","八里區"
"249004","303-UY","2019/12/09 19:59:25","新北市八里區中華路一段333-1號","121.41332","25.1538166666667","6502300","八里區"
"249002","305-UY","2019/12/09 19:59:29","新北市八里區頂寮一街39號","121.45057","25.1237733333333","6502300","八里區"
"249003","593-UM","2019/12/09 19:59:25","新北市八里區中華路二段562號","121.398753333333","25.1449066666667","6502300","八里區"
"248016","026-BX","2019/12/09 19:59:17","新北市五股區成泰路三段577巷80弄7號","121.449493333333","25.104275","6501500","五股區"
"248008","KED-0815","2019/12/09 19:59:03","新北市五股區四維路30巷17號","121.468011666667","25.0715083333333","6501500","五股區"
"248018","KED-0813","2019/12/09 19:59:25","新北市五股區登林路97-1號","121.416835","25.0750733333333","6501500","五股區"
"248012","247-BX","2019/12/09 19:59:25","新北市五股區六合街29號","121.43067","25.088865","6501500","五股區"
"248010","272-BY","2019/12/09 19:59:11","新北市五股區登林路貿商巷3弄15號","121.429663333333","25.0699316666667","6501500","五股區"
"248004","677-BX","2019/12/09 19:59:21","新北市五股區成泰路一段70-1號","121.43558","25.06993","6501500","五股區"
"248002","678-BX","2019/12/09 19:59:23","新北市五股區成泰路三段545號","121.45183","25.101725","6501500","五股區"
"234023","9380-KE","2019/12/09 19:59:24","新北市永和區中正路702巷20弄1號","121.51653","25.0105133333333","6500400","永和區"
"234077","969-R7","2019/12/09 19:59:16","新北市永和區民有街23巷1號","121.516796666667","24.99637","6500400","永和區"
"234074","AAC-211","2019/12/09 19:59:13","新北市永和區豫溪街207巷20號","121.523373333333","25.0102233333333","6500400","永和區"
"234067","AAC-212","2019/12/09 19:59:26","新北市永和區永貞路358號","121.510258333333","25.00665","6500400","永和區"
"234003","AAC-295","2019/12/09 19:59:27","新北市永和區中正路623號","121.515976666667","25.0099116666667","6500400","永和區"
"208001","267-VK","2019/12/09 19:59:17","新北市金山區南勢86號","121.626398333333","25.2202683333333","6502700","金山區"
"243012","AAD-798","2019/12/09 19:59:24","新北市泰山區全興路20號","121.432395","25.0588283333333","6501600","泰山區"
"243014","KEA-2801","2019/12/09 19:59:26","新北市泰山區泰林路二段33-1號","121.435838333333","25.056875","6501600","泰山區"
"243016","421-VK","2019/12/09 19:59:25","新北市泰山區貴陽街3號","121.421121666667","25.0334516666667","6501600","泰山區"
"243009","KEA-2215","2019/12/09 19:59:18","新北市泰山區楓江路16巷30號","121.433955","25.061515","6501600","泰山區"
"243011","KEA-2216","2019/12/09 19:59:12","新北市泰山區工專路65號","121.422116666667","25.0404233333333","6501600","泰山區"
"222003","436-BY","2019/12/09 19:59:15","新北市深坑區埔新街14號","121.620736666667","25.00395","6501800","深坑區"
"222002","659-BX","2019/12/09 19:59:15","新北市深坑區北深路二段81巷8弄6號","121.61824","25.00312","6501800","深坑區"
"231043","001-UM","2019/12/09 19:59:24","新北市新店區中正路263-4號","121.538361666667","24.9739066666667","6500600","新店區"
"231061","002-UM","2019/12/09 19:59:31","新北市新店區安民街254號","121.517678333333","24.9732733333333","6500600","新店區"
"231055","0291-UT","2019/12/09 19:59:28","新北市新店區力行路14巷10號","121.53926","24.9650583333333","6500600","新店區"
"231044","046-UY","2019/12/09 19:59:23","新北市新店區復興路27號","121.538938333333","24.9866983333333","6500600","新店區"
"231060","106-UY","2019/12/09 19:59:17","新北市新店區安康路二段335號","121.498673333333","24.9562233333333","6500600","新店區"
"231051","107-UY","2019/12/09 19:59:25","新北市新店區中央三街58號","121.527161666667","24.9748133333333","6500600","新店區"
"231049","108-UY","2019/12/09 19:59:11","新北市新店區民族路24號","121.540866666667","24.9787633333333","6500600","新店區"
"231065","110-UY","2019/12/09 19:59:19","新北市新店區安祥路108巷3號","121.47516","24.95871","6500600","新店區"
"231068","187-VK","2019/12/09 19:59:15","新北市新店區安一路一段1-1號","121.51977","24.961655","6500600","新店區"
"231050","KEA-2219","2019/12/09 19:59:14","新北市新店區北宜路二段10號","121.547781666667","24.9517","6500600","新店區"
"221031","KEA-2785","2019/12/09 19:59:19","新北市汐止區福德二路55巷1弄1號","121.634438333333","25.0667183333333","6501100","汐止區"
"231062","256-BX","2019/12/09 19:59:23","新北市新店區永業路93號","121.528946666667","24.9488933333333","6500600","新店區"
"231054","260-TV","2019/12/09 19:59:26","新北市新店區光明街204號","121.539778333333","24.9625266666667","6500600","新店區"
"231042","268-BY","2019/12/09 19:59:27","新北市新店區中興路一段292號","121.545865","24.9691516666667","6500600","新店區"
"231064","278-BY","2019/12/09 19:59:14","新北市新店區安光路10-1號","121.513793333333","24.9641166666667","6500600","新店區"
"231045","355-BY","2019/12/09 19:59:29","新北市新店區北宜路二段212號","121.559491666667","24.9544133333333","6500600","新店區"
"231056","4715-K9","2019/12/09 19:59:13","新北市新店區北新路二段59巷5號","121.542285","24.9730316666667","6500600","新店區"
"231067","4772-VM","2019/12/09 19:59:25","新北市新店區秀山路11巷14號","121.531766666667","24.9592316666667","6500600","新店區"
"231052","513-UM","2019/12/09 19:59:20","新北市新店區新烏路三段寶島巷2弄3號","121.551998333333","24.8986383333333","6500600","新店區"
"231040","617-UM","2019/12/09 19:59:24","新北市新店區北新路一段126巷32號","121.543331666667","24.9688033333333","6500600","新店區"
"231041","619-UM","2019/12/09 19:59:27","新北市新店區中正路374號","121.535046666667","24.9763966666667","6500600","新店區"
"231063","641-BX","2019/12/09 19:59:29","新北市新店區車子路11號","121.502931666667","24.9520716666667","6500600","新店區"
"231047","KED-0819","2019/12/09 19:59:16","新北市新店區寶宏路38號","121.549463333333","24.9754766666667","6500600","新店區"
"231057","720-UM","2019/12/09 19:59:20","新北市新店區花園二路一段11號","121.555483333333","24.9324983333333","6500600","新店區"
"231059","897-TW","2019/12/09 19:59:29","新北市新店區安和路二段1號","121.517676666667","24.9667933333333","6500600","新店區"
"231066","AKT-0513","2019/12/09 19:59:12","新北市新店區薏仁坑路23號","121.49771","24.95887","6500600","新店區"
"241011","013-R5","2019/12/09 19:59:30","新北市三重區介壽路41號","121.498645","25.07009","6500200","三重區"
"241028","022-UY","2019/12/09 19:59:14","新北市三重區中正南路83號","121.494291666667","25.0584283333333","6500200","三重區"
"241008","059-VK","2019/12/09 19:59:15","新北市三重區永福街179巷26號","121.478066666667","25.0747966666667","6500200","三重區"
"241031","061-VK","2019/12/09 19:59:26","新北市三重區重新路四段146-1號","121.486918333333","25.05595","6500200","三重區"
"241015","062-VK","2019/12/09 19:59:14","新北市三重區三和路二段35-1號","121.500875","25.067135","6500200","三重區"
"241017","063-VK","2019/12/09 19:59:12","新北市三重區重陽路三段111號","121.490648333333","25.0685616666667","6500200","三重區"
"241024","065-VK","2019/12/09 19:59:25","新北市三重區大勇街32號","121.481775","25.0717716666667","6500200","三重區"
"241007","066-VK","2019/12/09 19:59:14","新北市三重區慈愛街64號","121.487046666667","25.0795066666667","6500200","三重區"
"241002","090-VK","2019/12/09 19:59:14","新北市三重區仁愛街277號","121.49282","25.0786716666667","6500200","三重區"
"241003","091-VK","2019/12/09 19:59:14","新北市三重區五華街128號","121.491728333333","25.08343","6500200","三重區"
"241006","262-UM","2019/12/09 19:59:13","新北市三重區力行路二段33巷6號","121.482323333333","25.07373","6500200","三重區"
"241016","266-UM","2019/12/09 19:59:30","新北市三重區正義北路38號","121.497146666667","25.0634333333333","6500200","三重區"
"241009","267-UM","2019/12/09 19:59:22","新北市三重區三和路四段390巷10號","121.48155","25.0789816666667","6500200","三重區"
"241018","268-UM","2019/12/09 19:59:12","新北市三重區雙園街57巷9號","121.495003333333","25.067915","6500200","三重區"
"241032","269-UM","2019/12/09 19:59:28","新北市三重區朝陽街23號","121.483595","25.0565216666667","6500200","三重區"
"241013","270-UM","2019/12/09 19:59:26","新北市三重區三和路三段139巷2號","121.492523333333","25.0736566666667","6500200","三重區"
"241030","KED-0822","2019/12/09 19:59:21","新北市三重區成功路171號","121.4861","25.0525366666667","6500200","三重區"
"241035","462-BY","2019/12/09 19:59:25","新北市三重區大榮街9號","121.498263333333","25.0631566666667","6500200","三重區"
"241004","475-VK","2019/12/09 19:59:11","新北市三重區五華街74號","121.493375","25.082045","6500200","三重區"
"241026","480-VK","2019/12/09 19:59:17","新北市三重區福德南路20號","121.502818333333","25.0631916666667","6500200","三重區"
"241014","543-UM","2019/12/09 19:59:16","新北市三重區三和路二段156號","121.499461666667","25.068435","6500200","三重區"
"241023","545-UM","2019/12/09 19:59:16","新北市三重區頂崁街168號","121.477593333333","25.0658866666667","6500200","三重區"
"241001","547-UM","2019/12/09 19:59:28","新北市三重區福隆路33號","121.490071666667","25.0772283333333","6500200","三重區"
"241019","KEA-2593","2019/12/09 19:59:11","新北市三重區重陽路四段20號","121.490998333333","25.0691783333333","6500200","三重區"
"241005","AAD-863","2019/12/09 19:59:25","新北市三重區碧華街294巷8號","121.48932","25.083985","6500200","三重區"
"241012","743-BX","2019/12/09 19:59:18","新北市三重區仁厚街18號","121.49941","25.0761916666667","6500200","三重區"
"241025","KED-0670","2019/12/09 19:59:16","新北市三重區頂崁街210巷9號","121.476571666667","25.067765","6500200","三重區"
"241029","942-UM","2019/12/09 19:59:17","新北市三重區重安街1號","121.490118333333","25.0581983333333","6500200","三重區"
"241033","AAC-255","2019/12/09 19:59:26","新北市三重區中興北街40-1號","121.469638333333","25.0490116666667","6500200","三重區"
"235066","003-UY","2019/12/09 19:59:10","新北市中和區光華街17號","121.50462","25.0042183333333","6500300","中和區"
"235039","097-UM","2019/12/09 19:59:19","新北市中和區景平路276-1號","121.5139","24.992595","6500300","中和區"
"235065","098-UM","2019/12/09 19:59:21","新北市中和區福祥路85巷1號","121.498853333333","25.0057833333333","6500300","中和區"
"235040","150-BY","2019/12/09 19:59:10","新北市中和區保健路10巷3弄1號","121.507738333333","24.9976916666667","6500300","中和區"
"235058","151-BY","2019/12/09 19:59:13","新北市中和區員山路112號","121.48108","24.9956566666667","6500300","中和區"
"235055","183-VK","2019/12/09 19:59:10","新北市中和區中山路三段2號","121.479786666667","25.0060083333333","6500300","中和區"
"235044","293-VK","2019/12/09 19:59:15","新北市中和區景安路206號","121.504021666667","24.9908466666667","6500300","中和區"
"247016","KEA-2869","2019/12/09 19:59:20","新北市蘆洲區中正路96號","121.470085","25.0840366666667","6501400","蘆洲區"
"235050","4979-A6","2019/12/09 19:59:29","新北市中和區景平路241巷53號","121.508145","24.9922866666667","6500300","中和區"
"235069","4980-A6","2019/12/09 19:59:18","新北市中和區景新街22號","121.503005","24.9992066666667","6500300","中和區"
"235046","733-UM","2019/12/09 19:59:20","新北市中和區興南路一段105巷20弄4號","121.510261666667","24.9858083333333","6500300","中和區"
"235041","802-TS","2019/12/09 19:59:25","新北市中和區中正路366號","121.493311666667","24.9940216666667","6500300","中和區"
"235052","805-TS","2019/12/09 19:59:11","新北市中和區華新街93號","121.508588333333","24.9831116666667","6500300","中和區"
"235048","896-TW","2019/12/09 19:59:27","新北市中和區景新街566-1號","121.51453","24.9865966666667","6500300","中和區"
"235059","911-UM","2019/12/09 19:59:10","新北市中和區圓通路305巷5弄14號","121.494113333333","24.9902816666667","6500300","中和區"
"235051","157-BY","2019/12/09 19:59:12","新北市中和區復興路299號","121.501553333333","24.9902016666667","6500300","中和區"
"235037","AAC-213","2019/12/09 19:59:24","新北市中和區自強路52號","121.52011","24.99482","6500300","中和區"
"220065","072-UY","2019/12/09 19:59:17","新北市板橋區國泰街39巷7弄1號","121.468661666667","25.00568","6500100","板橋區"
"220086","073-UY","2019/12/09 19:59:22","新北市板橋區林園街1號","121.453883333333","25.0091633333333","6500100","板橋區"
"220106","075-UY","2019/12/09 19:59:26","新北市板橋區懷德街70號","121.47747","25.0321766666667","6500100","板橋區"
"220069","AAD-861","2019/12/09 19:59:14","新北市板橋區貴興路49-1號","121.457371666667","25.0031883333333","6500100","板橋區"
"247006","893-R6","2019/12/09 19:59:10","新北市蘆洲區九芎街115號","121.465475","25.0794616666667","6501400","蘆洲區"
"247020","546-UM","2019/12/09 19:59:19","新北市蘆洲區民義街66號","121.47289","25.08979","6501400","蘆洲區"
"247004","336-TH","2019/12/09 19:59:12","新北市蘆洲區永康街49號","121.456818333333","25.08525","6501400","蘆洲區"
"247024","057-VK","2019/12/09 19:59:21","新北市蘆洲區光復路57號","121.463511666667","25.085035","6501400","蘆洲區"
"247014","056-VK","2019/12/09 19:59:18","新北市蘆洲區成功路118號","121.47226","25.0824633333333","6501400","蘆洲區"
"247018","053-VK","2019/12/09 19:59:24","新北市蘆洲區民族路298巷12號","121.478541666667","25.0901283333333","6501400","蘆洲區"
"247022","007-UY","2019/12/09 19:59:16","新北市蘆洲區中正路176號","121.467406666667","25.087825","6501400","蘆洲區"
"247008","002-UY","2019/12/09 19:59:25","新北市蘆洲區信義路113巷1弄11號","121.477945","25.080345","6501400","蘆洲區"
"247002","001-UY","2019/12/09 19:59:21","新北市蘆洲區長安街274巷4號","121.4577","25.087015","6501400","蘆洲區"
"226004","312-R5","2019/12/09 19:59:29","新北市平溪區南山里南山坪15號","121.768975","25.0340433333333","6502400","平溪區"
"235049","251-BX","2019/12/09 19:59:31","新北市中和區景新街287號","121.509716666667","24.9933483333333","6500300","中和區"
"228003","097-TW","2019/12/09 19:59:13","新北市貢寮區仁理村仁和路37號","121.92402","25.05392","6502600","貢寮區"
"228001","670-TC","2019/12/09 19:59:10","新北市貢寮區仁理村仁和路94號","121.922816666667","25.0505116666667","6502600","貢寮區"
"227002","642-TC","2019/12/09 19:59:27","新北市雙溪區雙溪里長安街16號","121.865005","25.0346766666667","6502500","雙溪區"
"227001","400-TW","2019/12/09 19:59:11","新北市雙溪區新基里新基南街25號","121.866253333333","25.0381433333333","6502500","雙溪區"
"222001","KEA-2212","2019/12/09 19:59:20","新北市深坑區北深路三段170號","121.60227","25.0034766666667","6501800","深坑區"
"208002","KEA-2872","2019/12/09 19:59:13","新北市金山區環金路462號","121.630131666667","25.2247866666667","6502700","金山區"
"208003","665-BX","2019/12/09 19:59:19","新北市金山區永興里濆水路2號","121.624781666667","25.2703583333333","6502700","金山區"
"251009","008-UM","2019/12/09 19:59:28","新北市淡水區英專路21巷17號","121.444918333333","25.1696666666667","6501000","淡水區"
"251004","009-UM","2019/12/09 19:59:15","新北市淡水區民權路177巷11號","121.460818333333","25.1351833333333","6501000","淡水區"
"251005","010-UM","2019/12/09 19:59:23","新北市淡水區學府路136巷34號","121.451885","25.1725533333333","6501000","淡水區"
"251002","012-UM","2019/12/09 19:59:15","新北市淡水區新市二路三段16號","121.431786666667","25.1941666666667","6501000","淡水區"
"251015","KEA-2871","2019/12/09 19:59:27","新北市淡水區大埤頭1-3號","121.492406666667","25.1952866666667","6501000","淡水區"
"251016","180-VK","2019/12/09 19:59:27","新北市淡水區淡金路四段660號","121.452621666667","25.2319633333333","6501000","淡水區"
"251008","181-VK","2019/12/09 19:59:11","新北市淡水區淡海路63巷18號","121.422511666667","25.1805983333333","6501000","淡水區"
"251013","182-VK","2019/12/09 19:59:22","新北市淡水區下圭柔山63-7號","121.451871666667","25.20615","6501000","淡水區"
"251012","441-VK","2019/12/09 19:59:14","新北市淡水區下圭柔山93-3號","121.435996666667","25.2090916666667","6501000","淡水區"
"251001","559-UM","2019/12/09 19:59:23","新北市淡水區淡金路一段567號","121.453148333333","25.1807116666667","6501000","淡水區"
"251006","561-UM","2019/12/09 19:59:22","新北市淡水區水碓街12號","121.443695","25.177125","6501000","淡水區"
"251014","577-R6","2019/12/09 19:59:30","新北市淡水區石頭厝2-1號","121.458145","25.23572","6501000","淡水區"
"251011","650-BX","2019/12/09 19:59:24","新北市淡水區淡金路二段270-1號","121.447003333333","25.18849","6501000","淡水區"
"207003","681-TV","2019/12/09 19:59:22","新北市萬里區大鵬里萬里加投51-1號","121.642033333333","25.2116683333333","6502800","萬里區"
"207004","291-VK","2019/12/09 19:59:26","新北市萬里區北基里忠二街35號","121.685676666667","25.1757666666667","6502800","萬里區"
"252001","292-VK","2019/12/09 19:59:17","新北市三芝區公正街66號","121.499763333333","25.257465","6502100","三芝區"
"237004","KEA-2597","2019/12/09 19:59:29","新北市三峽區添福2號","121.371958333333","24.9060116666667","6500900","三峽區"
"237007","153-BY","2019/12/09 19:59:23","新北市三峽區麻園36-10號","121.363678333333","24.9199333333333","6500900","三峽區"
"237009","210-TH","2019/12/09 19:59:13","新北市三峽區民族街78巷15號","121.368773333333","24.9295983333333","6500900","三峽區"
"237013","252-BX","2019/12/09 19:59:24","新北市三峽區溪北街41號","121.396966666667","24.936055","6500900","三峽區"
"237012","275-BY","2019/12/09 19:59:27","新北市三峽區光明路20號","121.373423333333","24.9309266666667","6500900","三峽區"
"237008","302-VK","2019/12/09 19:59:17","新北市三峽區中正路一段174巷4弄6號","121.37253","24.92889","6500900","三峽區"
"237014","433-BY","2019/12/09 19:59:13","新北市三峽區添福14-49號","121.37366","24.9003083333333","6500900","三峽區"
"237006","5529-G3","2019/12/09 19:59:17","新北市三峽區中正路二段168號","121.366001666667","24.9155566666667","6500900","三峽區"
"237015","649-BX","2019/12/09 19:59:19","新北市三峽區介壽路二段138巷1弄13-1號","121.396263333333","24.9339133333333","6500900","三峽區"
"237005","AKY-6261","2019/12/09 19:59:23","新北市三峽區民生街1巷20號","121.379426666667","24.934665","6500900","三峽區"
"236042","KED-0685","2019/12/09 19:59:22","新北市土城區學府路一段113號","121.455633333333","24.987565","6501300","土城區"
"236078","166-UM","2019/12/09 19:59:20","新北市土城區福安街55巷19號","121.419156666667","24.96363","6501300","土城區"
"236030","253-BX","2019/12/09 19:59:11","新北市土城區中央路一段250巷7號","121.443855","24.9847266666667","6501300","土城區"
"236026","269-VK","2019/12/09 19:59:30","新北市土城區中央路二段89號","121.442391666667","24.978085","6501300","土城區"
"236014","270-VK","2019/12/09 19:59:29","新北市土城區廣福街123號","121.456265","24.9929166666667","6501300","土城區"
"236039","271-VK","2019/12/09 19:59:31","新北市土城區國際路93號","121.467438333333","24.975695","6501300","土城區"
"236069","KEA-2877","2019/12/09 19:59:28","新北市土城區忠義路75號","121.442635","24.965535","6501300","土城區"
"252002","KED-0821","2019/12/09 19:59:26","新北市三芝區三民街39巷36號","121.505441666667","25.2575316666667","6502100","三芝區"
"236020","401-BY","2019/12/09 19:59:20","新北市土城區延吉街52號","121.47167","24.9869483333333","6501300","土城區"
"236059","912-UM","2019/12/09 19:59:11","新北市土城區中央路二段7號","121.442945","24.9806966666667","6501300","土城區"
"236048","913-UM","2019/12/09 19:59:20","新北市土城區金城路三段262號","121.474336666667","24.99076","6501300","土城區"
"236063","915-UM","2019/12/09 19:59:10","新北市土城區金城路三段73巷4弄32號","121.466283333333","24.9883683333333","6501300","土城區"
"236055","AAC-216","2019/12/09 19:59:24","新北市土城區青雲路35號","121.460026666667","24.9883733333333","6501300","土城區"
"242060","986-R7","2019/12/09 19:59:29","新北市新莊區瓊林路100巷1號","121.443631666667","25.026545","6500500","新莊區"
"242004","751-BX","2019/12/09 19:59:16","新北市新莊區化成路69號","121.465586666667","25.0459916666667","6500500","新莊區"
"242029","615-BX","2019/12/09 19:59:17","新北市新莊區中平路363號","121.444573333333","25.051935","6500500","新莊區"
"242027","613-BX","2019/12/09 19:59:30","新北市新莊區立信五街1號","121.44445","25.0514483333333","6500500","新莊區"
"242048","566-BX","2019/12/09 19:59:12","新北市新莊區民安路207巷17號","121.426845","25.0230933333333","6500500","新莊區"
"242053","497-BY","2019/12/09 19:59:32","新北市新莊區西盛街418號","121.427178333333","25.0121733333333","6500500","新莊區"
"242042","442-UM","2019/12/09 19:59:17","新北市新莊區青山路一段8號","121.411725","25.02751","6500500","新莊區"
"242039","441-UM","2019/12/09 19:59:27","新北市新莊區民安路287-2號","121.428931666667","25.02294","6500500","新莊區"
"242044","415-TV","2019/12/09 19:59:27","新北市新莊區新北大道七段712號","121.412391666667","25.0264883333333","6500500","新莊區"
"242013","413-TV","2019/12/09 19:59:13","新北市新莊區中港路435號","121.452376666667","25.0478883333333","6500500","新莊區"
"242050","400-BY","2019/12/09 19:59:13","新北市新莊區民本街25巷2號","121.428281666667","25.01942","6500500","新莊區"
"242025","362-BY","2019/12/09 19:59:29","新北市新莊區五工二路86巷12-1號","121.460068333333","25.0667816666667","6500500","新莊區"
"242023","353-BY","2019/12/09 19:59:15","新北市新莊區化成路354號","121.465838333333","25.049225","6500500","新莊區"
"242015","KEE-1025","2019/12/09 19:59:25","新北市新莊區泰順街39巷1號","121.446723333333","25.0427583333333","6500500","新莊區"
"242056","172-VK","2019/12/09 19:59:18","新北市新莊區中正路347巷17-1號","121.447463333333","25.034445","6500500","新莊區"
"242017","173-VK","2019/12/09 19:59:26","新北市新莊區中安街1號","121.452846666667","25.04526","6500500","新莊區"
"242031","175-VK","2019/12/09 19:59:22","新北市新莊區公園一路18號","121.443516666667","25.03494","6500500","新莊區"
"242021","KED-0687","2019/12/09 19:59:23","新北市新莊區建中街16巷12號","121.449523333333","25.0381933333333","6500500","新莊區"
"242007","346-TH","2019/12/09 19:59:21","新北市新莊區思源路587號","121.459673333333","25.0594733333333","6500500","新莊區"
"242002","347-TH","2019/12/09 19:59:14","新北市新莊區新泰路103號","121.448985","25.0349866666667","6500500","新莊區"
"242036","348-TH","2019/12/09 19:59:15","新北市新莊區建安街41巷4號","121.429","25.0254066666667","6500500","新莊區"
"242034","350-TH","2019/12/09 19:59:18","新北市新莊區建中街107號","121.446328333333","25.0364966666667","6500500","新莊區"
"242019","351-TH","2019/12/09 19:59:23","新北市新莊區明智街21巷1號","121.4541","25.0413266666667","6500500","新莊區"
"238021","KEA-2539","2019/12/09 19:59:17","新北市樹林區柑園街一段373號","121.388473333333","24.95588","6500700","樹林區"
"238017","283-BY","2019/12/09 19:59:15","新北市樹林區保安街二段117巷1號","121.415225","25.0011216666667","6500700","樹林區"
"239006","891-R6","2019/12/09 19:59:26","新北市鶯歌區文化路181號","121.355528333333","24.95416","6500800","鶯歌區"
"239002","359-BY","2019/12/09 19:59:24","新北市鶯歌區大湖路394號","121.344658333333","24.97353","6500800","鶯歌區"
"239004","193-VK","2019/12/09 19:59:26","新北市鶯歌區二甲路55-25號","121.338183333333","24.9299433333333","6500800","鶯歌區"
"221008","489-VK","2019/12/09 19:59:31","新北市汐止區康寧街141巷3號","121.621285","25.06708","6501100","汐止區"
"221015","131-UY","2019/12/09 19:59:15","新北市汐止區橋東街11號","121.666475","25.07598","6501100","汐止區"
"221010","269-BY","2019/12/09 19:59:28","新北市汐止區汐萬路一段333巷2號","121.649921666667","25.0762783333333","6501100","汐止區"
"221012","278-VK","2019/12/09 19:59:18","新北市汐止區保長路271巷2號","121.680913333333","25.074215","6501100","汐止區"
"221023","279-VK","2019/12/09 19:59:24","新北市汐止區民族三街42號","121.629626666667","25.0700616666667","6501100","汐止區"
"221027","281-BY","2019/12/09 19:59:27","新北市汐止區中正路90號","121.661345","25.0695166666667","6501100","汐止區"
"221029","298-VK","2019/12/09 19:59:17","新北市汐止區樟樹一路137巷26號","121.641016666667","25.066055","6501100","汐止區"
"221021","299-VK","2019/12/09 19:59:12","新北市汐止區水源路一段165號","121.655475","25.0618933333333","6501100","汐止區"
"221025","623-UM","2019/12/09 19:59:30","新北市汐止區仁愛路77巷2弄22號","121.661705","25.06364","6501100","汐止區"
"221038","646-BX","2019/12/09 19:59:23","新北市汐止區忠孝東路491號","121.666285","25.0741883333333","6501100","汐止區"
"221033","647-BX","2019/12/09 19:59:19","新北市汐止區東勢街190巷3號","121.633871666667","25.0416233333333","6501100","汐止區"
"220079","145-BY","2019/12/09 19:59:24","新北市板橋區公館街110號","121.460896666667","25.0167766666667","6500100","板橋區"
"220080","200-UY","2019/12/09 19:59:19","新北市板橋區大觀路二段163巷19號","121.44641","25.0001316666667","6500100","板橋區"
"220082","610-BX","2019/12/09 19:59:22","新北市板橋區溪崑一街56號","121.42957","24.9901883333333","6500100","板橋區"
"220101","245-BX","2019/12/09 19:59:24","新北市板橋區莒光路165巷38號","121.474403333333","25.024955","6500100","板橋區"
"224002","257-TC","2019/12/09 19:59:29","新北市瑞芳區員山子路3-1號","121.819005","25.1046566666667","6501200","瑞芳區"
"220056","276-BY","2019/12/09 19:59:21","新北市板橋區四川路二段99巷2弄2-3號","121.452731666667","24.9944483333333","6500100","板橋區"
"220072","277-BY","2019/12/09 19:59:17","新北市板橋區篤行路二段77巷9弄1號","121.432296666667","24.991815","6500100","板橋區"
"220094","283-UM","2019/12/09 19:59:28","新北市板橋區文化路一段160號","121.465528333333","25.019205","6500100","板橋區"
"220071","283-VK","2019/12/09 19:59:21","新北市板橋區五權街32巷32號","121.463716666667","24.99266","6500100","板橋區"
"220053","285-VK","2019/12/09 19:59:23","新北市板橋區懷仁街58號","121.476911666667","25.0188283333333","6500100","板橋區"
"220083","286-VK","2019/12/09 19:59:15","新北市板橋區僑中二街10巷29號","121.445685","25.0110333333333","6500100","板橋區"
"220081","287-VK","2019/12/09 19:59:28","新北市板橋區大觀路一段28巷101號","121.450051666667","25.01192","6500100","板橋區"
"220090","288-VK","2019/12/09 19:59:21","新北市板橋區新海路72巷5弄41號","121.461258333333","25.02338","6500100","板橋區"
"220061","293-UM","2019/12/09 19:59:29","新北市板橋區民生路二段17號","121.472555","25.01622","6500100","板橋區"
"220084","296-UM","2019/12/09 19:59:15","新北市板橋區溪崑二街112巷26號","121.425848333333","24.9891583333333","6500100","板橋區"
"220092","299-UM","2019/12/09 19:59:13","新北市板橋區文化路一段45巷3號","121.460088333333","25.0137116666667","6500100","板橋區"
"220075","303-R5","2019/12/09 19:59:02","新北市板橋區金華街10巷50號","121.456996666667","25.02004","6500100","板橋區"
"220062","305-R5","2019/12/09 19:59:25","新北市板橋區光復街136號","121.484191666667","25.0191233333333","6500100","板橋區"
"220098","317-R6","2019/12/09 19:59:24","新北市板橋區四維路269巷87號","121.459865","25.0266783333333","6500100","板橋區"
"220089","487-VK","2019/12/09 19:59:18","新北市板橋區四維路325號","121.462706666667","25.029285","6500100","板橋區"
"242011","280-VK","2019/12/09 19:59:18","新北市新莊區中港路531巷19號","121.450691666667","25.0515133333333","6500500","新莊區"
"220088","491-VK","2019/12/09 19:59:19","新北市板橋區民治街84號","121.479418333333","25.032115","6500100","板橋區"
"220035","560-BX","2019/12/09 19:59:17","新北市板橋區金華街87-3號","121.458096666667","25.0207266666667","6500100","板橋區"
"220103","561-BX","2019/12/09 19:59:12","新北市板橋區漢生西路7號","121.463875","25.0179783333333","6500100","板橋區"
"220063","609-BX","2019/12/09 19:59:15","新北市板橋區中山路二段113-1號","121.474616666667","25.0163133333333","6500100","板橋區"
"220091","637-BX","2019/12/09 19:59:26","新北市板橋區文聖街89巷13號","121.478018333333","25.0302366666667","6500100","板橋區"
"220077","687-BX","2019/12/09 19:59:12","新北市板橋區僑中一街104號","121.446585","25.011705","6500100","板橋區"
"220093","689-BX","2019/12/09 19:59:13","新北市板橋區長江路一段160號","121.461313333333","25.0303216666667","6500100","板橋區"
"220054","741-BX","2019/12/09 19:59:15","新北市板橋區忠孝路忠義巷15弄25號","121.465608333333","25.0042533333333","6500100","板橋區"
"220102","KEA-2699","2019/12/09 19:59:22","新北市板橋區莒光路15巷18號","121.470363333333","25.025535","6500100","板橋區"
"220055","827-TW","2019/12/09 19:59:08","新北市板橋區國慶路149巷35號","121.460893333333","24.997995","6500100","板橋區"
"220067","829-TW","2019/12/09 19:59:15","新北市板橋區漢生東路161巷3號","121.46962","25.01266","6500100","板橋區"
"220068","830-TW","2019/12/09 19:59:29","新北市板橋區中山路二段390號","121.482416666667","25.02061","6500100","板橋區"
"220074","895-R6","2019/12/09 19:59:17","新北市板橋區民權路67號","121.46162","25.011595","6500100","板橋區"
"220073","985-R7","2019/12/09 19:59:24","新北市板橋區南雅西路二段281號","121.451968333333","25.01527","6500100","板橋區"
"220097","AAC-210","2019/12/09 19:59:19","新北市板橋區復興街135號","121.461088333333","25.018025","6500100","板橋區"
"220064","AAC-253","2019/12/09 19:59:18","新北市板橋區漢生東路193巷23-4號","121.470988333333","25.0121366666667","6500100","板橋區"
"235068","KEA-2876","2019/12/09 19:59:18","新北市中和區景平路736巷5弄11號","121.49774","25.0035916666667","6500300","中和區"
