"lineid","car","time","location","longitude","latitude","cityid","cityname"
"231007","189-VK","2019/10/08 10:29:15","新北市新店區新潭路一段37號","121.52354","24.9418633333333","6500600","新店區"
"231009","192-VK","2019/10/08 10:29:16","新北市新店區松林路81號","121.546203333333","24.90459","6500600","新店區"
"227004","282-VK","2019/10/08 10:29:17","新北市雙溪區牡丹里頂坪5-1號","121.863068333333","25.0386633333333","6502500","雙溪區"
"237014","760-BX","2019/10/08 10:29:24","新北市三峽區中山路459巷66號","121.355495","24.9364083333333","6500900","三峽區"
"220003","827-TW","2019/10/08 10:29:26","新北市樹林區八德街822號","121.394556666667","24.9687166666667","6500100","板橋區"
