"lineid","car","time","location","longitude","latitude","cityid","cityname"
"234044","148-BY","2019/10/08 13:49:11","新北市永和區永利路163號","121.524956666667","25.0035083333333","6500400","永和區"
"234078","298-R6","2019/10/08 13:49:16","新北市永和區永亨路98號","121.522956666667","25.00465","6500400","永和區"
"234036","336-UY","2019/10/08 13:49:16","新北市永和區成功路二段131號","121.526806666667","24.998205","6500400","永和區"
"234062","337-UY","2019/10/08 13:49:21","新北市永和區中正路368巷8號","121.518091666667","25.0007033333333","6500400","永和區"
"234084","338-UY","2019/10/08 13:49:11","新北市永和區中正路562號","121.51741","25.0060016666667","6500400","永和區"
"234068","552-UM","2019/10/08 13:49:25","新北市永和區竹林路81號","121.519486666667","25.0125383333333","6500400","永和區"
"234015","745-BX","2019/10/08 13:49:19","新北市永和區文化路69號","121.513931666667","25.0149733333333","6500400","永和區"
"234028","746-BX","2019/10/08 13:49:21","新北市永和區四維街75號","121.525163333333","24.9979383333333","6500400","永和區"
"234052","KEA-2590","2019/10/08 13:49:14","新北市永和區竹林路75巷25弄7號","121.520071666667","25.014505","6500400","永和區"
"234005","KED-0605","2019/10/08 13:49:18","新北市永和區永和路一段36號","121.513135","25.0051016666667","6500400","永和區"
"234012","KEA-2591","2019/10/08 13:49:21","新北市永和區保生路55號","121.50476","25.0105683333333","6500400","永和區"
"234060","AAD-866","2019/10/08 13:49:25","新北市永和區中正路281號","121.517571666667","25.0011483333333","6500400","永和區"
"234040","862-TW","2019/10/08 13:49:14","新北市永和區中和路389巷2-1號","121.508396666667","25.0003816666667","6500400","永和區"
"234048","863-TW","2019/10/08 13:49:27","新北市永和區保安路144號","121.508556666667","25.0150166666667","6500400","永和區"
"234025","9371-KE","2019/10/08 13:49:17","新北市永和區自由街58號","121.513906666667","25.0059616666667","6500400","永和區"
"234010","9373-KE","2019/10/08 13:49:20","新北市永和區仁愛路352巷92弄2號","121.501193333333","25.0078666666667","6500400","永和區"
"248017","KED-0813","2019/10/08 13:49:13","新北市五股區民義路一段301號","121.421593333333","25.0959716666667","6501500","五股區"
"234022","9380-KE","2019/10/08 13:49:20","新北市永和區永和路二段28號","121.514603333333","25.0103366666667","6500400","永和區"
"234076","969-R7","2019/10/08 13:49:22","新北市永和區民族街40號","121.518486666667","24.9989866666667","6500400","永和區"
"234072","AAC-211","2019/10/08 13:49:26","新北市永和區豫溪街207巷5號","121.523506666667","25.0099566666667","6500400","永和區"
"234066","AAC-212","2019/10/08 13:49:20","新北市永和區永貞路416號","121.508933333333","25.0081","6500400","永和區"
"234001","AAC-295","2019/10/08 13:49:13","新北市永和區永和路一段85號","121.51324","25.00736","6500400","永和區"
"244002","248-BX","2019/10/08 13:49:21","新北市林口區南勢里31號","121.352173333333","25.070465","6501700","林口區"
"243001","267-VK","2019/10/08 13:49:11","新北市泰山區信華六街6號","121.441738333333","25.0449416666667","6501600","泰山區"
"231030","002-UM","2019/10/08 13:49:27","新北市新店區安康路一段75-1號","121.530071666667","24.9611383333333","6500600","新店區"
"231027","0293-UT","2019/10/08 13:49:12","新北市新店區北宜路一段105巷10弄1號","121.540335","24.9557266666667","6500600","新店區"
"231005","046-UY","2019/10/08 13:49:07","新北市新店區寶中路137號","121.549846666667","24.9791733333333","6500600","新店區"
"231029","106-UY","2019/10/08 13:49:09","新北市新店區安康路二段125-1號","121.512373333333","24.96088","6500600","新店區"
"231018","107-UY","2019/10/08 13:49:18","新北市新店區中正路382巷32號","121.535648333333","24.9780516666667","6500600","新店區"
"231013","108-UY","2019/10/08 13:49:29","新北市新店區二十張路25巷18弄9號","121.53926","24.9815466666667","6500600","新店區"
"231036","110-UY","2019/10/08 13:49:17","新北市新店區安祥路110巷19號","121.473878333333","24.956045","6500600","新店區"
"231032","256-BX","2019/10/08 13:49:14","新北市新店區莒光路44巷21弄11-6號","121.518668333333","24.9521666666667","6500600","新店區"
"231023","260-TV","2019/10/08 13:49:26","新北市新店區文中路39巷2號","121.539366666667","24.9567433333333","6500600","新店區"
"231003","268-BY","2019/10/08 13:49:16","新北市新店區中興路一段168號","121.542775","24.9643833333333","6500600","新店區"
"231035","278-BY","2019/10/08 13:49:19","新北市新店區安康路二段85巷42號","121.513955","24.9617833333333","6500600","新店區"
"231015","AAD-862","2019/10/08 13:49:27","新北市新店區竹林路71-7號","121.553495","24.9513233333333","6500600","新店區"
"231006","355-BY","2019/10/08 13:49:19","新北市新店區北宜路一段162號","121.540408333333","24.9534633333333","6500600","新店區"
"231038","3712-VJ","2019/10/08 13:49:10","新北市新店區安華路30巷1號","121.519571666667","24.95927","6500600","新店區"
"231024","4716-K9","2019/10/08 13:49:19","新北市新店區新生街37號","121.5394","24.9668833333333","6500600","新店區"
"231025","4715-K9","2019/10/08 13:49:15","新北市新店區中正路275巷27號","121.536966666667","24.97316","6500600","新店區"
"231020","513-UM","2019/10/08 13:49:21","新北市新店區永興路90-1號","121.544083333333","24.9316516666667","6500600","新店區"
"231001","617-UM","2019/10/08 13:49:18","新北市新店區三民路118號","121.534438333333","24.974355","6500600","新店區"
"231002","619-UM","2019/10/08 13:49:25","新北市新店區溪園路221號","121.526248333333","24.9840266666667","6500600","新店區"
"231034","641-BX","2019/10/08 13:49:29","新北市新店區達觀路14巷2號","121.503313333333","24.9416783333333","6500600","新店區"
"231012","KED-0819","2019/10/08 13:49:15","新北市新店區德正街27巷29弄35號","121.545153333333","24.9719166666667","6500600","新店區"
"231010","719-UM","2019/10/08 13:49:10","新北市新店區中正路215號","121.539801666667","24.9729","6500600","新店區"
"231026","720-UM","2019/10/08 13:49:11","新北市新店區中正路331號","121.535945","24.9750283333333","6500600","新店區"
"231028","897-TW","2019/10/08 13:49:24","新北市新店區安和路二段120號","121.519116666667","24.97082","6500600","新店區"
"231004","899-TW","2019/10/08 13:49:27","新北市新店區中興路二段252號","121.547358333333","24.9759233333333","6500600","新店區"
"231037","AKT-0513","2019/10/08 13:49:13","新北市新店區安康路三段359巷12弄25號","121.484013333333","24.9494016666667","6500600","新店區"
"235030","003-UY","2019/10/08 13:49:27","新北市中和區廣福路70號","121.503275","25.0016983333333","6500300","中和區"
"235027","006-UY","2019/10/08 13:49:25","新北市中和區中正路464號","121.490101666667","24.994235","6500300","中和區"
"235020","096-UM","2019/10/08 13:49:16","新北市中和區中正路1206巷7號","121.480235","25.011075","6500300","中和區"
"235003","097-UM","2019/10/08 13:49:17","新北市中和區大仁街40號","121.51797","24.9938866666667","6500300","中和區"
"235029","098-UM","2019/10/08 13:49:30","新北市中和區勝利路35巷1弄36號","121.500496666667","25.0079583333333","6500300","中和區"
"235004","150-BY","2019/10/08 13:49:28","新北市中和區保健路48巷2號","121.50998","24.9969066666667","6500300","中和區"
"235022","151-BY","2019/10/08 13:49:14","新北市中和區連城路508號","121.476898333333","24.9920366666667","6500300","中和區"
"235019","183-VK","2019/10/08 13:49:26","新北市中和區德光路20號","121.470986666667","25.0045316666667","6500300","中和區"
"235002","185-VK","2019/10/08 13:49:27","新北市中和區大勇街45巷1號","121.51801","24.9949466666667","6500300","中和區"
"235031","255-BX","2019/10/08 13:49:09","新北市中和區新生街268號","121.483491666667","24.9971833333333","6500300","中和區"
"235008","293-VK","2019/10/08 13:49:24","新北市中和區復興路348號","121.499901666667","24.9904083333333","6500300","中和區"
"235036","301-VK","2019/10/08 13:49:17","新北市中和區中山路二段1號","121.505411666667","25.0059683333333","6500300","中和區"
"235007","352-BY","2019/10/08 13:49:10","新北市中和區秀朗路三段24號","121.526478333333","24.9964066666667","6500300","中和區"
"235006","KEA-2878","2019/10/08 13:49:28","新北市中和區秀朗路三段128巷34號","121.52476","24.9937833333333","6500300","中和區"
"247009","KED-0682","2019/10/08 13:49:15","新北市蘆洲區集賢路222-3號","121.482796666667","25.086825","6501400","蘆洲區"
"235014","4979-A6","2019/10/08 13:49:20","新北市中和區忠孝街62巷9弄10號","121.513158333333","24.983945","6500300","中和區"
"235033","4980-A6","2019/10/08 13:49:22","新北市中和區南山路52巷12號","121.501525","24.99738","6500300","中和區"
"235034","558-UM","2019/10/08 13:49:21","新北市中和區景安路77號","121.506418333333","24.9973616666667","6500300","中和區"
"235009","565-BX","2019/10/08 13:49:29","新北市中和區景新街467巷6號","121.513763333333","24.9880833333333","6500300","中和區"
"235024","KED-0823","2019/10/08 13:49:17","新北市中和區民治街9巷2號","121.475186666667","25.0043733333333","6500300","中和區"
"235018","640-BX","2019/10/08 13:49:25","新北市中和區國光街60號","121.470481666667","25.0002816666667","6500300","中和區"
"235011","732-UM","2019/10/08 13:49:22","新北市中和區興南路二段34巷55弄1號","121.504841666667","24.9861833333333","6500300","中和區"
"235035","783-BX","2019/10/08 13:49:08","新北市中和區立德街26巷5弄17號","121.48977","25.0077033333333","6500300","中和區"
"235021","801-TS","2019/10/08 13:49:26","新北市中和區民利街58巷1號","121.478925","24.9989783333333","6500300","中和區"
"235005","802-TS","2019/10/08 13:49:16","新北市永和區安樂路417號","121.514441666667","25.00391","6500300","中和區"
"235016","805-TS","2019/10/08 13:49:16","新北市中和區興南路二段399巷56號","121.499728333333","24.9787783333333","6500300","中和區"
"235012","896-TW","2019/10/08 13:49:22","新北市中和區南山路232號","121.506598333333","24.990145","6500300","中和區"
"235017","900-TW","2019/10/08 13:49:27","新北市中和區民德路300號","121.467463333333","24.9953683333333","6500300","中和區"
"235028","911-UM","2019/10/08 13:49:20","新北市中和區泰和街30巷10號","121.499168333333","25.0008683333333","6500300","中和區"
"235015","157-BY","2019/10/08 13:49:19","新北市中和區忠孝街106巷39號","121.513528333333","24.9843516666667","6500300","中和區"
"235001","AAC-213","2019/10/08 13:49:21","新北市中和區秀朗路三段10巷37弄1號","121.524175","24.9960483333333","6500300","中和區"
"235023","AAC-215","2019/10/08 13:49:19","新北市中和區圓通路393巷34號","121.490368333333","24.9883166666667","6500300","中和區"
"220013","072-UY","2019/10/08 13:49:08","新北市板橋區重慶路40號","121.461388333333","25.0074733333333","6500100","板橋區"
"220034","073-UY","2019/10/08 13:49:13","新北市板橋區南雅西路二段145巷3號","121.451718333333","25.01146","6500100","板橋區"
"220105","075-UY","2019/10/08 13:49:26","新北市板橋區文化路二段124巷16號","121.470846666667","25.0258483333333","6500100","板橋區"
"220017","AAD-861","2019/10/08 13:49:25","新北市板橋區華興街81號","121.456888333333","25.0050983333333","6500100","板橋區"
"247011","337-TH","2019/10/08 13:49:20","新北市蘆洲區民族路422巷82弄3-9號","121.47585","25.0970466666667","6501400","蘆洲區"
"247003","336-TH","2019/10/08 13:49:08","新北市蘆洲區中原路3號","121.461363333333","25.083385","6501400","蘆洲區"
"247013","056-VK","2019/10/08 13:49:11","新北市蘆洲區忠孝路22號","121.470998333333","25.084275","6501400","蘆洲區"
"247007","002-UY","2019/10/08 13:49:18","新北市蘆洲區重陽街86號","121.481795","25.0844016666667","6501400","蘆洲區"
"247001","001-UY","2019/10/08 13:49:23","新北市蘆洲區長榮路711號","121.461091666667","25.0929583333333","6501400","蘆洲區"
"235013","251-BX","2019/10/08 13:49:12","新北市中和區景安路177巷17號","121.506061666667","24.99445","6500300","中和區"
"228004","212-TW","2019/10/08 13:45:42","新北市貢寮區龍崗里嵩陽街16-1號","121.90085","25.0076566666667","6502600","貢寮區"
"228005","828-UM","2019/10/08 13:49:26","新北市貢寮區美豐里土地公嶺10號","121.889881666667","25.057695","6502600","貢寮區"
"207002","749-BX","2019/10/08 13:49:17","新北市萬里區崁腳里崁腳路166號","121.645061666667","25.1558216666667","6502800","萬里區"
"207001","662-BX","2019/10/08 13:49:26","新北市金山區月眉21-2號","121.63702","25.2152716666667","6502800","萬里區"
"252005","AAC-283","2019/10/08 13:49:26","新北市三芝區圓山里二坪頂79號","121.540785","25.245475","6502100","三芝區"
"236040","KED-0685","2019/10/08 13:49:08","新北市土城區城林路6巷80號","121.438481666667","24.979755","6501300","土城區"
"236074","166-UM","2019/10/08 13:49:13","新北市土城區中央路三段140號","121.433165","24.96557","6501300","土城區"
"236029","253-BX","2019/10/08 13:49:26","新北市土城區城林路6巷80號","121.4386","24.9797883333333","6501300","土城區"
"236024","269-VK","2019/10/08 13:49:24","新北市土城區員福街62號","121.440141666667","24.97929","6501300","土城區"
"236013","270-VK","2019/10/08 13:49:16","新北市土城區城林路6巷80號","121.438488333333","24.979715","6501300","土城區"
"236032","271-VK","2019/10/08 13:49:26","新北市土城區城林路6巷80號","121.43854","24.979725","6501300","土城區"
"236065","KEA-2877","2019/10/08 13:49:17","新北市土城區城林路6巷80號","121.438588333333","24.9797633333333","6501300","土城區"
"236017","401-BY","2019/10/08 13:49:17","新北市土城區城林路6巷80號","121.438516666667","24.9798483333333","6501300","土城區"
"236060","752-BX","2019/10/08 13:49:18","新北市土城區城林路6巷80號","121.43877","24.9796983333333","6501300","土城區"
"236057","912-UM","2019/10/08 13:49:22","新北市土城區中華路二段132號","121.437611666667","24.9732666666667","6501300","土城區"
"236045","913-UM","2019/10/08 13:49:14","新北市土城區城林路6巷80號","121.438538333333","24.97971","6501300","土城區"
"236054","AAC-216","2019/10/08 13:49:10","新北市土城區城林路6巷80號","121.438618333333","24.9797333333333","6501300","土城區"
"220027","145-BY","2019/10/08 13:49:16","新北市板橋區大智街71巷28弄22號","121.452383333333","25.0150483333333","6500100","板橋區"
"220030","610-BX","2019/10/08 13:49:15","新北市板橋區篤行路三段49號","121.428061666667","24.98628","6500100","板橋區"
"220004","276-BY","2019/10/08 13:49:21","新北市板橋區四川路一段353號","121.458328333333","24.9998483333333","6500100","板橋區"
"220020","277-BY","2019/10/08 13:49:22","新北市板橋區大觀路三段36巷4號","121.433955","24.9958166666667","6500100","板橋區"
"220050","280-UM","2019/10/08 13:49:17","新北市板橋區莊敬路113號","121.472243333333","25.0257666666667","6500100","板橋區"
"220019","283-VK","2019/10/08 13:49:25","新北市板橋區重慶路34號","121.461186666667","25.0075883333333","6500100","板橋區"
"220043","285-UM","2019/10/08 13:49:11","新北市板橋區文化路二段76號","121.469468333333","25.025015","6500100","板橋區"
"220031","286-VK","2019/10/08 13:49:22","新北市板橋區僑中二街86號","121.446416666667","25.0095066666667","6500100","板橋區"
"220029","287-VK","2019/10/08 13:49:21","新北市板橋區光華街12巷1號","121.454131666667","25.0116516666667","6500100","板橋區"
"220039","288-VK","2019/10/08 13:49:26","新北市板橋區互助街4號","121.463228333333","25.027775","6500100","板橋區"
"220009","293-UM","2019/10/08 13:49:13","新北市板橋區富山街109巷63弄24號","121.475265","25.0206633333333","6500100","板橋區"
"220032","296-UM","2019/10/08 13:49:21","新北市板橋區大觀路二段156巷16號","121.441355","24.9996166666667","6500100","板橋區"
"220001","299-UM","2019/10/08 13:49:26","新北市板橋區成功路48號","121.474965","25.0179416666667","6500100","板橋區"
"220023","303-R5","2019/10/08 13:49:28","新北市板橋區大觀路一段21號","121.450246666667","25.0084483333333","6500100","板橋區"
"220010","305-R5","2019/10/08 13:49:24","新北市板橋區中山路二段26號","121.472595","25.01508","6500100","板橋區"
"220041","307-R5","2019/10/08 13:49:10","新北市板橋區文化路一段136巷8弄8號","121.465521666667","25.0181866666667","6500100","板橋區"
"220047","317-R6","2019/10/08 13:49:18","新北市板橋區民生路二段234巷51號","121.469676666667","25.0226666666667","6500100","板橋區"
"220028","461-BY","2019/10/08 13:49:31","新北市板橋區大觀路二段265巷60弄10號","121.442306666667","24.998085","6500100","板橋區"
"220038","487-VK","2019/10/08 13:49:26","新北市板橋區文化路二段313號","121.47203","25.029725","6500100","板橋區"
"220037","491-VK","2019/10/08 13:49:19","新北市板橋區民生路二段208號","121.469591666667","25.0211433333333","6500100","板橋區"
"220104","560-BX","2019/10/08 13:49:12","新北市板橋區中正路275巷79弄3號","121.452201666667","25.01783","6500100","板橋區"
"220052","561-BX","2019/10/08 13:49:25","新北市板橋區文化路一段188巷9弄48號","121.468791666667","25.018625","6500100","板橋區"
"220011","609-BX","2019/10/08 13:49:28","新北市板橋區中山路二段87號","121.474011666667","25.0159283333333","6500100","板橋區"
"220022","630-UY","2019/10/08 13:49:21","新北市板橋區南門街59號","121.457163333333","25.008325","6500100","板橋區"
"220040","637-BX","2019/10/08 13:49:11","新北市板橋區莒光路167-4號","121.474175","25.0237033333333","6500100","板橋區"
"220005","686-BX","2019/10/08 13:49:16","新北市板橋區重慶路184號","121.462515","25.00334","6500100","板橋區"
"220025","687-BX","2019/10/08 13:49:23","新北市板橋區金門街65號","121.433225","24.9928083333333","6500100","板橋區"
"220042","689-BX","2019/10/08 13:49:12","新北市板橋區民生路二段236號","121.468376666667","25.0228966666667","6500100","板橋區"
"220002","741-BX","2019/10/08 13:49:17","新北市板橋區館前東路15號","121.460071666667","25.0072966666667","6500100","板橋區"
"220051","KEA-2699","2019/10/08 13:49:28","新北市板橋區田單街2巷24號","121.481416666667","25.0278916666667","6500100","板橋區"
"220003","827-TW","2019/10/08 13:49:15","新北市板橋區忠孝路41-1號","121.461118333333","25.0020616666667","6500100","板橋區"
"220068","830-TW","2019/10/08 13:49:14","新北市板橋區大同街35巷15號","121.477418333333","25.027735","6500100","板橋區"
"220014","831-TW","2019/10/08 13:49:28","新北市板橋區民生路二段89-4號","121.471086666667","25.0181333333333","6500100","板橋區"
"220021","985-R7","2019/10/08 13:49:16","新北市板橋區府中路67號","121.458193333333","25.0095383333333","6500100","板橋區"
"220046","AAC-210","2019/10/08 13:49:12","新北市板橋區陽明街166號","121.463531666667","25.0245183333333","6500100","板橋區"
"220012","AAC-253","2019/10/08 13:49:11","新北市板橋區漢生東路178號","121.467185","25.0146","6500100","板橋區"
"235032","KEA-2873","2019/10/08 13:49:24","新北市中和區圓通路173號","121.497668333333","24.995185","6500300","中和區"
"235025","KEA-2875","2019/10/08 13:49:06","新北市中和區民有街92號","121.476075","25.0036416666667","6500300","中和區"
"235026","KEA-2876","2019/10/08 13:49:10","新北市中和區中山路二段366巷20號","121.49184","25.0044133333333","6500300","中和區"
