"lineid","car","time","location","longitude","latitude","cityid","cityname"
"234044","148-BY","2019/10/08 13:59:27","新北市永和區成功路一段26號","121.527083333333","25.0048066666667","6500400","永和區"
"234078","298-R6","2019/10/08 13:59:16","新北市永和區國中路1號","121.523786666667","25.00448","6500400","永和區"
"234036","336-UY","2019/10/08 13:59:16","新北市永和區成功路二段145號","121.526651666667","24.9977466666667","6500400","永和區"
"234062","337-UY","2019/10/08 13:59:21","新北市永和區中正路368巷1弄47號","121.519193333333","25.00119","6500400","永和區"
"234084","338-UY","2019/10/08 13:59:11","新北市永和區福和路130號","121.521933333333","25.0079983333333","6500400","永和區"
"234068","552-UM","2019/10/08 13:59:25","新北市永和區國光路51號","121.519023333333","25.0081933333333","6500400","永和區"
"234015","745-BX","2019/10/08 13:59:28","新北市永和區文化路26號","121.51519","25.01512","6500400","永和區"
"234028","746-BX","2019/10/08 13:59:21","新北市永和區民權路49巷6號","121.520451666667","24.9971016666667","6500400","永和區"
"234052","KEA-2590","2019/10/08 13:59:14","新北市永和區竹林路39巷35-1號","121.520201666667","25.0153383333333","6500400","永和區"
"234005","KED-0605","2019/10/08 13:59:18","新北市中和區中和路328號","121.509803333333","25.00119","6500400","永和區"
"234012","KEA-2591","2019/10/08 13:59:21","新北市永和區保生路55號","121.504701666667","25.0105766666667","6500400","永和區"
"234060","AAD-866","2019/10/08 13:59:22","新北市永和區中正路151巷8弄1號","121.515941666667","24.9987133333333","6500400","永和區"
"234040","862-TW","2019/10/08 13:59:14","新北市永和區中和路335巷18弄28號","121.507976666667","25.0003516666667","6500400","永和區"
"234048","863-TW","2019/10/08 13:59:27","新北市永和區保安路250號","121.506286666667","25.0126216666667","6500400","永和區"
"234025","9371-KE","2019/10/08 13:59:17","新北市永和區自由街58號","121.513923333333","25.0059933333333","6500400","永和區"
"234010","9373-KE","2019/10/08 13:59:20","新北市永和區仁愛路352巷122弄11號","121.500593333333","25.0088733333333","6500400","永和區"
"248017","KED-0813","2019/10/08 13:59:13","新北市五股區民義路一段220巷17-7號","121.428108333333","25.0955783333333","6501500","五股區"
"234022","9380-KE","2019/10/08 13:59:20","新北市永和區永和路二段243號","121.51571","25.01478","6500400","永和區"
"234076","969-R7","2019/10/08 13:59:22","新北市永和區民族街43巷8號","121.518978333333","24.998375","6500400","永和區"
"234072","AAC-211","2019/10/08 13:59:26","新北市永和區豫溪街155號","121.521248333333","25.0104066666667","6500400","永和區"
"234066","AAC-212","2019/10/08 13:59:20","新北市永和區永貞路313號","121.510128333333","25.0065366666667","6500400","永和區"
"234001","AAC-295","2019/10/08 13:59:14","新北市永和區福和路345號","121.515346666667","25.0071283333333","6500400","永和區"
"244002","248-BX","2019/10/08 13:59:22","新北市林口區南勢里34-8號","121.35229","25.07028","6501700","林口區"
"243001","267-VK","2019/10/08 13:59:11","新北市泰山區信華一街55號","121.441215","25.0461816666667","6501600","泰山區"
"231030","002-UM","2019/10/08 13:59:25","新北市新店區安康路一段275-1號","121.523975","24.9634533333333","6500600","新店區"
"231027","0293-UT","2019/10/08 13:59:12","新北市新店區中興路一段34號","121.538663333333","24.9585966666667","6500600","新店區"
"231005","046-UY","2019/10/08 13:59:27","新北市新店區中興路三段184號","121.544108333333","24.981455","6500600","新店區"
"231029","106-UY","2019/10/08 13:59:09","新北市新店區安和路一段1號","121.516735","24.9639133333333","6500600","新店區"
"231018","107-UY","2019/10/08 13:59:18","新北市新店區中央路192號","121.53082","24.9747833333333","6500600","新店區"
"231013","108-UY","2019/10/08 13:59:24","新北市新店區明德路111號","121.54153","24.9794666666667","6500600","新店區"
"231036","110-UY","2019/10/08 13:59:17","新北市新店區安祥路109巷3弄104號","121.47925","24.9604583333333","6500600","新店區"
"231032","256-BX","2019/10/08 13:59:14","新北市新店區莒光路44巷21弄11-6號","121.518595","24.9521933333333","6500600","新店區"
"231023","260-TV","2019/10/08 13:59:25","新北市新店區文中路40號","121.539655","24.95654","6500600","新店區"
"231003","268-BY","2019/10/08 13:59:16","新北市新店區北宜路一段3號","121.538485","24.9584483333333","6500600","新店區"
"231035","278-BY","2019/10/08 13:59:19","新北市新店區安和路二段115號","121.518676666667","24.970415","6500600","新店區"
"231015","AAD-862","2019/10/08 13:59:07","新北市新店區北宜路二段295號","121.556091666667","24.954145","6500600","新店區"
"231006","355-BY","2019/10/08 13:59:19","新北市新店區北宜路二段207號","121.553125","24.9533","6500600","新店區"
"231038","3712-VJ","2019/10/08 13:59:10","新北市新店區安華路30巷3號","121.519588333333","24.9592383333333","6500600","新店區"
"231024","4716-K9","2019/10/08 13:59:19","新北市新店區北新路一段271巷34號","121.539921666667","24.9671366666667","6500600","新店區"
"231025","4715-K9","2019/10/08 13:59:15","新北市新店區中正路374號","121.535023333333","24.9763716666667","6500600","新店區"
"231020","513-UM","2019/10/08 13:59:20","新北市新店區新烏路二段50巷12弄2號","121.547458333333","24.9273666666667","6500600","新店區"
"231001","617-UM","2019/10/08 13:59:31","新北市新店區三民路43號","121.537145","24.970925","6500600","新店區"
"231002","619-UM","2019/10/08 13:59:24","新北市新店區中正路611號","121.533861666667","24.9885733333333","6500600","新店區"
"231034","641-BX","2019/10/08 13:59:29","新北市新店區達觀路43號","121.503111666667","24.9379066666667","6500600","新店區"
"231012","KED-0819","2019/10/08 13:59:19","新北市新店區中興路二段71號","121.546833333333","24.970835","6500600","新店區"
"231010","719-UM","2019/10/08 13:59:10","新北市新店區安一路一段1-1號","121.519655","24.96106","6500600","新店區"
"231026","720-UM","2019/10/08 13:59:31","新北市新店區三民路159巷19弄1號","121.532805","24.9741066666667","6500600","新店區"
"231028","897-TW","2019/10/08 13:59:24","新北市新店區安和路三段37號","121.517786666667","24.9817733333333","6500600","新店區"
"231004","899-TW","2019/10/08 13:59:27","新北市新店區北新路二段111號","121.542956666667","24.9748066666667","6500600","新店區"
"231037","AKT-0513","2019/10/08 13:59:13","新北市新店區安康路三段456號","121.48432","24.9510516666667","6500600","新店區"
"235030","003-UY","2019/10/08 13:59:27","新北市中和區水源路73號","121.505848333333","25.0036433333333","6500300","中和區"
"235027","006-UY","2019/10/08 13:59:25","新北市中和區連城路299號","121.489975","24.99653","6500300","中和區"
"235020","096-UM","2019/10/08 13:59:16","新北市中和區員山路514巷14弄1號","121.479706666667","25.0094316666667","6500300","中和區"
"235003","097-UM","2019/10/08 13:59:17","新北市中和區景平路4號","121.524428333333","24.9905883333333","6500300","中和區"
"235029","098-UM","2019/10/08 13:59:30","新北市中和區中山路二段136巷40號","121.50123","25.0044133333333","6500300","中和區"
"235004","150-BY","2019/10/08 13:59:28","新北市中和區保健路46巷20弄2號","121.509001666667","24.9962516666667","6500300","中和區"
"235022","151-BY","2019/10/08 13:59:14","新北市中和區員山路77巷1弄1號","121.480528333333","24.99417","6500300","中和區"
"235019","183-VK","2019/10/08 13:59:25","新北市中和區德光路29號","121.470666666667","25.0042333333333","6500300","中和區"
"235002","185-VK","2019/10/08 13:59:27","新北市中和區立人街24-4號","121.518925","24.99418","6500300","中和區"
"235031","255-BX","2019/10/08 13:59:29","新北市中和區中正路740號","121.485321666667","24.9977966666667","6500300","中和區"
"235008","293-VK","2019/10/08 13:59:24","新北市中和區中興街161巷2弄2號","121.500143333333","24.99085","6500300","中和區"
"235036","301-VK","2019/10/08 13:59:17","新北市中和區中山路二段166號","121.50136","25.0029333333333","6500300","中和區"
"235007","352-BY","2019/10/08 13:59:10","新北市中和區景平路106號","121.519861666667","24.99162","6500300","中和區"
"235006","KEA-2878","2019/10/08 13:59:28","新北市中和區自立路58巷2號","121.523641666667","24.99158","6500300","中和區"
"247015","KEA-2869","2019/10/08 13:59:20","新北市蘆洲區光華路44號","121.468756666667","25.08316","6501400","蘆洲區"
"247009","KED-0682","2019/10/08 13:59:15","新北市蘆洲區集賢路224巷25號","121.48168","25.08697","6501400","蘆洲區"
"235014","4979-A6","2019/10/08 13:59:21","新北市中和區華新街50巷8號","121.507633333333","24.98399","6500300","中和區"
"235033","4980-A6","2019/10/08 13:59:22","新北市中和區中和路217巷20號","121.504815","25.00041","6500300","中和區"
"235034","558-UM","2019/10/08 13:59:21","新北市中和區中和路98號","121.501331666667","25.0002166666667","6500300","中和區"
"235009","565-BX","2019/10/08 13:59:29","新北市中和區景新街467巷36號","121.515478333333","24.9884216666667","6500300","中和區"
"235024","KED-0823","2019/10/08 13:59:17","新北市中和區中山路三段124號","121.47424","25.0062483333333","6500300","中和區"
"235018","640-BX","2019/10/08 13:59:25","新北市中和區國光街107巷2弄7號","121.470026666667","24.99975","6500300","中和區"
"235011","732-UM","2019/10/08 13:59:22","新北市中和區興南路二段94號","121.505236666667","24.9842433333333","6500300","中和區"
"235035","783-BX","2019/10/08 13:59:28","新北市中和區立德街98巷107號","121.488865","25.0082483333333","6500300","中和區"
"235021","801-TS","2019/10/08 13:59:26","新北市中和區民利街53號","121.479358333333","24.998745","6500300","中和區"
"235005","802-TS","2019/10/08 13:59:16","新北市中和區中安街85號","121.512961666667","25.0018533333333","6500300","中和區"
"235016","805-TS","2019/10/08 13:59:16","新北市中和區興南路二段131-15號","121.504181666667","24.98018","6500300","中和區"
"235012","896-TW","2019/10/08 13:59:22","新北市中和區華新街61號","121.507968333333","24.98419","6500300","中和區"
"235017","900-TW","2019/10/08 13:59:15","新北市中和區和平路218-1號","121.464015","24.99628","6500300","中和區"
"235028","911-UM","2019/10/08 13:59:11","新北市中和區泰和街16號","121.499693333333","25.0009016666667","6500300","中和區"
"235015","157-BY","2019/10/08 13:59:19","新北市中和區忠孝街19巷41號","121.50953","24.984955","6500300","中和區"
"235001","AAC-213","2019/10/08 13:59:21","新北市中和區秀朗路三段58-1號","121.526071666667","24.995145","6500300","中和區"
"235023","AAC-215","2019/10/08 13:59:19","新北市中和區圓通路296-2號","121.487905","24.98918","6500300","中和區"
"220013","072-UY","2019/10/08 13:59:28","新北市板橋區漢生東路319號","121.471851666667","25.007915","6500100","板橋區"
"220034","073-UY","2019/10/08 13:59:13","新北市板橋區大智街34號","121.455208333333","25.0149983333333","6500100","板橋區"
"220105","075-UY","2019/10/08 13:59:19","新北市板橋區文化路二段263巷10號","121.47112","25.0294216666667","6500100","板橋區"
"220017","AAD-861","2019/10/08 13:59:25","新北市板橋區四川路一段102號","121.4596","25.004725","6500100","板橋區"
"247005","893-R6","2019/10/08 13:59:23","新北市蘆洲區永安南路二段34號","121.467048333333","25.0771916666667","6501400","蘆洲區"
"247019","546-UM","2019/10/08 13:59:13","新北市蘆洲區民族路422巷50號","121.47369","25.0930616666667","6501400","蘆洲區"
"247011","337-TH","2019/10/08 13:59:20","新北市蘆洲區民族路180號","121.480021666667","25.086845","6501400","蘆洲區"
"247003","336-TH","2019/10/08 13:59:08","新北市蘆洲區長安街100號","121.461893333333","25.081015","6501400","蘆洲區"
"247013","056-VK","2019/10/08 13:59:18","新北市蘆洲區保和街67號","121.469486666667","25.0858966666667","6501400","蘆洲區"
"247021","007-UY","2019/10/08 13:59:19","新北市蘆洲區中正路263巷2號","121.467331666667","25.0874116666667","6501400","蘆洲區"
"247007","002-UY","2019/10/08 13:59:18","新北市蘆洲區集賢路255號","121.481688333333","25.08455","6501400","蘆洲區"
"247001","001-UY","2019/10/08 13:59:23","新北市蘆洲區三民路607號","121.460515","25.0938283333333","6501400","蘆洲區"
"235013","251-BX","2019/10/08 13:59:12","新北市中和區景安路167巷1號","121.50562","24.9946983333333","6500300","中和區"
"228004","212-TW","2019/10/08 13:59:22","新北市貢寮區龍崗里嵩陽街55號","121.907663333333","25.0166183333333","6502600","貢寮區"
"228005","828-UM","2019/10/08 13:59:26","新北市貢寮區美豐里雞母嶺街52-1號","121.888538333333","25.0685033333333","6502600","貢寮區"
"207002","749-BX","2019/10/08 13:59:17","新北市萬里區溪底里溪底路8號","121.622758333333","25.1478866666667","6502800","萬里區"
"207001","662-BX","2019/10/08 13:59:26","新北市萬里區磺潭里清水1號","121.638808333333","25.202105","6502800","萬里區"
"252005","AAC-283","2019/10/08 13:59:26","新北市三芝區橫山里橫山52號","121.533451666667","25.2562783333333","6502100","三芝區"
"236040","KED-0685","2019/10/08 13:59:27","新北市土城區城林路6巷80號","121.438456666667","24.97969","6501300","土城區"
"236074","166-UM","2019/10/08 13:59:13","新北市土城區永寧路32巷10弄23號","121.428871666667","24.961045","6501300","土城區"
"236029","253-BX","2019/10/08 13:59:26","新北市土城區城林路6巷80號","121.4386","24.9797883333333","6501300","土城區"
"236024","269-VK","2019/10/08 13:59:24","新北市土城區承天路18號","121.439308333333","24.9634333333333","6501300","土城區"
"236013","270-VK","2019/10/08 13:59:16","新北市土城區城林路6巷80號","121.43855","24.9801016666667","6501300","土城區"
"236032","271-VK","2019/10/08 13:59:26","新北市土城區城林路6巷80號","121.438531666667","24.9797183333333","6501300","土城區"
"236065","KEA-2877","2019/10/08 13:59:17","新北市土城區和平路54號","121.445155","24.9691866666667","6501300","土城區"
"236017","401-BY","2019/10/08 13:59:17","新北市土城區城林路6巷80號","121.43852","24.9798316666667","6501300","土城區"
"236060","752-BX","2019/10/08 13:59:18","新北市土城區城林路6巷80號","121.438766666667","24.9796916666667","6501300","土城區"
"236057","912-UM","2019/10/08 13:59:22","新北市土城區中央路三段238-4號","121.428281666667","24.9643916666667","6501300","土城區"
"236045","913-UM","2019/10/08 13:59:14","新北市土城區城林路6巷80號","121.438498333333","24.979705","6501300","土城區"
"236054","AAC-216","2019/10/08 13:59:30","新北市土城區城林路6巷80號","121.43824","24.97951","6501300","土城區"
"220027","145-BY","2019/10/08 13:59:15","新北市板橋區大仁街49號","121.454693333333","25.0163716666667","6500100","板橋區"
"220030","610-BX","2019/10/08 13:59:15","新北市板橋區溪崑一街112號","121.429235","24.9887316666667","6500100","板橋區"
"220004","276-BY","2019/10/08 13:59:21","新北市板橋區信義路152號","121.458916666667","24.9916883333333","6500100","板橋區"
"220020","277-BY","2019/10/08 13:59:24","新北市板橋區金門街222號","121.430991666667","24.9881316666667","6500100","板橋區"
"220050","280-UM","2019/10/08 13:59:28","新北市板橋區莊敬路220巷19號","121.472453333333","25.0206633333333","6500100","板橋區"
"220019","283-VK","2019/10/08 13:59:25","新北市板橋區重慶路245巷17號","121.463985","25.0008933333333","6500100","板橋區"
"220043","285-UM","2019/10/08 13:59:20","新北市板橋區光武街161號","121.46531","25.02977","6500100","板橋區"
"220031","286-VK","2019/10/08 13:59:22","新北市板橋區大觀路一段38巷156弄4-1號","121.442451666667","25.00456","6500100","板橋區"
"220029","287-VK","2019/10/08 13:59:21","新北市板橋區光華街44巷2-1號","121.453753333333","25.0128783333333","6500100","板橋區"
"220039","288-VK","2019/10/08 13:59:29","新北市板橋區裕民街38號","121.461951666667","25.0290133333333","6500100","板橋區"
"220009","293-UM","2019/10/08 13:59:12","新北市板橋區懷仁街77巷12號","121.477698333333","25.018655","6500100","板橋區"
"220032","296-UM","2019/10/08 13:59:17","新北市板橋區篤行路一段16號","121.431303333333","24.9954916666667","6500100","板橋區"
"220001","299-UM","2019/10/08 13:59:26","新北市板橋區永豐街119號","121.474415","25.019595","6500100","板橋區"
"220023","303-R5","2019/10/08 13:59:19","新北市板橋區館前西路213巷18號","121.454266666667","25.0081066666667","6500100","板橋區"
"220010","305-R5","2019/10/08 13:59:28","新北市板橋區三民路二段245巷63號","121.480906666667","25.0126366666667","6500100","板橋區"
"220041","307-R5","2019/10/08 13:59:30","新北市板橋區文化路二段225巷72弄52號","121.468733333333","25.0295833333333","6500100","板橋區"
"220047","317-R6","2019/10/08 13:59:18","新北市板橋區民生路二段226巷31弄2號","121.471243333333","25.0221966666667","6500100","板橋區"
"220028","461-BY","2019/10/08 13:59:10","新北市板橋區大觀路二段153巷44弄53號","121.446055","24.9989233333333","6500100","板橋區"
"220038","487-VK","2019/10/08 13:59:26","新北市板橋區文化路二段353號","121.472898333333","25.030665","6500100","板橋區"
"220037","491-VK","2019/10/08 13:59:20","新北市板橋區莒光路165巷42-1號","121.474326666667","25.025115","6500100","板橋區"
"220104","560-BX","2019/10/08 13:59:12","新北市板橋區中正路273-1號","121.455496666667","25.0188983333333","6500100","板橋區"
"220052","561-BX","2019/10/08 13:59:23","新北市板橋區介壽街68號","121.469358333333","25.019335","6500100","板橋區"
"220011","609-BX","2019/10/08 13:59:11","新北市板橋區中山路二段311號","121.478895","25.0184533333333","6500100","板橋區"
"220022","630-UY","2019/10/08 13:59:21","新北市板橋區林園街2號","121.454346666667","25.0092166666667","6500100","板橋區"
"220040","637-BX","2019/10/08 13:59:12","新北市板橋區大同街14-4號","121.47748","25.0269266666667","6500100","板橋區"
"220005","686-BX","2019/10/08 13:59:25","新北市板橋區重慶路346巷5號","121.464056666667","24.9971116666667","6500100","板橋區"
"220025","687-BX","2019/10/08 13:59:23","新北市板橋區大觀路二段174巷137號","121.441158333333","25.00201","6500100","板橋區"
"220042","689-BX","2019/10/08 13:59:22","新北市板橋區民生路三段209-5號","121.465176666667","25.0280683333333","6500100","板橋區"
"220002","741-BX","2019/10/08 13:59:17","新北市板橋區重慶路127巷20號","121.46369","25.0048083333333","6500100","板橋區"
"220051","KEA-2699","2019/10/08 13:59:28","新北市板橋區八德路三段58巷4號","121.482486666667","25.0273066666667","6500100","板橋區"
"220003","827-TW","2019/10/08 13:59:15","新北市板橋區中山路一段158巷20號","121.466403333333","25.0112566666667","6500100","板橋區"
"220068","830-TW","2019/10/08 13:59:18","新北市板橋區中山路二段465巷78號","121.481231666667","25.022275","6500100","板橋區"
"220014","831-TW","2019/10/08 13:59:28","新北市板橋區三民路二段正隆巷33弄1號","121.477198333333","25.0131866666667","6500100","板橋區"
"220021","985-R7","2019/10/08 13:59:16","新北市板橋區西門街14號","121.455563333333","25.0114983333333","6500100","板橋區"
"220046","AAC-210","2019/10/08 13:59:12","新北市板橋區幸福路60巷59號","121.459996666667","25.0213816666667","6500100","板橋區"
"220012","AAC-253","2019/10/08 13:59:11","新北市板橋區板新路91號","121.473036666667","25.0138133333333","6500100","板橋區"
"235032","KEA-2873","2019/10/08 13:59:24","新北市中和區連勝街55號","121.497798333333","24.9971316666667","6500300","中和區"
"235025","KEA-2875","2019/10/08 13:59:06","新北市中和區員山路314巷7弄1號","121.481996666667","25.0029116666667","6500300","中和區"
"235026","KEA-2876","2019/10/08 13:59:10","新北市中和區中山路二段366巷15號","121.491458333333","25.0046216666667","6500300","中和區"
