"lineid","car","time","location","longitude","latitude","cityid","cityname"
"234078","298-R6","2019/10/08 14:19:29","新北市永和區福和路19巷4號","121.524146666667","25.0077766666667","6500400","永和區"
"234036","336-UY","2019/10/08 14:19:16","新北市永和區成功路一段93巷11-1號","121.527716666667","25.0027283333333","6500400","永和區"
"234062","337-UY","2019/10/08 14:19:21","新北市永和區得和路168號","121.519453333333","25.0001266666667","6500400","永和區"
"234084","338-UY","2019/10/08 14:19:19","新北市永和區永和路二段93號","121.514795","25.0114866666667","6500400","永和區"
"234068","552-UM","2019/10/08 14:19:25","新北市永和區福和路263巷7弄1號","121.51791","25.0069866666667","6500400","永和區"
"234028","746-BX","2019/10/08 14:19:21","新北市永和區民權路51號","121.519963333333","24.9969616666667","6500400","永和區"
"234052","KEA-2590","2019/10/08 14:19:14","新北市永和區光復街2巷24號","121.517583333333","25.0165683333333","6500400","永和區"
"234005","KED-0605","2019/10/08 14:19:18","新北市永和區永和路二段28號","121.51474","25.0104116666667","6500400","永和區"
"234060","AAD-866","2019/10/08 14:19:22","新北市永和區安樂路194巷35號","121.516411666667","25.0011366666667","6500400","永和區"
"234040","862-TW","2019/10/08 14:19:14","新北市中和區中安街230號","121.512311666667","24.9986616666667","6500400","永和區"
"234048","863-TW","2019/10/08 14:19:07","新北市永和區保安路2號","121.510798333333","25.01739","6500400","永和區"
"234025","9371-KE","2019/10/08 14:19:17","新北市永和區得和路42巷23號","121.515296666667","24.9996616666667","6500400","永和區"
"248017","KED-0813","2019/10/08 14:18:14","新北市五股區壟路11-1號","121.416041666667","25.0844483333333","6501500","五股區"
"234076","969-R7","2019/10/08 14:19:22","新北市永和區民族街81巷50號","121.519926666667","24.99649","6500400","永和區"
"234072","AAC-211","2019/10/08 14:19:26","新北市永和區竹林路119巷30弄2號","121.522123333333","25.011555","6500400","永和區"
"234066","AAC-212","2019/10/08 14:19:20","新北市永和區保平路292巷46弄2號","121.507496666667","25.0053333333333","6500400","永和區"
"234001","AAC-295","2019/10/08 14:19:13","新北市永和區中正路616巷1號","121.517236666667","25.0076983333333","6500400","永和區"
"244002","248-BX","2019/10/08 14:19:21","新北市林口區南勢里34-8號","121.352416666667","25.0702383333333","6501700","林口區"
"231030","002-UM","2019/10/08 14:19:25","新北市新店區安民街65巷21-2號","121.515295","24.9674633333333","6500600","新店區"
"231027","0293-UT","2019/10/08 14:19:12","新北市新店區光明街286巷4號","121.540523333333","24.9637683333333","6500600","新店區"
"231005","046-UY","2019/10/08 14:19:27","新北市新店區中興路三段184號","121.54402","24.9814283333333","6500600","新店區"
"231029","106-UY","2019/10/08 14:19:09","新北市新店區安康路二段208號","121.510211666667","24.9594883333333","6500600","新店區"
"231018","107-UY","2019/10/08 14:19:18","新北市新店區中央四街47號","121.527803333333","24.9750066666667","6500600","新店區"
"231013","108-UY","2019/10/08 14:19:24","新北市新店區建國路150號","121.538818333333","24.979185","6500600","新店區"
"231036","110-UY","2019/10/08 14:19:17","新北市新店區安祥路109巷85弄22號","121.478138333333","24.9596866666667","6500600","新店區"
"231032","256-BX","2019/10/08 14:19:14","新北市新店區永業路8-1號","121.533745","24.9560633333333","6500600","新店區"
"231023","260-TV","2019/10/08 14:19:25","新北市新店區北宜路一段3號","121.538451666667","24.9583583333333","6500600","新店區"
"231003","268-BY","2019/10/08 14:19:16","新北市新店區中興路一段203號","121.543543333333","24.9655283333333","6500600","新店區"
"231035","278-BY","2019/10/08 14:19:25","新北市新店區光華街8巷10號","121.518048333333","24.96936","6500600","新店區"
"231015","AAD-862","2019/10/08 14:19:27","新北市新店區中生路148-1號","121.570811666667","24.9483516666667","6500600","新店區"
"231006","355-BY","2019/10/08 14:19:20","新北市新店區北宜路二段150-1號","121.557791666667","24.9539583333333","6500600","新店區"
"231038","3712-VJ","2019/10/08 14:19:10","新北市新店區溪洲路8巷120-1號","121.533006666667","24.9632283333333","6500600","新店區"
"231024","4716-K9","2019/10/08 14:19:19","新北市新店區薏仁坑路自強巷1號","121.49684","24.9581383333333","6500600","新店區"
"231020","513-UM","2019/10/08 14:19:20","新北市新店區新烏路三段65號","121.554326666667","24.9039283333333","6500600","新店區"
"231001","617-UM","2019/10/08 14:19:31","新北市新店區北新路一段40號","121.541015","24.9660483333333","6500600","新店區"
"231002","619-UM","2019/10/08 14:19:29","新北市新店區中央路151號","121.5296","24.9724966666667","6500600","新店區"
"231034","641-BX","2019/10/08 14:19:09","新北市新店區車子路11號","121.50308","24.95205","6500600","新店區"
"231012","KED-0819","2019/10/08 14:19:15","新北市新店區五峰路61巷13號","121.549443333333","24.9695016666667","6500600","新店區"
"231028","897-TW","2019/10/08 14:19:29","新北市新店區安和路二段211號","121.517703333333","24.9754816666667","6500600","新店區"
"231004","899-TW","2019/10/08 14:19:07","新北市新店區中正路191號","121.54052","24.9723566666667","6500600","新店區"
"231037","AKT-0513","2019/10/08 14:19:13","新北市新店區安康路二段269號","121.504561666667","24.9570366666667","6500600","新店區"
"235030","003-UY","2019/10/08 14:19:27","新北市中和區中和路157號","121.502733333333","24.9998683333333","6500300","中和區"
"235027","006-UY","2019/10/08 14:19:25","新北市中和區連城路203巷10弄6號","121.494846666667","24.9972466666667","6500300","中和區"
"235020","096-UM","2019/10/08 14:19:16","新北市中和區民富街1號","121.476581666667","25.0069933333333","6500300","中和區"
"235003","097-UM","2019/10/08 14:19:17","新北市中和區景新街467巷50弄22號","121.518166666667","24.9892583333333","6500300","中和區"
"235029","098-UM","2019/10/08 14:19:10","新北市中和區永和路8巷21號","121.500896666667","25.0035266666667","6500300","中和區"
"235004","150-BY","2019/10/08 14:19:07","新北市中和區宜安路37號","121.512173333333","24.9962983333333","6500300","中和區"
"235022","151-BY","2019/10/08 14:19:20","新北市中和區連城路374巷3號","121.481353333333","24.9954416666667","6500300","中和區"
"235019","183-VK","2019/10/08 14:19:25","新北市中和區德光路27巷19號","121.471061666667","25.003305","6500300","中和區"
"235002","185-VK","2019/10/08 14:19:27","新北市中和區大仁街10巷41號","121.519788333333","24.99244","6500300","中和區"
"235031","255-BX","2019/10/08 14:19:29","新北市中和區新生街220巷4號","121.48307","24.9985516666667","6500300","中和區"
"235008","293-VK","2019/10/08 14:19:24","新北市中和區復興路73號","121.503615","24.9902166666667","6500300","中和區"
"235036","301-VK","2019/10/08 14:19:17","新北市中和區福祥路46號","121.499356666667","25.0039516666667","6500300","中和區"
"235007","352-BY","2019/10/08 14:19:30","新北市中和區景平路296號","121.513108333333","24.992745","6500300","中和區"
"235006","KEA-2878","2019/10/08 14:19:08","新北市中和區安樂路143巷2弄5號","121.514061666667","24.9977633333333","6500300","中和區"
"247015","KEA-2869","2019/10/08 14:19:20","新北市蘆洲區中正路185巷76號","121.46627","25.0843433333333","6501400","蘆洲區"
"247009","KED-0682","2019/10/08 14:19:15","新北市蘆洲區三民路26巷35號","121.477065","25.082945","6501400","蘆洲區"
"235033","4980-A6","2019/10/08 14:19:22","新北市中和區福祥路2號","121.499568333333","25.0029116666667","6500300","中和區"
"235034","558-UM","2019/10/08 14:19:21","新北市中和區景平路630巷1號","121.500348333333","24.99827","6500300","中和區"
"235009","565-BX","2019/10/08 14:19:10","新北市中和區景新街553號","121.51518","24.986515","6500300","中和區"
"235024","KED-0823","2019/10/08 14:19:17","新北市中和區新生街112巷14號","121.482905","25.0029383333333","6500300","中和區"
"235018","640-BX","2019/10/08 14:19:25","新北市中和區民享街86巷38號","121.472825","25.0005866666667","6500300","中和區"
"235011","732-UM","2019/10/08 14:19:22","新北市中和區景平路239巷53弄2號","121.508791666667","24.9921116666667","6500300","中和區"
"235035","783-BX","2019/10/08 14:19:28","新北市中和區連城路338號","121.483031666667","24.995785","6500300","中和區"
"235021","801-TS","2019/10/08 14:19:26","新北市中和區員山路376號","121.480698333333","25.0041933333333","6500300","中和區"
"235005","802-TS","2019/10/08 14:19:16","新北市中和區宜安路98號","121.510565","24.9977733333333","6500300","中和區"
"235016","805-TS","2019/10/08 14:19:16","新北市中和區華新街210號","121.506556666667","24.9818133333333","6500300","中和區"
"235012","896-TW","2019/10/08 14:16:04","新北市中和區華新街109巷15號","121.508701666667","24.98127","6500300","中和區"
"235017","900-TW","2019/10/08 14:19:19","新北市中和區華順街16號","121.467215","24.9986766666667","6500300","中和區"
"235028","911-UM","2019/10/08 14:19:19","新北市中和區南山路123號","121.502178333333","24.9971783333333","6500300","中和區"
"235015","157-BY","2019/10/08 14:19:19","新北市中和區板南路126號","121.502878333333","24.9925316666667","6500300","中和區"
"235001","AAC-213","2019/10/08 14:19:21","新北市中和區秀朗路三段10巷14弄4號","121.525246666667","24.9965966666667","6500300","中和區"
"235023","AAC-215","2019/10/08 14:19:19","新北市中和區圓通路252巷18弄2號","121.492338333333","24.9923766666667","6500300","中和區"
"220013","072-UY","2019/10/08 14:19:28","新北市板橋區民族路170號","121.467423333333","25.00771","6500100","板橋區"
"220034","073-UY","2019/10/08 14:19:19","新北市板橋區中正路216巷56號","121.457558333333","25.01875","6500100","板橋區"
"220105","075-UY","2019/10/08 14:19:24","新北市板橋區文化路二段417巷6號","121.474511666667","25.03322","6500100","板橋區"
"220017","AAD-861","2019/10/08 14:19:24","新北市板橋區縣民大道一段64巷2號","121.455198333333","25.0039216666667","6500100","板橋區"
"247005","893-R6","2019/10/08 14:19:23","新北市蘆洲區長安街22巷31弄2號","121.464756666667","25.0799683333333","6501400","蘆洲區"
"247019","546-UM","2019/10/08 14:19:14","新北市蘆洲區仁愛街35巷8號","121.471733333333","25.0927183333333","6501400","蘆洲區"
"247011","337-TH","2019/10/08 14:19:20","新北市蘆洲區民權路3巷14弄13號","121.475266666667","25.0856516666667","6501400","蘆洲區"
"247003","336-TH","2019/10/08 14:19:28","新北市蘆洲區長安街194巷3號","121.459041666667","25.084135","6501400","蘆洲區"
"247023","057-VK","2019/10/08 14:19:17","新北市蘆洲區長榮路776號","121.460901666667","25.0927183333333","6501400","蘆洲區"
"247013","056-VK","2019/10/08 14:19:11","新北市蘆洲區中山一路263號","121.47276","25.0801333333333","6501400","蘆洲區"
"247017","053-VK","2019/10/08 14:19:21","新北市蘆洲區民權路136-2號","121.47315","25.088845","6501400","蘆洲區"
"247021","007-UY","2019/10/08 14:19:19","新北市蘆洲區仁愛街212巷8號","121.464385","25.0941066666667","6501400","蘆洲區"
"247007","002-UY","2019/10/08 14:19:18","新北市蘆洲區信義路34巷3號","121.474528333333","25.0793383333333","6501400","蘆洲區"
"247001","001-UY","2019/10/08 14:19:23","新北市蘆洲區永樂街94號","121.456371666667","25.088655","6501400","蘆洲區"
"235013","251-BX","2019/10/08 14:19:12","新北市中和區景新街271-1號","121.509175","24.9937716666667","6500300","中和區"
"228004","212-TW","2019/10/08 14:19:22","新北市貢寮區雙玉里下雙溪街26號","121.923808333333","25.0099616666667","6502600","貢寮區"
"228005","828-UM","2019/10/08 14:19:26","新北市貢寮區美豐里土地公嶺55號","121.894515","25.0650216666667","6502600","貢寮區"
"207002","749-BX","2019/10/08 14:19:20","新北市萬里區溪底里溪底路1號","121.618256666667","25.1512466666667","6502800","萬里區"
"207001","662-BX","2019/10/08 14:19:26","新北市萬里區磺潭里清水18號","121.637925","25.197655","6502800","萬里區"
"252005","AAC-283","2019/10/08 14:19:26","新北市三芝區橫山里大坑98-1號","121.526106666667","25.2612266666667","6502100","三芝區"
"236040","KED-0685","2019/10/08 14:19:18","新北市土城區裕生路21巷6弄24號","121.448551666667","24.9866033333333","6501300","土城區"
"236074","166-UM","2019/10/08 14:19:13","新北市土城區中央路三段281巷11弄2號","121.426433333333","24.96287","6501300","土城區"
"236029","253-BX","2019/10/08 14:19:27","新北市土城區順風路64-2號","121.44024","24.9774433333333","6501300","土城區"
"236024","269-VK","2019/10/08 14:19:24","新北市土城區承天路18號","121.439488333333","24.9634883333333","6501300","土城區"
"236013","270-VK","2019/10/08 14:19:16","新北市土城區青雲路39巷7號","121.460363333333","24.98745","6501300","土城區"
"236032","271-VK","2019/10/08 14:19:29","新北市土城區青雲路483巷9-1號","121.459485","24.9739616666667","6501300","土城區"
"236065","KEA-2877","2019/10/08 14:19:16","新北市土城區明德路一段128巷2號","121.463193333333","24.97899","6501300","土城區"
"236017","401-BY","2019/10/08 14:19:17","新北市土城區清水路294號","121.462373333333","24.9838283333333","6501300","土城區"
"236060","752-BX","2019/10/08 14:19:18","新北市土城區金城路三段202-3號","121.469343333333","24.988555","6501300","土城區"
"236057","912-UM","2019/10/08 14:19:22","新北市土城區中央路四段297號","121.411288333333","24.9521466666667","6501300","土城區"
"236045","913-UM","2019/10/08 14:19:27","新北市土城區明德路一段365-1號","121.45399","24.97863","6501300","土城區"
"236054","AAC-216","2019/10/08 14:19:10","新北市土城區中華路二段201號","121.437883333333","24.973795","6501300","土城區"
"220027","145-BY","2019/10/08 14:19:16","新北市板橋區民權路260巷1弄6號","121.458071666667","25.0157833333333","6500100","板橋區"
"220030","610-BX","2019/10/08 14:19:17","新北市板橋區滿平街84巷114號","121.426825","24.9865033333333","6500100","板橋區"
"220004","276-BY","2019/10/08 14:19:21","新北市土城區延和路41巷25號","121.46525","24.9907333333333","6500100","板橋區"
"220020","277-BY","2019/10/08 14:19:05","新北市板橋區金門街252號","121.430318333333","24.98696","6500100","板橋區"
"220050","280-UM","2019/10/08 14:19:17","新北市板橋區莊敬路231巷1-1號","121.472401666667","25.0215333333333","6500100","板橋區"
"220019","283-VK","2019/10/08 14:19:25","新北市板橋區大豐街26號","121.461978333333","25.001445","6500100","板橋區"
"220043","285-UM","2019/10/08 14:19:11","新北市板橋區松江街124巷7號","121.469461666667","25.0303183333333","6500100","板橋區"
"220031","286-VK","2019/10/08 14:19:23","新北市板橋區龍興街95巷5號","121.443806666667","25.0024566666667","6500100","板橋區"
"220029","287-VK","2019/10/08 14:19:29","新北市板橋區南雅西路一段10巷7弄17號","121.45397","25.0043883333333","6500100","板橋區"
"220039","288-VK","2019/10/08 14:19:26","新北市板橋區裕民街25號","121.462038333333","25.0288333333333","6500100","板橋區"
"220009","293-UM","2019/10/08 14:19:12","新北市板橋區成功路6巷7號","121.475848333333","25.017055","6500100","板橋區"
"220032","296-UM","2019/10/08 14:19:17","新北市板橋區滿平街136巷10弄12號","121.427241666667","24.9873516666667","6500100","板橋區"
"220001","299-UM","2019/10/08 14:19:26","新北市板橋區縣民大道三段262-4號","121.478206666667","25.022895","6500100","板橋區"
"220023","303-R5","2019/10/08 14:19:12","新北市板橋區南雅南路一段3巷25-6號","121.456736666667","25.005965","6500100","板橋區"
"220010","305-R5","2019/10/08 14:19:18","新北市板橋區三民路二段153巷7弄1號","121.480561666667","25.015095","6500100","板橋區"
"220041","307-R5","2019/10/08 14:19:10","新北市板橋區陽明街48號","121.465391666667","25.0220683333333","6500100","板橋區"
"220047","317-R6","2019/10/08 14:19:18","新北市板橋區自由路51巷9-3號","121.46506","25.0234083333333","6500100","板橋區"
"220028","461-BY","2019/10/08 14:19:21","新北市板橋區大觀路二段7巷33號","121.44808","25.0033933333333","6500100","板橋區"
"220038","487-VK","2019/10/08 14:19:26","新北市板橋區英士路151號","121.459825","25.0241133333333","6500100","板橋區"
"220037","491-VK","2019/10/08 14:19:26","新北市板橋區雙十路二段86號","121.474818333333","25.02821","6500100","板橋區"
"220104","560-BX","2019/10/08 14:19:12","新北市板橋區中正路360巷9號","121.454921666667","25.0237583333333","6500100","板橋區"
"220052","561-BX","2019/10/08 14:19:23","新北市板橋區文化路一段288號","121.467466666667","25.0214516666667","6500100","板橋區"
"220011","609-BX","2019/10/08 14:19:11","新北市板橋區三民路二段257號","121.479011666667","25.01154","6500100","板橋區"
"220022","630-UY","2019/10/08 14:19:21","新北市板橋區文化路一段44號","121.459535","25.011945","6500100","板橋區"
"220040","637-BX","2019/10/08 14:19:12","新北市板橋區縣民大道三段245巷1號","121.481295","25.0259533333333","6500100","板橋區"
"220005","686-BX","2019/10/08 14:19:16","新北市板橋區和平路137號","121.461996666667","24.994735","6500100","板橋區"
"220025","687-BX","2019/10/08 14:19:27","新北市板橋區大觀路二段315號","121.441793333333","24.9987016666667","6500100","板橋區"
"220042","689-BX","2019/10/08 14:19:12","新北市板橋區雨農路27巷2號","121.46117","25.0239716666667","6500100","板橋區"
"220002","741-BX","2019/10/08 14:19:20","新北市板橋區校前街36號","121.46086","25.0031033333333","6500100","板橋區"
"220051","KEA-2699","2019/10/08 14:19:28","新北市板橋區松柏街20號","121.474608333333","25.0296883333333","6500100","板橋區"
"220003","827-TW","2019/10/08 14:19:15","新北市板橋區館前東路156巷21號","121.464255","25.00686","6500100","板橋區"
"220016","830-TW","2019/10/08 14:19:14","新北市板橋區翠華街12巷13號","121.482488333333","25.0244066666667","6500100","板橋區"
"220014","831-TW","2019/10/08 14:19:28","新北市板橋區長安街138巷1弄69號","121.474433333333","25.0109016666667","6500100","板橋區"
"220021","985-R7","2019/10/08 14:19:16","新北市板橋區中正路249號","121.45578","25.0182316666667","6500100","板橋區"
"220046","AAC-210","2019/10/08 14:19:20","新北市板橋區漢生西路89巷2弄3號","121.461823333333","25.0194433333333","6500100","板橋區"
"220012","AAC-253","2019/10/08 14:19:18","新北市板橋區館前西路4-1號","121.459083333333","25.0070933333333","6500100","板橋區"
"235032","KEA-2873","2019/10/08 14:19:24","新北市中和區永和路8巷21號","121.500968333333","25.0035433333333","6500300","中和區"
"235025","KEA-2875","2019/10/08 14:19:06","新北市中和區員山路219巷1弄3號","121.480333333333","24.9979733333333","6500300","中和區"
"235026","KEA-2876","2019/10/08 14:19:10","新北市中和區中山路二段411號","121.486025","25.0042866666667","6500300","中和區"
