"lineid","car","time","location","longitude","latitude","cityid","cityname"
"249005","172-UM","2019/10/08 16:59:26","新北市八里區渡船頭1號","121.4342","25.152295","6502300","八里區"
"249001","173-UM","2019/10/08 16:59:21","新北市八里區中山路三段109號","121.390231666667","25.1421116666667","6502300","八里區"
"249004","303-UY","2019/10/08 16:59:23","新北市八里區博物館路9號","121.415541666667","25.1638166666667","6502300","八里區"
"249002","305-UY","2019/10/08 16:57:14","新北市八里區牛寮埔28-5號","121.432335","25.1433116666667","6502300","八里區"
"249003","593-UM","2019/10/08 16:59:13","新北市八里區中山路二段289號","121.401578333333","25.1486383333333","6502300","八里區"
"244007","080-UY","2019/10/08 16:59:28","新北市林口區中湖43-5號","121.38152","25.0925233333333","6501700","林口區"
"244017","485-VK","2019/10/08 16:59:12","新北市林口區粉寮69號","121.405046666667","25.09082","6501700","林口區"
"244025","837-TS","2019/10/08 16:59:28","新北市林口區中山路146-1號","121.39131","25.07872","6501700","林口區"
"231046","719-UM","2019/10/08 16:59:23","新北市新店區灣潭路29-5號","121.539628333333","24.938685","6500600","新店區"
"241011","013-R5","2019/10/08 16:59:12","新北市三重區仁愛街53巷42號","121.497383333333","25.0723166666667","6500200","三重區"
"241028","022-UY","2019/10/08 16:59:17","新北市三重區中正南路48號","121.493906666667","25.0599416666667","6500200","三重區"
"241008","059-VK","2019/10/08 16:59:12","新北市三重區永福街179巷1號","121.478748333333","25.075","6500200","三重區"
"241002","060-VK","2019/10/08 16:59:26","新北市三重區仁義街225巷31號","121.497573333333","25.0827","6500200","三重區"
"241031","061-VK","2019/10/08 16:59:24","新北市三重區三寧街35號","121.489903333333","25.0601","6500200","三重區"
"241015","062-VK","2019/10/08 16:59:16","新北市三重區長安街57號","121.500515","25.0670966666667","6500200","三重區"
"241017","063-VK","2019/10/08 16:59:26","新北市三重區國隆路12巷5號","121.492696666667","25.06377","6500200","三重區"
"241024","065-VK","2019/10/08 16:59:23","新北市三重區力行路二段17號","121.482058333333","25.0723666666667","6500200","三重區"
"241007","066-VK","2019/10/08 16:59:30","新北市三重區三和路四段145巷187號","121.488248333333","25.0792283333333","6500200","三重區"
"241003","091-VK","2019/10/08 16:59:21","新北市三重區五華街141巷58號","121.493556666667","25.0868016666667","6500200","三重區"
"241006","262-UM","2019/10/08 16:59:33","新北市三重區車路頭街131巷20號","121.48523","25.0759816666667","6500200","三重區"
"241016","266-UM","2019/10/08 16:59:30","新北市三重區中正北路25巷8號","121.49342","25.0628333333333","6500200","三重區"
"241009","267-UM","2019/10/08 16:59:14","新北市三重區仁美街108巷22號","121.48488","25.0805016666667","6500200","三重區"
"241018","268-UM","2019/10/08 16:59:24","新北市三重區六張街126巷2弄2號","121.492033333333","25.0693933333333","6500200","三重區"
"241032","269-UM","2019/10/08 16:59:13","新北市三重區新北大道一段35巷12號","121.485996666667","25.0607733333333","6500200","三重區"
"241013","270-UM","2019/10/08 16:59:23","新北市三重區仁福街68號","121.498178333333","25.0748016666667","6500200","三重區"
"241025","271-UM","2019/10/08 16:59:23","新北市三重區中正北路510號","121.472631666667","25.0714883333333","6500200","三重區"
"241030","KED-0822","2019/10/08 16:59:27","新北市三重區環河南路255號","121.491063333333","25.05057","6500200","三重區"
"241004","475-VK","2019/10/08 16:59:14","新北市三重區五華街92巷3號","121.492601666667","25.08224","6500200","三重區"
"241020","478-VK","2019/10/08 16:59:23","新北市三重區後竹圍街175巷33號","121.485473333333","25.073295","6500200","三重區"
"241026","480-VK","2019/10/08 16:59:12","新北市三重區光興街1號","121.500301666667","25.0604033333333","6500200","三重區"
"241014","543-UM","2019/10/08 16:59:17","新北市三重區三和路二段173巷145號","121.501095","25.0707066666667","6500200","三重區"
"241001","547-UM","2019/10/08 16:59:29","新北市三重區仁愛街247號","121.493528333333","25.07801","6500200","三重區"
"241019","KEA-2593","2019/10/08 16:59:16","新北市三重區力行路一段123巷8號","121.486366666667","25.0686116666667","6500200","三重區"
"241005","AAD-863","2019/10/08 16:59:26","新北市三重區仁華街5號","121.48341","25.0813416666667","6500200","三重區"
"241012","743-BX","2019/10/08 16:59:18","新北市三重區仁和街139號","121.49914","25.07444","6500200","三重區"
"241022","KED-0820","2019/10/08 16:59:21","新北市三重區三民街157巷2號","121.483726666667","25.06452","6500200","三重區"
"241023","887-TS","2019/10/08 16:59:31","新北市三重區忠孝路三段126號","121.480166666667","25.0637433333333","6500200","三重區"
"241029","942-UM","2019/10/08 16:59:17","新北市三重區中正南路269號","121.493246666667","25.0522133333333","6500200","三重區"
"241033","AAC-255","2019/10/08 16:59:24","新北市三重區中興北街271號","121.469191666667","25.0605683333333","6500200","三重區"
"247016","KEA-2869","2019/10/08 16:59:29","新北市蘆洲區中正路69號","121.470361666667","25.0827216666667","6501400","蘆洲區"
"247010","KED-0682","2019/10/08 16:59:13","新北市蘆洲區信義路172號","121.479303333333","25.0839516666667","6501400","蘆洲區"
"235045","565-BX","2019/10/08 16:38:33","新北市中和區員山路36巷13號","121.484206666667","24.9909883333333","6500300","中和區"
"247006","893-R6","2019/10/08 16:59:27","新北市蘆洲區長安街99巷31號","121.460751666667","25.0797283333333","6501400","蘆洲區"
"247020","546-UM","2019/10/08 16:59:22","新北市蘆洲區民族路422巷82弄14號","121.473841666667","25.093795","6501400","蘆洲區"
"247012","337-TH","2019/10/08 16:59:26","新北市蘆洲區信義路296號","121.477675","25.0876616666667","6501400","蘆洲區"
"247004","336-TH","2019/10/08 16:59:22","新北市蘆洲區長安街108巷5弄2號","121.4614","25.081865","6501400","蘆洲區"
"247024","057-VK","2019/10/08 16:59:21","新北市蘆洲區長興路255號","121.460505","25.0875383333333","6501400","蘆洲區"
"247014","056-VK","2019/10/08 16:59:30","新北市蘆洲區中山二路12號","121.475298333333","25.08187","6501400","蘆洲區"
"247018","053-VK","2019/10/08 16:59:11","新北市蘆洲區民族路225號","121.477511666667","25.0896516666667","6501400","蘆洲區"
"247008","002-UY","2019/10/08 16:59:13","新北市蘆洲區中山一路197巷22號","121.47498","25.0799566666667","6501400","蘆洲區"
"247002","001-UY","2019/10/08 16:59:14","新北市蘆洲區永平街1號","121.45919","25.0905116666667","6501400","蘆洲區"
"228001","212-TW","2019/10/08 16:59:09","新北市貢寮區貢寮里朝陽街1-2號","121.912263333333","25.0212433333333","6502600","貢寮區"
"228002","663-BX","2019/10/08 16:59:23","新北市貢寮區貢寮里長泰路24-2號","121.902786666667","25.0239716666667","6502600","貢寮區"
"228003","828-UM","2019/10/08 16:59:29","新北市貢寮區福隆里興隆街13-5號","121.944166666667","25.0165383333333","6502600","貢寮區"
"224006","676-BX","2019/10/08 16:59:17","新北市瑞芳區傑魚坑路257號","121.787238333333","25.1062666666667","6501200","瑞芳區"
"224007","285-BY","2019/10/08 16:59:15","新北市瑞芳區楓子瀨路76號","121.763495","25.0983383333333","6501200","瑞芳區"
"224009","275-VK","2019/10/08 16:59:30","新北市瑞芳區明燈路一段1號","121.826568333333","25.1093333333333","6501200","瑞芳區"
"224008","273-VK","2019/10/08 16:59:18","新北市瑞芳區明燈路一段267號","121.816773333333","25.1085616666667","6501200","瑞芳區"
"224005","271-BY","2019/10/08 16:59:18","新北市瑞芳區鼻頭路247號","121.910591666667","25.1224383333333","6501200","瑞芳區"
"227002","642-TC","2019/10/08 16:59:27","新北市雙溪區上林里內平林107號","121.827016666667","25.02725","6502500","雙溪區"
"227001","400-TW","2019/10/08 16:59:30","新北市雙溪區三貂里十三層34號","121.854246666667","25.0804633333333","6502500","雙溪區"
"251004","009-UM","2019/10/08 16:59:15","新北市淡水區文化路61號","121.438405","25.1728183333333","6501000","淡水區"
"251005","010-UM","2019/10/08 16:59:23","新北市淡水區原德路11號","121.442128333333","25.1713","6501000","淡水區"
"251015","KEA-2871","2019/10/08 16:59:25","新北市淡水區忠愛街5-2號","121.460688333333","25.1716083333333","6501000","淡水區"
"251016","179-VK","2019/10/08 16:59:17","新北市淡水區瓦坑6-1號","121.477626666667","25.1811666666667","6501000","淡水區"
"251013","180-VK","2019/10/08 16:59:20","新北市淡水區泉洲厝32號","121.489306666667","25.192615","6501000","淡水區"
"251008","181-VK","2019/10/08 16:59:16","新北市淡水區樹梅坑9號","121.472801666667","25.1426733333333","6501000","淡水區"
"251007","442-VK","2019/10/08 16:59:27","新北市淡水區中山路21號","121.444156666667","25.1699666666667","6501000","淡水區"
"251012","443-VK","2019/10/08 16:59:31","新北市淡水區中正路二段31號","121.419305","25.1817233333333","6501000","淡水區"
"251006","561-UM","2019/10/08 16:59:16","新北市淡水區中正路261號","121.431163333333","25.175075","6501000","淡水區"
"251009","575-R6","2019/10/08 16:59:23","新北市淡水區中正路二段31號","121.41949","25.1816683333333","6501000","淡水區"
"251014","577-R6","2019/10/08 16:59:32","新北市淡水區淡金路四段472巷22號","121.452856666667","25.2240033333333","6501000","淡水區"
"251011","650-BX","2019/10/08 16:59:32","新北市淡水區淡金路51-1號","121.456151666667","25.1610916666667","6501000","淡水區"
"252002","178-VK","2019/10/08 16:59:24","新北市三芝區忠孝街171號","121.50567","25.261175","6502100","三芝區"
"233002","762-BX","2019/10/08 16:59:28","新北市烏來區環山路96號","121.548705","24.8633766666667","6502900","烏來區"
"252001","KED-0821","2019/10/08 16:59:17","新北市三芝區淡金路二段47-2號","121.50362","25.260545","6502100","三芝區"
"242042","AAC-296","2019/10/08 16:58:29","新北市新莊區新泰路357巷3弄57號","121.44222","25.0392166666667","6500500","新莊區"
"242005","751-BX","2019/10/08 16:59:21","新北市新莊區三和路12-21號","121.44218","25.03832","6500500","新莊區"
"242029","615-BX","2019/10/08 16:59:28","新北市新莊區新泰路357巷3弄57號","121.441848333333","25.0392733333333","6500500","新莊區"
"242027","613-BX","2019/10/08 16:59:17","新北市新莊區新泰路255巷83號","121.442181666667","25.0390733333333","6500500","新莊區"
"242058","612-BX","2019/10/08 16:59:24","新北市新莊區新泰路255巷83號","121.442158333333","25.039015","6500500","新莊區"
"242007","440-UM","2019/10/08 16:59:22","新北市新莊區新泰路255巷83號","121.44228","25.038705","6500500","新莊區"
"242013","413-TV","2019/10/08 16:59:21","新北市新莊區新泰路357巷3弄57號","121.44196","25.0393916666667","6500500","新莊區"
"242025","362-BY","2019/10/08 16:59:16","新北市新莊區新泰路255巷83號","121.442053333333","25.0388816666667","6500500","新莊區"
"242039","135-UY","2019/10/08 16:59:25","新北市新莊區新泰路357巷1弄28號","121.442658333333","25.0406","6500500","新莊區"
"242056","172-VK","2019/10/08 16:59:17","新北市新莊區新泰路357巷3弄1號","121.442413333333","25.041215","6500500","新莊區"
"242021","KED-0687","2019/10/08 16:59:07","新北市新莊區三和路12-21號","121.442098333333","25.0380783333333","6500500","新莊區"
"242044","346-TH","2019/10/08 16:59:15","新北市新莊區中正路400號","121.441943333333","25.03429","6500500","新莊區"
"242037","348-TH","2019/10/08 16:59:18","新北市新莊區新泰路357巷3弄57號","121.442396666667","25.0394833333333","6500500","新莊區"
"242034","350-TH","2019/10/08 16:59:18","新北市新莊區三和路12-21號","121.442271666667","25.0380683333333","6500500","新莊區"
"242019","351-TH","2019/10/08 16:59:24","新北市新莊區新泰路357巷3弄57號","121.442026666667","25.0394683333333","6500500","新莊區"
"238018","KEA-2217","2019/10/08 16:59:32","新北市樹林區育德街78-1號","121.388148333333","24.9679533333333","6500700","樹林區"
"238017","283-BY","2019/10/08 16:59:22","新北市樹林區新興街20-12號","121.398438333333","24.9729616666667","6500700","樹林區"
"239007","AAC-297","2019/10/08 16:59:23","新北市鶯歌區二甲路13-16號","121.345183333333","24.935165","6500800","鶯歌區"
"239006","891-R6","2019/10/08 16:58:57","新北市鶯歌區二甲路13-16號","121.344951666667","24.93517","6500800","鶯歌區"
"239008","527-UM","2019/10/08 16:59:22","新北市鶯歌區二甲路13-16號","121.345081666667","24.9350266666667","6500800","鶯歌區"
"239005","526-UM","2019/10/08 16:59:12","新北市鶯歌區二甲路13-16號","121.345223333333","24.9352533333333","6500800","鶯歌區"
"244019","KED-0667","2019/10/08 16:59:30","新北市林口區文化一路一段190巷7弄2-2號","121.380078333333","25.07456","6501700","林口區"
"233001","KEA-2870","2019/10/08 16:59:12","新北市烏來區溫泉街86巷10號","121.549866666667","24.8615466666667","6502900","烏來區"
"242046","281-VK","2019/10/08 16:59:29","新北市新莊區三和路12-21號","121.442248333333","25.03832","6500500","新莊區"
"242011","280-VK","2019/10/08 16:59:22","新北市新莊區三和路12-21號","121.442048333333","25.0382233333333","6500500","新莊區"
