"lineid","car","time","location","longitude","latitude","cityid","cityname"
"249005","172-UM","2019/10/08 17:29:26","新北市八里區荖阡坑路30號","121.40561","25.129115","6502300","八里區"
"249001","173-UM","2019/10/08 17:29:14","新北市八里區中華路一段5-5號","121.42235","25.158205","6502300","八里區"
"249004","303-UY","2019/10/08 17:29:23","新北市八里區賢三街178號","121.414283333333","25.1565533333333","6502300","八里區"
"249002","305-UY","2019/10/08 17:29:18","新北市八里區龍米路二段56號","121.448046666667","25.1407233333333","6502300","八里區"
"249003","593-UM","2019/10/08 17:29:13","新北市八里區中山路二段398號","121.400545","25.1478433333333","6502300","八里區"
"244007","080-UY","2019/10/08 17:29:28","新北市林口區湖子27號","121.385923333333","25.093475","6501700","林口區"
"244013","KEA-2802","2019/10/08 17:29:23","新北市林口區中山路146-1號","121.39133","25.0787566666667","6501700","林口區"
"244023","483-VK","2019/10/08 17:29:10","新北市林口區興林一街96巷25號","121.391101666667","25.0717083333333","6501700","林口區"
"244017","485-VK","2019/10/08 17:29:32","新北市林口區文化一路二段2號","121.380033333333","25.0767","6501700","林口區"
"244009","656-BX","2019/10/08 17:28:11","新北市林口區中北三街280號","121.382185","25.0826066666667","6501700","林口區"
"244011","701-TV","2019/10/08 17:29:28","新北市林口區中正路443號","121.384706666667","25.0777516666667","6501700","林口區"
"244025","837-TS","2019/10/08 17:29:28","新北市林口區文化二路一段241巷28號","121.365976666667","25.071735","6501700","林口區"
"244021","838-TS","2019/10/08 17:29:22","新北市林口區中山路1號","121.39677","25.078","6501700","林口區"
"243013","646-TV","2019/10/08 17:29:30","新北市泰山區黎明路33號","121.421701666667","25.0605733333333","6501600","泰山區"
"231046","719-UM","2019/10/08 17:12:43","新北市新店區直潭路85號","121.53166","24.9419766666667","6500600","新店區"
"241011","013-R5","2019/10/08 17:29:12","新北市三重區龍濱路283巷8號","121.501206666667","25.0735683333333","6500200","三重區"
"241015","062-VK","2019/10/08 17:29:16","新北市三重區長元街65巷22弄20號","121.503611666667","25.066035","6500200","三重區"
"241017","063-VK","2019/10/08 17:29:27","新北市三重區重新路三段47巷3弄4號","121.493026666667","25.061715","6500200","三重區"
"241024","065-VK","2019/10/08 17:29:23","新北市三重區中正北路191巷3弄6號","121.477978333333","25.069815","6500200","三重區"
"241007","066-VK","2019/10/08 17:29:30","新北市三重區慈愛街82號","121.488145","25.0798316666667","6500200","三重區"
"241003","091-VK","2019/10/08 17:29:21","新北市三重區五華街141巷58號","121.493551666667","25.08678","6500200","三重區"
"241006","262-UM","2019/10/08 17:29:13","新北市五股區中興路二段182巷50號","121.455435","25.0815733333333","6500200","三重區"
"241016","266-UM","2019/10/08 17:29:14","新北市三重區信義西街90號","121.496676666667","25.0643933333333","6500200","三重區"
"241018","268-UM","2019/10/08 17:29:24","新北市三重區新北大道一段1號","121.491378333333","25.0613733333333","6500200","三重區"
"241013","270-UM","2019/10/08 17:29:23","新北市三重區仁愛街141巷10號","121.49579","25.0755383333333","6500200","三重區"
"241030","KED-0822","2019/10/08 17:29:27","新北市三重區中正南路252巷5號","121.493363333333","25.052505","6500200","三重區"
"241020","478-VK","2019/10/08 17:29:23","新北市三重區忠孝路三段47號","121.481068333333","25.066605","6500200","三重區"
"241014","543-UM","2019/10/08 17:29:17","新北市三重區長壽街96號","121.50184","25.0685983333333","6500200","三重區"
"241019","KEA-2593","2019/10/08 17:29:15","新北市三重區力行路一段83號","121.48684","25.067975","6500200","三重區"
"241012","743-BX","2019/10/08 17:29:18","新北市三重區仁興街39巷28號","121.500488333333","25.0763016666667","6500200","三重區"
"241023","887-TS","2019/10/08 17:29:11","新北市三重區忠孝路三段50巷43號","121.482876666667","25.0644966666667","6500200","三重區"
"241033","AAC-255","2019/10/08 17:29:24","新北市三重區興德路145-2號","121.469091666667","25.0527416666667","6500200","三重區"
"247016","KEA-2869","2019/10/08 17:29:29","新北市蘆洲區光華路22巷28號","121.46864","25.0844166666667","6501400","蘆洲區"
"247010","KED-0682","2019/10/08 17:29:13","新北市蘆洲區信義路159號","121.479893333333","25.0817516666667","6501400","蘆洲區"
"247006","893-R6","2019/10/08 17:29:27","新北市蘆洲區長安街22巷31弄25號","121.463923333333","25.080695","6501400","蘆洲區"
"247012","337-TH","2019/10/08 17:29:26","新北市蘆洲區三民路88號","121.473613333333","25.0854216666667","6501400","蘆洲區"
"247004","336-TH","2019/10/08 17:29:22","新北市蘆洲區長安街233巷26號","121.458433333333","25.08249","6501400","蘆洲區"
"247024","057-VK","2019/10/08 17:29:21","新北市蘆洲區長榮路478號","121.460336666667","25.0894233333333","6501400","蘆洲區"
"247014","056-VK","2019/10/08 17:29:30","新北市蘆洲區三民路38-2號","121.475568333333","25.082945","6501400","蘆洲區"
"247018","053-VK","2019/10/08 17:29:11","新北市蘆洲區民義街22巷8號","121.471628333333","25.0882083333333","6501400","蘆洲區"
"247022","007-UY","2019/10/08 17:29:28","新北市蘆洲區三民路341-5號","121.464745","25.0911116666667","6501400","蘆洲區"
"247008","002-UY","2019/10/08 17:29:13","新北市蘆洲區信義路34巷70號","121.47522","25.077665","6501400","蘆洲區"
"247002","001-UY","2019/10/08 17:29:14","新北市蘆洲區永樂街38巷69號","121.458573333333","25.0904866666667","6501400","蘆洲區"
"228001","212-TW","2019/10/08 17:29:29","新北市貢寮區仁理村仁愛路66巷3號","121.926023333333","25.053565","6502600","貢寮區"
"228002","663-BX","2019/10/08 17:29:23","新北市貢寮區福隆里興隆街36號","121.941045","25.01733","6502600","貢寮區"
"228003","828-UM","2019/10/08 17:29:29","新北市貢寮區仁理村尖山腳街20號","121.924765","25.0470666666667","6502600","貢寮區"
"224010","AGQ-8101","2019/10/08 17:29:18","新北市瑞芳區逢甲路93號","121.80728","25.1096333333333","6501200","瑞芳區"
"224006","676-BX","2019/10/08 17:29:17","新北市瑞芳區靜安路四段155號","121.793175","25.1103316666667","6501200","瑞芳區"
"224009","275-VK","2019/10/08 17:29:30","新北市瑞芳區汽車路9-13號","121.846115","25.1110733333333","6501200","瑞芳區"
"224008","273-VK","2019/10/08 17:29:18","新北市瑞芳區侯硐路204號","121.830418333333","25.0881783333333","6501200","瑞芳區"
"224005","271-BY","2019/10/08 17:29:18","新北市瑞芳區海濱路8-6號","121.831156666667","25.1260666666667","6501200","瑞芳區"
"227002","642-TC","2019/10/08 17:21:40","新北市雙溪區共和里東榮街52號","121.866275","25.0336616666667","6502500","雙溪區"
"227001","400-TW","2019/10/08 17:29:30","新北市雙溪區三貂里定福路1-2號","121.850726666667","25.063385","6502500","雙溪區"
"251004","009-UM","2019/10/08 17:12:21","新北市淡水區中正東路二段88巷15號","121.459051666667","25.1504966666667","6501000","淡水區"
"251005","010-UM","2019/10/08 17:29:23","新北市淡水區鄧公路31巷1號","121.451288333333","25.1709083333333","6501000","淡水區"
"251002","012-UM","2019/10/08 17:29:20","新北市淡水區中正路一段21號","121.426415","25.1762766666667","6501000","淡水區"
"251015","KEA-2871","2019/10/08 17:29:25","新北市淡水區三空泉21號","121.468873333333","25.166725","6501000","淡水區"
"251016","179-VK","2019/10/08 17:29:17","新北市淡水區埤島75號","121.454201666667","25.1945016666667","6501000","淡水區"
"251013","180-VK","2019/10/08 17:29:20","新北市淡水區大竹圍5號","121.466571666667","25.1952116666667","6501000","淡水區"
"251008","181-VK","2019/10/08 17:29:16","新北市淡水區大同路104號","121.462036666667","25.13986","6501000","淡水區"
"251010","413-VK","2019/10/08 17:29:12","新北市淡水區中正路二段211號","121.426176666667","25.1890633333333","6501000","淡水區"
"251007","442-VK","2019/10/08 17:29:22","新北市淡水區民生路54號","121.461968333333","25.137955","6501000","淡水區"
"251012","443-VK","2019/10/08 17:29:11","新北市淡水區北新路111號","121.44805","25.1783533333333","6501000","淡水區"
"251006","561-UM","2019/10/08 17:29:12","新北市淡水區大仁街10號","121.442298333333","25.17485","6501000","淡水區"
"251009","575-R6","2019/10/08 17:29:23","新北市淡水區新生街17號","121.43885","25.1733233333333","6501000","淡水區"
"251014","577-R6","2019/10/08 17:29:32","新北市淡水區公埔子10號","121.474071666667","25.2276133333333","6501000","淡水區"
"251011","650-BX","2019/10/08 17:29:32","新北市淡水區三空泉8-1號","121.475881666667","25.1612216666667","6501000","淡水區"
"251003","673-BX","2019/10/08 17:29:20","新北市淡水區中山路157號","121.440726666667","25.1728516666667","6501000","淡水區"
"207003","681-TV","2019/10/08 17:29:20","新北市萬里區龜吼里美崙路38號","121.686383333333","25.1845666666667","6502800","萬里區"
"207004","291-VK","2019/10/08 17:29:24","新北市萬里區萬里里成功新村73號","121.688986666667","25.1749316666667","6502800","萬里區"
"252002","178-VK","2019/10/08 17:29:24","新北市三芝區忠孝街1-15號","121.50558","25.253945","6502100","三芝區"
"252001","KED-0821","2019/10/08 17:29:17","新北市三芝區長安街119號","121.498041666667","25.2596416666667","6502100","三芝區"
"242042","AAC-296","2019/10/08 17:29:29","新北市新莊區新樹路113巷32號","121.438666666667","25.0267033333333","6500500","新莊區"
"242061","986-R7","2019/10/08 17:29:26","新北市新莊區瓊林路59-38號","121.441128333333","25.0234633333333","6500500","新莊區"
"242005","751-BX","2019/10/08 17:29:21","新北市新莊區中港路282號","121.453018333333","25.0441183333333","6500500","新莊區"
"242029","615-BX","2019/10/08 17:29:28","新北市新莊區思源路167號","121.459758333333","25.0448533333333","6500500","新莊區"
"242027","613-BX","2019/10/08 17:29:17","新北市新莊區思源路28號","121.460225","25.0401533333333","6500500","新莊區"
"242058","612-BX","2019/10/08 17:29:24","新北市新莊區中正路400號","121.441643333333","25.033925","6500500","新莊區"
"242048","566-BX","2019/10/08 17:29:19","新北市新莊區四維路210號","121.421358333333","25.0201583333333","6500500","新莊區"
"242054","497-BY","2019/10/08 17:29:22","新北市新莊區瓊林南路218號","121.433605","25.0058333333333","6500500","新莊區"
"242002","441-UM","2019/10/08 17:29:19","新北市新莊區碧江街31號","121.452238333333","25.0331033333333","6500500","新莊區"
"242007","440-UM","2019/10/08 17:29:22","新北市新莊區中華路二段20-2號","121.453208333333","25.0445066666667","6500500","新莊區"
"242013","413-TV","2019/10/08 17:29:21","新北市新莊區中誠街19號","121.451568333333","25.0480166666667","6500500","新莊區"
"242051","400-BY","2019/10/08 17:29:25","新北市新莊區新樹路268巷84號","121.43083","25.0162566666667","6500500","新莊區"
"242025","362-BY","2019/10/08 17:29:16","新北市新莊區中港路266號","121.453236666667","25.0438783333333","6500500","新莊區"
"242023","353-BY","2019/10/08 17:29:16","新北市新莊區公園路150號","121.453131666667","25.040125","6500500","新莊區"
"242015","132-UY","2019/10/08 17:29:31","新北市新莊區新泰路161號","121.447755","25.03707","6500500","新莊區"
"242039","135-UY","2019/10/08 17:29:30","新北市新莊區民安東路37號","121.42886","25.0208983333333","6500500","新莊區"
"242056","172-VK","2019/10/08 17:29:17","新北市新莊區新泰路53號","121.449385","25.0338766666667","6500500","新莊區"
"242017","173-VK","2019/10/08 17:29:21","新北市新莊區中華路一段103號","121.452733333333","25.0439116666667","6500500","新莊區"
"242032","175-VK","2019/10/08 17:29:15","新北市新莊區新泰路440號","121.443303333333","25.0447016666667","6500500","新莊區"
"242021","KED-0687","2019/10/08 17:29:27","新北市新莊區中正路197號","121.452901666667","25.0360583333333","6500500","新莊區"
"242044","346-TH","2019/10/08 17:29:30","新北市新莊區富國路101-1號","121.421343333333","25.02551","6500500","新莊區"
"242037","348-TH","2019/10/08 17:29:18","新北市新莊區建國二路5號","121.434695","25.0237383333333","6500500","新莊區"
"242009","349-TH","2019/10/08 17:29:30","新北市新莊區中原路238號","121.45281","25.0545716666667","6500500","新莊區"
"242034","350-TH","2019/10/08 17:29:18","新北市新莊區新莊路368號","121.449368333333","25.03347","6500500","新莊區"
"242019","351-TH","2019/10/08 17:29:24","新北市新莊區中正路96號","121.45514","25.03673","6500500","新莊區"
"238015","755-BX","2019/10/08 17:29:27","新北市樹林區保安街一段73號","121.422958333333","24.9950566666667","6500700","樹林區"
"238023","601-UM","2019/10/08 17:29:25","新北市樹林區三福街114號","121.406275","25.016235","6500700","樹林區"
"238019","571-TV","2019/10/08 17:29:14","新北市樹林區八德街82號","121.420001666667","24.9813433333333","6500700","樹林區"
"238024","5061-A6","2019/10/08 17:29:22","新北市樹林區鎮前街164號","121.424373333333","24.98997","6500700","樹林區"
"238018","KEA-2217","2019/10/08 17:29:12","新北市樹林區鎮前街165號","121.422365","24.9873683333333","6500700","樹林區"
"238022","KEA-2213","2019/10/08 17:29:23","新北市樹林區仁愛街28號","121.422658333333","24.982205","6500700","樹林區"
"238021","KEA-2539","2019/10/08 17:29:10","新北市樹林區佳園路二段41號","121.391878333333","24.96259","6500700","樹林區"
"238025","303-VK","2019/10/08 17:29:15","新北市樹林區保安街一段296號","121.419056666667","24.997315","6500700","樹林區"
"238017","283-BY","2019/10/08 17:29:22","新北市樹林區中正路460號","121.41289","25.0124616666667","6500700","樹林區"
"238026","172-UY","2019/10/08 17:29:32","新北市樹林區中山路三段41巷6-1號","121.401373333333","24.97487","6500700","樹林區"
"238016","169-UY","2019/10/08 17:29:15","新北市樹林區長壽街28巷4弄15號","121.423753333333","24.9942283333333","6500700","樹林區"
"239007","AAC-297","2019/10/08 17:29:23","新北市鶯歌區行政路97-1號","121.354125","24.956345","6500800","鶯歌區"
"239006","891-R6","2019/10/08 17:29:17","新北市鶯歌區德昌街1號","121.333928333333","24.96081","6500800","鶯歌區"
"239008","527-UM","2019/10/08 17:29:22","新北市鶯歌區西湖街279巷15號","121.340391666667","24.96804","6500800","鶯歌區"
"239005","526-UM","2019/10/08 17:29:12","新北市鶯歌區福隆一街32號","121.325281666667","24.971505","6500800","鶯歌區"
"239001","417-VK","2019/10/08 17:29:24","新北市鶯歌區尖山路卓厝巷1-6號","121.341091666667","24.9460366666667","6500800","鶯歌區"
"239003","360-BY","2019/10/08 17:29:31","新北市鶯歌區德昌街84號","121.332605","24.96008","6500800","鶯歌區"
"239002","359-BY","2019/10/08 17:29:14","新北市鶯歌區國慶街78號","121.350226666667","24.954775","6500800","鶯歌區"
"239004","193-VK","2019/10/08 17:29:28","新北市鶯歌區文化路324巷1-35號","121.352591666667","24.94559","6500800","鶯歌區"
"244019","KED-0667","2019/10/08 17:29:30","新北市林口區文化一路83巷14弄60號","121.372578333333","25.0713833333333","6501700","林口區"
"233001","KEA-2870","2019/10/08 17:29:32","新北市烏來區信福路6巷6號","121.527051666667","24.841105","6502900","烏來區"
"242046","281-VK","2019/10/08 17:29:28","新北市新莊區新樹路65-5號","121.439368333333","25.0308483333333","6500500","新莊區"
"242011","280-VK","2019/10/08 17:29:22","新北市新莊區中港路397號","121.451961666667","25.046965","6500500","新莊區"
"235061","KEA-2875","2019/10/08 17:24:08","新北市中和區員山路36巷16-2號","121.485306666667","24.9916666666667","6500300","中和區"
"235062","KEA-2876","2019/10/08 17:29:32","新北市中和區員山路36巷16-3號","121.485106666667","24.9913916666667","6500300","中和區"
