"lineid","car","time","location","longitude","latitude","cityid","cityname"
"234026","9371-KE","2019/10/08 17:49:48","新北市永和區永平路190號","121.510545","25.009425","6500400","永和區"
"234011","9373-KE","2019/10/08 17:47:20","新北市永和區福和路1號","121.525555","25.0094083333333","6500400","永和區"
"249005","172-UM","2019/10/08 17:49:46","新北市八里區荖阡坑路34-1號","121.402746666667","25.129785","6502300","八里區"
"249001","173-UM","2019/10/08 17:49:34","新北市八里區龍米路二段147-1號","121.44331","25.1500066666667","6502300","八里區"
"249004","303-UY","2019/10/08 17:49:43","新北市八里區中華路一段81巷28號","121.419396666667","25.1546166666667","6502300","八里區"
"249002","305-UY","2019/10/08 17:49:38","新北市八里區龍形五街37巷3號","121.448531666667","25.132265","6502300","八里區"
"249003","593-UM","2019/10/08 17:49:53","新北市八里區中山路二段20號","121.409778333333","25.1568266666667","6502300","八里區"
"232011","375-UM","2019/10/08 17:49:39","新北市坪林區北宜路八段206號","121.70839","24.934735","6502000","坪林區"
"244007","080-UY","2019/10/08 17:49:48","新北市林口區竹林路77-8號","121.38858","25.0797016666667","6501700","林口區"
"244013","KEA-2802","2019/10/08 17:49:43","新北市林口區林口路31號","121.390791666667","25.0786266666667","6501700","林口區"
"244023","483-VK","2019/10/08 17:49:50","新北市林口區興林路146號","121.388786666667","25.0723833333333","6501700","林口區"
"244017","485-VK","2019/10/08 17:49:32","新北市林口區文化二路一段230巷3-1號","121.370453333333","25.071965","6501700","林口區"
"244009","656-BX","2019/10/08 17:49:51","新北市林口區竹林路584號","121.386573333333","25.0830216666667","6501700","林口區"
"244011","701-TV","2019/10/08 17:49:48","新北市林口區中正路184號","121.391876666667","25.0775366666667","6501700","林口區"
"244025","837-TS","2019/10/08 17:49:47","新北市林口區忠孝三路42號","121.360055","25.0702633333333","6501700","林口區"
"244021","838-TS","2019/10/08 17:49:42","新北市林口區新寮42-3號","121.403388333333","25.0653066666667","6501700","林口區"
"222003","436-BY","2019/10/08 17:49:42","新北市深坑區阿柔洋60-1號","121.608625","24.998495","6501800","深坑區"
"222002","659-BX","2019/10/08 17:49:38","新北市深坑區平埔街22巷17弄1號","121.614893333333","25.00085","6501800","深坑區"
"241024","065-VK","2019/10/08 17:49:43","新北市三重區力行路二段9巷6號","121.482671666667","25.0723166666667","6500200","三重區"
"241033","AAC-255","2019/10/08 17:49:44","新北市三重區重新路五段563號","121.47037","25.0460033333333","6500200","三重區"
"247016","KEA-2869","2019/10/08 17:49:49","新北市蘆洲區中正路185巷25弄23號","121.467385","25.08385","6501400","蘆洲區"
"247010","KED-0682","2019/10/08 17:49:33","新北市蘆洲區信義路210號","121.479066666667","25.0849466666667","6501400","蘆洲區"
"235045","565-BX","2019/10/08 17:49:34","新北市中和區員山路36巷13號","121.484203333333","24.9909983333333","6500300","中和區"
"235057","801-TS","2019/10/08 17:49:51","新北市中和區員山路36巷16-2號","121.485146666667","24.9915616666667","6500300","中和區"
"235064","911-UM","2019/10/08 17:49:49","新北市中和區員山路36巷16-3號","121.485016666667","24.99131","6500300","中和區"
"235037","AAC-213","2019/10/08 17:49:36","新北市中和區錦和路350-1號","121.490076666667","24.99354","6500300","中和區"
"247006","893-R6","2019/10/08 17:49:47","新北市蘆洲區長安街22巷3弄2號","121.464343333333","25.0795133333333","6501400","蘆洲區"
"247020","546-UM","2019/10/08 17:49:42","新北市蘆洲區民權路188-3號","121.471511666667","25.09078","6501400","蘆洲區"
"247012","337-TH","2019/10/08 17:49:46","新北市蘆洲區復興路113號","121.47729","25.0881016666667","6501400","蘆洲區"
"247004","336-TH","2019/10/08 17:49:42","新北市蘆洲區長安街194巷22號","121.459671666667","25.0844133333333","6501400","蘆洲區"
"247024","057-VK","2019/10/08 17:49:40","新北市蘆洲區光榮路59號","121.461028333333","25.0885316666667","6501400","蘆洲區"
"247014","056-VK","2019/10/08 17:49:50","新北市蘆洲區保和街69巷18號","121.469693333333","25.0852183333333","6501400","蘆洲區"
"247022","007-UY","2019/10/08 17:49:48","新北市蘆洲區中正路436號","121.462648333333","25.094645","6501400","蘆洲區"
"247008","002-UY","2019/10/08 17:49:33","新北市蘆洲區中山一路237號","121.47344","25.080635","6501400","蘆洲區"
"247002","001-UY","2019/10/08 17:49:54","新北市蘆洲區永平街32巷21弄35號","121.457843333333","25.0922383333333","6501400","蘆洲區"
"228001","212-TW","2019/10/08 17:49:49","新北市貢寮區仁理村仁愛路95-1號","121.927636666667","25.0554466666667","6502600","貢寮區"
"228002","663-BX","2019/10/08 17:49:43","新北市貢寮區福隆里外隆林街16-4號","121.95767","25.0052716666667","6502600","貢寮區"
"228003","828-UM","2019/10/08 17:49:49","新北市貢寮區真理里美艷山街13-1號","121.928288333333","25.0605516666667","6502600","貢寮區"
"224006","676-BX","2019/10/08 17:49:36","新北市瑞芳區傑魚坑路183號","121.788425","25.10829","6501200","瑞芳區"
"224009","275-VK","2019/10/08 17:49:50","新北市瑞芳區新山路30號","121.852421666667","25.1092333333333","6501200","瑞芳區"
"224008","273-VK","2019/10/08 17:49:41","新北市瑞芳區明燈路一段206號","121.818415","25.10877","6501200","瑞芳區"
"224005","271-BY","2019/10/08 17:49:52","新北市瑞芳區建基路一段50巷1號","121.817561666667","25.127275","6501200","瑞芳區"
"227002","642-TC","2019/10/08 17:21:40","新北市雙溪區共和里東榮街52號","121.866275","25.0336616666667","6502500","雙溪區"
"227001","400-TW","2019/10/08 17:49:50","新北市雙溪區三貂里定福路1-2號","121.8507","25.0633633333333","6502500","雙溪區"
"253006","295-VK","2019/10/08 17:49:39","新北市石門區老梅路52巷25弄2-1號","121.5468","25.28661","6502200","石門區"
"208002","KEA-2872","2019/10/08 17:49:51","新北市金山區磺清路135號","121.6394","25.2276733333333","6502700","金山區"
"251004","009-UM","2019/10/08 17:49:41","新北市淡水區民權一街19號","121.458721666667","25.1362966666667","6501000","淡水區"
"251005","010-UM","2019/10/08 17:49:43","新北市淡水區學府路102巷5-3號","121.45062","25.17197","6501000","淡水區"
"251002","012-UM","2019/10/08 17:49:40","新北市淡水區中山路104號","121.442386666667","25.17073","6501000","淡水區"
"251015","KEA-2871","2019/10/08 17:49:25","新北市淡水區興福寮6號","121.491976666667","25.1653716666667","6501000","淡水區"
"251016","179-VK","2019/10/08 17:49:37","新北市淡水區埤島39-15號","121.452755","25.1958866666667","6501000","淡水區"
"251013","180-VK","2019/10/08 17:49:40","新北市淡水區泉洲厝31號","121.479538333333","25.191015","6501000","淡水區"
"251008","181-VK","2019/10/08 17:49:36","新北市淡水區八勢路一段123巷7弄2號","121.466416666667","25.1571783333333","6501000","淡水區"
"251010","413-VK","2019/10/08 17:49:52","新北市淡水區中正路二段12號","121.420048333333","25.1804533333333","6501000","淡水區"
"251007","442-VK","2019/10/08 17:49:41","新北市淡水區民生路16巷18號","121.461391666667","25.1374816666667","6501000","淡水區"
"251012","443-VK","2019/10/08 17:49:51","新北市淡水區北新路一段268號","121.462675","25.1821383333333","6501000","淡水區"
"251006","561-UM","2019/10/08 17:49:32","新北市淡水區大信街1巷25號","121.440236666667","25.1767533333333","6501000","淡水區"
"251009","575-R6","2019/10/08 17:49:43","新北市淡水區長興街16-3號","121.443926666667","25.1708883333333","6501000","淡水區"
"251014","577-R6","2019/10/08 17:49:52","新北市淡水區公埔子16-6號","121.48102","25.2245516666667","6501000","淡水區"
"251011","650-BX","2019/10/08 17:49:52","新北市淡水區小坪頂13-3號","121.486621666667","25.1561616666667","6501000","淡水區"
"251003","673-BX","2019/10/08 17:49:40","新北市淡水區大忠街5巷2號","121.443121666667","25.176355","6501000","淡水區"
"207003","681-TV","2019/10/08 17:49:40","新北市萬里區野柳里東澳路66號","121.69281","25.2010066666667","6502800","萬里區"
"207004","291-VK","2019/10/08 17:49:50","新北市萬里區萬里里瑪鋉路89號","121.688675","25.177275","6502800","萬里區"
"252002","178-VK","2019/10/08 17:49:44","新北市三芝區智成街27號","121.50347","25.256615","6502100","三芝區"
"237009","210-TH","2019/10/08 17:49:40","新北市三峽區大勇路17號","121.367185","24.93669","6500900","三峽區"
"237013","252-BX","2019/10/08 17:49:51","新北市三峽區介壽路一段232號","121.378488333333","24.9304583333333","6500900","三峽區"
"237012","275-BY","2019/10/08 17:49:48","新北市三峽區文化路32號","121.373145","24.93613","6500900","三峽區"
"237008","302-VK","2019/10/08 17:49:47","新北市三峽區中正路二段46-1號","121.366821666667","24.9192466666667","6500900","三峽區"
"237014","433-BY","2019/10/08 17:49:45","新北市三峽區文化路120巷7號","121.370958333333","24.9365216666667","6500900","三峽區"
"237006","5529-G3","2019/10/08 17:49:45","新北市三峽區介壽路二段38巷75-1號","121.392033333333","24.93361","6500900","三峽區"
"237011","078-UY","2019/10/08 17:49:44","新北市三峽區民權街134號","121.368666666667","24.9319216666667","6500900","三峽區"
"237010","706-TV","2019/10/08 17:49:50","新北市三峽區復興路179號","121.369571666667","24.9386683333333","6500900","三峽區"
"237005","AKY-6261","2019/10/08 17:49:46","新北市三峽區中山路154號","121.364883333333","24.93638","6500900","三峽區"
"236042","KED-0685","2019/10/08 17:49:48","新北市土城區城林路6巷80號","121.438533333333","24.9796483333333","6501300","土城區"
"233002","762-BX","2019/10/08 17:49:48","新北市烏來區烏來街29號","121.551343333333","24.8652683333333","6502900","烏來區"
"236079","166-UM","2019/10/08 17:49:34","新北市土城區中央路三段140號","121.433208333333","24.9655516666667","6501300","土城區"
"236030","253-BX","2019/10/08 17:49:31","新北市土城區城林路6巷80號","121.438681666667","24.9796566666667","6501300","土城區"
"236026","269-VK","2019/10/08 17:49:45","新北市土城區城林路6巷80號","121.438465","24.9796216666667","6501300","土城區"
"236014","270-VK","2019/10/08 17:49:47","新北市土城區城林路6巷80號","121.438411666667","24.9795966666667","6501300","土城區"
"236038","271-VK","2019/10/08 17:49:53","新北市土城區城林路6巷80號","121.43849","24.9797616666667","6501300","土城區"
"236070","KEA-2877","2019/10/08 17:49:43","新北市土城區明德路二段65號","121.451956666667","24.980605","6501300","土城區"
"252001","KED-0821","2019/10/08 17:49:37","新北市三芝區中興街一段37號","121.497593333333","25.25779","6502100","三芝區"
"236021","401-BY","2019/10/08 17:49:40","新北市土城區城林路6巷80號","121.438511666667","24.9797616666667","6501300","土城區"
"236059","912-UM","2019/10/08 17:49:42","新北市土城區中央路三段42號","121.437545","24.968195","6501300","土城區"
"236055","AAC-216","2019/10/08 17:49:41","新北市土城區城林路6巷80號","121.438453333333","24.9795816666667","6501300","土城區"
"242042","AAC-296","2019/10/08 17:49:49","新北市泰山區貴陽街29號","121.422203333333","25.0330183333333","6500500","新莊區"
"242061","986-R7","2019/10/08 17:49:46","新北市新莊區瓊林南路118-45號","121.434268333333","25.0098116666667","6500500","新莊區"
"242005","751-BX","2019/10/08 17:49:54","新北市新莊區思源路177巷4號","121.45936","25.04532","6500500","新莊區"
"242029","615-BX","2019/10/08 17:49:48","新北市新莊區復興路一段31號","121.446376666667","25.0418816666667","6500500","新莊區"
"242027","613-BX","2019/10/08 17:49:39","新北市新莊區福壽街153號","121.457973333333","25.0531966666667","6500500","新莊區"
"242058","612-BX","2019/10/08 17:49:43","新北市新莊區中正路700-13號","121.418468333333","25.027595","6500500","新莊區"
"242048","566-BX","2019/10/08 17:49:49","新北市新莊區萬安街60巷1號","121.420678333333","25.0235833333333","6500500","新莊區"
"242054","497-BY","2019/10/08 17:49:41","新北市新莊區民安西路468-1號","121.43167","25.0078166666667","6500500","新莊區"
"242002","441-UM","2019/10/08 17:49:39","新北市新莊區景德路174號","121.450266666667","25.0341516666667","6500500","新莊區"
"242007","440-UM","2019/10/08 17:49:42","新北市新莊區福樂街61號","121.457393333333","25.0475966666667","6500500","新莊區"
"242013","413-TV","2019/10/08 17:49:41","新北市新莊區中誠街142巷13弄2號","121.448645","25.048095","6500500","新莊區"
"242051","400-BY","2019/10/08 17:49:45","新北市新莊區西盛街232巷20號","121.427293333333","25.0164366666667","6500500","新莊區"
"242025","362-BY","2019/10/08 17:49:46","新北市新莊區新北大道二段143號","121.46574","25.06138","6500500","新莊區"
"242023","353-BY","2019/10/08 17:49:36","新北市新莊區福樂街35號","121.457676666667","25.046845","6500500","新莊區"
"242015","132-UY","2019/10/08 17:49:29","新北市新莊區新泰路406巷1弄1號","121.444148333333","25.0439566666667","6500500","新莊區"
"242039","135-UY","2019/10/08 17:49:50","新北市新莊區民安路144巷1號","121.424351666667","25.0250116666667","6500500","新莊區"
"242056","172-VK","2019/10/08 17:49:37","新北市新莊區瓊林路40巷20-3號","121.4471","25.030225","6500500","新莊區"
"242017","173-VK","2019/10/08 17:49:50","新北市新莊區永安街70號","121.450981666667","25.04467","6500500","新莊區"
"242032","175-VK","2019/10/08 17:49:54","新北市新莊區新泰路402號","121.443856666667","25.0437116666667","6500500","新莊區"
"242021","KED-0687","2019/10/08 17:49:47","新北市新莊區永寧街34巷2號","121.452961666667","25.039455","6500500","新莊區"
"242044","346-TH","2019/10/08 17:49:35","新北市新莊區富國路17號","121.418546666667","25.02652","6500500","新莊區"
"242037","348-TH","2019/10/08 17:49:54","新北市新莊區後港一路103號","121.42823","25.0270066666667","6500500","新莊區"
"242009","349-TH","2019/10/08 17:49:50","新北市新莊區昌明街14巷7弄11號","121.456786666667","25.0533566666667","6500500","新莊區"
"242034","350-TH","2019/10/08 17:49:38","新北市新莊區新莊路662號","121.442423333333","25.0327233333333","6500500","新莊區"
"242019","351-TH","2019/10/08 17:49:51","新北市新莊區民樂街65巷10號","121.457438333333","25.0419116666667","6500500","新莊區"
"238015","755-BX","2019/10/08 17:49:35","新北市樹林區啟智街77巷9號","121.42064","24.99186","6500700","樹林區"
"238023","601-UM","2019/10/08 17:49:53","新北市樹林區龍興街32巷29號","121.402055","25.0155","6500700","樹林區"
"238019","571-TV","2019/10/08 17:49:54","新北市樹林區太順街7號","121.41991","24.9802333333333","6500700","樹林區"
"238018","KEA-2217","2019/10/08 17:49:52","新北市樹林區博愛街121巷14-6號","121.426163333333","24.9910016666667","6500700","樹林區"
"238022","KEA-2213","2019/10/08 17:49:43","新北市樹林區太順街62巷3弄35號","121.416486666667","24.9791016666667","6500700","樹林區"
"238021","KEA-2539","2019/10/08 17:49:50","新北市樹林區田尾街60號","121.409191666667","24.9599016666667","6500700","樹林區"
"238025","303-VK","2019/10/08 17:49:35","新北市樹林區三俊街71-2號","121.415143333333","25.0155266666667","6500700","樹林區"
"238017","283-BY","2019/10/08 17:49:42","新北市樹林區三德街64-2號","121.416333333333","25.0146416666667","6500700","樹林區"
"238014","282-BY","2019/10/08 17:49:50","新北市樹林區大安路179號","121.421226666667","24.9962166666667","6500700","樹林區"
"238020","268-VK","2019/10/08 17:49:55","新北市樹林區俊英街121巷2號","121.424593333333","25.0105233333333","6500700","樹林區"
"238026","172-UY","2019/10/08 17:49:32","新北市樹林區新興街19巷2弄7號","121.400991666667","24.97272","6500700","樹林區"
"238016","169-UY","2019/10/08 17:49:35","新北市樹林區復興路288號","121.417571666667","24.98766","6500700","樹林區"
"239007","AAC-297","2019/10/08 17:49:43","新北市鶯歌區永明街20號","121.338608333333","24.9551966666667","6500800","鶯歌區"
"239006","891-R6","2019/10/08 17:49:37","新北市鶯歌區永和街113號","121.333591666667","24.9687483333333","6500800","鶯歌區"
"239008","527-UM","2019/10/08 17:49:43","新北市鶯歌區大湖路361巷1號","121.33115","24.9779533333333","6500800","鶯歌區"
"239005","526-UM","2019/10/08 17:49:52","新北市鶯歌區鶯桃路二段6號","121.326216666667","24.972005","6500800","鶯歌區"
"239001","417-VK","2019/10/08 17:49:44","新北市鶯歌區中正三路265號","121.333038333333","24.9382016666667","6500800","鶯歌區"
"239003","360-BY","2019/10/08 17:49:51","新北市鶯歌區鶯桃路234巷1號","121.336531666667","24.959375","6500800","鶯歌區"
"239002","359-BY","2019/10/08 17:49:34","新北市鶯歌區光明街186號","121.34416","24.9557983333333","6500800","鶯歌區"
"239004","193-VK","2019/10/08 17:49:47","新北市鶯歌區文化路393巷13號","121.35273","24.9508916666667","6500800","鶯歌區"
"221008","489-VK","2019/10/08 17:49:51","新北市汐止區康寧街901號","121.651443333333","25.0750416666667","6501100","汐止區"
"244019","KED-0667","2019/10/08 17:49:50","新北市林口區文化一路一段110號","121.373786666667","25.0714433333333","6501700","林口區"
"221010","269-BY","2019/10/08 17:49:55","新北市汐止區汐萬路二段66巷3弄11號","121.64915","25.082495","6501100","汐止區"
"221031","353-TW","2019/10/08 17:49:40","新北市汐止區連峰街1巷5號","121.645875","25.0759683333333","6501100","汐止區"
"233001","KEA-2870","2019/10/08 17:49:32","新北市烏來區瀑布路24號","121.543721666667","24.84695","6502900","烏來區"
"242046","281-VK","2019/10/08 17:49:52","新北市新莊區建國一路60號","121.434285","25.0308566666667","6500500","新莊區"
"242011","280-VK","2019/10/08 17:49:42","新北市新莊區中原路201-3號","121.451136666667","25.0541666666667","6500500","新莊區"
"235061","KEA-2875","2019/10/08 17:24:08","新北市中和區員山路36巷16-2號","121.485306666667","24.9916666666667","6500300","中和區"
"235062","KEA-2876","2019/10/08 17:49:32","新北市中和區員山路36巷16-3號","121.485003333333","24.9915","6500300","中和區"
