"lineid","car","time","location","longitude","latitude","cityid","cityname"
"234086","338-UY","2019/10/08 18:19:38","新北市永和區福和路1號","121.526395","25.01003","6500400","永和區"
"234017","745-BX","2019/10/08 18:19:36","新北市永和區福和路1號","121.526508333333","25.0097033333333","6500400","永和區"
"234026","9371-KE","2019/10/08 18:19:43","新北市永和區大新街19巷1號","121.514895","25.0087516666667","6500400","永和區"
"234011","9373-KE","2019/10/08 18:19:38","新北市永和區環河東路二段8號","121.522203333333","25.0135583333333","6500400","永和區"
"249005","172-UM","2019/10/08 18:19:46","新北市八里區荖阡坑路15號","121.401188333333","25.1401533333333","6502300","八里區"
"249001","173-UM","2019/10/08 18:19:34","新北市八里區龍米路一段131號","121.452221666667","25.12677","6502300","八里區"
"249004","303-UY","2019/10/08 18:19:43","新北市八里區龍米路二段232巷3號","121.431571666667","25.1589866666667","6502300","八里區"
"249002","305-UY","2019/10/08 18:19:38","新北市八里區龍形二街35號","121.450478333333","25.13279","6502300","八里區"
"248014","025-BX","2019/10/08 18:19:44","新北市五股區自強路19巷24號","121.434523333333","25.073735","6501500","五股區"
"248016","026-BX","2019/10/08 18:19:42","新北市五股區成泰路三段477巷18號","121.449888333333","25.0988866666667","6501500","五股區"
"248006","077-UY","2019/10/08 18:19:41","新北市五股區中興路一段70號","121.466848333333","25.0730283333333","6501500","五股區"
"248008","KED-0815","2019/10/08 18:19:44","新北市五股區更洲路32巷8弄14號","121.459226666667","25.07961","6501500","五股區"
"248020","KED-0813","2019/10/08 18:19:41","新北市五股區孝義路47巷1-2號","121.454081666667","25.1104466666667","6501500","五股區"
"248012","247-BX","2019/10/08 18:19:49","新北市五股區御史路1巷101弄2號","121.440968333333","25.0910616666667","6501500","五股區"
"248004","677-BX","2019/10/08 18:19:41","新北市五股區成泰路二段101號","121.438351666667","25.0843433333333","6501500","五股區"
"248002","678-BX","2019/10/08 18:19:38","新北市五股區西雲路46號","121.443491666667","25.09089","6501500","五股區"
"248010","682-TV","2019/10/08 18:19:40","新北市五股區成泰路一段191號","121.43483","25.0765933333333","6501500","五股區"
"232011","375-UM","2019/10/08 18:19:39","新北市坪林區坪雙路一段41號","121.711713333333","24.9424366666667","6502000","坪林區"
"244007","080-UY","2019/10/08 18:19:48","新北市林口區湖子22-1號","121.385933333333","25.0927816666667","6501700","林口區"
"244013","KEA-2802","2019/10/08 18:19:43","新北市林口區中山路297巷86號","121.383113333333","25.0795866666667","6501700","林口區"
"244023","483-VK","2019/10/08 18:19:50","新北市林口區東湖路155號","121.383105","25.073115","6501700","林口區"
"244017","485-VK","2019/10/08 18:19:52","新北市林口區公園路28號","121.366835","25.0674833333333","6501700","林口區"
"244009","656-BX","2019/10/08 18:19:51","新北市林口區文林一街11巷35號","121.3766","25.08644","6501700","林口區"
"244011","701-TV","2019/10/08 18:19:48","新北市林口區新生街6號","121.394235","25.0769016666667","6501700","林口區"
"244025","837-TS","2019/10/08 18:19:47","新北市林口區文化北路一段192-100號","121.357593333333","25.0706533333333","6501700","林口區"
"244021","838-TS","2019/10/08 18:19:42","新北市林口區自強三街25號","121.398035","25.0774","6501700","林口區"
"222003","436-BY","2019/10/08 18:19:42","新北市深坑區旺耽路67號","121.626218333333","25.0029783333333","6501800","深坑區"
"222002","659-BX","2019/10/08 18:19:38","新北市深坑區雲鄉路2號","121.620935","24.9997833333333","6501800","深坑區"
"231061","002-UM","2019/10/08 18:19:44","新北市新店區安華路28-1號","121.519701666667","24.9608833333333","6500600","新店區"
"231058","0293-UT","2019/10/08 18:19:45","新北市新店區安康路一段92-1號","121.527876666667","24.9620583333333","6500600","新店區"
"231044","046-UY","2019/10/08 18:19:52","新北市新店區安華路28-1號","121.519361666667","24.960915","6500600","新店區"
"231060","106-UY","2019/10/08 18:19:47","新北市新店區安華路28-1號","121.519566666667","24.9607966666667","6500600","新店區"
"231051","107-UY","2019/10/08 18:19:48","新北市新店區安一路一段1-1號","121.519703333333","24.9611866666667","6500600","新店區"
"231062","256-BX","2019/10/08 18:19:42","新北市新店區安一路一段1-1號","121.519696666667","24.9611766666667","6500600","新店區"
"231054","260-TV","2019/10/08 18:19:41","新北市新店區安一路一段1-1號","121.519266666667","24.9612016666667","6500600","新店區"
"231042","268-BY","2019/10/08 18:19:38","新北市新店區安一路一段1-1號","121.519673333333","24.961305","6500600","新店區"
"231064","278-BY","2019/10/08 18:19:41","新北市新店區安一路一段1-1號","121.52004","24.9611966666667","6500600","新店區"
"231050","AAD-862","2019/10/08 18:19:43","新北市新店區安華路28-1號","121.519646666667","24.9609366666667","6500600","新店區"
"231055","4716-K9","2019/10/08 18:19:52","新北市新店區安康路一段227號","121.525585","24.9630766666667","6500600","新店區"
"231056","4715-K9","2019/10/08 18:18:15","新北市新店區環河路118號","121.536736666667","24.9678416666667","6500600","新店區"
"231053","513-UM","2019/10/08 18:19:45","新北市新店區安康路一段11號","121.533558333333","24.9604966666667","6500600","新店區"
"231063","641-BX","2019/10/08 18:19:39","新北市新店區安華路28-1號","121.51982","24.9606833333333","6500600","新店區"
"231057","720-UM","2019/10/08 18:19:51","新北市新店區安一路一段1-1號","121.519111666667","24.96132","6500600","新店區"
"231059","897-TW","2019/10/08 18:19:45","新北市新店區安華路28-1號","121.519553333333","24.9606783333333","6500600","新店區"
"231043","899-TW","2019/10/08 18:19:38","新北市新店區安華路28-1號","121.519198333333","24.9608666666667","6500600","新店區"
"241033","AAC-255","2019/10/08 18:19:44","新北市三重區光復路一段54巷1號","121.471986666667","25.04872","6500200","三重區"
"235066","003-UY","2019/10/08 18:19:44","新北市中和區橋和路274-1號","121.495893333333","25.006675","6500300","中和區"
"235063","006-UY","2019/10/08 18:19:51","新北市中和區連城路347巷39號","121.488538333333","24.99484","6500300","中和區"
"235039","097-UM","2019/10/08 18:19:36","新北市中和區景平路359號","121.504598333333","24.993275","6500300","中和區"
"235065","098-UM","2019/10/08 18:19:50","新北市中和區莊敬路49巷18號","121.501651666667","25.0060583333333","6500300","中和區"
"235040","150-BY","2019/10/08 18:19:39","新北市中和區中正路273-2號","121.495695","24.99354","6500300","中和區"
"235058","151-BY","2019/10/08 18:19:42","新北市中和區圓通路391-7號","121.489723333333","24.98914","6500300","中和區"
"235055","183-VK","2019/10/08 18:19:39","新北市中和區中山路三段156號","121.47324","25.00634","6500300","中和區"
"235038","185-VK","2019/10/08 18:19:52","新北市中和區自立路46號","121.522883333333","24.9921683333333","6500300","中和區"
"235072","301-VK","2019/10/08 18:19:51","新北市中和區安邦街10號","121.495541666667","24.998","6500300","中和區"
"235043","352-BY","2019/10/08 18:19:34","新北市中和區景平路504巷2號","121.503981666667","24.993565","6500300","中和區"
"235042","KEA-2878","2019/10/08 18:19:41","新北市中和區自強路61號","121.521593333333","24.9913933333333","6500300","中和區"
"235050","4979-A6","2019/10/08 18:19:49","新北市中和區捷運路61巷9號","121.508978333333","24.98938","6500300","中和區"
"235069","4980-A6","2019/10/08 18:19:52","新北市中和區連城路127巷19-10號","121.496786666667","24.9981583333333","6500300","中和區"
"235070","558-UM","2019/10/08 18:19:43","新北市中和區景平路429號","121.501483333333","24.9953333333333","6500300","中和區"
"235045","565-BX","2019/10/08 18:19:54","新北市中和區南山路236巷24弄48號","121.50471","24.9886283333333","6500300","中和區"
"235060","KED-0823","2019/10/08 18:19:40","新北市中和區員山路283號","121.481241666667","24.9997483333333","6500300","中和區"
"235054","640-BX","2019/10/08 18:19:44","新北市中和區民享街91-10號","121.474585","25.0008266666667","6500300","中和區"
"235047","732-UM","2019/10/08 18:19:48","新北市中和區南山路479號","121.507923333333","24.9882916666667","6500300","中和區"
"235057","801-TS","2019/10/08 18:19:51","新北市中和區民安街45號","121.479826666667","25.00019","6500300","中和區"
"235041","802-TS","2019/10/08 18:19:41","新北市中和區中正路194號","121.497285","24.9938516666667","6500300","中和區"
"235052","805-TS","2019/10/08 18:19:49","新北市中和區興南路二段29號","121.507803333333","24.9858383333333","6500300","中和區"
"235048","896-TW","2019/10/08 18:19:48","新北市中和區中正路277號","121.495358333333","24.9937533333333","6500300","中和區"
"235053","900-TW","2019/10/08 18:19:48","新北市中和區連城路523巷13弄16號","121.482048333333","24.993535","6500300","中和區"
"235064","911-UM","2019/10/08 18:19:49","新北市中和區圓通路167巷27號","121.498486666667","24.9943016666667","6500300","中和區"
"235051","157-BY","2019/10/08 18:19:35","新北市中和區忠孝街1巷2-1號","121.509111666667","24.9830333333333","6500300","中和區"
"235037","AAC-213","2019/10/08 18:19:36","新北市中和區景德街95-9號","121.515186666667","24.9911916666667","6500300","中和區"
"220065","072-UY","2019/10/08 18:19:53","新北市板橋區華東街1-9號","121.448183333333","24.9949383333333","6500100","板橋區"
"226004","312-R5","2019/10/08 18:19:47","新北市平溪區薯榔里一坑路59號","121.71329","25.0221916666667","6502400","平溪區"
"235049","251-BX","2019/10/08 18:19:50","新北市中和區錦和路350-1號","121.490071666667","24.993585","6500300","中和區"
"228001","212-TW","2019/10/08 18:19:49","新北市貢寮區真理里新港街26巷55弄2-1號","121.927413333333","25.05289","6502600","貢寮區"
"228002","663-BX","2019/10/08 18:19:43","新北市貢寮區福連里馬崗街1號","121.998173333333","25.0157866666667","6502600","貢寮區"
"228003","828-UM","2019/10/08 18:19:49","新北市貢寮區和美里和美街63號","121.922196666667","25.0712066666667","6502600","貢寮區"
"224010","AGQ-8101","2019/10/08 18:19:38","新北市瑞芳區崙頂路39-2號","121.844925","25.1071883333333","6501200","瑞芳區"
"224006","676-BX","2019/10/08 18:19:36","新北市瑞芳區民權街3-2號","121.808035","25.107405","6501200","瑞芳區"
"224007","285-BY","2019/10/08 18:19:41","新北市瑞芳區大埔路國宅新村70號","121.765143333333","25.100435","6501200","瑞芳區"
"224009","275-VK","2019/10/08 18:19:50","新北市瑞芳區祈堂路184號","121.857566666667","25.1094933333333","6501200","瑞芳區"
"224008","273-VK","2019/10/08 18:19:38","新北市瑞芳區逢甲路38號","121.811368333333","25.1083716666667","6501200","瑞芳區"
"224005","271-BY","2019/10/08 18:19:38","新北市瑞芳區台電新村54號","121.81217","25.127495","6501200","瑞芳區"
"227002","642-TC","2019/10/08 18:19:44","新北市雙溪區共和里中山路2號","121.863791666667","25.033765","6502500","雙溪區"
"227001","400-TW","2019/10/08 18:19:50","新北市雙溪區牡丹里牡丹73號","121.851725","25.05936","6502500","雙溪區"
"253005","032-BX","2019/10/08 18:19:49","新北市石門區中央路48號","121.568021666667","25.293095","6502200","石門區"
"253006","295-VK","2019/10/08 18:19:39","新北市石門區老梅路73號","121.546065","25.2892216666667","6502200","石門區"
"222001","KEA-2212","2019/10/08 18:19:46","新北市深坑區北深路二段66號","121.618918333333","25.00408","6501800","深坑區"
"208002","KEA-2872","2019/10/08 18:19:51","新北市金山區磺港里社寮25號","121.638595","25.2287466666667","6502700","金山區"
"208003","665-BX","2019/10/08 18:19:50","新北市金山區中山路118-1號","121.639301666667","25.2199616666667","6502700","金山區"
"251004","009-UM","2019/10/08 18:19:41","新北市淡水區民權路215巷100號","121.46271","25.1335733333333","6501000","淡水區"
"251005","010-UM","2019/10/08 18:19:51","新北市淡水區水源街一段122巷37號","121.447168333333","25.1705283333333","6501000","淡水區"
"251002","012-UM","2019/10/08 18:19:40","新北市淡水區中正東路一段125號","121.455206666667","25.159475","6501000","淡水區"
"251015","KEA-2871","2019/10/08 18:19:45","新北市淡水區興福寮88巷91號","121.484545","25.165885","6501000","淡水區"
"251016","179-VK","2019/10/08 18:19:37","新北市淡水區淡金路三段228巷24號","121.44975","25.2049333333333","6501000","淡水區"
"251013","180-VK","2019/10/08 18:19:40","新北市淡水區行忠路590號","121.46804","25.1991516666667","6501000","淡水區"
"251008","181-VK","2019/10/08 18:19:36","新北市淡水區淡金路18號","121.457148333333","25.15989","6501000","淡水區"
"251010","413-VK","2019/10/08 18:19:52","新北市淡水區淡海路189巷1號","121.420336666667","25.1843616666667","6501000","淡水區"
"251012","443-VK","2019/10/08 18:19:31","新北市淡水區北新路二段77-5號","121.480611666667","25.1855583333333","6501000","淡水區"
"251001","559-UM","2019/10/08 18:19:46","新北市淡水區自強路299號","121.461541666667","25.131405","6501000","淡水區"
"251006","561-UM","2019/10/08 18:19:52","新北市淡水區新民街35號","121.438763333333","25.17594","6501000","淡水區"
"251009","575-R6","2019/10/08 18:19:43","新北市淡水區崁頂57-7號","121.442735","25.19729","6501000","淡水區"
"251014","577-R6","2019/10/08 18:19:51","新北市淡水區崙頂16號","121.492035","25.2212933333333","6501000","淡水區"
"251011","650-BX","2019/10/08 18:19:52","新北市淡水區三空泉9-2號","121.474201666667","25.163415","6501000","淡水區"
"251003","673-BX","2019/10/08 18:19:40","新北市淡水區北新路180號","121.449516666667","25.178695","6501000","淡水區"
"207003","681-TV","2019/10/08 18:19:40","新北市萬里區野柳里港西路70-3號","121.685428333333","25.2047666666667","6502800","萬里區"
"207004","291-VK","2019/10/08 18:19:44","新北市萬里區中幅里中福路177號","121.674283333333","25.16539","6502800","萬里區"
"252002","178-VK","2019/10/08 18:19:44","新北市三芝區中山路二段39號","121.502946666667","25.2551616666667","6502100","三芝區"
"252003","249-BX","2019/10/08 18:19:44","新北市三芝區錫板里南勢崗7號","121.479261666667","25.2619616666667","6502100","三芝區"
"208001","170-UY","2019/10/08 18:19:50","新北市金山區環金路19號","121.640591666667","25.2172883333333","6502700","金山區"
"237007","153-BY","2019/10/08 18:19:51","新北市三峽區中正路二段540號","121.360368333333","24.9063916666667","6500900","三峽區"
"237009","210-TH","2019/10/08 18:19:40","新北市三峽區大勇路36巷19號","121.365725","24.937055","6500900","三峽區"
"237013","252-BX","2019/10/08 18:19:51","新北市三峽區永安街9巷40號","121.376516666667","24.92985","6500900","三峽區"
"237012","275-BY","2019/10/08 18:19:48","新北市三峽區民生街1巷1-6號","121.377151666667","24.93684","6500900","三峽區"
"237008","302-VK","2019/10/08 18:19:47","新北市三峽區白雞68-85號","121.39263","24.9086166666667","6500900","三峽區"
"237014","433-BY","2019/10/08 18:19:45","新北市三峽區民生街92號","121.374031666667","24.9356033333333","6500900","三峽區"
"237006","5529-G3","2019/10/08 18:19:45","新北市三峽區溪東路473巷28號","121.414596666667","24.928855","6500900","三峽區"
"237015","649-BX","2019/10/08 18:19:51","新北市三峽區竹崙路10號","121.426636666667","24.9227383333333","6500900","三峽區"
"237011","078-UY","2019/10/08 18:19:44","新北市三峽區橫溪路126號","121.398686666667","24.9353583333333","6500900","三峽區"
"237010","706-TV","2019/10/08 18:19:50","新北市三峽區民族街3號","121.369103333333","24.9312933333333","6500900","三峽區"
"237005","AKY-6261","2019/10/08 18:19:46","新北市三峽區秀川街59號","121.370418333333","24.9334416666667","6500900","三峽區"
"236042","KED-0685","2019/10/08 18:19:48","新北市土城區樂利街3巷18號","121.44857","24.9864366666667","6501300","土城區"
"236079","166-UM","2019/10/08 18:19:54","新北市土城區永平街2巷9號","121.427018333333","24.9632566666667","6501300","土城區"
"236030","253-BX","2019/10/08 18:19:50","新北市土城區順風路28號","121.440346666667","24.9769666666667","6501300","土城區"
"236026","269-VK","2019/10/08 18:19:45","新北市土城區承天路69-1號","121.439965","24.9632283333333","6501300","土城區"
"236014","270-VK","2019/10/08 18:19:47","新北市土城區青雲路39巷7號","121.46035","24.98736","6501300","土城區"
"236038","271-VK","2019/10/08 18:19:53","新北市土城區青雲路483巷10弄15號","121.459363333333","24.9732133333333","6501300","土城區"
"236070","KEA-2877","2019/10/08 18:19:43","新北市土城區明德路一段179號","121.464123333333","24.9791683333333","6501300","土城區"
"252001","KED-0821","2019/10/08 18:19:37","新北市三芝區中興街二段2號","121.498318333333","25.2566483333333","6502100","三芝區"
"236021","401-BY","2019/10/08 18:19:40","新北市土城區青雲路322巷2弄2號","121.45848","24.9771433333333","6501300","土城區"
"236063","752-BX","2019/10/08 18:19:12","新北市土城區金城路二段204號","121.455035","24.9819066666667","6501300","土城區"
"236059","912-UM","2019/10/08 18:19:42","新北市土城區中央路四段466號","121.409963333333","24.9505983333333","6501300","土城區"
"236049","913-UM","2019/10/08 18:19:45","新北市土城區明德路一段365-1號","121.453708333333","24.9788816666667","6501300","土城區"
"236055","AAC-216","2019/10/08 18:19:42","新北市土城區中華路二段257號","121.437485","24.9709516666667","6501300","土城區"
"242042","AAC-296","2019/10/08 18:19:49","新北市新莊區天祥街92巷51號","121.414966666667","25.0303983333333","6500500","新莊區"
"242061","986-R7","2019/10/08 18:19:47","新北市新莊區新樹路115號","121.437316666667","25.0266033333333","6500500","新莊區"
"242027","613-BX","2019/10/08 18:19:37","新北市新莊區幸福路819號","121.445508333333","25.0489983333333","6500500","新莊區"
"242058","612-BX","2019/10/08 18:19:44","新北市新莊區新北大道七段357號","121.412205","25.0270966666667","6500500","新莊區"
"242054","497-BY","2019/10/08 18:19:41","新北市新莊區民安西路410巷12弄4號","121.427876666667","25.0090816666667","6500500","新莊區"
"242002","441-UM","2019/10/08 18:19:39","新北市新莊區碧江街27號","121.453448333333","25.033625","6500500","新莊區"
"242007","440-UM","2019/10/08 18:19:42","新北市新莊區自治街35號","121.45405","25.048","6500500","新莊區"
"242013","413-TV","2019/10/08 18:19:41","新北市新莊區瓊林路38-9號","121.448215","25.030305","6500500","新莊區"
"242051","400-BY","2019/10/08 18:19:45","新北市新莊區民安東路41號","121.429025","25.0209133333333","6500500","新莊區"
"242025","362-BY","2019/10/08 18:19:36","新北市新莊區五工三路94巷11號","121.458646666667","25.0660066666667","6500500","新莊區"
"242015","132-UY","2019/10/08 18:19:31","新北市新莊區中平路152巷35號","121.446213333333","25.04734","6500500","新莊區"
"242056","172-VK","2019/10/08 18:19:36","新北市新莊區瓊林路33-1號","121.445596666667","25.0281033333333","6500500","新莊區"
"242032","175-VK","2019/10/08 18:19:35","新北市新莊區新泰路289巷47號","121.443426666667","25.040375","6500500","新莊區"
"242021","KED-0687","2019/10/08 18:19:47","新北市新莊區中正路192號","121.449606666667","25.0355366666667","6500500","新莊區"
"242044","346-TH","2019/10/08 18:19:35","新北市新莊區中正路726-11號","121.415408333333","25.0239216666667","6500500","新莊區"
"242037","347-TH","2019/10/08 18:19:42","新北市新莊區建福路70號","121.426736666667","25.0268716666667","6500500","新莊區"
"242009","349-TH","2019/10/08 18:19:50","新北市新莊區昌平街71巷15號","121.453715","25.0535983333333","6500500","新莊區"
"242034","350-TH","2019/10/08 18:19:38","新北市新莊區新泰路51號","121.449461666667","25.0338066666667","6500500","新莊區"
"238015","755-BX","2019/10/08 18:19:45","新北市樹林區啟智街153號","121.41619","24.9878283333333","6500700","樹林區"
"238023","601-UM","2019/10/08 18:19:45","新北市樹林區中正路815號","121.409396666667","25.01705","6500700","樹林區"
"238019","571-TV","2019/10/08 18:19:34","新北市樹林區水源街32巷74號","121.424991666667","24.9802016666667","6500700","樹林區"
"238024","5061-A6","2019/10/08 18:19:50","新北市樹林區豐林街64號","121.42212","24.9980383333333","6500700","樹林區"
"238018","KEA-2217","2019/10/08 18:19:52","新北市樹林區保安街一段20巷10號","121.42772","24.9937566666667","6500700","樹林區"
"238025","303-VK","2019/10/08 18:19:34","新北市樹林區保安街一段230號","121.420345","24.9964466666667","6500700","樹林區"
"238017","283-BY","2019/10/08 18:19:42","新北市樹林區保安街二段333巷4號","121.412108333333","25.007595","6500700","樹林區"
"238014","282-BY","2019/10/08 18:19:50","新北市樹林區大安路111巷4號","121.423","24.9974433333333","6500700","樹林區"
"238020","268-VK","2019/10/08 18:19:35","新北市樹林區三龍街92號","121.414458333333","25.0186366666667","6500700","樹林區"
"238026","172-UY","2019/10/08 18:19:53","新北市樹林區佳園路一段75巷12號","121.395276666667","24.9704933333333","6500700","樹林區"
"238016","169-UY","2019/10/08 18:19:35","新北市樹林區中山路二段34號","121.417178333333","24.9851883333333","6500700","樹林區"
"239007","AAC-297","2019/10/08 18:19:43","新北市鶯歌區育英街65-1號","121.347183333333","24.9524383333333","6500800","鶯歌區"
"239006","891-R6","2019/10/08 18:19:37","新北市鶯歌區鶯桃路365巷70號","121.331481666667","24.9622866666667","6500800","鶯歌區"
"239008","527-UM","2019/10/08 18:19:43","新北市鶯歌區朝陽街18號","121.336541666667","24.9768733333333","6500800","鶯歌區"
"239005","526-UM","2019/10/08 18:19:52","新北市鶯歌區鶯桃路668巷73號","121.329935","24.9717966666667","6500800","鶯歌區"
"239001","417-VK","2019/10/08 18:19:44","新北市鶯歌區中正三路123-3號","121.33751","24.9405033333333","6500800","鶯歌區"
"239003","360-BY","2019/10/08 18:19:51","新北市鶯歌區福安街58號","121.335588333333","24.9652133333333","6500800","鶯歌區"
"239002","359-BY","2019/10/08 18:19:53","新北市鶯歌區中正一路478號","121.366485","24.9568183333333","6500800","鶯歌區"
"239004","193-VK","2019/10/08 18:19:47","新北市鶯歌區尖山路137巷2號","121.346931666667","24.948585","6500800","鶯歌區"
"221036","130-UY","2019/10/08 18:19:45","新北市汐止區長安路144號","121.670975","25.0773766666667","6501100","汐止區"
"221015","131-UY","2019/10/08 18:19:51","新北市汐止區鄉長路二段29號","121.668343333333","25.082845","6501100","汐止區"
"244019","KED-0667","2019/10/08 18:19:50","新北市林口區忠孝路622巷3弄2號","121.377826666667","25.0674183333333","6501700","林口區"
"221010","269-BY","2019/10/08 18:19:55","新北市汐止區祥雲街18巷12號","121.646778333333","25.0894866666667","6501100","汐止區"
"221012","278-VK","2019/10/08 18:19:37","新北市汐止區保一街35巷7號","121.674303333333","25.0808583333333","6501100","汐止區"
"221023","279-VK","2019/10/08 18:19:40","新北市汐止區中興路201號","121.6292","25.0684533333333","6501100","汐止區"
"221032","280-BY","2019/10/08 18:19:44","新北市汐止區力行街39巷1號","121.616655","25.0501266666667","6501100","汐止區"
"221029","298-VK","2019/10/08 18:19:42","新北市汐止區樟樹二路330巷72-1號","121.642936666667","25.0698916666667","6501100","汐止區"
"221021","299-VK","2019/10/08 18:19:37","新北市汐止區復興路9號","121.655883333333","25.0646216666667","6501100","汐止區"
"221031","353-TW","2019/10/08 18:19:40","新北市汐止區中興路158號","121.632303333333","25.0649583333333","6501100","汐止區"
"221035","622-UM","2019/10/08 18:19:41","新北市汐止區汐萬路一段8號","121.65615","25.067345","6501100","汐止區"
"221025","623-UM","2019/10/08 18:19:41","新北市汐止區勤進路12巷37號","121.659108333333","25.0625816666667","6501100","汐止區"
"221038","646-BX","2019/10/08 18:19:38","新北市汐止區仁愛路180號","121.664838333333","25.065805","6501100","汐止區"
"221033","647-BX","2019/10/08 18:19:33","新北市汐止區宜興街59巷5號","121.622168333333","25.0428166666667","6501100","汐止區"
"221002","707-TV","2019/10/08 18:19:47","新北市汐止區福德一路201巷32號","121.63583","25.0648683333333","6501100","汐止區"
"221018","753-BX","2019/10/08 18:19:33","新北市汐止區茄苳路88巷6弄8號","121.666566666667","25.0701533333333","6501100","汐止區"
"224002","257-TC","2019/10/08 18:19:43","新北市瑞芳區三爪子坑路149巷32號","121.811763333333","25.1066816666667","6501200","瑞芳區"
"220034","297-UM","2019/10/08 18:08:37","新北市板橋區華東街1-10號","121.448416666667","24.9950283333333","6500100","板橋區"
"242046","281-VK","2019/10/08 18:19:49","新北市新莊區福營路321號","121.42601","25.02881","6500500","新莊區"
"242011","280-VK","2019/10/08 18:19:42","新北市新莊區中信街86號","121.447886666667","25.0533066666667","6500500","新莊區"
"220054","741-BX","2019/10/08 18:19:53","新北市板橋區華東街1-9號","121.448145","24.9949533333333","6500100","板橋區"
"235068","KEA-2873","2019/10/08 18:19:26","新北市中和區員山路36巷16-2號","121.485368333333","24.9913566666667","6500300","中和區"
"235061","KEA-2875","2019/10/08 18:19:48","新北市中和區民享街97巷14號","121.475218333333","24.99971","6500300","中和區"
"235062","KEA-2876","2019/10/08 18:19:32","新北市中和區中山路二段312巷33弄20號","121.494981666667","25.0042916666667","6500300","中和區"
