"lineid","car","time","location","longitude","latitude","cityid","cityname"
"234046","148-BY","2019/10/08 20:19:52","台北市文山區溪洲街10-24號","121.533926666667","25.0071566666667","6500400","永和區"
"234081","298-R6","2019/10/08 20:19:52","新北市永和區福和路7巷10弄7號","121.524861666667","25.00749","6500400","永和區"
"234038","336-UY","2019/10/08 20:19:49","新北市永和區成功路一段93巷20弄5號","121.528383333333","25.0025916666667","6500400","永和區"
"234064","337-UY","2019/10/08 20:19:38","新北市永和區得和路109號","121.518453333333","25.0002216666667","6500400","永和區"
"234086","338-UY","2019/10/08 20:19:38","新北市永和區中正路657號","121.514901666667","25.0101816666667","6500400","永和區"
"234070","552-UM","2019/10/08 20:19:51","新北市永和區福和路261號","121.517823333333","25.0073283333333","6500400","永和區"
"234017","745-BX","2019/10/08 20:19:36","新北市永和區仁愛路63號","121.513458333333","25.0132533333333","6500400","永和區"
"234030","746-BX","2019/10/08 20:19:44","新北市永和區民族街81巷58號","121.520085","24.9965133333333","6500400","永和區"
"234054","KEA-2590","2019/10/08 20:19:40","新北市永和區光復街2巷16弄14號","121.51708","25.0163133333333","6500400","永和區"
"234013","KEA-2591","2019/10/08 20:19:39","新北市永和區仁愛路295號","121.504931666667","25.009125","6500400","永和區"
"234061","AAD-866","2019/10/08 20:19:47","新北市永和區安樂路146-1號","121.514171666667","25.0004066666667","6500400","永和區"
"234042","862-TW","2019/10/08 20:19:53","新北市中和區中安街168號","121.510883333333","24.9998333333333","6500400","永和區"
"234050","863-TW","2019/10/08 20:19:45","新北市永和區新生路2-6號","121.509415","25.0168566666667","6500400","永和區"
"249005","172-UM","2019/10/08 20:19:42","新北市八里區下罟子2-18號","121.388288333333","25.1409166666667","6502300","八里區"
"249001","173-UM","2019/10/08 20:19:51","新北市八里區中華路二段341-10號","121.399158333333","25.14498","6502300","八里區"
"249004","303-UY","2019/10/08 20:19:49","新北市八里區中山路一段336號","121.412635","25.15898","6502300","八里區"
"249002","305-UY","2019/10/08 20:19:38","新北市八里區龍米路一段158號","121.452753333333","25.1259483333333","6502300","八里區"
"249003","593-UM","2019/10/08 20:19:37","新北市八里區華峰一街47號","121.398643333333","25.14629","6502300","八里區"
"248016","026-BX","2019/10/08 20:19:42","新北市五股區凌雲路一段158巷39弄12號","121.446518333333","25.1040566666667","6501500","五股區"
"248012","247-BX","2019/10/08 20:19:49","新北市五股區中興路四段41號","121.438336666667","25.08281","6501500","五股區"
"248004","677-BX","2019/10/08 20:19:41","新北市五股區成泰路二段102號","121.437641666667","25.0828733333333","6501500","五股區"
"248002","678-BX","2019/10/08 20:19:38","新北市五股區成泰路三段101-1號","121.44403","25.0903216666667","6501500","五股區"
"248010","682-TV","2019/10/08 20:19:40","新北市泰山區新五路一段106-6號","121.439888333333","25.0622116666667","6501500","五股區"
"234023","9380-KE","2019/10/08 20:19:48","新北市永和區勵行街17號","121.516358333333","25.014255","6500400","永和區"
"234077","969-R7","2019/10/08 20:19:41","新北市永和區中正路17號","121.514175","24.9956933333333","6500400","永和區"
"234074","AAC-211","2019/10/08 20:19:48","新北市永和區豫溪街160巷1號","121.523301666667","25.009555","6500400","永和區"
"234067","AAC-212","2019/10/08 20:19:39","新北市永和區保平路268巷9號","121.50837","25.0054116666667","6500400","永和區"
"234003","AAC-295","2019/10/08 20:19:43","新北市永和區福和路372號","121.514395","25.0077866666667","6500400","永和區"
"243014","KEA-2801","2019/10/08 20:19:49","新北市泰山區泰林路二段302號","121.43077","25.0627766666667","6501600","泰山區"
"243016","421-VK","2019/10/08 20:19:37","新北市泰山區明志路二段385號","121.424945","25.0436683333333","6501600","泰山區"
"243012","539-UM","2019/10/08 20:19:51","新北市泰山區楓江路110號","121.438478333333","25.0639333333333","6501600","泰山區"
"243009","KEA-2215","2019/10/08 20:19:51","新北市泰山區福泰街14號","121.432908333333","25.0601733333333","6501600","泰山區"
"243011","KEA-2216","2019/10/08 20:19:49","新北市泰山區壽山路134巷22號","121.418348333333","25.03114","6501600","泰山區"
"243013","646-TV","2019/10/08 20:19:42","新北市泰山區明志路二段359巷19號","121.425988333333","25.0438883333333","6501600","泰山區"
"243015","680-BX","2019/10/08 20:19:33","新北市泰山區明志路一段268號","121.432061666667","25.0602633333333","6501600","泰山區"
"222003","436-BY","2019/10/08 20:19:42","新北市深坑區文化街43號","121.617573333333","25.001825","6501800","深坑區"
"222002","659-BX","2019/10/08 20:19:38","新北市深坑區萬福路75巷48號","121.598235","25.0098683333333","6501800","深坑區"
"231061","002-UM","2019/10/08 20:19:44","新北市新店區安興路32號","121.515721666667","24.970335","6500600","新店區"
"231058","0293-UT","2019/10/08 20:19:45","新北市新店區薏仁坑路自強巷6號","121.496403333333","24.9584166666667","6500600","新店區"
"231044","046-UY","2019/10/08 20:19:53","新北市新店區北新路三段89號","121.541566666667","24.9817","6500600","新店區"
"231060","106-UY","2019/10/08 20:19:47","新北市新店區安康路三段578-1號","121.481073333333","24.9486766666667","6500600","新店區"
"231051","107-UY","2019/10/08 20:19:49","新北市新店區中央六街88號","121.526433333333","24.9767266666667","6500600","新店區"
"231049","108-UY","2019/10/08 20:19:41","新北市新店區北新路一段319號","121.541646666667","24.9681866666667","6500600","新店區"
"231065","110-UY","2019/10/08 20:19:48","新北市新店區安祥路102巷32號","121.484141666667","24.963885","6500600","新店區"
"231068","187-VK","2019/10/08 20:19:49","新北市新店區寶安街30號","121.542053333333","24.982355","6500600","新店區"
"231062","256-BX","2019/10/08 20:19:42","新北市新店區安康路三段191號","121.488136666667","24.9517366666667","6500600","新店區"
"231054","260-TV","2019/10/08 20:19:40","新北市新店區檳榔路119號","121.5446","24.96136","6500600","新店區"
"231042","268-BY","2019/10/08 20:19:38","新北市新店區中興路二段226號","121.547865","24.97511","6500600","新店區"
"231064","278-BY","2019/10/08 20:19:41","新北市新店區安業街67巷22號","121.519083333333","24.975915","6500600","新店區"
"231050","AAD-862","2019/10/08 20:19:43","新北市新店區博愛街21號","121.541335","24.9735966666667","6500600","新店區"
"231045","355-BY","2019/10/08 20:19:53","新北市新店區北宜路一段9號","121.538355","24.958005","6500600","新店區"
"231055","4716-K9","2019/10/08 20:19:32","新北市新店區北新路一段297巷27號","121.540563333333","24.968125","6500600","新店區"
"231067","4772-VM","2019/10/08 20:19:47","新北市新店區安康路一段32號","121.531641666667","24.9610866666667","6500600","新店區"
"231053","513-UM","2019/10/08 20:19:45","新北市新店區松林路1號","121.54682","24.9120183333333","6500600","新店區"
"231040","617-UM","2019/10/08 20:19:41","新北市新店區中正路108號","121.54309","24.9706616666667","6500600","新店區"
"231041","619-UM","2019/10/08 20:19:41","新北市新店區民權路42號","121.540511666667","24.9829833333333","6500600","新店區"
"231063","641-BX","2019/10/08 20:19:39","新北市新店區安康路二段330號","121.503923333333","24.9577216666667","6500600","新店區"
"231048","KED-0819","2019/10/08 20:19:45","新北市新店區寶橋路85巷19號","121.545483333333","24.9761116666667","6500600","新店區"
"231057","720-UM","2019/10/08 20:19:50","新北市新店區花園七路一段16巷1號","121.55384","24.934895","6500600","新店區"
"231059","897-TW","2019/10/08 20:19:45","新北市新店區安德街64號","121.510638333333","24.9618683333333","6500600","新店區"
"231043","899-TW","2019/10/08 20:19:38","新北市新店區建國路133號","121.539343333333","24.9782583333333","6500600","新店區"
"231066","AKT-0513","2019/10/08 20:19:50","新北市新店區柴埕路60巷1-1號","121.510075","24.963755","6500600","新店區"
"241011","013-R5","2019/10/08 20:19:32","新北市三重區龍門路204號","121.499826666667","25.0734316666667","6500200","三重區"
"241028","022-UY","2019/10/08 20:19:39","新北市三重區大同南路83-5號","121.496046666667","25.0592866666667","6500200","三重區"
"241008","059-VK","2019/10/08 20:19:47","新北市三重區永福街156號","121.480436666667","25.0744583333333","6500200","三重區"
"241002","060-VK","2019/10/08 20:19:54","新北市三重區仁義街153號","121.497143333333","25.0809633333333","6500200","三重區"
"241031","061-VK","2019/10/08 20:19:44","新北市三重區三寧街25號","121.489623333333","25.0598933333333","6500200","三重區"
"241015","062-VK","2019/10/08 20:19:48","新北市三重區文化北路2號","121.499666666667","25.063205","6500200","三重區"
"241017","063-VK","2019/10/08 20:19:45","新北市三重區長壽西街125號","121.493621666667","25.0666033333333","6500200","三重區"
"241024","065-VK","2019/10/08 20:19:43","新北市三重區中正北路238號","121.481841666667","25.06792","6500200","三重區"
"241007","066-VK","2019/10/08 20:19:50","新北市三重區溪尾街108巷56號","121.487215","25.0781416666667","6500200","三重區"
"241003","091-VK","2019/10/08 20:19:39","新北市三重區富華街21號","121.490436666667","25.0829416666667","6500200","三重區"
"241006","262-UM","2019/10/08 20:19:52","新北市三重區力行路二段164號","121.483061666667","25.07677","6500200","三重區"
"241016","266-UM","2019/10/08 20:19:50","新北市三重區大同北路83號","121.494891666667","25.0635883333333","6500200","三重區"
"241009","267-UM","2019/10/08 20:19:33","新北市三重區三和路四段177-1號","121.482801666667","25.0789216666667","6500200","三重區"
"241018","268-UM","2019/10/08 20:19:44","新北市三重區雙園街99號","121.493805","25.06729","6500200","三重區"
"241032","269-UM","2019/10/08 20:19:45","新北市三重區捷運路19巷6弄6號","121.484805","25.05692","6500200","三重區"
"241013","270-UM","2019/10/08 20:19:33","新北市三重區三和路三段167巷39號","121.493321666667","25.0745","6500200","三重區"
"241025","271-UM","2019/10/08 20:19:51","新北市三重區頂崁街210巷27號","121.47577","25.0681366666667","6500200","三重區"
"241035","KEA-2210","2019/10/08 20:19:37","新北市三重區文化北路20號","121.499173333333","25.06395","6500200","三重區"
"241030","KED-0822","2019/10/08 20:19:47","新北市三重區環河南路254巷55號","121.487965","25.0523516666667","6500200","三重區"
"241004","475-VK","2019/10/08 20:19:32","新北市三重區仁愛街366巷32號","121.490763333333","25.0800983333333","6500200","三重區"
"241020","478-VK","2019/10/08 20:19:51","新北市三重區三和路三段170巷24號","121.491928333333","25.0727966666667","6500200","三重區"
"241026","480-VK","2019/10/08 20:19:36","新北市三重區重新路一段12號","121.50411","25.063685","6500200","三重區"
"241014","543-UM","2019/10/08 20:19:37","新北市三重區龍濱路100號","121.50219","25.070135","6500200","三重區"
"241001","547-UM","2019/10/08 20:19:45","新北市三重區自強路四段31巷14號","121.48969","25.0768333333333","6500200","三重區"
"241019","KEA-2593","2019/10/08 20:19:55","新北市三重區重陽路四段77號","121.492505","25.0710066666667","6500200","三重區"
"241005","AAD-863","2019/10/08 20:19:46","新北市三重區碧華街337號","121.49169","25.08477","6500200","三重區"
"241012","743-BX","2019/10/08 20:19:38","新北市三重區河邊北街262號","121.501665","25.0764416666667","6500200","三重區"
"241022","KED-0820","2019/10/08 20:19:41","新北市三重區新北大道一段50號","121.48753","25.0614166666667","6500200","三重區"
"241023","887-TS","2019/10/08 20:19:36","新北市三重區自由街17巷1號","121.47988","25.0666066666667","6500200","三重區"
"241029","942-UM","2019/10/08 20:19:52","新北市三重區重安街98號","121.492663333333","25.0560533333333","6500200","三重區"
"241033","AAC-255","2019/10/08 20:19:35","新北市三重區五谷王北街50巷35號","121.475251666667","25.0514733333333","6500200","三重區"
"235066","003-UY","2019/10/08 20:19:43","新北市中和區保平路326巷21號","121.50653","25.0046133333333","6500300","中和區"
"235039","097-UM","2019/10/08 20:19:36","新北市中和區大勇街29巷15號","121.515845","24.9945133333333","6500300","中和區"
"235065","098-UM","2019/10/08 20:19:50","新北市中和區景平路774號","121.49613","25.005185","6500300","中和區"
"235055","183-VK","2019/10/08 20:19:39","新北市八里區荖阡坑路22-6號","121.398941666667","25.1344216666667","6500300","中和區"
"247016","KEA-2869","2019/10/08 20:19:39","新北市蘆洲區光華路132巷39號","121.465791666667","25.08377","6501400","蘆洲區"
"247010","KED-0682","2019/10/08 20:19:44","新北市蘆洲區信義路275號","121.478903333333","25.0851033333333","6501400","蘆洲區"
"235050","4979-A6","2019/10/08 20:19:50","新北市中和區景新街274巷18號","121.510261666667","24.9920033333333","6500300","中和區"
"235069","4980-A6","2019/10/08 20:19:52","新北市中和區南山路127巷27弄1號","121.503335","24.99767","6500300","中和區"
"235059","AAC-215","2019/10/08 20:19:49","新北市中和區員山路30-2號","121.483155","24.9878833333333","6500300","中和區"
"220065","072-UY","2019/10/08 20:19:33","新北市板橋區文化路二段656號","121.48145","25.0386566666667","6500100","板橋區"
"247006","893-R6","2019/10/08 20:19:51","新北市蘆洲區九芎街153巷5號","121.465273333333","25.0789916666667","6501400","蘆洲區"
"247004","500-BY","2019/10/08 20:19:48","新北市蘆洲區長安街299巷32號","121.457118333333","25.0846166666667","6501400","蘆洲區"
"247012","337-TH","2019/10/08 20:19:49","新北市蘆洲區中興街46號","121.48146","25.0871716666667","6501400","蘆洲區"
"247024","057-VK","2019/10/08 20:19:48","新北市蘆洲區光榮路120巷8弄39號","121.46459","25.0879466666667","6501400","蘆洲區"
"247014","056-VK","2019/10/08 20:19:39","新北市蘆洲區中山二路137巷40號","121.472323333333","25.0807766666667","6501400","蘆洲區"
"247018","053-VK","2019/10/08 20:19:53","新北市蘆洲區民族路253號","121.47678","25.0903916666667","6501400","蘆洲區"
"247022","007-UY","2019/10/08 20:19:46","新北市蘆洲區三民路251號","121.4685","25.089405","6501400","蘆洲區"
"247008","002-UY","2019/10/08 20:19:41","新北市蘆洲區集賢路320號","121.481541666667","25.08487","6501400","蘆洲區"
"247002","001-UY","2019/10/08 20:19:51","新北市蘆洲區長安街313巷14號","121.45639","25.0865433333333","6501400","蘆洲區"
"222001","KEA-2212","2019/10/08 20:19:46","新北市深坑區北深路三段249號","121.599381666667","25.00436","6501800","深坑區"
"251002","012-UM","2019/10/08 20:19:40","新北市淡水區中正路143號","121.439008333333","25.1706866666667","6501000","淡水區"
"251015","KEA-2871","2019/10/08 20:19:45","新北市淡水區埤島77-4號","121.450073333333","25.19111","6501000","淡水區"
"251016","179-VK","2019/10/08 20:19:37","新北市淡水區番子田47號","121.459851666667","25.2291966666667","6501000","淡水區"
"251013","180-VK","2019/10/08 20:19:40","新北市淡水區相公山1-2號","121.474551666667","25.2065583333333","6501000","淡水區"
"251008","181-VK","2019/10/08 20:19:36","新北市淡水區淡海路150巷14號","121.422341666667","25.1842016666667","6501000","淡水區"
"251010","413-VK","2019/10/08 20:19:52","新北市淡水區新民街一段134號","121.427573333333","25.1889933333333","6501000","淡水區"
"251012","443-VK","2019/10/08 20:19:51","新北市淡水區淡金路三段374號","121.4498","25.2099783333333","6501000","淡水區"
"251001","559-UM","2019/10/08 20:19:46","新北市淡水區淡金路二段15號","121.446105","25.189175","6501000","淡水區"
"251006","561-UM","2019/10/08 20:19:52","新北市淡水區北新路141巷80弄28號","121.448228333333","25.180235","6501000","淡水區"
"251009","575-R6","2019/10/08 20:19:43","新北市淡水區中山路46號","121.444225","25.1701","6501000","淡水區"
"251014","577-R6","2019/10/08 20:19:51","新北市淡水區石頭厝1號","121.459135","25.2353","6501000","淡水區"
"251003","673-BX","2019/10/08 20:19:40","新北市淡水區中山北路一段217號","121.444356666667","25.1791633333333","6501000","淡水區"
"207003","681-TV","2019/10/08 20:19:40","新北市萬里區野柳里八斗60號","121.668828333333","25.2031166666667","6502800","萬里區"
"207004","291-VK","2019/10/08 20:19:44","新北市萬里區北基里仁三街1號","121.682273333333","25.17545","6502800","萬里區"
"252002","178-VK","2019/10/08 20:19:44","新北市三芝區中正路一段55號","121.503408333333","25.2579816666667","6502100","三芝區"
"237006","5529-G3","2019/10/08 20:19:45","新北市三峽區中園街86巷22號","121.36716","24.9250483333333","6500900","三峽區"
"236030","253-BX","2019/10/08 20:19:51","新北市土城區中央路一段45巷16號","121.448846666667","24.990105","6501300","土城區"
"236026","269-VK","2019/10/08 20:19:45","新北市土城區中央路一段249巷10弄1號","121.445785","24.9854433333333","6501300","土城區"
"236014","270-VK","2019/10/08 20:19:52","新北市土城區四川路1號","121.45615","24.99579","6501300","土城區"
"236070","KEA-2877","2019/10/08 20:19:43","新北市土城區中山路34號","121.424925","24.96387","6501300","土城區"
"252001","KED-0821","2019/10/08 20:19:37","新北市三芝區中山路一段31號","121.500501666667","25.25804","6502100","三芝區"
"236059","912-UM","2019/10/08 20:19:42","新北市土城區大安路101-5號","121.433398333333","24.968555","6501300","土城區"
"242042","AAC-296","2019/10/08 20:19:49","新北市新莊區壽山路69號","121.410121666667","25.0326466666667","6500500","新莊區"
"242061","986-R7","2019/10/08 20:19:46","新北市新莊區瓊林路206-6號","121.435476666667","25.0221916666667","6500500","新莊區"
"242005","751-BX","2019/10/08 20:19:40","新北市新莊區頭前路2巷5號","121.46842","25.0529366666667","6500500","新莊區"
"242029","615-BX","2019/10/08 20:19:42","新北市新莊區中原路132號","121.449875","25.0546633333333","6500500","新莊區"
"242027","613-BX","2019/10/08 20:19:49","新北市新莊區中平路303號","121.44458","25.0514783333333","6500500","新莊區"
"242058","612-BX","2019/10/08 20:19:47","新北市新莊區龍安路278巷21號","121.422011666667","25.01843","6500500","新莊區"
"242048","566-BX","2019/10/08 20:19:39","新北市新莊區萬安街165巷34號","121.421205","25.020675","6500500","新莊區"
"242054","497-BY","2019/10/08 20:19:36","新北市新莊區西盛街375號","121.428093333333","25.0134066666667","6500500","新莊區"
"242002","441-UM","2019/10/08 20:19:38","新北市新莊區化成路14號","121.464696666667","25.042515","6500500","新莊區"
"242007","440-UM","2019/10/08 20:19:47","新北市新莊區福壽街124巷34弄2號","121.459235","25.0512166666667","6500500","新莊區"
"242013","413-TV","2019/10/08 20:19:41","新北市新莊區中信街63巷4弄1號","121.449058333333","25.05023","6500500","新莊區"
"242051","400-BY","2019/10/08 20:19:53","新北市新莊區民安西路212巷2弄1號","121.425503333333","25.0148766666667","6500500","新莊區"
"242025","362-BY","2019/10/08 20:19:52","新北市新莊區五工二路70巷2號","121.460391666667","25.0658983333333","6500500","新莊區"
"242023","353-BY","2019/10/08 20:19:37","新北市新莊區化成路762號","121.465313333333","25.0587133333333","6500500","新莊區"
"242015","132-UY","2019/10/08 20:19:37","新北市新莊區永樂街233號","121.446718333333","25.0442283333333","6500500","新莊區"
"242039","135-UY","2019/10/08 20:19:50","新北市新莊區成功街81號","121.424653333333","25.0196766666667","6500500","新莊區"
"242056","172-VK","2019/10/08 20:19:36","新北市新莊區新莊路649巷15弄1號","121.444983333333","25.0314566666667","6500500","新莊區"
"242017","173-VK","2019/10/08 20:19:51","新北市新莊區中港一街47號","121.450623333333","25.0454616666667","6500500","新莊區"
"242032","175-VK","2019/10/08 20:19:54","新北市新莊區義豐街11號","121.441045","25.0347516666667","6500500","新莊區"
"242021","KED-0687","2019/10/08 20:19:35","新北市新莊區和興街37-4號","121.447","25.0399433333333","6500500","新莊區"
"242044","346-TH","2019/10/08 20:19:44","新北市新莊區中正路893巷1-16號","121.413053333333","25.0212583333333","6500500","新莊區"
"242037","347-TH","2019/10/08 20:19:42","新北市新莊區後港一路56巷24弄12號","121.42617","25.0251633333333","6500500","新莊區"
"242009","349-TH","2019/10/08 20:19:50","新北市新莊區昌盛街35巷4弄16號","121.454743333333","25.0505316666667","6500500","新莊區"
"242034","350-TH","2019/10/08 20:19:44","新北市新莊區中正路318巷11號","121.446243333333","25.0356866666667","6500500","新莊區"
"242019","351-TH","2019/10/08 20:19:39","新北市新莊區復興路二段181號","121.45896","25.04446","6500500","新莊區"
"221008","489-VK","2019/10/08 20:19:51","新北市汐止區忠三街9巷28-1號","121.624581666667","25.08019","6501100","汐止區"
"221036","130-UY","2019/10/08 20:19:49","新北市汐止區福安街59巷3號","121.664171666667","25.0637333333333","6501100","汐止區"
"221015","131-UY","2019/10/08 20:19:50","新北市汐止區建成路142巷19弄13號","121.661915","25.0738866666667","6501100","汐止區"
"221010","269-BY","2019/10/08 20:19:54","新北市汐止區八連路一段203號","121.640973333333","25.0810816666667","6501100","汐止區"
"221012","278-VK","2019/10/08 20:19:37","新北市汐止區汐平路一段59號","121.68261","25.07046","6501100","汐止區"
"221023","279-VK","2019/10/08 20:19:43","新北市汐止區明峰街298巷7弄2號","121.624966666667","25.0688666666667","6501100","汐止區"
"221032","280-BY","2019/10/08 20:19:44","新北市汐止區弘道街47號","121.61822","25.0485466666667","6501100","汐止區"
"221029","298-VK","2019/10/08 20:15:02","新北市汐止區樟樹一路119巷7號","121.641445","25.064305","6501100","汐止區"
"221021","299-VK","2019/10/08 20:19:37","新北市汐止區水源路一段284號","121.654138333333","25.0582816666667","6501100","汐止區"
"221031","353-TW","2019/10/08 20:19:40","新北市汐止區原興路72號","121.632335","25.065945","6501100","汐止區"
"221035","622-UM","2019/10/08 20:19:41","新北市汐止區長江街57巷26號","121.656215","25.0724466666667","6501100","汐止區"
"221025","623-UM","2019/10/08 20:19:41","新北市汐止區水源路二段28號","121.654778333333","25.0574266666667","6501100","汐止區"
"221038","646-BX","2019/10/08 20:19:36","新北市汐止區忠孝東路424號","121.666086666667","25.071535","6501100","汐止區"
"221033","647-BX","2019/10/08 20:19:53","新北市汐止區東勢街215巷14號","121.634893333333","25.0432916666667","6501100","汐止區"
"221002","707-TV","2019/10/08 20:19:47","新北市汐止區福德三路67號","121.636915","25.0692533333333","6501100","汐止區"
"221018","753-BX","2019/10/08 20:19:52","新北市汐止區茄苳路277號","121.672316666667","25.068005","6501100","汐止區"
"220079","145-BY","2019/10/08 20:19:53","新北市板橋區建國街110號","121.460108333333","25.01741","6500100","板橋區"
"220083","286-VK","2019/10/08 20:19:46","新北市板橋區僑中二街88巷11號","121.445796666667","25.0093733333333","6500100","板橋區"
"220081","287-VK","2019/10/08 20:19:40","新北市板橋區僑中一街102巷5弄7號","121.446445","25.0126016666667","6500100","板橋區"
"220061","293-UM","2019/10/08 20:19:53","新北市板橋區文華街6號","121.458098333333","25.0003316666667","6500100","板橋區"
"242046","281-VK","2019/10/08 20:19:48","新北市新莊區中正路新生巷9號","121.417123333333","25.0241016666667","6500500","新莊區"
"242011","280-VK","2019/10/08 20:19:42","新北市新莊區中信街37巷2弄2號","121.450296666667","25.0505183333333","6500500","新莊區"
"220035","560-BX","2019/10/08 20:19:38","新北市板橋區新生街52號","121.456903333333","25.0210116666667","6500100","板橋區"
"220074","630-UY","2019/10/08 20:19:46","新北市板橋區館前西路66號","121.457756666667","25.0071266666667","6500100","板橋區"
"220054","741-BX","2019/10/08 20:19:33","新北市板橋區實踐路93巷21號","121.464973333333","25.0054016666667","6500100","板橋區"
"220055","827-TW","2019/10/08 20:19:38","新北市板橋區重慶路290巷9號","121.461178333333","24.9986283333333","6500100","板橋區"
"235068","KEA-2873","2019/10/08 20:19:26","新北市中和區勝利路35巷1弄28號","121.500035","25.0077733333333","6500300","中和區"
"235026","KEA-2876","2019/10/08 20:04:31","新北市中和區員山路36巷16-3號","121.484981666667","24.9914983333333","6500300","中和區"
