"lineid","car","time","location","longitude","latitude","cityid","cityname"
"251004","009-UM","2019/10/08 22:09:47","新北市淡水區民族路33號","121.462366666667","25.135815","6501000","淡水區"
"251005","010-UM","2019/10/08 22:09:43","新北市淡水區鄧公路19號","121.451388333333","25.169985","6501000","淡水區"
"251008","181-VK","2019/10/08 22:09:36","新北市淡水區學府路104號","121.449855","25.1717933333333","6501000","淡水區"
"251010","413-VK","2019/10/08 22:09:52","新北市淡水區沙崙路200號","121.424688333333","25.183825","6501000","淡水區"
"251007","442-VK","2019/10/08 22:09:41","新北市淡水區北新路180號","121.449468333333","25.178655","6501000","淡水區"
"251006","561-UM","2019/10/08 22:09:33","新北市淡水區新生街53號","121.440463333333","25.1747483333333","6501000","淡水區"
"251011","650-BX","2019/10/08 22:09:50","新北市淡水區水碓街7號","121.443191666667","25.177085","6501000","淡水區"
