"lineid","car","time","location","longitude","latitude","cityid","cityname"
"232017","290-BY","2019/09/02 08:09:24","新北市坪林區坪雙路二段162號","121.7641","24.9632233333333","6502000","坪林區"
"232005","291-BY","2019/09/02 08:09:41","新北市坪林區鶯子瀨9號","121.708386666667","24.91515","6502000","坪林區"
"232012","705-BZ","2019/09/02 08:09:41","新北市坪林區九芎根1號","121.671048333333","24.8919233333333","6502000","坪林區"
"232001","758-BX","2019/09/02 08:08:36","新北市坪林區下坑子口12號","121.720065","24.9414116666667","6502000","坪林區"
"244006","080-UY","2019/09/02 08:09:31","新北市林口區中湖43-5號","121.381785","25.0923533333333","6501700","林口區"
"244001","248-BX","2019/09/02 08:09:29","新北市林口區頂福76號","121.33037","25.1028283333333","6501700","林口區"
"244018","402-UM","2019/09/02 08:09:23","新北市林口區仁愛路二段38號","121.385186666667","25.075855","6501700","林口區"
"244012","KEA-2802","2019/09/02 08:09:38","新北市林口區中山路6號","121.396708333333","25.0783416666667","6501700","林口區"
"244022","483-VK","2019/09/02 08:09:32","新北市林口區仁愛路一段334號","121.391125","25.07643","6501700","林口區"
"244016","485-VK","2019/09/02 08:09:35","新北市林口區粉寮路60-16號","121.404298333333","25.0898816666667","6501700","林口區"
"244008","656-BX","2019/09/02 08:09:34","新北市林口區林口路296號","121.385995","25.0854966666667","6501700","林口區"
"244010","701-TV","2019/09/02 08:09:32","新北市林口區仁愛路一段285巷116號","121.39524","25.075845","6501700","林口區"
"244024","837-TS","2019/09/02 08:09:29","新北市林口區中山路299號","121.384145","25.08023","6501700","林口區"
"244020","838-TS","2019/09/02 08:09:42","新北市林口區粉寮路二段160巷31號","121.40584","25.0910083333333","6501700","林口區"
"222004","289-BY","2019/09/02 08:09:36","新北市深坑區北深路二段121號","121.616658333333","25.0031433333333","6501800","深坑區"
"231007","189-VK","2019/09/02 08:09:36","新北市新店區華城路36號","121.528506666667","24.9558816666667","6500600","新店區"
"231008","515-UM","2019/09/02 08:09:34","新北市新店區新烏路二段212-1號","121.547436666667","24.915365","6500600","新店區"
"226005","5620-A6","2019/09/02 08:09:25","新北市平溪區靜安路三段10號","121.749531666667","25.0261566666667","6502400","平溪區"
"226001","7418-A5","2019/09/02 08:09:11","新北市平溪區十分里十分街2號","121.771878333333","25.03931","6502400","平溪區"
"226003","AGD-0702","2019/09/02 08:09:26","新北市平溪區十分里十分街54號","121.775221666667","25.04144","6502400","平溪區"
"223003","205-TH","2019/09/02 08:09:31","新北市石碇區小粗坑(格頭里)1號","121.651261666667","24.95212","6501900","石碇區"
"223008","406-TH","2019/09/02 08:09:36","新北市石碇區靜安路一段312號","121.692741666667","25.0066016666667","6501900","石碇區"
"223001","592-UM","2019/09/02 08:09:25","新北市石碇區小粗坑(格頭里)1號","121.650831666667","24.9521733333333","6501900","石碇區"
"223004","660-BX","2019/09/02 08:09:43","新北市石碇區碇坪路一段2號","121.651608333333","25.0061133333333","6501900","石碇區"
"223007","661-BX","2019/09/02 08:09:38","新北市石碇區靜安路一段304號","121.692186666667","25.0063766666667","6501900","石碇區"
"227003","282-VK","2019/09/02 08:09:35","新北市雙溪區平林里外平林71號","121.842213333333","25.0348816666667","6502500","雙溪區"
"252006","073-UM","2019/09/02 08:09:40","新北市三芝區海景一街39號","121.474795","25.2464","6502100","三芝區"
"252004","249-BX","2019/09/02 08:09:40","新北市三芝區興華里車埕18-2號","121.501945","25.1966483333333","6502100","三芝區"
"237014","760-BX","2019/09/02 08:09:44","新北市三峽區詩朗66-1號","121.355816666667","24.8532716666667","6500900","三峽區"
"242040","AAC-296","2019/09/02 08:09:28","新北市新莊區新樹路52-33號","121.434971666667","25.0268366666667","6500500","新莊區"
"242059","986-R7","2019/09/02 08:09:30","新北市新莊區瓊林南路12-2號","121.436288333333","25.018965","6500500","新莊區"
"242003","751-BX","2019/09/02 08:09:27","新北市新莊區自立街188號","121.456275","25.045425","6500500","新莊區"
"242028","615-BX","2019/09/02 08:09:39","新北市新莊區復興路一段85號","121.448495","25.042685","6500500","新莊區"
"242026","613-BX","2019/09/02 08:09:39","新北市新莊區福壽街105號","121.457991666667","25.050705","6500500","新莊區"
"242057","612-BX","2019/09/02 08:09:26","新北市新莊區中正路577號","121.434548333333","25.032645","6500500","新莊區"
"242047","566-BX","2019/09/02 08:09:44","新北市新莊區萬安街133號","121.42059","25.0221533333333","6500500","新莊區"
"242052","497-BY","2019/09/02 08:09:40","新北市新莊區新樹路378號","121.432441666667","25.00302","6500500","新莊區"
"242033","442-UM","2019/09/02 08:09:30","新北市新莊區新莊路457號","121.449565","25.0333516666667","6500500","新莊區"
"242001","441-UM","2019/09/02 08:09:41","新北市新莊區新莊路421號","121.45067","25.0336233333333","6500500","新莊區"
"242006","440-UM","2019/09/02 08:09:41","新北市新莊區福樂街122號","121.456965","25.0478466666667","6500500","新莊區"
"242012","413-TV","2019/09/02 08:09:35","新北市新莊區中誠街123號","121.449316666667","25.04759","6500500","新莊區"
"242049","400-BY","2019/09/02 08:09:27","新北市新莊區西盛街201巷21號","121.429241666667","25.01693","6500500","新莊區"
"242024","362-BY","2019/09/02 08:09:34","新北市新莊區中原東路208號","121.460071666667","25.05412","6500500","新莊區"
"242022","353-BY","2019/09/02 08:09:45","新北市新莊區民樂街40號","121.457921666667","25.0411333333333","6500500","新莊區"
"242014","132-UY","2019/09/02 08:09:34","新北市新莊區新泰路343號","121.444751666667","25.04201","6500500","新莊區"
"242038","135-UY","2019/09/02 08:09:28","新北市新莊區民安東路46號","121.429266666667","25.0208033333333","6500500","新莊區"
"242055","172-VK","2019/09/02 08:09:42","新北市新莊區新泰路13號","121.449661666667","25.03256","6500500","新莊區"
"242016","173-VK","2019/09/02 08:09:35","新北市新莊區復興路一段149巷21弄11號","121.449638333333","25.0440266666667","6500500","新莊區"
"242030","175-VK","2019/09/02 08:09:32","新北市新莊區新泰路361巷1號","121.443855","25.0431266666667","6500500","新莊區"
"242020","346-TH","2019/09/02 08:09:44","新北市新莊區中華路一段128號","121.452651666667","25.0409333333333","6500500","新莊區"
"242043","347-TH","2019/09/02 08:09:23","新北市新莊區富國路65巷3號","121.419773333333","25.0263716666667","6500500","新莊區"
"242035","348-TH","2019/09/02 08:09:25","新北市新莊區後港一路201號","121.434353333333","25.0283566666667","6500500","新莊區"
"242008","349-TH","2019/09/02 08:09:32","新北市新莊區昌明街14巷10號","121.45737","25.0532783333333","6500500","新莊區"
"242018","351-TH","2019/09/02 08:09:31","新北市新莊區中港路225號","121.45463","25.0425166666667","6500500","新莊區"
"242045","281-VK","2019/09/02 08:09:29","新北市新莊區新樹路67巷2號","121.439186666667","25.030025","6500500","新莊區"
"242010","280-VK","2019/09/02 08:09:42","新北市新莊區中港路中慶巷1號","121.451043333333","25.05384","6500500","新莊區"
