"lineid","car","time","location","longitude","latitude","cityid","cityname"
"244006","080-UY","2019/09/02 09:09:31","新北市林口區後湖13-1號","121.387951666667","25.09808","6501700","林口區"
"244018","402-UM","2019/09/02 09:09:43","新北市林口區忠孝路584號","121.375446666667","25.06818","6501700","林口區"
"244012","KEA-2802","2019/09/02 09:09:38","新北市林口區麗園一街6巷9-3號","121.37492","25.0713333333333","6501700","林口區"
"244022","483-VK","2019/09/02 09:09:32","新北市林口區東湖一街71號","121.385405","25.0724633333333","6501700","林口區"
"244016","485-VK","2019/09/02 09:09:35","新北市林口區八德路76號","121.365273333333","25.0654583333333","6501700","林口區"
"244008","656-BX","2019/09/02 09:09:34","新北市林口區文化三路二段327號","121.379603333333","25.0875483333333","6501700","林口區"
"244010","701-TV","2019/09/02 09:09:32","新北市林口區新寮1-84號","121.392793333333","25.0767516666667","6501700","林口區"
"244024","837-TS","2019/09/02 09:09:29","新北市林口區南勢二街313號","121.359475","25.0764333333333","6501700","林口區"
"222004","289-BY","2019/09/02 09:09:35","新北市深坑區土庫尖路75-1號","121.631375","25.01815","6501800","深坑區"
"231049","108-UY","2019/09/02 09:09:45","新北市新店區雙峰路41-2號","121.586555","24.9490033333333","6500600","新店區"
"231008","515-UM","2019/09/02 09:09:34","新北市新店區廣興路96號","121.537868333333","24.9129983333333","6500600","新店區"
"226001","7418-A5","2019/09/02 08:50:11","新北市平溪區東勢里番仔坑16號","121.754726666667","24.9911283333333","6502400","平溪區"
"226003","AGD-0702","2019/09/02 09:09:26","新北市平溪區南山里南山坪5號","121.762346666667","25.033065","6502400","平溪區"
"223003","205-TH","2019/09/02 09:09:31","新北市石碇區北宜路六段十三股巷1號","121.6492","24.9476783333333","6501900","石碇區"
"223008","406-TH","2019/09/02 09:06:03","新北市石碇區光明路16號","121.683428333333","25.033045","6501900","石碇區"
"223001","592-UM","2019/09/02 09:09:25","新北市石碇區北宜路六段水底寮巷3號","121.656488333333","24.9450066666667","6501900","石碇區"
"223004","660-BX","2019/09/02 09:09:43","新北市石碇區碇坪路二段55號","121.683801666667","24.97109","6501900","石碇區"
"223007","661-BX","2019/09/02 09:09:38","新北市石碇區光明路2號","121.674765","25.0270833333333","6501900","石碇區"
"223005","677-TV","2019/09/02 09:06:20","新北市石碇區崩山53號","121.682378333333","24.9688883333333","6501900","石碇區"
"224010","AGQ-8101","2019/09/02 09:09:34","新北市瑞芳區柴寮路85-7號","121.824585","25.0762033333333","6501200","瑞芳區"
"227003","282-VK","2019/09/02 09:09:35","新北市雙溪區泰平里泰平35號","121.826228333333","24.97075","6502500","雙溪區"
"252004","249-BX","2019/09/02 09:09:40","新北市三芝區興華里車埕70-1號","121.493276666667","25.1936633333333","6502100","三芝區"
"237014","760-BX","2019/09/02 09:09:25","新北市三峽區詩朗42-1號","121.372103333333","24.85875","6500900","三峽區"
"242040","AAC-296","2019/09/02 09:09:28","新北市新莊區青山路一段16號","121.411263333333","25.0274833333333","6500500","新莊區"
"242059","986-R7","2019/09/02 09:09:32","新北市新莊區新樹路255-2號","121.434766666667","25.021725","6500500","新莊區"
"242003","751-BX","2019/09/02 09:09:26","新北市新莊區化成路314巷18號","121.466935","25.04822","6500500","新莊區"
"242028","615-BX","2019/09/02 09:09:27","新北市新莊區昌隆街5號","121.45384","25.0512283333333","6500500","新莊區"
"242026","613-BX","2019/09/02 09:09:39","新北市新莊區幸福路541號","121.454881666667","25.04921","6500500","新莊區"
"242057","612-BX","2019/09/02 09:09:36","新北市新莊區八德街99號","121.424355","25.0212683333333","6500500","新莊區"
"242047","566-BX","2019/09/02 09:09:44","新北市新莊區後港二路6號","121.422978333333","25.0243766666667","6500500","新莊區"
"242052","497-BY","2019/09/02 09:09:40","新北市新莊區民安西路387號","121.428981666667","25.0101383333333","6500500","新莊區"
"242033","442-UM","2019/09/02 09:09:30","新北市新莊區中正路318巷16號","121.446468333333","25.0358666666667","6500500","新莊區"
"242001","441-UM","2019/09/02 09:09:41","新北市新莊區中正路113號","121.46034","25.0387616666667","6500500","新莊區"
"242006","440-UM","2019/09/02 09:09:43","新北市新莊區思源路287巷1弄1號","121.459343333333","25.0482866666667","6500500","新莊區"
"242012","413-TV","2019/09/02 09:09:38","新北市新莊區中平路270巷7弄16號","121.445655","25.0508483333333","6500500","新莊區"
"242049","400-BY","2019/09/02 09:09:33","新北市新莊區民安西路252巷37號","121.425071666667","25.01401","6500500","新莊區"
"242024","362-BY","2019/09/02 09:09:44","新北市新莊區五工一路80巷3號","121.46167","25.0672183333333","6500500","新莊區"
"242022","353-BY","2019/09/02 09:09:37","新北市新莊區化成路519號","121.465043333333","25.063755","6500500","新莊區"
"242014","132-UY","2019/09/02 09:09:38","新北市新莊區中平路36巷18號","121.445511666667","25.0435516666667","6500500","新莊區"
"242038","135-UY","2019/09/02 09:09:38","新北市新莊區民安西路79號","121.42716","25.0194233333333","6500500","新莊區"
"242055","172-VK","2019/09/02 09:09:42","新北市新莊區景德路208號","121.449068333333","25.0338","6500500","新莊區"
"242016","173-VK","2019/09/02 09:09:35","新北市新莊區中平路82巷25號","121.446348333333","25.0455233333333","6500500","新莊區"
"242030","175-VK","2019/09/02 09:09:31","新北市新莊區忠孝街3號","121.443935","25.0346133333333","6500500","新莊區"
"242020","346-TH","2019/09/02 09:09:38","新北市新莊區和興街43號","121.446638333333","25.0404633333333","6500500","新莊區"
"242043","347-TH","2019/09/02 09:09:23","新北市新莊區中正路730-2號","121.414846666667","25.0238516666667","6500500","新莊區"
"242035","348-TH","2019/09/02 09:09:34","新北市新莊區後港一路130巷17號","121.429768333333","25.0265716666667","6500500","新莊區"
"242008","349-TH","2019/09/02 09:09:32","新北市新莊區幸福路564巷2弄2號","121.454495","25.04959","6500500","新莊區"
"242018","351-TH","2019/09/02 09:09:31","新北市新莊區思源路129巷18號","121.458561666667","25.0435283333333","6500500","新莊區"
"233003","KEA-2870","2019/09/02 09:09:35","新北市烏來區屯鹿71號","121.49227","24.7916483333333","6502900","烏來區"
"242045","281-VK","2019/09/02 09:09:29","新北市新莊區民安路16-29號","121.422388333333","25.0279883333333","6500500","新莊區"
"242010","280-VK","2019/09/02 09:09:42","新北市新莊區中信街23巷1號","121.450991666667","25.0506166666667","6500500","新莊區"
