"lineid","car","time","location","longitude","latitude","cityid","cityname"
"244018","402-UM","2019/09/02 09:19:23","新北市林口區忠孝路646巷28號","121.379085","25.0672933333333","6501700","林口區"
"244012","KEA-2802","2019/09/02 09:19:38","新北市林口區麗園一街11巷7號","121.377933333333","25.0707283333333","6501700","林口區"
"244022","483-VK","2019/09/02 09:19:32","新北市林口區隆林街123巷22號","121.384636666667","25.0739633333333","6501700","林口區"
"244016","485-VK","2019/09/02 09:19:35","新北市林口區文化二路一段20巷25弄61號","121.366153333333","25.0675383333333","6501700","林口區"
"244008","656-BX","2019/09/02 09:19:34","新北市林口區文化三路二段796號","121.380298333333","25.0873583333333","6501700","林口區"
"244010","701-TV","2019/09/02 09:19:32","新北市林口區仁愛路一段285巷56號","121.395463333333","25.0745133333333","6501700","林口區"
"244024","837-TS","2019/09/02 09:19:29","新北市林口區仁愛二路101-1號","121.367805","25.0751416666667","6501700","林口區"
"222004","289-BY","2019/09/02 09:19:35","新北市深坑區土庫尖路75-1號","121.631315","25.0182133333333","6501800","深坑區"
"231049","108-UY","2019/09/02 09:19:45","新北市新店區雙峰路115號","121.594306666667","24.935945","6500600","新店區"
"231008","515-UM","2019/09/02 09:19:34","新北市新店區平廣路一段30-1號","121.534706666667","24.902975","6500600","新店區"
"226003","AGD-0702","2019/09/02 09:19:46","新北市平溪區嶺腳里嶺腳寮85號","121.749313333333","25.0352616666667","6502400","平溪區"
"223003","205-TH","2019/09/02 09:19:31","新北市石碇區北宜路五段十股寮巷10號","121.642785","24.9532133333333","6501900","石碇區"
"223008","406-TH","2019/09/02 09:06:03","新北市石碇區光明路16號","121.683428333333","25.033045","6501900","石碇區"
"223001","592-UM","2019/09/02 09:19:25","新北市石碇區北宜路五段十股寮巷9號","121.642718333333","24.9531766666667","6501900","石碇區"
"223004","660-BX","2019/09/02 09:19:23","新北市石碇區崩山58號","121.687065","24.9663166666667","6501900","石碇區"
"223007","661-BX","2019/09/02 09:18:58","新北市石碇區光明路17-2號","121.68532","25.0318683333333","6501900","石碇區"
"223005","677-TV","2019/09/02 09:19:31","新北市石碇區崩山58號","121.687268333333","24.9663283333333","6501900","石碇區"
"224010","AGQ-8101","2019/09/02 09:19:34","新北市瑞芳區明燈路一段15號","121.823523333333","25.1074366666667","6501200","瑞芳區"
"227003","282-VK","2019/09/02 09:18:55","新北市雙溪區泰平里料角坑19號","121.81219","24.9725333333333","6502500","雙溪區"
"252004","249-BX","2019/09/02 09:19:40","新北市三芝區興華里楓子林45-1號","121.501658333333","25.2045683333333","6502100","三芝區"
"237014","760-BX","2019/09/02 09:19:44","新北市三峽區詩朗1-2號","121.363715","24.8553566666667","6500900","三峽區"
"242040","AAC-296","2019/09/02 09:19:28","新北市新莊區壽山路49號","121.41417","25.031135","6500500","新莊區"
"242059","986-R7","2019/09/02 09:19:30","新北市新莊區瓊泰路3號","121.444858333333","25.0285916666667","6500500","新莊區"
"242003","751-BX","2019/09/02 09:19:46","新北市新莊區頭興街110號","121.462511666667","25.0536766666667","6500500","新莊區"
"242026","613-BX","2019/09/02 09:19:36","新北市新莊區思源路55號","121.45991","25.0402316666667","6500500","新莊區"
"242057","612-BX","2019/09/02 09:19:39","新北市新莊區龍安路282號","121.42233","25.0190433333333","6500500","新莊區"
"242047","566-BX","2019/09/02 09:19:28","新北市新莊區四維路186巷7號","121.421565","25.0211733333333","6500500","新莊區"
"242052","497-BY","2019/09/02 09:19:40","新北市新莊區西盛街387巷17號","121.428635","25.0130766666667","6500500","新莊區"
"242033","442-UM","2019/09/02 09:19:30","新北市新莊區建中街90巷5弄1號","121.446783333333","25.0374016666667","6500500","新莊區"
"242001","441-UM","2019/09/02 09:19:41","新北市新莊區化成路33號","121.465106666667","25.0440383333333","6500500","新莊區"
"242006","440-UM","2019/09/02 09:19:40","新北市新莊區思源路65號","121.45995","25.04052","6500500","新莊區"
"242012","413-TV","2019/09/02 09:19:35","新北市新莊區中和街191巷1-1號","121.447865","25.0511533333333","6500500","新莊區"
"242049","400-BY","2019/09/02 09:19:35","新北市新莊區民安西路189巷28號","121.42719","25.01531","6500500","新莊區"
"242024","362-BY","2019/09/02 09:19:34","新北市新莊區五工一路72巷9號","121.46222","25.06653","6500500","新莊區"
"242022","353-BY","2019/09/02 09:19:37","新北市新莊區化成路540-1號","121.466245","25.0532616666667","6500500","新莊區"
"242014","132-UY","2019/09/02 09:19:39","新北市新莊區中和街24號","121.44826","25.0436133333333","6500500","新莊區"
"242038","135-UY","2019/09/02 09:19:35","新北市新莊區成功街87號","121.424386666667","25.018945","6500500","新莊區"
"242055","172-VK","2019/09/02 09:19:42","新北市新莊區新豐街65號","121.44636","25.0335233333333","6500500","新莊區"
"242030","175-VK","2019/09/02 09:19:45","新北市新莊區忠孝街29巷16號","121.443621666667","25.03618","6500500","新莊區"
"242020","346-TH","2019/09/02 09:19:38","新北市新莊區公園路60號","121.449435","25.0394083333333","6500500","新莊區"
"242043","347-TH","2019/09/02 09:19:43","新北市新莊區中正路925號","121.410546666667","25.0211333333333","6500500","新莊區"
"242035","348-TH","2019/09/02 09:19:25","新北市新莊區後港一路56巷24弄12號","121.426166666667","25.025175","6500500","新莊區"
"242018","351-TH","2019/09/02 09:19:31","新北市新莊區銘德街127號","121.455086666667","25.0431016666667","6500500","新莊區"
"233003","KEA-2870","2019/09/02 09:19:35","新北市烏來區李茂岸9號","121.502468333333","24.7785483333333","6502900","烏來區"
"242045","281-VK","2019/09/02 09:19:29","新北市新莊區裕民街37巷5號","121.419458333333","25.02496","6500500","新莊區"
"242010","280-VK","2019/09/02 09:19:42","新北市新莊區中榮街106號","121.447173333333","25.052905","6500500","新莊區"
