"lineid","car","time","location","longitude","latitude","cityid","cityname"
"234044","148-BY","2019/09/02 12:39:28","新北市永和區永元路68號","121.522571666667","25.0015683333333","6500400","永和區"
"234078","298-R6","2019/09/02 12:39:24","新北市永和區林森路77號","121.523993333333","25.0039333333333","6500400","永和區"
"234036","336-UY","2019/09/02 12:39:36","新北市永和區福和路1號","121.526548333333","25.0101833333333","6500400","永和區"
"234062","337-UY","2019/09/02 12:39:40","新北市永和區福和路1號","121.52649","25.0100116666667","6500400","永和區"
"234084","338-UY","2019/09/02 12:39:43","新北市永和區中正路4號","121.512341666667","24.993615","6500400","永和區"
"234068","552-UM","2019/09/02 12:39:27","新北市永和區福和路1號","121.52545","25.009485","6500400","永和區"
"234015","745-BX","2019/09/02 12:39:30","新北市永和區福和路1號","121.525733333333","25.0093983333333","6500400","永和區"
"234028","746-BX","2019/09/02 12:39:43","新北市永和區環河東路三段58號","121.526935","25.0060483333333","6500400","永和區"
"234005","KED-0605","2019/09/02 12:39:28","新北市永和區福和路1號","121.526526666667","25.010165","6500400","永和區"
"234012","KEA-2591","2019/09/02 12:39:42","新北市永和區信義路98號","121.512406666667","25.01378","6500400","永和區"
"234060","AAD-866","2019/09/02 12:39:43","新北市永和區環河東路二段92號","121.524568333333","25.0105766666667","6500400","永和區"
"234040","862-TW","2019/09/02 12:39:42","新北市永和區永和路一段40號","121.513068333333","25.0053383333333","6500400","永和區"
"234025","9371-KE","2019/09/02 12:39:41","新北市永和區永和路二段8號","121.51447","25.0102483333333","6500400","永和區"
"234010","9373-KE","2019/09/02 12:39:31","新北市永和區保生路55號","121.504768333333","25.0106466666667","6500400","永和區"
"234022","9380-KE","2019/09/02 12:39:39","新北市永和區福和路1號","121.526371666667","25.0096133333333","6500400","永和區"
"234076","969-R7","2019/09/02 12:39:27","新北市永和區中正路152號","121.51482","24.9964233333333","6500400","永和區"
"234001","AAC-295","2019/09/02 12:39:42","新北市永和區福和路1號","121.526608333333","25.0099516666667","6500400","永和區"
"231029","106-UY","2019/09/02 12:39:25","新北市新店區安華路28-1號","121.51963","24.96078","6500600","新店區"
"231036","110-UY","2019/09/02 12:39:30","新北市新店區安康路一段359-27號","121.518685","24.96144","6500600","新店區"
"231003","268-BY","2019/09/02 12:39:24","新北市新店區安一路一段1-1號","121.51974","24.9613516666667","6500600","新店區"
"231010","719-UM","2019/09/02 12:39:33","新北市新店區安華路28-1號","121.519353333333","24.9609633333333","6500600","新店區"
"231026","720-UM","2019/09/02 12:39:27","新北市新店區安康路一段359-27號","121.518195","24.9615983333333","6500600","新店區"
"235029","098-UM","2019/09/02 12:39:35","新北市中和區員山路36巷16-3號","121.48503","24.9912633333333","6500300","中和區"
"235005","251-BX","2019/09/02 12:39:27","新北市中和區員山路36巷16-2號","121.48519","24.9917916666667","6500300","中和區"
"207002","749-BX","2019/09/02 12:39:37","新北市萬里區中幅里大湖路6號","121.660783333333","25.1710583333333","6502800","萬里區"
"207001","662-BX","2019/09/02 12:39:32","新北市萬里區萬里里獅頭路15-1號","121.69751","25.1802283333333","6502800","萬里區"
"235032","KEA-2873","2019/09/02 12:39:38","新北市中和區員山路36巷16-2號","121.485343333333","24.991415","6500300","中和區"
"235025","KEA-2875","2019/09/02 12:32:19","新北市中和區員山路36巷16-2號","121.48522","24.99179","6500300","中和區"
