"lineid","car","time","location","longitude","latitude","cityid","cityname"
"234044","148-BY","2019/09/02 13:09:28","新北市永和區永元路18巷31號","121.5238","25.00024","6500400","永和區"
"234078","298-R6","2019/09/02 13:09:44","新北市永和區永亨路83號","121.521936666667","25.00568","6500400","永和區"
"234036","336-UY","2019/09/02 13:09:36","新北市永和區民樂街71巷2號","121.52735","24.99737","6500400","永和區"
"234062","337-UY","2019/09/02 13:09:40","新北市永和區秀朗路二段33號","121.521266666667","25.0024616666667","6500400","永和區"
"234084","338-UY","2019/09/02 13:09:23","新北市永和區永寧街135巷12號","121.518416666667","25.0046116666667","6500400","永和區"
"234068","552-UM","2019/09/02 13:09:27","新北市永和區豫溪街137巷1弄24號","121.518296666667","25.0104916666667","6500400","永和區"
"234015","745-BX","2019/09/02 13:09:30","新北市永和區文化路90巷3弄2號","121.513838333333","25.0156633333333","6500400","永和區"
"234028","746-BX","2019/09/02 13:09:43","新北市永和區四維街105號","121.523946666667","24.9982","6500400","永和區"
"234052","KEA-2590","2019/09/02 13:09:32","新北市永和區中興街133巷6號","121.518743333333","25.0126766666667","6500400","永和區"
"234005","KED-0605","2019/09/02 13:09:28","新北市永和區中山路一段129號","121.51063","25.009985","6500400","永和區"
"234012","KEA-2591","2019/09/02 13:09:42","新北市永和區保福路二段48號","121.510955","25.0121266666667","6500400","永和區"
"234060","AAD-866","2019/09/02 13:09:43","新北市永和區安樂路304巷7號","121.514565","25.005125","6500400","永和區"
"234040","862-TW","2019/09/02 13:09:42","新北市永和區保平路93巷2弄1號","121.511733333333","25.006665","6500400","永和區"
"234048","863-TW","2019/09/02 13:09:35","新北市永和區保福路二段94巷19號","121.510935","25.0139966666667","6500400","永和區"
"234025","9371-KE","2019/09/02 13:09:41","新北市永和區自由街33號","121.514236666667","25.0062783333333","6500400","永和區"
"234010","9373-KE","2019/09/02 13:09:31","新北市永和區仁愛路31巷2弄2號","121.514175","25.0130183333333","6500400","永和區"
"248015","026-BX","2019/09/02 13:09:38","新北市五股區成泰路三段218號","121.446171666667","25.092965","6501500","五股區"
"248005","077-UY","2019/09/02 13:09:34","新北市五股區中興路二段64號","121.461488333333","25.07691","6501500","五股區"
"248007","KED-0815","2019/09/02 13:09:36","新北市蘆洲區永安南路二段294號","121.457248333333","25.0819483333333","6501500","五股區"
"248019","KED-0813","2019/09/02 13:09:43","新北市五股區成泰路三段544-1號","121.454383333333","25.1024383333333","6501500","五股區"
"248013","261-SL","2019/09/02 13:09:42","新北市五股區成泰路一段189巷13弄2號","121.433918333333","25.076505","6501500","五股區"
"248003","677-BX","2019/09/02 13:09:27","新北市五股區成泰路二段126號","121.438015","25.08349","6501500","五股區"
"248001","678-BX","2019/09/02 13:09:38","新北市五股區中興路三段196號","121.442326666667","25.08181","6501500","五股區"
"248009","682-TV","2019/09/02 13:09:33","新北市五股區中興路四段17號","121.44017","25.0821766666667","6501500","五股區"
"234022","9380-KE","2019/09/02 13:09:39","新北市永和區中興街29巷2號","121.516293333333","25.01207","6500400","永和區"
"234076","969-R7","2019/09/02 13:09:34","新北市永和區民光街8號","121.515428333333","24.9961733333333","6500400","永和區"
"234072","AAC-211","2019/09/02 13:09:43","新北市永和區竹林路207號","121.520648333333","25.0089416666667","6500400","永和區"
"234066","AAC-212","2019/09/02 13:09:41","新北市永和區永和路一段93號","121.513358333333","25.007615","6500400","永和區"
"234001","AAC-295","2019/09/02 13:09:42","新北市永和區中山路一段97號","121.511358333333","25.010485","6500400","永和區"
"243005","646-TV","2019/09/02 13:09:37","新北市泰山區黎明路47號","121.42203","25.0575433333333","6501600","泰山區"
"231027","0293-UT","2019/09/02 13:09:44","新北市新店區安華路1-1號","121.519383333333","24.9604783333333","6500600","新店區"
"231005","046-UY","2019/09/02 13:09:40","新北市新店區安華路28-1號","121.51928","24.9608383333333","6500600","新店區"
"231029","106-UY","2019/09/02 13:09:25","新北市新店區安華路28-1號","121.519525","24.9608116666667","6500600","新店區"
"231036","110-UY","2019/09/02 13:09:31","新北市新店區安康路二段397巷2-1號","121.494491666667","24.953735","6500600","新店區"
"231031","256-BX","2019/09/02 13:09:26","新北市新店區安一路一段1-1號","121.519656666667","24.9611666666667","6500600","新店區"
"231023","260-TV","2019/09/02 13:09:35","新北市新店區安一路一段1-1號","121.519173333333","24.9614933333333","6500600","新店區"
"231003","268-BY","2019/09/02 13:09:24","新北市新店區北新路一段100號","121.542216666667","24.96941","6500600","新店區"
"231035","278-BY","2019/09/02 13:09:42","新北市新店區安一路一段1-1號","121.519785","24.961075","6500600","新店區"
"231014","AAD-862","2019/09/02 13:09:40","新北市新店區安一路一段1-1號","121.519935","24.9614883333333","6500600","新店區"
"231006","355-BY","2019/09/02 13:09:35","新北市新店區安華路28-1號","121.519075","24.9609166666667","6500600","新店區"
"231024","4716-K9","2019/09/02 13:09:31","新北市新店區安華路28-1號","121.519591666667","24.9605716666667","6500600","新店區"
"231025","4715-K9","2019/09/02 13:09:30","新北市新店區安華路3號","121.519105","24.96034","6500600","新店區"
"231019","512-UM","2019/09/02 13:09:43","新北市新店區安一路一段1-1號","121.519561666667","24.9611616666667","6500600","新店區"
"231034","616-UM","2019/09/02 13:09:27","新北市新店區安華路1-1號","121.519403333333","24.9605183333333","6500600","新店區"
"231002","619-UM","2019/09/02 13:09:29","新北市新店區安華路28-1號","121.51945","24.9608933333333","6500600","新店區"
"231011","KED-0819","2019/09/02 13:09:34","新北市新店區安一路一段1-1號","121.519956666667","24.961225","6500600","新店區"
"231010","719-UM","2019/09/02 13:09:33","新北市新店區安一路一段1-1號","121.51939","24.9612383333333","6500600","新店區"
"231026","720-UM","2019/09/02 13:09:27","新北市新店區安一路一段1-1號","121.519013333333","24.9612483333333","6500600","新店區"
"231001","898-TW","2019/09/02 13:09:41","新北市新店區安華路28-1號","121.519418333333","24.9609783333333","6500600","新店區"
"231004","899-TW","2019/09/02 13:09:32","新北市新店區安康路一段359-27號","121.518518333333","24.961125","6500600","新店區"
"231037","AKT-0513","2019/09/02 13:09:25","新北市新店區安華路1-1號","121.519363333333","24.9605133333333","6500600","新店區"
"235030","003-UY","2019/09/02 13:09:33","新北市中和區中山路二段120號","121.502728333333","25.00379","6500300","中和區"
"235027","006-UY","2019/09/02 13:09:30","新北市中和區員山路36巷16-3號","121.485123333333","24.9912966666667","6500300","中和區"
"235003","097-UM","2019/09/02 13:09:31","新北市中和區錦和路350-1號","121.490481666667","24.9935683333333","6500300","中和區"
"235029","098-UM","2019/09/02 13:09:35","新北市中和區福祥路40號","121.499473333333","25.00389","6500300","中和區"
"235004","150-BY","2019/09/02 13:09:41","新北市中和區錦和路350-1號","121.49038","24.9935583333333","6500300","中和區"
"235022","151-BY","2019/09/02 13:09:33","新北市中和區圓通路367巷58號","121.49189","24.9843583333333","6500300","中和區"
"235019","183-VK","2019/09/02 13:09:24","新北市中和區中正路637巷60弄61號","121.485451666667","24.9925616666667","6500300","中和區"
"235002","185-VK","2019/09/02 13:09:32","新北市中和區景平路154號","121.51781","24.9922066666667","6500300","中和區"
"235031","255-BX","2019/09/02 13:09:33","新北市中和區新生街177巷1號","121.483951666667","25.0006916666667","6500300","中和區"
"235036","301-VK","2019/09/02 13:09:38","新北市中和區錦和路111-1號","121.490211666667","24.9952033333333","6500300","中和區"
"235007","352-BY","2019/09/02 13:09:30","新北市中和區中正路395號","121.489776666667","24.993545","6500300","中和區"
"235006","KEA-2878","2019/09/02 13:09:36","新北市中和區中正路273-3號","121.495625","24.9934716666667","6500300","中和區"
"235034","558-UM","2019/09/02 13:09:38","新北市中和區圓通路172號","121.4974","24.9946716666667","6500300","中和區"
"235024","KED-0823","2019/09/02 13:09:39","新北市中和區員山路202號","121.481268333333","25.0006233333333","6500300","中和區"
"235011","732-UM","2019/09/02 13:09:43","新北市中和區和城路一段271巷1號","121.48549","24.9919383333333","6500300","中和區"
"235035","783-BX","2019/09/02 13:09:32","新北市中和區板南路520巷15號","121.483658333333","25.0089033333333","6500300","中和區"
"235026","800-TS","2019/09/02 13:09:36","新北市中和區橋和路90號","121.490161666667","25.0048416666667","6500300","中和區"
"235021","801-TS","2019/09/02 13:09:39","新北市中和區民享街97巷19號","121.475405","24.99956","6500300","中和區"
"235017","900-TW","2019/09/02 13:09:29","新北市中和區員山路36巷16-2號","121.485231666667","24.9914466666667","6500300","中和區"
"235028","911-UM","2019/09/02 13:09:45","新北市中和區中正路161巷6號","121.498708333333","24.9934733333333","6500300","中和區"
"235007","157-BY","2019/09/02 13:09:28","新北市中和區興南路一段86號","121.509983333333","24.9894333333333","6500300","中和區"
"235001","AAC-213","2019/09/02 13:09:39","新北市中和區景德街40號","121.517968333333","24.9914116666667","6500300","中和區"
"235023","AAC-215","2019/09/02 13:09:25","新北市中和區員山路36巷16-3號","121.485203333333","24.99121","6500300","中和區"
"247023","057-VK","2019/09/02 13:09:42","新北市五股區中興路三段163號","121.449208333333","25.0809933333333","6501400","蘆洲區"
"235005","251-BX","2019/09/02 13:09:27","新北市中和區錦和路350-1號","121.490453333333","24.9936316666667","6500300","中和區"
"253003","6232-TK","2019/09/02 13:09:26","新北市石門區石崩山6號","121.564796666667","25.2829866666667","6502200","石門區"
"253004","6251-TK","2019/09/02 13:09:39","新北市石門區阿里荖42-1號","121.603361666667","25.2854216666667","6502200","石門區"
"253002","637-UY","2019/09/02 13:09:28","新北市石門區老崩山35號","121.557385","25.2767233333333","6502200","石門區"
"253001","KEC-0718","2019/09/02 13:09:34","新北市石門區楓林1號","121.536741666667","25.2982966666667","6502200","石門區"
"207002","749-BX","2019/09/02 13:09:17","新北市萬里區溪底里香員林路9-2號","121.630056666667","25.1643383333333","6502800","萬里區"
"252005","073-UM","2019/09/02 13:09:37","新北市三芝區八賢里八連溪1-7號","121.507073333333","25.2492116666667","6502100","三芝區"
"207001","662-BX","2019/09/02 13:09:32","","121.689063333333","25.1772516666667","6502800","萬里區"
"221029","298-VK","2019/09/02 13:09:38","新北市汐止區中興路232-2號","121.630046666667","25.06743","6501100","汐止區"
"220030","610-BX","2019/09/02 13:09:35","新北市板橋區華東街1-10號","121.448685","24.9950016666667","6500100","板橋區"
"235032","KEA-2873","2019/09/02 13:09:38","新北市中和區員山路36巷16-3號","121.485173333333","24.991235","6500300","中和區"
"235025","KEA-2875","2019/09/02 13:09:47","新北市中和區國光街215巷24弄13號","121.466805","25.0001683333333","6500300","中和區"
