"lineid","car","time","location","longitude","latitude","cityid","cityname"
"234044","148-BY","2019/09/02 13:19:28","新北市永和區得和路324號","121.52318","24.9995966666667","6500400","永和區"
"234078","298-R6","2019/09/02 13:19:24","新北市永和區福和路38號","121.523858333333","25.00833","6500400","永和區"
"234036","336-UY","2019/09/02 13:19:36","新北市永和區民樂街55巷2號","121.527556666667","24.998345","6500400","永和區"
"234062","337-UY","2019/09/02 13:19:40","新北市永和區永元路17巷6弄2號","121.521421666667","25.00068","6500400","永和區"
"234084","338-UY","2019/09/02 13:19:36","新北市永和區永利路13號","121.517773333333","25.0060933333333","6500400","永和區"
"234068","552-UM","2019/09/02 13:19:27","新北市永和區豫溪街76號","121.51735","25.009895","6500400","永和區"
"234015","745-BX","2019/09/02 13:19:30","新北市永和區文化路144巷31弄3號","121.51237","25.0166933333333","6500400","永和區"
"234028","746-BX","2019/09/02 13:19:43","新北市永和區厚德街82號","121.523735","24.9989233333333","6500400","永和區"
"234052","KEA-2590","2019/09/02 13:19:31","新北市永和區中興街18號","121.515978333333","25.01182","6500400","永和區"
"234005","KED-0605","2019/09/02 13:19:28","新北市永和區保生路1號","121.506745","25.00714","6500400","永和區"
"234012","KEA-2591","2019/09/02 13:19:42","新北市永和區信義路34號","121.513783333333","25.01233","6500400","永和區"
"234060","AAD-866","2019/09/02 13:19:22","新北市永和區秀朗路一段175號","121.517053333333","25.0036533333333","6500400","永和區"
"234040","862-TW","2019/09/02 13:19:42","新北市永和區水源街43巷2號","121.509768333333","25.0041116666667","6500400","永和區"
"234048","863-TW","2019/09/02 13:19:35","新北市永和區仁愛路104巷10號","121.512063333333","25.0136433333333","6500400","永和區"
"234025","9371-KE","2019/09/02 13:19:41","新北市永和區豫溪街42巷18號","121.51532","25.0090616666667","6500400","永和區"
"234010","9373-KE","2019/09/02 13:19:31","新北市永和區文化路126巷23弄7號","121.512821666667","25.0163466666667","6500400","永和區"
"248015","026-BX","2019/09/02 13:19:39","新北市五股區成泰路三段477巷18號","121.449858333333","25.0989516666667","6501500","五股區"
"248005","077-UY","2019/09/02 13:19:34","新北市五股區中興路一段103號","121.466565","25.0731333333333","6501500","五股區"
"248007","KED-0815","2019/09/02 13:19:36","新北市五股區更洲路32巷8弄14號","121.459211666667","25.07963","6501500","五股區"
"248019","KED-0813","2019/09/02 13:19:43","新北市五股區孝義路45號","121.454291666667","25.1104766666667","6501500","五股區"
"248011","247-BX","2019/09/02 13:19:32","新北市五股區御史路2號","121.442296666667","25.090175","6501500","五股區"
"248013","261-SL","2019/09/02 13:19:34","新北市五股區自強路90巷51號","121.431448333333","25.0713616666667","6501500","五股區"
"248003","677-BX","2019/09/02 13:19:27","新北市五股區成泰路二段238號","121.439941666667","25.0867833333333","6501500","五股區"
"248001","678-BX","2019/09/02 13:19:38","新北市五股區西雲路32號","121.443418333333","25.0907166666667","6501500","五股區"
"248009","682-TV","2019/09/02 13:19:43","新北市五股區成泰路一段189巷9弄2號","121.434225","25.0766183333333","6501500","五股區"
"234022","9380-KE","2019/09/02 13:19:38","新北市永和區竹林路118號","121.519656666667","25.0113266666667","6500400","永和區"
"234076","969-R7","2019/09/02 13:19:27","新北市永和區民有街21巷2號","121.516738333333","24.9964666666667","6500400","永和區"
"234072","AAC-211","2019/09/02 13:19:34","新北市永和區竹林路46號","121.517725","25.01425","6500400","永和區"
"234066","AAC-212","2019/09/02 13:19:28","新北市永和區保平路32號","121.511838333333","25.0073133333333","6500400","永和區"
"234001","AAC-295","2019/09/02 13:19:42","新北市永和區中山路一段101號","121.511183333333","25.010355","6500400","永和區"
"244001","248-BX","2019/09/02 13:19:37","新北市林口區寶斗厝坑83號","121.332386666667","25.1199216666667","6501700","林口區"
"243005","646-TV","2019/09/02 13:19:37","新北市泰山區南林路99巷1-1號","121.415355","25.0507533333333","6501600","泰山區"
"231030","002-UM","2019/09/02 13:19:26","新北市新店區安華路28-1號","121.51966","24.9608033333333","6500600","新店區"
"231027","0293-UT","2019/09/02 13:19:24","新北市新店區安一路一段1-1號","121.519795","24.9619016666667","6500600","新店區"
"231005","046-UY","2019/09/02 13:19:41","新北市新店區安華路28-1號","121.519225","24.9607216666667","6500600","新店區"
"231029","106-UY","2019/09/02 13:19:45","新北市新店區安華路28-1號","121.519516666667","24.9608333333333","6500600","新店區"
"231018","107-UY","2019/09/02 13:19:35","新北市新店區安康路一段82號","121.528123333333","24.9618916666667","6500600","新店區"
"231036","110-UY","2019/09/02 13:19:31","新北市新店區建業路15號","121.482675","24.9526616666667","6500600","新店區"
"231031","256-BX","2019/09/02 13:19:46","新北市新店區安忠路205巷8號","121.50903","24.954765","6500600","新店區"
"231023","260-TV","2019/09/02 13:19:35","新北市新店區安一路一段1-1號","121.519251666667","24.9613433333333","6500600","新店區"
"231003","268-BY","2019/09/02 13:19:24","新北市新店區中正路82號","121.5437","24.9702716666667","6500600","新店區"
"231035","278-BY","2019/09/02 13:19:42","新北市新店區安一路一段1-1號","121.519755","24.9611","6500600","新店區"
"231014","AAD-862","2019/09/02 13:19:40","新北市新店區安一路一段1-1號","121.519576666667","24.9611233333333","6500600","新店區"
"231006","355-BY","2019/09/02 13:19:35","新北市新店區安華路28-1號","121.51931","24.9609083333333","6500600","新店區"
"231024","4716-K9","2019/09/02 13:19:31","新北市新店區安康路一段76號","121.5282","24.9618916666667","6500600","新店區"
"231025","4715-K9","2019/09/02 13:19:31","新北市新店區中央五街14號","121.529616666667","24.9742083333333","6500600","新店區"
"231019","512-UM","2019/09/02 13:19:43","新北市新店區安康路一段355-3號","121.519753333333","24.9622066666667","6500600","新店區"
"231034","616-UM","2019/09/02 13:19:27","新北市新店區安華路1-1號","121.519421666667","24.960455","6500600","新店區"
"231002","619-UM","2019/09/02 13:19:29","新北市新店區安華路28-1號","121.519436666667","24.9609316666667","6500600","新店區"
"231011","KED-0819","2019/09/02 13:19:34","新北市新店區安一路一段1-1號","121.519728333333","24.96112","6500600","新店區"
"231010","719-UM","2019/09/02 13:19:33","新北市新店區安康路一段111-1號","121.528626666667","24.9616966666667","6500600","新店區"
"231026","720-UM","2019/09/02 13:19:27","新北市新店區安一路一段1-1號","121.51942","24.9611233333333","6500600","新店區"
"231028","897-TW","2019/09/02 13:19:31","新北市新店區安華路28-1號","121.51944","24.96076","6500600","新店區"
"231001","898-TW","2019/09/02 13:19:41","新北市新店區安華路28-1號","121.519355","24.9608816666667","6500600","新店區"
"231004","899-TW","2019/09/02 13:19:32","新北市新店區安康路一段359-27號","121.518698333333","24.9609883333333","6500600","新店區"
"231037","AKT-0513","2019/09/02 13:19:45","新北市新店區安華路1-1號","121.51933","24.96047","6500600","新店區"
"235030","003-UY","2019/09/02 13:19:33","新北市中和區中山路二段120號","121.50285","25.0037583333333","6500300","中和區"
"235027","006-UY","2019/09/02 13:19:30","新北市中和區中正路569號","121.48667","24.9944466666667","6500300","中和區"
"235003","097-UM","2019/09/02 13:19:31","新北市中和區安和路39號","121.509661666667","24.9949166666667","6500300","中和區"
"235029","098-UM","2019/09/02 13:19:35","新北市中和區莊敬路49巷20弄22號","121.502725","25.0058316666667","6500300","中和區"
"235004","150-BY","2019/09/02 13:19:41","新北市中和區保健路50巷68號","121.509253333333","24.9951466666667","6500300","中和區"
"235022","151-BY","2019/09/02 13:19:33","新北市中和區圓通路369巷156弄46號","121.489426666667","24.9820416666667","6500300","中和區"
"235019","183-VK","2019/09/02 13:19:44","新北市中和區民享街283號","121.471","24.9959016666667","6500300","中和區"
"235002","185-VK","2019/09/02 13:19:43","新北市中和區大智街42巷36-2號","121.522895","24.9921333333333","6500300","中和區"
"235013","186-VK","2019/09/02 13:19:33","新北市中和區錦和路350-1號","121.490465","24.99357","6500300","中和區"
"235031","255-BX","2019/09/02 13:19:33","新北市中和區員山路148巷46號","121.482541666667","24.9970983333333","6500300","中和區"
"235036","301-VK","2019/09/02 13:19:38","新北市中和區連城路265巷6弄9號","121.491103333333","24.99579","6500300","中和區"
"235007","352-BY","2019/09/02 13:19:30","新北市中和區景平路381號","121.50386","24.99337","6500300","中和區"
"235006","KEA-2878","2019/09/02 13:19:36","新北市中和區景平路159巷58號","121.512903333333","24.9911666666667","6500300","中和區"
"235014","4979-A6","2019/09/02 13:19:32","新北市中和區捷運路61巷24號","121.508971666667","24.9892783333333","6500300","中和區"
"235033","4980-A6","2019/09/02 13:19:45","新北市中和區連城路237-1號","121.493778333333","24.9974833333333","6500300","中和區"
"235034","558-UM","2019/09/02 13:19:38","新北市中和區景平路580號","121.501421666667","24.99565","6500300","中和區"
"235001","565-BX","2019/09/02 13:19:27","新北市中和區景安路198號","121.504048333333","24.9913766666667","6500300","中和區"
"235024","KED-0823","2019/09/02 13:19:39","新北市中和區中山路二段648號","121.480751666667","25.0057333333333","6500300","中和區"
"235018","640-BX","2019/09/02 13:19:46","新北市中和區民享街117巷1號","121.474615","24.9991816666667","6500300","中和區"
"235011","732-UM","2019/09/02 13:19:23","新北市中和區建八路134號","121.489291666667","24.99859","6500300","中和區"
"235035","783-BX","2019/09/02 13:19:34","新北市中和區中板路18巷2弄2號","121.483933333333","25.01212","6500300","中和區"
"235026","800-TS","2019/09/02 13:19:36","新北市中和區中山路二段312巷33弄18號","121.494988333333","25.00417","6500300","中和區"
"235021","801-TS","2019/09/02 13:19:39","新北市中和區民安街53號","121.479388333333","24.9999516666667","6500300","中和區"
"235016","805-TS","2019/09/02 13:19:45","新北市中和區興南路二段30巷2號","121.507483333333","24.9857366666667","6500300","中和區"
"235012","896-TW","2019/09/02 13:19:28","新北市中和區錦和路350-1號","121.49057","24.9935816666667","6500300","中和區"
"235017","900-TW","2019/09/02 13:19:29","新北市中和區員山路36巷16-2號","121.48522","24.991455","6500300","中和區"
"235028","911-UM","2019/09/02 13:19:46","新北市中和區圓通路141巷41號","121.498801666667","24.9946316666667","6500300","中和區"
"235015","157-BY","2019/09/02 13:19:28","新北市中和區興南路二段149號","121.50501","24.9835883333333","6500300","中和區"
"235001","AAC-213","2019/09/02 13:19:39","新北市中和區景德街95-11號","121.515105","24.9911883333333","6500300","中和區"
"235023","AAC-215","2019/09/02 13:19:44","新北市中和區員山路36巷16-3號","121.48517","24.9913016666667","6500300","中和區"
"220016","120-SR","2019/09/02 13:19:36","新北市板橋區民生路二段56-6號","121.471156666667","25.0189266666667","6500100","板橋區"
"247023","057-VK","2019/09/02 13:19:43","新北市五股區中興路三段163號","121.449213333333","25.0809866666667","6501400","蘆洲區"
"235005","251-BX","2019/09/02 13:19:27","新北市中和區中和路260號","121.5079","24.999325","6500300","中和區"
"253003","6232-TK","2019/09/02 13:19:26","新北市石門區內石門91號","121.567003333333","25.270185","6502200","石門區"
"253004","6251-TK","2019/09/02 13:19:39","新北市石門區阿里荖67號","121.609505","25.27185","6502200","石門區"
"253002","637-UY","2019/09/02 13:19:26","新北市石門區大溪墘9-1號","121.552643333333","25.2740116666667","6502200","石門區"
"253001","KEC-0718","2019/09/02 13:19:34","新北市石門區楓林17-6號","121.536291666667","25.2923066666667","6502200","石門區"
"207002","749-BX","2019/09/02 13:19:37","新北市萬里區崁腳里崁腳路166號","121.64509","25.1559433333333","6502800","萬里區"
"252005","073-UM","2019/09/02 13:19:37","新北市三芝區八賢里八連溪43號","121.513458333333","25.23653","6502100","三芝區"
"207001","662-BX","2019/09/02 13:19:32","新北市萬里區龜吼里玉田路25號","121.680475","25.1939883333333","6502800","萬里區"
"236024","269-VK","2019/09/02 13:19:29","新北市土城區城林路6巷80號","121.43843","24.9797416666667","6501300","土城區"
"221029","298-VK","2019/09/02 13:19:38","新北市汐止區福德二路237號","121.626428333333","25.0644766666667","6501100","汐止區"
"220027","145-BY","2019/09/02 13:19:40","新北市板橋區華東街1-10號","121.448306666667","24.99509","6500100","板橋區"
"220030","610-BX","2019/09/02 13:19:35","新北市板橋區華東街1-9號","121.44825","24.9949183333333","6500100","板橋區"
"220043","283-UM","2019/09/02 13:19:38","新北市板橋區民生路二段161巷3號","121.470221666667","25.0197916666667","6500100","板橋區"
"220029","287-VK","2019/09/02 13:19:26","新北市板橋區華東街1-10號","121.44824","24.995035","6500100","板橋區"
"220025","687-BX","2019/09/02 13:19:43","新北市板橋區華東街1-10號","121.448181666667","24.9951616666667","6500100","板橋區"
"235032","KEA-2873","2019/09/02 13:19:38","新北市中和區員山路36巷16-3號","121.485071666667","24.9913416666667","6500300","中和區"
"235025","KEA-2875","2019/09/02 13:19:30","新北市中和區民享街97巷14號","121.475325","24.999625","6500300","中和區"
