"lineid","car","time","location","longitude","latitude","cityid","cityname"
"234044","148-BY","2019/09/02 13:59:28","新北市永和區成功路一段20號","121.527023333333","25.00501","6500400","永和區"
"234078","298-R6","2019/09/02 13:59:44","新北市永和區永利路81巷15號","121.522056666667","25.00377","6500400","永和區"
"234036","336-UY","2019/09/02 13:59:36","新北市永和區成功路二段152-2號","121.526498333333","24.9965666666667","6500400","永和區"
"234062","337-UY","2019/09/02 13:59:40","新北市永和區中正路368巷1弄45號","121.519228333333","25.0009933333333","6500400","永和區"
"234084","338-UY","2019/09/02 13:59:43","新北市永和區福和路195號","121.519613333333","25.0075116666667","6500400","永和區"
"234068","552-UM","2019/09/02 13:59:27","新北市永和區國光路39-1號","121.519096666667","25.0082983333333","6500400","永和區"
"234015","745-BX","2019/09/02 13:59:30","新北市永和區文化路117號","121.512618333333","25.0152216666667","6500400","永和區"
"234028","746-BX","2019/09/02 13:59:43","新北市永和區民生路67巷33號","121.524468333333","24.9973766666667","6500400","永和區"
"234052","KEA-2590","2019/09/02 13:59:33","新北市永和區竹林路39巷33弄1號","121.519986666667","25.0152416666667","6500400","永和區"
"234005","KED-0605","2019/09/02 13:59:28","新北市永和區中和路435號","121.50954","25.00094","6500400","永和區"
"234012","KEA-2591","2019/09/02 13:59:42","新北市永和區保生路55號","121.504783333333","25.01058","6500400","永和區"
"234060","AAD-866","2019/09/02 13:59:42","新北市永和區中正路283巷57號","121.515531666667","24.998895","6500400","永和區"
"234040","862-TW","2019/09/02 13:59:42","新北市永和區中和路335巷14號","121.507571666667","25.000235","6500400","永和區"
"234048","863-TW","2019/09/02 13:59:35","新北市永和區保安路264號","121.505883333333","25.0123383333333","6500400","永和區"
"234025","9371-KE","2019/09/02 13:59:41","新北市永和區安樂路445號","121.514361666667","25.00488","6500400","永和區"
"234010","9373-KE","2019/09/02 13:59:31","新北市永和區仁愛路352巷114號","121.500523333333","25.0082866666667","6500400","永和區"
"248015","026-BX","2019/09/02 13:59:38","新北市五股區成泰路三段577巷19號","121.451476666667","25.1026716666667","6501500","五股區"
"248007","KED-0815","2019/09/02 13:59:36","新北市五股區中興路一段128巷15號","121.46562","25.074315","6501500","五股區"
"248019","KED-0813","2019/09/02 13:59:43","新北市五股區凌雲路三段59-6號","121.42524","25.1249116666667","6501500","五股區"
"248011","247-BX","2019/09/02 13:59:32","新北市五股區成泰路二段195巷1號","121.440413333333","25.087325","6501500","五股區"
"248013","261-SL","2019/09/02 13:59:34","新北市五股區民義路一段107巷21-1號","121.432965","25.084605","6501500","五股區"
"248003","677-BX","2019/09/02 13:59:47","新北市五股區民義路二段73號","121.409028333333","25.10557","6501500","五股區"
"248001","678-BX","2019/09/02 13:59:37","新北市五股區凌雲路一段161號","121.448978333333","25.1025966666667","6501500","五股區"
"234022","9380-KE","2019/09/02 13:59:18","新北市永和區復興街39號","121.516531666667","25.0133733333333","6500400","永和區"
"234076","969-R7","2019/09/02 13:59:28","新北市永和區民族街43巷15號","121.519195","24.9985083333333","6500400","永和區"
"234072","AAC-211","2019/09/02 13:59:34","新北市永和區豫溪街169巷2-1號","121.521918333333","25.010435","6500400","永和區"
"234066","AAC-212","2019/09/02 13:59:32","新北市永和區保平路212號","121.509735","25.0059333333333","6500400","永和區"
"234001","AAC-295","2019/09/02 13:59:42","新北市永和區福和路307號","121.516276666667","25.0073033333333","6500400","永和區"
"243002","297-R6","2019/09/02 13:59:28","新北市泰山區辭修路24號","121.429051666667","25.058225","6501600","泰山區"
"243006","KEA-2801","2019/09/02 13:59:27","新北市泰山區黎明路21號","121.420893333333","25.0626783333333","6501600","泰山區"
"243008","421-VK","2019/09/02 13:59:38","新北市泰山區明志路二段152-1號","121.42756","25.050695","6501600","泰山區"
"243004","539-UM","2019/09/02 13:59:40","新北市泰山區泰林路二段73巷31號","121.43435","25.0578816666667","6501600","泰山區"
"243001","KEA-2215","2019/09/02 13:59:33","新北市泰山區泰林路二段280巷1號","121.431528333333","25.0625383333333","6501600","泰山區"
"243003","KEA-2216","2019/09/02 13:59:24","新北市泰山區明志路二段235號","121.427311666667","25.0482783333333","6501600","泰山區"
"243007","680-BX","2019/09/02 13:59:33","新北市泰山區美寧街46號","121.430351666667","25.064335","6501600","泰山區"
"231030","002-UM","2019/09/02 13:59:26","新北市新店區安康路一段230-3號","121.522413333333","24.9637716666667","6500600","新店區"
"231027","0293-UT","2019/09/02 13:59:44","新北市新店區北宜路一段37號","121.538233333333","24.95746","6500600","新店區"
"231005","046-UY","2019/09/02 13:59:41","新北市新店區中興路三段168號","121.544386666667","24.9809016666667","6500600","新店區"
"231029","106-UY","2019/09/02 13:59:45","新北市新店區安康路二段22號","121.515928333333","24.9637166666667","6500600","新店區"
"231018","107-UY","2019/09/02 13:59:35","新北市新店區中央路196號","121.530803333333","24.974625","6500600","新店區"
"231013","108-UY","2019/09/02 13:59:32","新北市新店區明德路64號","121.541606666667","24.9795016666667","6500600","新店區"
"231036","110-UY","2019/09/02 13:59:35","新北市新店區安祥路109巷5號","121.475753333333","24.958915","6500600","新店區"
"231031","256-BX","2019/09/02 13:59:26","新北市新店區莒光路44巷21弄11-3號","121.518568333333","24.9520883333333","6500600","新店區"
"231023","260-TV","2019/09/02 13:59:35","新北市新店區文中路51號","121.539778333333","24.9566066666667","6500600","新店區"
"231003","268-BY","2019/09/02 13:59:44","新北市新店區中興路一段24號","121.538641666667","24.9584","6500600","新店區"
"231035","278-BY","2019/09/02 13:59:42","新北市新店區安康路二段51號","121.514406666667","24.9634566666667","6500600","新店區"
"231014","AAD-862","2019/09/02 13:59:40","新北市新店區北宜路二段219號","121.5534","24.9533016666667","6500600","新店區"
"231006","355-BY","2019/09/02 13:59:35","新北市新店區北宜路二段83號","121.54988","24.95172","6500600","新店區"
"231038","3712-VJ","2019/09/02 13:59:44","新北市新店區安康路一段321巷5-1號","121.52207","24.9626183333333","6500600","新店區"
"231024","4716-K9","2019/09/02 13:59:31","新北市新店區北新路一段271巷8號","121.540488333333","24.96683","6500600","新店區"
"231025","4715-K9","2019/09/02 13:59:31","新北市新店區自由街2-1號","121.535668333333","24.9756133333333","6500600","新店區"
"231019","512-UM","2019/09/02 13:59:43","新北市新店區新烏路二段50巷1號","121.547098333333","24.9279733333333","6500600","新店區"
"231034","616-UM","2019/09/02 13:59:27","新北市新店區達觀路40號","121.502953333333","24.93928","6500600","新店區"
"231002","619-UM","2019/09/02 13:59:29","新北市新店區中正路669號","121.533976666667","24.98997","6500600","新店區"
"231011","KED-0819","2019/09/02 13:59:34","新北市新店區中興路二段81號","121.54686","24.9711083333333","6500600","新店區"
"231010","719-UM","2019/09/02 13:59:13","新北市新店區安康路一段351-1號","121.519661666667","24.9636016666667","6500600","新店區"
"231026","720-UM","2019/09/02 13:59:27","新北市新店區福園街15-1號","121.532883333333","24.9728716666667","6500600","新店區"
"231028","897-TW","2019/09/02 13:59:31","新北市新店區安和路三段37號","121.517748333333","24.9818216666667","6500600","新店區"
"231001","898-TW","2019/09/02 13:59:41","新北市新店區三民路64號","121.535123333333","24.9723283333333","6500600","新店區"
"231004","899-TW","2019/09/02 13:59:33","新北市新店區北新路二段125號","121.542936666667","24.9752366666667","6500600","新店區"
"231037","AKT-0513","2019/09/02 13:59:25","新北市新店區安康路三段355巷11號","121.484751666667","24.9505216666667","6500600","新店區"
"235030","003-UY","2019/09/02 13:59:33","新北市中和區水源路6巷6號","121.503471666667","25.0034433333333","6500300","中和區"
"235027","006-UY","2019/09/02 13:59:30","新北市中和區中正路560號","121.48679","24.9945883333333","6500300","中和區"
"235020","096-UM","2019/09/02 13:59:36","新北市板橋區三民路二段228號","121.478746666667","25.0113233333333","6500300","中和區"
"235003","097-UM","2019/09/02 13:59:30","新北市中和區秀朗路三段177號","121.524396666667","24.9910883333333","6500300","中和區"
"235029","098-UM","2019/09/02 13:59:35","新北市中和區中山路二段2巷49號","121.50213","25.00729","6500300","中和區"
"235004","150-BY","2019/09/02 13:59:41","新北市中和區保健路46巷26弄2號","121.508521666667","24.9954416666667","6500300","中和區"
"235022","151-BY","2019/09/02 13:59:33","新北市中和區連城路569巷4號","121.47932","24.9942316666667","6500300","中和區"
"235019","183-VK","2019/09/02 13:59:24","新北市中和區德光路119-1號","121.468008333333","25.0031616666667","6500300","中和區"
"235002","185-VK","2019/09/02 13:59:32","新北市中和區立人街20號","121.519028333333","24.9941483333333","6500300","中和區"
"235013","186-VK","2019/09/02 13:59:32","新北市中和區景安路157號","121.50542","24.9949316666667","6500300","中和區"
"235031","255-BX","2019/09/02 13:59:33","新北市中和區中正路740號","121.485283333333","24.9978133333333","6500300","中和區"
"235008","293-VK","2019/09/02 13:59:31","新北市中和區中興街161巷8弄1號","121.501053333333","24.9909166666667","6500300","中和區"
"235036","301-VK","2019/09/02 13:59:38","新北市中和區中山路二段119號","121.502821666667","25.0036516666667","6500300","中和區"
"235007","352-BY","2019/09/02 13:59:37","新北市中和區成功路48號","121.526083333333","24.9929116666667","6500300","中和區"
"235006","KEA-2878","2019/09/02 13:59:36","新北市中和區秀朗路三段128巷3號","121.524546666667","24.99264","6500300","中和區"
"247015","KEA-2869","2019/09/02 13:59:31","新北市蘆洲區光華路42號","121.46885","25.083075","6501400","蘆洲區"
"247009","KED-0682","2019/09/02 13:59:45","新北市蘆洲區中興街48號","121.481645","25.0871983333333","6501400","蘆洲區"
"235014","4979-A6","2019/09/02 13:59:32","新北市中和區忠孝街60巷2弄8號","121.511613333333","24.9835166666667","6500300","中和區"
"235033","4980-A6","2019/09/02 13:59:25","新北市中和區圓通路83號","121.499895","24.99689","6500300","中和區"
"235034","558-UM","2019/09/02 13:59:38","新北市中和區中和路126號","121.503325","24.9995966666667","6500300","中和區"
"235001","565-BX","2019/09/02 13:59:27","新北市中和區景新街467巷20弄29號","121.51478","24.9876166666667","6500300","中和區"
"235024","KED-0823","2019/09/02 13:59:39","新北市中和區中山路三段37巷47號","121.480105","25.0045866666667","6500300","中和區"
"235018","640-BX","2019/09/02 13:59:46","新北市中和區國光街101號","121.470133333333","25.0002416666667","6500300","中和區"
"235011","732-UM","2019/09/02 13:59:23","新北市中和區興南路二段34巷60號","121.50502","24.98486","6500300","中和區"
"235010","733-UM","2019/09/02 13:59:32","新北市中和區興南路二段31巷20號","121.508073333333","24.985145","6500300","中和區"
"235035","783-BX","2019/09/02 13:59:32","新北市中和區立德街55號","121.488098333333","25.0075633333333","6500300","中和區"
"235026","800-TS","2019/09/02 13:59:36","新北市中和區中山路二段380-2號","121.490941666667","25.0034333333333","6500300","中和區"
"235021","801-TS","2019/09/02 13:59:39","新北市中和區民利街56號","121.479115","24.9986266666667","6500300","中和區"
"235016","805-TS","2019/09/02 13:59:43","新北市中和區興南路二段131號","121.503628333333","24.9819816666667","6500300","中和區"
"235012","896-TW","2019/09/02 13:59:28","新北市中和區華新街73號","121.50821","24.9838816666667","6500300","中和區"
"235017","900-TW","2019/09/02 13:59:29","新北市板橋區和平路178號","121.463395","24.9954833333333","6500300","中和區"
"235028","911-UM","2019/09/02 13:59:45","新北市中和區中和路26巷16號","121.499188333333","25.0015616666667","6500300","中和區"
"235015","157-BY","2019/09/02 13:59:28","新北市中和區忠孝街11巷6號","121.510006666667","24.98313","6500300","中和區"
"235001","AAC-213","2019/09/02 13:59:39","新北市中和區秀朗路三段52號","121.526478333333","24.9954583333333","6500300","中和區"
"235023","AAC-215","2019/09/02 13:59:24","新北市中和區圓通路369巷12號","121.490518333333","24.9879683333333","6500300","中和區"
"220013","072-UY","2019/09/02 13:59:36","新北市板橋區漢生東路330-1號","121.471806666667","25.0078716666667","6500100","板橋區"
"220034","073-UY","2019/09/02 13:59:43","新北市板橋區中正路135巷30號","121.454955","25.0152783333333","6500100","板橋區"
"220105","075-UY","2019/09/02 13:59:45","新北市板橋區雙十路三段9號","121.471656666667","25.0302783333333","6500100","板橋區"
"220017","AAD-861","2019/09/02 13:59:32","新北市板橋區華興街74號","121.457285","25.00503","6500100","板橋區"
"220016","120-SR","2019/09/02 13:59:36","新北市板橋區中山路二段443巷68號","121.481116666667","25.02197","6500100","板橋區"
"247005","893-R6","2019/09/02 13:59:34","新北市蘆洲區永安南路二段50號","121.466061666667","25.0775983333333","6501400","蘆洲區"
"247019","546-UM","2019/09/02 13:59:28","新北市蘆洲區民族路422巷17號","121.473986666667","25.0927566666667","6501400","蘆洲區"
"247013","341-TH","2019/09/02 13:59:27","新北市蘆洲區中正路152號","121.469528333333","25.085665","6501400","蘆洲區"
"247011","337-TH","2019/09/02 13:59:42","新北市蘆洲區中興街19號","121.480668333333","25.0870116666667","6501400","蘆洲區"
"247003","336-TH","2019/09/02 13:59:44","新北市蘆洲區長安街98巷5號","121.462336666667","25.0813566666667","6501400","蘆洲區"
"247023","057-VK","2019/09/02 13:59:42","新北市蘆洲區光榮路120巷9號","121.465173333333","25.088815","6501400","蘆洲區"
"247017","053-VK","2019/09/02 13:59:38","新北市蘆洲區民族路253-1號","121.476631666667","25.090235","6501400","蘆洲區"
"247021","007-UY","2019/09/02 13:59:43","新北市蘆洲區中正路263巷2號","121.467295","25.0875783333333","6501400","蘆洲區"
"247007","002-UY","2019/09/02 13:59:33","新北市蘆洲區重陽街37號","121.481406666667","25.08342","6501400","蘆洲區"
"247001","001-UY","2019/09/02 13:59:43","新北市蘆洲區永平街32巷70號","121.460435","25.09342","6501400","蘆洲區"
"235005","251-BX","2019/09/02 13:59:30","新北市中和區中安街50號","121.51284","25.0024833333333","6500300","中和區"
"253003","6232-TK","2019/09/02 13:59:26","新北市石門區尖子鹿52-1號","121.579318333333","25.2735616666667","6502200","石門區"
"253004","6251-TK","2019/09/02 13:59:19","新北市石門區草埔尾34-5號","121.602665","25.265045","6502200","石門區"
"253002","637-UY","2019/09/02 13:59:26","新北市石門區尖山湖17號","121.560686666667","25.2460166666667","6502200","石門區"
"253001","KEC-0718","2019/09/02 13:59:34","新北市石門區八甲73號","121.529735","25.2631483333333","6502200","石門區"
"207002","749-BX","2019/09/02 13:59:36","新北市萬里區溪底里烏塗炭12-1號","121.635786666667","25.150765","6502800","萬里區"
"252005","073-UM","2019/09/02 13:58:17","新北市三芝區圓山里二坪頂67號","121.540166666667","25.2329816666667","6502100","三芝區"
"207001","662-BX","2019/09/02 13:59:32","新北市萬里區磺潭里清水1號","121.63901","25.20225","6502800","萬里區"
"236040","KED-0685","2019/09/02 13:59:43","新北市土城區城林路6巷80號","121.43851","24.9797233333333","6501300","土城區"
"236029","253-BX","2019/09/02 13:59:39","新北市土城區城林路6巷80號","121.438496666667","24.9797583333333","6501300","土城區"
"236024","269-VK","2019/09/02 13:59:29","新北市土城區城林路6巷80號","121.438516666667","24.9797766666667","6501300","土城區"
"236012","270-VK","2019/09/02 13:59:24","新北市土城區中央路二段276-1號","121.440806666667","24.974295","6501300","土城區"
"236032","271-VK","2019/09/02 13:59:31","新北市土城區員福街30號","121.441273333333","24.9787516666667","6501300","土城區"
"236064","KEA-2877","2019/09/02 13:59:27","新北市土城區中華路一段279號","121.44","24.97978","6501300","土城區"
"236057","912-UM","2019/09/02 13:59:26","新北市土城區中央路四段6號","121.425786666667","24.9631533333333","6501300","土城區"
"236045","913-UM","2019/09/02 13:59:26","新北市土城區城林路6巷80號","121.43849","24.97972","6501300","土城區"
"236060","915-UM","2019/09/02 13:59:34","新北市土城區城林路6巷80號","121.438478333333","24.9796833333333","6501300","土城區"
"236054","AAC-216","2019/09/02 13:59:24","新北市土城區水源街91號","121.43937","24.9766116666667","6501300","土城區"
"221029","298-VK","2019/09/02 13:59:38","新北市汐止區福德二路69-3號","121.633603333333","25.0666266666667","6501100","汐止區"
"220027","145-BY","2019/09/02 13:59:40","新北市板橋區大智街71巷20號","121.453218333333","25.0149316666667","6500100","板橋區"
"220028","200-UY","2019/09/02 13:59:40","新北市板橋區大觀路二段文和巷81號","121.44423","24.9983083333333","6500100","板橋區"
"220030","610-BX","2019/09/02 13:59:35","新北市板橋區篤行路三段74號","121.426948333333","24.9853516666667","6500100","板橋區"
"220050","245-BX","2019/09/02 13:59:45","新北市板橋區莊敬路208巷2弄6號","121.47168","25.02167","6500100","板橋區"
"220004","276-BY","2019/09/02 13:59:28","新北市板橋區信義路105-1號","121.457383333333","24.99365","6500100","板橋區"
"220020","277-BY","2019/09/02 13:59:33","新北市板橋區金門街222號","121.430991666667","24.988255","6500100","板橋區"
"220043","283-UM","2019/09/02 13:59:38","新北市板橋區光武街108-5號","121.465721666667","25.02913","6500100","板橋區"
"220019","283-VK","2019/09/02 13:59:26","新北市板橋區重慶路245巷51弄5號","121.465218333333","25.001495","6500100","板橋區"
"220001","285-VK","2019/09/02 13:59:42","新北市板橋區太和街5巷6號","121.473428333333","25.0201016666667","6500100","板橋區"
"220031","286-VK","2019/09/02 13:59:46","新北市板橋區大觀路一段38巷178號","121.44159","25.0045966666667","6500100","板橋區"
"220029","287-VK","2019/09/02 13:59:46","新北市板橋區光華街19巷36號","121.45329","25.0120233333333","6500100","板橋區"
"220039","288-VK","2019/09/02 13:59:42","新北市板橋區裕民街11號","121.462268333333","25.0289566666667","6500100","板橋區"
"220009","293-UM","2019/09/02 13:59:24","新北市板橋區中山路二段275號","121.477773333333","25.017875","6500100","板橋區"
"220010","295-UM","2019/09/02 13:59:38","新北市板橋區三民路二段245巷28號","121.480288333333","25.0125216666667","6500100","板橋區"
"220032","296-UM","2019/09/02 13:59:34","新北市板橋區篤行路一段16號","121.431406666667","24.9954633333333","6500100","板橋區"
"220023","303-R5","2019/09/02 13:59:28","新北市板橋區南雅東路100巷13號","121.45401","25.0077983333333","6500100","板橋區"
"220041","307-R5","2019/09/02 13:59:41","新北市板橋區文化路二段225巷60弄44號","121.469131666667","25.0294616666667","6500100","板橋區"
"220047","317-R6","2019/09/02 13:59:23","新北市板橋區民生路二段226巷39號","121.471438333333","25.0223583333333","6500100","板橋區"
"220038","487-VK","2019/09/02 13:59:41","新北市板橋區文化路二段357號","121.472856666667","25.030795","6500100","板橋區"
"220037","491-VK","2019/09/02 13:59:31","新北市板橋區莒光路165巷46號","121.474528333333","25.0252316666667","6500100","板橋區"
"220104","560-BX","2019/09/02 13:59:46","新北市板橋區中正路242號","121.455585","25.0190583333333","6500100","板橋區"
"220052","561-BX","2019/09/02 13:59:33","新北市板橋區介壽街20號","121.46755","25.0200316666667","6500100","板橋區"
"220040","637-BX","2019/09/02 13:59:34","新北市板橋區大同街8巷31號","121.477553333333","25.0260033333333","6500100","板橋區"
"220005","686-BX","2019/09/02 13:59:34","新北市板橋區重慶路325號","121.463891666667","24.998445","6500100","板橋區"
"220025","687-BX","2019/09/02 13:59:43","新北市板橋區大觀路二段265巷7-7號","121.443625","24.9940833333333","6500100","板橋區"
"220042","689-BX","2019/09/02 13:59:34","新北市板橋區民生路三段219號","121.464936666667","25.0283166666667","6500100","板橋區"
"220002","741-BX","2019/09/02 13:59:42","新北市板橋區重慶路139巷9號","121.463171666667","25.00453","6500100","板橋區"
"220051","KEA-2699","2019/09/02 13:59:37","新北市板橋區田單街2巷37號","121.482258333333","25.0278033333333","6500100","板橋區"
"220003","827-TW","2019/09/02 13:59:36","新北市板橋區中山路一段122號","121.463231666667","25.0106966666667","6500100","板橋區"
"220014","829-TW","2019/09/02 13:59:37","新北市板橋區三民路二段正隆巷62號","121.476595","25.01432","6500100","板橋區"
"220022","895-R6","2019/09/02 13:59:41","新北市板橋區南雅東路1號","121.455581666667","25.0056066666667","6500100","板橋區"
"220021","985-R7","2019/09/02 13:59:44","新北市板橋區館前西路195號","121.45523","25.00832","6500100","板橋區"
"220046","AAC-210","2019/09/02 13:59:36","新北市板橋區幸福路60巷57號","121.459988333333","25.02136","6500100","板橋區"
"220012","AAC-253","2019/09/02 13:59:38","新北市板橋區板新路7號","121.475441666667","25.0125166666667","6500100","板橋區"
"235032","KEA-2873","2019/09/02 13:59:38","新北市中和區景平路545巷1弄4號","121.498445","24.999025","6500300","中和區"
"235025","KEA-2875","2019/09/02 13:59:17","新北市中和區新生街112巷29號","121.482361666667","25.00269","6500300","中和區"
