"lineid","car","time","location","longitude","latitude","cityid","cityname"
"234044","148-BY","2019/09/02 14:19:28","新北市永和區環河東路二段100號","121.524263333333","25.01036","6500400","永和區"
"234078","298-R6","2019/09/02 14:19:44","新北市永和區福和路7巷10弄7號","121.524808333333","25.007465","6500400","永和區"
"234036","336-UY","2019/09/02 14:19:36","新北市永和區成功路一段93巷21弄1號","121.528118333333","25.0027383333333","6500400","永和區"
"234062","337-UY","2019/09/02 14:19:40","新北市永和區得和路110號","121.518463333333","25.00014","6500400","永和區"
"234084","338-UY","2019/09/02 14:19:43","新北市永和區中正路647號","121.515203333333","25.0101766666667","6500400","永和區"
"234068","552-UM","2019/09/02 14:19:47","新北市永和區福和路263巷7弄1號","121.51787","25.0070383333333","6500400","永和區"
"234015","745-BX","2019/09/02 14:19:30","新北市永和區仁愛路87號","121.513125","25.0131683333333","6500400","永和區"
"234028","746-BX","2019/09/02 14:19:43","新北市永和區民權路49巷5弄16號","121.52116","24.997675","6500400","永和區"
"234052","KEA-2590","2019/09/02 14:19:43","新北市永和區永和路二段310號","121.51628","25.01606","6500400","永和區"
"234005","KED-0605","2019/09/02 14:19:28","新北市永和區中正路742-1號","121.515118333333","25.0102866666667","6500400","永和區"
"234012","KEA-2591","2019/09/02 14:19:42","新北市永和區保生路64號","121.505041666667","25.00881","6500400","永和區"
"234060","AAD-866","2019/09/02 14:19:42","新北市永和區安樂路170號","121.51471","25.0008616666667","6500400","永和區"
"234040","862-TW","2019/09/02 14:19:42","新北市中和區中安街202-1號","121.511891666667","24.999015","6500400","永和區"
"234048","863-TW","2019/09/02 14:19:44","新北市永和區文化路187號","121.509595","25.0170616666667","6500400","永和區"
"234025","9371-KE","2019/09/02 14:19:41","新北市永和區安樂路144巷21號","121.514781666667","25.00014","6500400","永和區"
"248007","KED-0815","2019/09/02 14:19:36","新北市五股區中興路二段9巷29-1號","121.462968333333","25.0722683333333","6501500","五股區"
"248019","KED-0813","2019/09/02 14:19:43","新北市五股區凌雲路三段59-6號","121.425036666667","25.1249683333333","6501500","五股區"
"248011","247-BX","2019/09/02 14:19:32","新北市五股區工商路84-1號","121.43796","25.0851216666667","6501500","五股區"
"248013","261-SL","2019/09/02 14:19:40","新北市五股區民義路一段194號","121.43264","25.08803","6501500","五股區"
"248003","677-BX","2019/09/02 14:19:27","新北市五股區五福路54號","121.433558333333","25.089695","6501500","五股區"
"248001","678-BX","2019/09/02 14:19:38","新北市五股區成泰路三段544-18號","121.45272","25.10348","6501500","五股區"
"234076","969-R7","2019/09/02 14:19:27","新北市永和區民權路53號","121.52028","24.9966166666667","6500400","永和區"
"234072","AAC-211","2019/09/02 14:19:34","新北市永和區豫溪街191巷7弄34號","121.522961666667","25.011555","6500400","永和區"
"234066","AAC-212","2019/09/02 14:19:26","新北市永和區保平路292巷4號","121.507901666667","25.0047683333333","6500400","永和區"
"234001","AAC-295","2019/09/02 14:19:42","新北市永和區中正路529號","121.516895","25.0077366666667","6500400","永和區"
"243002","297-R6","2019/09/02 14:19:28","新北市泰山區明志路二段7巷2號","121.4303","25.05351","6501600","泰山區"
"243006","KEA-2801","2019/09/02 14:19:27","新北市泰山區泰林路二段171號","121.433688333333","25.0606783333333","6501600","泰山區"
"243008","421-VK","2019/09/02 14:19:38","新北市泰山區工專路60號","121.422916666667","25.0402516666667","6501600","泰山區"
"243004","539-UM","2019/09/02 14:19:21","新北市泰山區仁義路137號","121.432676666667","25.0548533333333","6501600","泰山區"
"243001","KEA-2215","2019/09/02 14:19:40","新北市泰山區和平街13巷37號","121.434445","25.0661283333333","6501600","泰山區"
"243003","KEA-2216","2019/09/02 14:19:24","新北市泰山區中央路36巷1號","121.42625","25.04275","6501600","泰山區"
"243005","646-TV","2019/09/02 14:19:45","新北市泰山區明志路三段145巷34弄1號","121.426366666667","25.0394733333333","6501600","泰山區"
"243007","680-BX","2019/09/02 14:19:33","新北市泰山區公園路18號","121.429545","25.0541983333333","6501600","泰山區"
"231030","002-UM","2019/09/02 14:19:26","新北市新店區安民街65巷21-2號","121.515268333333","24.9675566666667","6500600","新店區"
"231027","0293-UT","2019/09/02 14:19:24","新北市新店區光明街286巷14號","121.540876666667","24.9635433333333","6500600","新店區"
"231005","046-UY","2019/09/02 14:19:41","新北市新店區中興路三段219-1號","121.543523333333","24.9823833333333","6500600","新店區"
"231029","106-UY","2019/09/02 14:19:45","新北市新店區安康路二段167號","121.509965","24.9593116666667","6500600","新店區"
"231018","107-UY","2019/09/02 14:19:35","新北市新店區中央三街85號","121.525956666667","24.975795","6500600","新店區"
"231013","108-UY","2019/09/02 14:19:32","新北市新店區大豐路73號","121.53918","24.9794383333333","6500600","新店區"
"231036","110-UY","2019/09/02 14:19:31","新北市新店區安祥路109巷90弄98號","121.475896666667","24.9574466666667","6500600","新店區"
"231031","256-BX","2019/09/02 14:19:26","新北市新店區永業路46號","121.531691666667","24.9535816666667","6500600","新店區"
"231023","260-TV","2019/09/02 14:19:35","新北市新店區光明街13號","121.538391666667","24.9593333333333","6500600","新店區"
"231003","268-BY","2019/09/02 14:19:44","新北市新店區中興路一段199號","121.543433333333","24.965335","6500600","新店區"
"231035","278-BY","2019/09/02 14:19:44","新北市新店區光華街8巷17號","121.517971666667","24.9693983333333","6500600","新店區"
"231014","AAD-862","2019/09/02 14:19:40","新北市新店區北宜路二段489號","121.562466666667","24.9539116666667","6500600","新店區"
"231006","355-BY","2019/09/02 14:19:35","新北市新店區北宜路二段208號","121.559313333333","24.95431","6500600","新店區"
"231038","3712-VJ","2019/09/02 14:19:28","新北市新店區溪洲路8巷28號","121.533445","24.9619883333333","6500600","新店區"
"231019","512-UM","2019/09/02 14:19:21","新北市新店區新烏路二段202號","121.547538333333","24.9163216666667","6500600","新店區"
"231034","616-UM","2019/09/02 14:19:27","新北市新店區黎明路3號","121.503131666667","24.9521283333333","6500600","新店區"
"231002","619-UM","2019/09/02 14:19:29","新北市新店區中央路196號","121.530743333333","24.9745133333333","6500600","新店區"
"231011","KED-0819","2019/09/02 14:19:34","新北市新店區五峰路61巷9-1號","121.549363333333","24.96957","6500600","新店區"
"231028","897-TW","2019/09/02 14:19:32","新北市新店區安業街4號","121.51571","24.9787916666667","6500600","新店區"
"231001","898-TW","2019/09/02 14:19:41","新北市新店區中華路1號","121.541333333333","24.967335","6500600","新店區"
"231004","899-TW","2019/09/02 14:19:31","新北市新店區中正路151號","121.541373333333","24.9717","6500600","新店區"
"231037","AKT-0513","2019/09/02 14:19:45","新北市新店區安康路二段420號","121.496105","24.95513","6500600","新店區"
"235030","003-UY","2019/09/02 14:19:33","新北市中和區中和路159號","121.50277","24.9999316666667","6500300","中和區"
"235027","006-UY","2019/09/02 14:19:30","新北市中和區連勝街171號","121.494081666667","24.99684","6500300","中和區"
"235020","096-UM","2019/09/02 14:19:35","新北市中和區員山路521號","121.4797","25.00672","6500300","中和區"
"235003","097-UM","2019/09/02 14:19:31","新北市中和區景平路71-1號","121.519415","24.99112","6500300","中和區"
"235029","098-UM","2019/09/02 14:19:42","新北市中和區莊敬路35號","121.500598333333","25.0047966666667","6500300","中和區"
"235004","150-BY","2019/09/02 14:19:41","新北市中和區安平路38號","121.50991","24.9951583333333","6500300","中和區"
"235022","151-BY","2019/09/02 14:19:33","新北市中和區連城路511號","121.48232","24.9954283333333","6500300","中和區"
"235019","183-VK","2019/09/02 14:19:44","新北市中和區中山路三段181巷18弄37號","121.472615","25.0049233333333","6500300","中和區"
"235002","185-VK","2019/09/02 14:19:32","新北市中和區自強路27巷1號","121.520565","24.9929833333333","6500300","中和區"
"235013","186-VK","2019/09/02 14:19:32","新北市中和區景新街230巷3號","121.508148333333","24.99409","6500300","中和區"
"235031","255-BX","2019/09/02 14:19:33","新北市中和區新生街220巷4號","121.482995","24.9985866666667","6500300","中和區"
"235008","293-VK","2019/09/02 14:19:31","新北市中和區復興路314號","121.50097","24.9902916666667","6500300","中和區"
"235036","301-VK","2019/09/02 14:19:38","新北市中和區永和路52號","121.499155","25.004065","6500300","中和區"
"235007","352-BY","2019/09/02 14:19:30","新北市中和區景平路280號","121.513551666667","24.9926366666667","6500300","中和區"
"235006","KEA-2878","2019/09/02 14:19:36","新北市中和區中和路378巷14弄1號","121.511296666667","25.0016083333333","6500300","中和區"
"247015","KEA-2869","2019/09/02 14:19:31","新北市蘆洲區中正路185巷31弄46號","121.467185","25.08307","6501400","蘆洲區"
"247009","KED-0682","2019/09/02 14:19:45","新北市蘆洲區三民路26巷32號","121.477913333333","25.0830966666667","6501400","蘆洲區"
"235033","4980-A6","2019/09/02 14:19:25","新北市中和區景平路736巷1弄5號","121.497233333333","25.004015","6500300","中和區"
"235034","558-UM","2019/09/02 14:19:38","新北市中和區南山路75號","121.502021666667","24.9981466666667","6500300","中和區"
"235001","565-BX","2019/09/02 14:19:27","新北市中和區景新街423巷33弄1號","121.513813333333","24.9898416666667","6500300","中和區"
"235024","KED-0823","2019/09/02 14:19:39","新北市中和區中山路二段485號","121.482798333333","25.00494","6500300","中和區"
"235018","640-BX","2019/09/02 14:19:26","新北市中和區民德路65號","121.468916666667","25.00158","6500300","中和區"
"235001","647-TV","2019/09/02 14:19:25","新北市中和區景新街383巷36號","121.513728333333","24.9906633333333","6500300","中和區"
"235011","732-UM","2019/09/02 14:19:43","新北市中和區景平路239巷73號","121.508188333333","24.9921116666667","6500300","中和區"
"235010","733-UM","2019/09/02 14:19:32","新北市中和區忠孝街2巷10-8號","121.50979","24.9813733333333","6500300","中和區"
"235035","783-BX","2019/09/02 14:19:32","新北市中和區連城路511號","121.482193333333","24.9953966666667","6500300","中和區"
"235026","800-TS","2019/09/02 14:19:38","新北市中和區中山路二段526巷28號","121.485848333333","25.005845","6500300","中和區"
"235021","801-TS","2019/09/02 14:19:39","新北市中和區員山路378號","121.480668333333","25.0042","6500300","中和區"
"235016","805-TS","2019/09/02 14:19:24","新北市中和區興南路二段142巷17弄24號","121.503108333333","24.9830166666667","6500300","中和區"
"235012","896-TW","2019/09/02 14:19:28","新北市中和區華新街109巷2號","121.50859","24.9826466666667","6500300","中和區"
"235017","900-TW","2019/09/02 14:19:29","新北市中和區華順街7號","121.467761666667","24.9987583333333","6500300","中和區"
"235028","911-UM","2019/09/02 14:19:25","新北市中和區南山路81巷55號","121.504118333333","24.998225","6500300","中和區"
"235015","157-BY","2019/09/02 14:19:28","新北市中和區和平街72號","121.507943333333","24.9909933333333","6500300","中和區"
"235001","AAC-213","2019/09/02 14:19:39","新北市中和區秀朗路三段10巷14弄2號","121.525341666667","24.9964666666667","6500300","中和區"
"235023","AAC-215","2019/09/02 14:19:24","新北市中和區圓通路252巷5弄56號","121.492238333333","24.99199","6500300","中和區"
"220013","072-UY","2019/09/02 14:19:36","新北市板橋區民族路129巷10號","121.467671666667","25.0084633333333","6500100","板橋區"
"220034","073-UY","2019/09/02 14:19:44","新北市板橋區中正路216巷114號","121.459256666667","25.0192483333333","6500100","板橋區"
"220105","075-UY","2019/09/02 14:19:25","新北市板橋區文化路二段441巷6-1號","121.474468333333","25.0336733333333","6500100","板橋區"
"220017","AAD-861","2019/09/02 14:19:32","新北市板橋區大明街20巷43號","121.458095","25.003795","6500100","板橋區"
"220016","120-SR","2019/09/02 14:19:36","新北市板橋區林森街1巷30號","121.482781666667","25.0243266666667","6500100","板橋區"
"247005","893-R6","2019/09/02 14:19:34","新北市蘆洲區長安街22巷31弄2號","121.464693333333","25.0799016666667","6501400","蘆洲區"
"247019","546-UM","2019/09/02 14:19:28","新北市蘆洲區仁愛街37號","121.472176666667","25.0928033333333","6501400","蘆洲區"
"247013","341-TH","2019/09/02 14:19:27","新北市蘆洲區中山一路263號","121.472731666667","25.0801366666667","6501400","蘆洲區"
"247011","337-TH","2019/09/02 14:19:42","新北市蘆洲區民權路34號","121.476271666667","25.08624","6501400","蘆洲區"
"247003","336-TH","2019/09/02 14:19:44","新北市蘆洲區中原路12巷25號","121.460701666667","25.0840066666667","6501400","蘆洲區"
"247023","057-VK","2019/09/02 14:19:42","新北市蘆洲區長榮路673號","121.460173333333","25.0918","6501400","蘆洲區"
"247017","053-VK","2019/09/02 14:19:38","新北市蘆洲區復興路112號","121.476115","25.0871933333333","6501400","蘆洲區"
"247021","007-UY","2019/09/02 14:19:34","新北市蘆洲區民族路514號","121.469195","25.0901","6501400","蘆洲區"
"247007","002-UY","2019/09/02 14:19:33","新北市蘆洲區信義路37巷9號","121.474205","25.0798683333333","6501400","蘆洲區"
"247001","001-UY","2019/09/02 14:19:29","新北市蘆洲區永樂街74號","121.457","25.0885516666667","6501400","蘆洲區"
"235005","251-BX","2019/09/02 14:19:27","新北市中和區宜安路96號","121.510603333333","24.997695","6500300","中和區"
"253003","6232-TK","2019/09/02 14:19:26","新北市石門區內石門67-3號","121.576116666667","25.2563966666667","6502200","石門區"
"253004","6251-TK","2019/09/02 14:19:39","新北市石門區坪林50號","121.588393333333","25.2689633333333","6502200","石門區"
"253002","637-UY","2019/09/02 14:19:46","新北市石門區豬槽潭12號","121.552936666667","25.260395","6502200","石門區"
"253001","KEC-0718","2019/09/02 14:19:34","新北市石門區八甲13-2號","121.522533333333","25.280415","6502200","石門區"
"207002","749-BX","2019/09/02 14:17:57","新北市萬里區溪底里瑞泉路3號","121.609195","25.143675","6502800","萬里區"
"252005","073-UM","2019/09/02 14:19:37","新北市三芝區橫山里橫山23-6號","121.540918333333","25.260955","6502100","三芝區"
"207001","662-BX","2019/09/02 14:19:32","新北市萬里區磺潭里清水18號","121.637855","25.1977366666667","6502800","萬里區"
"236040","KED-0685","2019/09/02 14:19:43","新北市土城區樂利街3巷13號","121.448463333333","24.9864516666667","6501300","土城區"
"236074","166-UM","2019/09/02 14:19:42","新北市土城區永平街6號","121.428113333333","24.962705","6501300","土城區"
"236029","253-BX","2019/09/02 14:19:39","新北市土城區順風路44號","121.44039","24.9769866666667","6501300","土城區"
"236024","269-VK","2019/09/02 14:19:29","新北市土城區承天路43巷2號","121.438968333333","24.9639583333333","6501300","土城區"
"236012","270-VK","2019/09/02 14:19:44","新北市土城區青雲路39巷7號","121.460353333333","24.98754","6501300","土城區"
"236032","271-VK","2019/09/02 14:19:31","新北市土城區青雲路451巷8弄10號","121.459426666667","24.9742216666667","6501300","土城區"
"236064","KEA-2877","2019/09/02 14:19:27","新北市土城區明德路一段128巷2號","121.46316","24.979015","6501300","土城區"
"236016","401-BY","2019/09/02 14:19:40","新北市土城區永豐路202巷14號","121.46637","24.9833416666667","6501300","土城區"
"236057","912-UM","2019/09/02 14:19:26","新北市土城區中央路四段400號","121.412586666667","24.9540883333333","6501300","土城區"
"236045","913-UM","2019/09/02 14:19:27","新北市土城區明德路一段361-3號","121.456201666667","24.9777533333333","6501300","土城區"
"236060","915-UM","2019/09/02 14:19:34","新北市土城區金城路三段202-3號","121.469578333333","24.9886283333333","6501300","土城區"
"236054","AAC-216","2019/09/02 14:19:44","新北市土城區中華路二段182號","121.437456666667","24.971705","6501300","土城區"
"221029","298-VK","2019/09/02 14:19:38","新北市汐止區伯爵街1巷12號","121.641356666667","25.075155","6501100","汐止區"
"220027","145-BY","2019/09/02 14:19:45","新北市板橋區民權路202巷4弄1號","121.459683333333","25.0142766666667","6500100","板橋區"
"220028","200-UY","2019/09/02 14:19:37","新北市板橋區大觀路二段5-1號","121.447198333333","25.0039","6500100","板橋區"
"220030","610-BX","2019/09/02 14:19:42","新北市板橋區溪崑二街96巷1號","121.42671","24.9889533333333","6500100","板橋區"
"220050","245-BX","2019/09/02 14:19:45","新北市板橋區縣民大道三段133巷19號","121.477146666667","25.0238283333333","6500100","板橋區"
"220004","276-BY","2019/09/02 14:19:37","新北市板橋區信義路279巷11號","121.46187","24.9894983333333","6500100","板橋區"
"220020","277-BY","2019/09/02 14:19:29","新北市板橋區金門街297巷16號","121.430773333333","24.9858983333333","6500100","板橋區"
"220043","283-UM","2019/09/02 14:19:42","新北市板橋區吳鳳路50巷42弄2號","121.470238333333","25.0303633333333","6500100","板橋區"
"220019","283-VK","2019/09/02 14:19:46","新北市板橋區重慶路247號","121.46331","25.000565","6500100","板橋區"
"220001","285-VK","2019/09/02 14:19:42","新北市板橋區縣民大道三段270巷15號","121.478485","25.0229166666667","6500100","板橋區"
"220031","286-VK","2019/09/02 14:19:29","新北市板橋區龍興街95巷1號","121.44398","25.0023816666667","6500100","板橋區"
"220029","287-VK","2019/09/02 14:19:46","新北市板橋區南雅西路一段49號","121.453716666667","25.00486","6500100","板橋區"
"220039","288-VK","2019/09/02 14:19:33","新北市板橋區長江路一段105巷1弄1號","121.459303333333","25.03003","6500100","板橋區"
"220009","293-UM","2019/09/02 14:19:44","新北市板橋區中山路二段56號","121.473828333333","25.01575","6500100","板橋區"
"220010","295-UM","2019/09/02 14:19:38","新北市板橋區三民路二段153巷7弄1號","121.480541666667","25.01507","6500100","板橋區"
"220032","296-UM","2019/09/02 14:19:42","新北市板橋區滿平街110巷20號","121.427831666667","24.9881166666667","6500100","板橋區"
"220023","303-R5","2019/09/02 14:19:28","新北市板橋區南雅南路一段5巷3號","121.455995","25.0055483333333","6500100","板橋區"
"220041","307-R5","2019/09/02 14:19:39","新北市板橋區光武街2巷28號","121.468796666667","25.02546","6500100","板橋區"
"220047","317-R6","2019/09/02 14:19:43","新北市板橋區自由路51巷7號","121.465128333333","25.02348","6500100","板橋區"
"220038","487-VK","2019/09/02 14:19:41","新北市板橋區新海路332號","121.460266666667","25.02421","6500100","板橋區"
"220037","491-VK","2019/09/02 14:19:31","新北市板橋區文化路二段182巷3弄60號","121.472768333333","25.02884","6500100","板橋區"
"220104","560-BX","2019/09/02 14:19:26","新北市板橋區新生街23巷17號","121.456478333333","25.0225116666667","6500100","板橋區"
"220052","561-BX","2019/09/02 14:19:43","新北市板橋區民生路二段231號","121.46851","25.021485","6500100","板橋區"
"220040","637-BX","2019/09/02 14:19:42","新北市板橋區萬板路710號","121.481886666667","25.0271766666667","6500100","板橋區"
"220005","686-BX","2019/09/02 14:19:34","新北市板橋區五權街16號","121.464316666667","24.9939","6500100","板橋區"
"220025","687-BX","2019/09/02 14:19:43","新北市板橋區龍興街31號","121.442903333333","25.0002383333333","6500100","板橋區"
"220042","689-BX","2019/09/02 14:19:34","新北市板橋區新海路133號","121.460865","25.023205","6500100","板橋區"
"220002","741-BX","2019/09/02 14:19:43","新北市板橋區校前街38號","121.461003333333","25.003095","6500100","板橋區"
"220051","KEA-2699","2019/09/02 14:19:34","新北市板橋區松柏街22巷36號","121.475066666667","25.028855","6500100","板橋區"
"220003","827-TW","2019/09/02 14:19:35","新北市板橋區新民街17號","121.464068333333","25.010065","6500100","板橋區"
"220014","829-TW","2019/09/02 14:19:37","新北市板橋區長安街230-3號","121.475093333333","25.0124033333333","6500100","板橋區"
"220022","895-R6","2019/09/02 14:19:41","新北市板橋區後菜園街54號","121.456121666667","25.0101466666667","6500100","板橋區"
"220021","985-R7","2019/09/02 14:19:24","新北市板橋區中正路189號","121.456276666667","25.0168283333333","6500100","板橋區"
"220046","AAC-210","2019/09/02 14:19:33","新北市板橋區幸福路32巷3號","121.461521666667","25.0205883333333","6500100","板橋區"
"220012","AAC-253","2019/09/02 14:19:38","新北市板橋區中山路一段3號","121.45981","25.0077783333333","6500100","板橋區"
"235032","KEA-2873","2019/09/02 14:19:38","新北市中和區廟美街28號","121.500765","25.0017966666667","6500300","中和區"
"235025","KEA-2875","2019/09/02 14:19:17","新北市中和區民安街2巷37弄10號","121.47998","25.0013116666667","6500300","中和區"
