"lineid","car","time","location","longitude","latitude","cityid","cityname"
"231030","002-UM","2019/09/02 15:49:26","新北市新店區永安街91號","121.520158333333","24.986325","6500600","新店區"
"231018","107-UY","2019/09/02 15:49:35","新北市新店區中正路663巷7弄15號","121.532916666667","24.99008","6500600","新店區"
"231013","108-UY","2019/09/02 15:49:32","新北市新店區華潭街24號","121.529298333333","24.9534383333333","6500600","新店區"
"231039","187-VK","2019/09/02 15:49:32","新北市新店區安康路一段24巷6號","121.532405","24.960615","6500600","新店區"
"231031","256-BX","2019/09/02 15:49:46","新北市新店區雙城路65號","121.49308","24.9483783333333","6500600","新店區"
"231023","260-TV","2019/09/02 15:49:35","新北市新店區檳榔路7號","121.540971666667","24.96496","6500600","新店區"
"231003","268-BY","2019/09/02 15:49:43","新北市新店區寶興路60巷4號","121.549848333333","24.97186","6500600","新店區"
"231035","278-BY","2019/09/02 15:49:42","新北市新店區安民街365巷10弄7號","121.515905","24.9758816666667","6500600","新店區"
"231014","AAD-862","2019/09/02 15:49:40","新北市新店區中華路63號","121.539863333333","24.9681066666667","6500600","新店區"
"231019","512-UM","2019/09/02 15:49:38","新北市新店區新烏路一段73-1號","121.546676666667","24.9423883333333","6500600","新店區"
"231034","616-UM","2019/09/02 15:49:27","新北市新店區吉祥街15巷1號","121.497723333333","24.9456316666667","6500600","新店區"
"231026","720-UM","2019/09/02 15:49:47","新北市新店區中正路468號","121.53397","24.9794516666667","6500600","新店區"
"231037","AKT-0513","2019/09/02 15:49:45","新北市新店區安興路56號","121.516498333333","24.9747666666667","6500600","新店區"
"241028","022-UY","2019/09/02 15:49:24","新北市三重區中正南路93號","121.494306666667","25.0582066666667","6500200","三重區"
"241015","062-VK","2019/09/02 15:49:41","新北市三重區重新路四段121號","121.485141666667","25.0519916666667","6500200","三重區"
"241017","063-VK","2019/09/02 15:49:34","新北市三重區大仁街38號","121.491608333333","25.0642933333333","6500200","三重區"
"241024","065-VK","2019/09/02 15:49:36","新北市三重區捷運路36號","121.482868333333","25.0551766666667","6500200","三重區"
"241007","066-VK","2019/09/02 15:49:35","新北市三重區忠孝路二段160號","121.482055","25.0680433333333","6500200","三重區"
"241004","742-BX","2019/09/02 15:49:31","新北市三重區重新路四段214巷5弄15號","121.486336666667","25.05381","6500200","三重區"
"241016","266-UM","2019/09/02 15:49:36","新北市三重區重新路四段121號","121.485265","25.0520533333333","6500200","三重區"
"241018","268-UM","2019/09/02 15:49:28","新北市三重區重新路四段121號","121.485398333333","25.05193","6500200","三重區"
"241032","269-UM","2019/09/02 15:49:36","新北市三重區三陽路100巷3弄13號","121.483063333333","25.058105","6500200","三重區"
"241013","270-UM","2019/09/02 15:49:44","新北市三重區三和路三段42號","121.495785","25.070815","6500200","三重區"
"241020","478-VK","2019/09/02 15:49:33","新北市三重區忠孝路二段52號","121.485063333333","25.07052","6500200","三重區"
"241026","480-VK","2019/09/02 15:49:38","新北市三重區重新路四段121號","121.484771666667","25.0525533333333","6500200","三重區"
"241014","543-UM","2019/09/02 15:49:37","新北市三重區重新路四段121號","121.4853","25.0517616666667","6500200","三重區"
"241005","AAD-863","2019/09/02 15:49:33","新北市三重區重新路四段121號","121.484638333333","25.05213","6500200","三重區"
"241022","KED-0820","2019/09/02 15:49:36","新北市三重區新北大道一段250號","121.479846666667","25.0613866666667","6500200","三重區"
"241023","887-TS","2019/09/02 15:49:26","新北市三重區忠孝路三段84巷18號","121.480811666667","25.0646266666667","6500200","三重區"
"241012","941-UM","2019/09/02 15:49:41","新北市三重區文化北路69號","121.498518333333","25.0665916666667","6500200","三重區"
"241029","942-UM","2019/09/02 15:49:28","新北市三重區大同南路159號","121.49693","25.05574","6500200","三重區"
"241033","AAC-255","2019/09/02 15:49:40","新北市三重區光復路一段132號","121.471983333333","25.052055","6500200","三重區"
"235019","183-VK","2019/09/02 15:49:44","新北市新莊區化成路585-8號","121.463305","25.066795","6500300","中和區"
"235033","4980-A6","2019/09/02 15:49:39","新北市中和區連城路523巷11弄34號","121.48256","24.993995","6500300","中和區"
"235026","800-TS","2019/09/02 15:49:36","新北市中和區立業路88號","121.4915","25.007565","6500300","中和區"
"235023","AAC-215","2019/09/02 15:49:34","新北市中和區員山路45巷18號","121.48114","24.991585","6500300","中和區"
"247024","057-VK","2019/09/02 15:42:55","新北市五股區中興路三段163號","121.449211666667","25.0806466666667","6501400","蘆洲區"
"224007","285-BY","2019/09/02 15:49:44","新北市瑞芳區大寮路356-1號","121.78491","25.10309","6501200","瑞芳區"
"224005","271-BY","2019/09/02 15:47:45","新北市瑞芳區明燈路二段66號","121.809425","25.1075066666667","6501200","瑞芳區"
"227001","642-TC","2019/09/02 15:49:40","新北市雙溪區三港里雙澳路26號","121.869466666667","25.048275","6502500","雙溪區"
"227002","400-TW","2019/09/02 15:49:26","新北市雙溪區平林里外平林40號","121.852465","25.0362233333333","6502500","雙溪區"
"236074","166-UM","2019/09/02 15:49:42","新北市土城區三民路5號","121.420556666667","24.9631916666667","6501300","土城區"
"236024","269-VK","2019/09/02 15:49:44","新北市土城區裕生路83巷33號","121.448123333333","24.9838166666667","6501300","土城區"
"236012","270-VK","2019/09/02 15:49:44","新北市土城區廣明街86號","121.454833333333","24.99415","6501300","土城區"
"236064","KEA-2877","2019/09/02 15:49:42","新北市土城區中山路74號","121.43253","24.970475","6501300","土城區"
"236057","912-UM","2019/09/02 15:49:26","新北市土城區中央路一段212號","121.445053333333","24.9855866666667","6501300","土城區"
"236045","913-UM","2019/09/02 15:49:46","新北市土城區清水路95號","121.456501666667","24.9818666666667","6501300","土城區"
"236054","AAC-216","2019/09/02 15:49:29","新北市土城區中華路一段236號","121.439885","24.97999","6501300","土城區"
"238002","755-BX","2019/09/02 15:49:39","新北市樹林區樹德街122號","121.419446666667","24.9928733333333","6500700","樹林區"
"238010","601-UM","2019/09/02 15:49:41","新北市樹林區龍興街44號","121.402868333333","25.0155033333333","6500700","樹林區"
"238006","599-UM","2019/09/02 15:49:42","新北市樹林區忠孝街101巷27號","121.424948333333","24.98117","6500700","樹林區"
"238011","5061-A6","2019/09/02 15:49:28","新北市樹林區山佳街57-1號","121.392908333333","24.9724616666667","6500700","樹林區"
"238005","KEA-2217","2019/09/02 15:49:33","新北市樹林區保安街一段18-3號","121.427488333333","24.9932916666667","6500700","樹林區"
"238009","KEA-2213","2019/09/02 15:49:45","新北市樹林區太順街62巷3弄2號","121.417436666667","24.9796416666667","6500700","樹林區"
"238008","KEA-2539","2019/09/02 15:49:43","新北市樹林區柑園街二段149巷27號","121.382861666667","24.953065","6500700","樹林區"
"238012","303-VK","2019/09/02 15:49:32","新北市樹林區大安路586號","121.411563333333","24.9837266666667","6500700","樹林區"
"238004","283-BY","2019/09/02 15:49:35","新北市樹林區光華街6號","121.413573333333","25.0035316666667","6500700","樹林區"
"238001","282-BY","2019/09/02 15:49:37","新北市樹林區保安二街40巷18號","121.425616666667","24.994655","6500700","樹林區"
"238007","268-VK","2019/09/02 15:49:41","新北市樹林區三俊街197號","121.420113333333","25.0159883333333","6500700","樹林區"
"238013","172-UY","2019/09/02 15:49:44","新北市樹林區佳園路一段22號","121.392745","24.9714766666667","6500700","樹林區"
"238003","169-UY","2019/09/02 15:49:32","新北市樹林區復興路370號","121.415526666667","24.985865","6500700","樹林區"
