"lineid","car","time","location","longitude","latitude","cityid","cityname"
"231018","107-UY","2019/09/02 16:19:35","新北市新店區中正路700巷79號","121.535955","24.9933716666667","6500600","新店區"
"231035","278-BY","2019/09/02 16:19:42","新北市新店區安華路3號","121.519155","24.9595333333333","6500600","新店區"
"231046","719-UM","2019/09/02 16:19:32","新北市新店區華潭街51號","121.529003333333","24.9542116666667","6500600","新店區"
"241011","013-R5","2019/09/02 16:19:44","新北市三重區龍門路168號","121.498913333333","25.0731683333333","6500200","三重區"
"241028","022-UY","2019/09/02 16:19:44","新北市三重區正義南路183號","121.499005","25.05681","6500200","三重區"
"241008","059-VK","2019/09/02 16:19:27","新北市三重區永福街269號","121.481626666667","25.0742433333333","6500200","三重區"
"241031","061-VK","2019/09/02 16:19:32","新北市三重區捷運路36號","121.48277","25.0553583333333","6500200","三重區"
"241015","062-VK","2019/09/02 16:19:41","新北市三重區福德北路50號","121.501895","25.0658016666667","6500200","三重區"
"241017","063-VK","2019/09/02 16:19:34","新北市三重區大同北路91號","121.494776666667","25.0636566666667","6500200","三重區"
"241024","065-VK","2019/09/02 16:19:35","新北市三重區中正北路246號","121.481666666667","25.0681066666667","6500200","三重區"
"241007","066-VK","2019/09/02 16:19:35","新北市三重區三和路四段163巷90號","121.487246666667","25.07992","6500200","三重區"
"241002","090-VK","2019/09/02 16:19:38","新北市三重區仁義街91號","121.499813333333","25.0794133333333","6500200","三重區"
"241004","742-BX","2019/09/02 16:19:30","新北市三重區自強路五段65號","121.494773333333","25.0820133333333","6500200","三重區"
"241006","262-UM","2019/09/02 16:19:31","新北市三重區永福街46巷41弄1號","121.482173333333","25.0772583333333","6500200","三重區"
"241016","266-UM","2019/09/02 16:19:36","新北市三重區大同北路189巷5號","121.492761666667","25.0656216666667","6500200","三重區"
"241018","268-UM","2019/09/02 16:19:28","新北市三重區重陽路三段91號","121.49004","25.0678516666667","6500200","三重區"
"241032","269-UM","2019/09/02 16:19:36","新北市三重區三陽路100巷3弄13號","121.483036666667","25.0581716666667","6500200","三重區"
"241013","270-UM","2019/09/02 16:19:44","新北市三重區龍門路92號","121.4973","25.0729033333333","6500200","三重區"
"241025","271-UM","2019/09/02 16:19:27","新北市三重區中正北路560巷100弄2號","121.472623333333","25.0682566666667","6500200","三重區"
"241020","478-VK","2019/09/02 16:19:33","新北市三重區車路頭街6-1號","121.483778333333","25.0704116666667","6500200","三重區"
"241026","480-VK","2019/09/02 16:19:38","新北市三重區大同南路96巷37號","121.497231666667","25.0589316666667","6500200","三重區"
"241014","543-UM","2019/09/02 16:19:37","新北市三重區河邊北街96-1號","121.503985","25.0699616666667","6500200","三重區"
"241001","547-UM","2019/09/02 16:19:39","新北市三重區自強路四段107號","121.49147","25.0797516666667","6500200","三重區"
"241019","KEA-2593","2019/09/02 16:19:27","新北市三重區重陽路三段97號","121.490261666667","25.068085","6500200","三重區"
"241005","AAD-863","2019/09/02 16:19:33","新北市三重區溪尾街305號","121.487576666667","25.0837216666667","6500200","三重區"
"241023","887-TS","2019/09/02 16:19:46","新北市三重區忠孝路三段29號","121.481368333333","25.06714","6500200","三重區"
"241012","941-UM","2019/09/02 16:19:41","新北市三重區秀江街213號","121.497463333333","25.07171","6500200","三重區"
"241029","942-UM","2019/09/02 16:19:28","新北市三重區中正南路201號","121.493426666667","25.0541316666667","6500200","三重區"
"241033","AAC-255","2019/09/02 16:19:40","新北市三重區重新路五段283號","121.479226666667","25.04906","6500200","三重區"
"235054","640-BX","2019/09/02 16:19:46","新北市中和區員山路36巷16-2號","121.485306666667","24.9915766666667","6500300","中和區"
"235026","800-TS","2019/09/02 16:19:36","新北市中和區建八路139巷9弄1號","121.490188333333","24.999545","6500300","中和區"
"224007","285-BY","2019/09/02 16:19:44","新北市瑞芳區大埔路180-4號","121.762231666667","25.1018216666667","6501200","瑞芳區"
"224009","275-VK","2019/09/02 16:19:37","新北市瑞芳區中山路22號","121.80406","25.106235","6501200","瑞芳區"
"224005","271-BY","2019/09/02 16:19:16","新北市瑞芳區逢甲路84號","121.809751666667","25.1087216666667","6501200","瑞芳區"
"227001","642-TC","2019/09/02 16:19:40","新北市雙溪區牡丹里中正路74號","121.863653333333","25.0452316666667","6502500","雙溪區"
"227002","400-TW","2019/09/02 16:19:26","新北市雙溪區上林里內平林112號","121.825981666667","25.0269216666667","6502500","雙溪區"
"251008","181-VK","2019/09/02 16:19:44","新北市淡水區中正路259號","121.43296","25.1745466666667","6501000","淡水區"
"251013","182-VK","2019/09/02 16:19:28","新北市淡水區北新路一段695號","121.47395","25.184845","6501000","淡水區"
"251014","577-R6","2019/09/02 16:19:27","新北市淡水區中正路二段31號","121.419515","25.181575","6501000","淡水區"
"236074","166-UM","2019/09/02 16:00:02","新北市土城區德安街4巷9號","121.42207","24.9650516666667","6501300","土城區"
"238002","755-BX","2019/09/02 16:19:32","新北市樹林區中洲街2號","121.398391666667","24.9730183333333","6500700","樹林區"
"238006","599-UM","2019/09/02 16:19:42","新北市樹林區東華街39號","121.415296666667","24.9814333333333","6500700","樹林區"
"238011","5061-A6","2019/09/02 16:19:28","新北市樹林區育德街78-1號","121.387348333333","24.968125","6500700","樹林區"
"238012","303-VK","2019/09/02 16:19:32","新北市樹林區中正路22-1號","121.427855","24.9992833333333","6500700","樹林區"
"238004","283-BY","2019/09/02 16:19:35","新北市樹林區中正路433-1號","121.414923333333","25.0080833333333","6500700","樹林區"
"238001","282-BY","2019/09/02 16:19:37","新北市樹林區中正路22-1號","121.42778","24.9995616666667","6500700","樹林區"
"238007","268-VK","2019/09/02 16:19:41","新北市樹林區三龍街80巷15號","121.413995","25.0180166666667","6500700","樹林區"
"238003","169-UY","2019/09/02 16:19:32","新北市樹林區中山路二段2號","121.417796666667","24.9854616666667","6500700","樹林區"
