"lineid","car","time","location","longitude","latitude","cityid","cityname"
"249005","172-UM","2019/09/02 16:59:22","新北市八里區渡船頭3-19號","121.433785","25.151555","6502300","八里區"
"249001","173-UM","2019/09/02 16:59:28","新北市八里區中山路三段106號","121.391055","25.1421916666667","6502300","八里區"
"249004","303-UY","2019/09/02 16:59:26","新北市八里區挖子尾街1-1號","121.41568","25.1655166666667","6502300","八里區"
"249002","305-UY","2019/09/02 16:59:39","新北市八里區牛寮埔28-1號","121.432491666667","25.1432466666667","6502300","八里區"
"249003","593-UM","2019/09/02 16:59:36","新北市八里區中山路二段289號","121.401555","25.148645","6502300","八里區"
"244007","080-UY","2019/09/02 16:59:29","新北市林口區中湖8鄰50號","121.376496666667","25.09115","6501700","林口區"
"244019","402-UM","2019/09/02 16:59:35","新北市林口區仁愛路二段100號","121.383686666667","25.075","6501700","林口區"
"244023","483-VK","2019/09/02 16:59:44","新北市林口區粉寮路一段139號","121.399098333333","25.0811783333333","6501700","林口區"
"244009","656-BX","2019/09/02 16:59:38","新北市林口區東林街32號","121.395435","25.0793116666667","6501700","林口區"
"244025","837-TS","2019/09/02 16:59:25","新北市林口區粉寮路二段36號","121.403353333333","25.086745","6501700","林口區"
"244021","838-TS","2019/09/02 16:59:41","新北市林口區粉寮一街83號","121.404135","25.0865633333333","6501700","林口區"
"231046","719-UM","2019/09/02 16:59:32","新北市新店區灣潭路15-8號","121.54075","24.938825","6500600","新店區"
"241011","013-R5","2019/09/02 16:59:24","新北市三重區仁愛街55巷128號","121.498931666667","25.072775","6500200","三重區"
"241028","022-UY","2019/09/02 16:59:44","新北市三重區中正南路50號","121.493931666667","25.0598983333333","6500200","三重區"
"241008","059-VK","2019/09/02 16:59:27","新北市三重區永安北路一段3巷29號","121.477331666667","25.0747566666667","6500200","三重區"
"241031","061-VK","2019/09/02 16:59:31","新北市三重區三寧街18號","121.489418333333","25.059845","6500200","三重區"
"241015","062-VK","2019/09/02 16:59:42","新北市三重區三和路二段1-4號","121.501675","25.0664666666667","6500200","三重區"
"241017","063-VK","2019/09/02 16:59:34","新北市三重區大仁街3巷22號","121.492148333333","25.063845","6500200","三重區"
"241024","065-VK","2019/09/02 16:59:36","新北市三重區力行路二段5號","121.482073333333","25.0720033333333","6500200","三重區"
"241007","066-VK","2019/09/02 16:59:35","新北市三重區三和路四段145巷179號","121.48813","25.0791766666667","6500200","三重區"
"241002","090-VK","2019/09/02 16:59:38","新北市三重區仁義街225巷34號","121.497551666667","25.082845","6500200","三重區"
"241003","091-VK","2019/09/02 16:59:38","新北市三重區五華街141巷58號","121.493606666667","25.0867916666667","6500200","三重區"
"241004","742-BX","2019/09/02 16:59:33","新北市三重區五華街92-1號","121.492676666667","25.0824683333333","6500200","三重區"
"241006","262-UM","2019/09/02 16:59:31","新北市三重區車路頭街117巷17號","121.48488","25.0753183333333","6500200","三重區"
"241016","266-UM","2019/09/02 16:59:36","新北市三重區大同北路103號","121.494328333333","25.0641316666667","6500200","三重區"
"241018","268-UM","2019/09/02 16:59:28","新北市三重區六張街126巷4弄2號","121.49226","25.0690666666667","6500200","三重區"
"241032","269-UM","2019/09/02 16:59:36","新北市三重區重陽路一段130巷26號","121.485786666667","25.060305","6500200","三重區"
"241013","270-UM","2019/09/02 16:59:24","新北市三重區仁和街77號","121.497658333333","25.0739516666667","6500200","三重區"
"241025","271-UM","2019/09/02 16:59:34","新北市三重區中正北路510號","121.472641666667","25.071485","6500200","三重區"
"241030","KED-0822","2019/09/02 16:59:27","新北市三重區昌隆街66號","121.491033333333","25.0509783333333","6500200","三重區"
"241020","478-VK","2019/09/02 16:59:33","新北市三重區自強路三段72號","121.486576666667","25.0735016666667","6500200","三重區"
"241026","480-VK","2019/09/02 16:59:38","新北市三重區文化南路46號","121.500553333333","25.059975","6500200","三重區"
"241014","543-UM","2019/09/02 16:59:37","新北市三重區三和路二段173巷149號","121.501226666667","25.0706916666667","6500200","三重區"
"241001","547-UM","2019/09/02 16:59:38","新北市三重區仁政街9號","121.493451666667","25.0764016666667","6500200","三重區"
"241019","KEA-2593","2019/09/02 16:59:27","新北市三重區自強路二段74巷19號","121.487983333333","25.0699233333333","6500200","三重區"
"241005","AAD-863","2019/09/02 16:59:33","新北市三重區仁愛街701號","121.482883333333","25.0806916666667","6500200","三重區"
"241022","KED-0820","2019/09/02 16:59:36","新北市三重區中華路125號","121.483645","25.0640116666667","6500200","三重區"
"241023","887-TS","2019/09/02 16:59:46","新北市三重區忠孝路三段99巷4號","121.480163333333","25.0642916666667","6500200","三重區"
"241012","941-UM","2019/09/02 16:59:41","新北市三重區龍門路274巷36號","121.500806666667","25.0749833333333","6500200","三重區"
"241029","942-UM","2019/09/02 16:59:28","新北市三重區中正南路248-6號","121.493271666667","25.0536916666667","6500200","三重區"
"241033","AAC-255","2019/09/02 16:59:40","新北市三重區中興北街275號","121.469048333333","25.0607916666667","6500200","三重區"
"247012","KEA-2869","2019/09/02 16:59:42","新北市蘆洲區中正路65-1號","121.470253333333","25.0828116666667","6501400","蘆洲區"
"247010","KED-0682","2019/09/02 16:59:28","新北市蘆洲區信義路176號","121.479293333333","25.0839866666667","6501400","蘆洲區"
"235054","640-BX","2019/09/02 16:37:20","新北市中和區員山路36巷16-2號","121.485258333333","24.99157","6500300","中和區"
"235062","800-TS","2019/09/02 16:53:43","新北市中和區員山路36巷16-3號","121.485015","24.99136","6500300","中和區"
"247006","893-R6","2019/09/02 16:59:40","新北市蘆洲區長安街99巷31號","121.46075","25.079725","6501400","蘆洲區"
"247020","546-UM","2019/09/02 16:59:45","新北市蘆洲區民族路422巷82弄14號","121.473933333333","25.0938133333333","6501400","蘆洲區"
"247014","341-TH","2019/09/02 16:59:27","新北市蘆洲區三民路1號","121.475538333333","25.0816883333333","6501400","蘆洲區"
"247012","337-TH","2019/09/02 16:59:33","新北市蘆洲區信義路355號","121.477493333333","25.087445","6501400","蘆洲區"
"247004","336-TH","2019/09/02 16:59:43","新北市蘆洲區長安街108巷5弄1號","121.461151666667","25.08165","6501400","蘆洲區"
"247024","057-VK","2019/09/02 16:59:29","新北市蘆洲區長興路202號","121.460525","25.0874733333333","6501400","蘆洲區"
"247022","007-UY","2019/09/02 16:59:42","新北市蘆洲區三民路128巷140號","121.468476666667","25.0923783333333","6501400","蘆洲區"
"247008","002-UY","2019/09/02 16:59:25","新北市蘆洲區中山一路197巷30號","121.475058333333","25.0797316666667","6501400","蘆洲區"
"247002","001-UY","2019/09/02 16:59:33","新北市蘆洲區永平街16號","121.459208333333","25.0905666666667","6501400","蘆洲區"
"228003","097-TW","2019/09/02 16:59:46","新北市貢寮區福隆里興隆街21號","121.943678333333","25.0164733333333","6502600","貢寮區"
"228001","212-TW","2019/09/02 16:59:27","新北市貢寮區貢寮里朝陽街2號","121.912163333333","25.0213983333333","6502600","貢寮區"
"228002","663-BX","2019/09/02 16:59:43","新北市貢寮區貢寮里長泰路24-2號","121.903","25.0239816666667","6502600","貢寮區"
"224006","676-BX","2019/09/02 16:59:29","新北市瑞芳區大寮路356-1號","121.785085","25.10329","6501200","瑞芳區"
"224007","285-BY","2019/09/02 16:59:24","新北市瑞芳區頂埔巷51-3號","121.767623333333","25.1041316666667","6501200","瑞芳區"
"224009","275-VK","2019/09/02 16:59:42","新北市瑞芳區明燈路一段1號","121.826545","25.1093516666667","6501200","瑞芳區"
"224008","273-VK","2019/09/02 16:59:42","新北市瑞芳區明燈路一段267號","121.816925","25.1084833333333","6501200","瑞芳區"
"224005","271-BY","2019/09/02 16:59:36","新北市瑞芳區南雅路1號","121.890743333333","25.1195083333333","6501200","瑞芳區"
"227001","642-TC","2019/09/02 16:59:40","新北市雙溪區三貂里定福路27號","121.851518333333","25.07344","6502500","雙溪區"
"227002","400-TW","2019/09/02 16:59:26","新北市雙溪區上林里內平林90號","121.828315","25.0278033333333","6502500","雙溪區"
"251009","008-UM","2019/09/02 16:59:41","新北市淡水區中正路二段31號","121.419503333333","25.1816033333333","6501000","淡水區"
"251004","009-UM","2019/09/02 16:59:38","新北市淡水區中山路26-1號","121.444295","25.1696433333333","6501000","淡水區"
"251015","KEA-2871","2019/09/02 16:59:41","新北市淡水區忠愛街5-2號","121.4607","25.17156","6501000","淡水區"
"251016","179-VK","2019/09/02 16:59:35","新北市淡水區瓦坑7-3號","121.477983333333","25.1817166666667","6501000","淡水區"
"251008","181-VK","2019/09/02 16:59:44","新北市淡水區樹梅坑9號","121.472793333333","25.1427183333333","6501000","淡水區"
"251013","182-VK","2019/09/02 16:59:28","新北市淡水區泉洲厝23-1號","121.48835","25.192905","6501000","淡水區"
"251012","441-VK","2019/09/02 16:59:28","新北市淡水區中正路二段31號","121.419448333333","25.18157","6501000","淡水區"
"251007","442-VK","2019/09/02 16:58:50","新北市淡水區中正東路36號","121.448833333333","25.1657433333333","6501000","淡水區"
"251005","443-VK","2019/09/02 16:59:44","新北市淡水區文化路61號","121.438495","25.172845","6501000","淡水區"
"251006","561-UM","2019/09/02 16:59:32","新北市淡水區文化路65號","121.438058333333","25.17291","6501000","淡水區"
"251014","577-R6","2019/09/02 16:59:36","新北市淡水區淡金路四段472巷22號","121.452771666667","25.2240966666667","6501000","淡水區"
"251011","650-BX","2019/09/02 16:59:35","新北市淡水區中正路32巷3號","121.43068","25.1752833333333","6501000","淡水區"
"252002","178-VK","2019/09/02 16:59:34","新北市三芝區忠孝街168號","121.506218333333","25.2590116666667","6502100","三芝區"
"233002","762-BX","2019/09/02 16:59:45","新北市烏來區環山路47號","121.549315","24.8632966666667","6502900","烏來區"
"252001","KED-0821","2019/09/02 16:59:45","新北市三芝區淡金路二段38-1號","121.50298","25.2600266666667","6502100","三芝區"
"242004","751-BX","2019/09/02 16:59:28","新北市新莊區新泰路255巷83號","121.442375","25.0390883333333","6500500","新莊區"
"242029","615-BX","2019/09/02 16:59:26","新北市新莊區新泰路357巷3弄57號","121.442063333333","25.0392933333333","6500500","新莊區"
"242027","613-BX","2019/09/02 16:59:30","新北市新莊區新泰路255巷83號","121.442371666667","25.0392033333333","6500500","新莊區"
"242034","442-UM","2019/09/02 16:59:30","新北市新莊區三和路12-21號","121.44196","25.0388","6500500","新莊區"
"242025","362-BY","2019/09/02 16:59:35","新北市新莊區新泰路255巷83號","121.442061666667","25.0389216666667","6500500","新莊區"
"242031","175-VK","2019/09/02 16:59:36","新北市新莊區三和路12-21號","121.442043333333","25.0385866666667","6500500","新莊區"
"242021","346-TH","2019/09/02 16:59:40","新北市新莊區三和路12-21號","121.442328333333","25.0382433333333","6500500","新莊區"
"242044","347-TH","2019/09/02 16:59:33","新北市新莊區三和路12-21號","121.442331666667","25.0384066666667","6500500","新莊區"
"238002","755-BX","2019/09/02 16:35:07","新北市樹林區育德街78-1號","121.387993333333","24.9680783333333","6500700","樹林區"
"238023","601-UM","2019/09/02 16:59:39","新北市樹林區中正路433-1號","121.41499","25.0079683333333","6500700","樹林區"
"238022","KEA-2213","2019/09/02 16:59:25","新北市樹林區八德街321-1號","121.419505","24.973705","6500700","樹林區"
"238021","KEA-2539","2019/09/02 16:59:26","新北市樹林區中山路三段204號","121.386765","24.96821","6500700","樹林區"
"238025","303-VK","2019/09/02 16:59:31","新北市樹林區中正路22-1號","121.427841666667","24.999435","6500700","樹林區"
"238017","283-BY","2019/09/02 16:59:36","新北市樹林區中正路433-1號","121.414975","25.008075","6500700","樹林區"
"238014","282-BY","2019/09/02 16:59:37","新北市樹林區中正路22-1號","121.427871666667","24.9996716666667","6500700","樹林區"
"238003","169-UY","2019/09/02 16:59:32","新北市樹林區八德街1號","121.41757","24.9849933333333","6500700","樹林區"
"239007","AAC-297","2019/09/02 16:59:46","新北市鶯歌區二甲路12-2號","121.345851666667","24.934995","6500800","鶯歌區"
"239008","527-UM","2019/09/02 16:59:30","新北市鶯歌區二甲路13-16號","121.345063333333","24.935165","6500800","鶯歌區"
"233001","KEA-2870","2019/09/02 16:59:32","新北市烏來區溫泉街86巷16號","121.549411666667","24.86271","6502900","烏來區"
"242011","280-VK","2019/09/02 16:59:34","新北市新莊區三和路12-21號","121.442133333333","25.0380333333333","6500500","新莊區"
