"lineid","car","time","location","longitude","latitude","cityid","cityname"
"234046","148-BY","2019/09/02 18:49:43","新北市永和區秀朗路二段148巷12弄14號","121.524826666667","25.001015","6500400","永和區"
"234081","298-R6","2019/09/02 18:49:43","新北市永和區林森路112巷12弄2號","121.522506666667","25.0043616666667","6500400","永和區"
"234038","336-UY","2019/09/02 18:49:35","新北市永和區福和路8巷1號","121.525013333333","25.009015","6500400","永和區"
"234064","337-UY","2019/09/02 18:49:35","新北市永和區福和路1號","121.52632","25.0098","6500400","永和區"
"234086","338-UY","2019/09/02 18:49:37","新北市永和區中正路1號","121.513668333333","24.9952933333333","6500400","永和區"
"234070","552-UM","2019/09/02 18:49:43","新北市永和區豫溪街217巷1號","121.52533","25.0097116666667","6500400","永和區"
"234017","745-BX","2019/09/02 18:49:27","新北市永和區永和路二段301巷2號","121.51553","25.0164516666667","6500400","永和區"
"234030","746-BX","2019/09/02 18:49:31","新北市永和區得和路321號","121.523335","24.9996866666667","6500400","永和區"
"234054","KEA-2590","2019/09/02 18:49:34","新北市永和區豫溪街191巷1弄2號","121.523245","25.01032","6500400","永和區"
"234007","KED-0605","2019/09/02 18:49:27","新北市永和區文化路123號","121.5123","25.0152916666667","6500400","永和區"
"234013","KEA-2591","2019/09/02 18:49:31","新北市永和區保福路二段133巷26-1號","121.508933333333","25.0135833333333","6500400","永和區"
"234061","AAD-866","2019/09/02 18:49:30","新北市永和區福和路309巷3號","121.51629","25.0069766666667","6500400","永和區"
"234042","862-TW","2019/09/02 18:49:26","新北市永和區永貞路267號","121.51186","25.0046883333333","6500400","永和區"
"234050","863-TW","2019/09/02 18:49:45","新北市永和區環河東路二段92號","121.524455","25.0105933333333","6500400","永和區"
"234026","9371-KE","2019/09/02 18:49:45","新北市永和區自由街58號","121.513771666667","25.005905","6500400","永和區"
"234011","9373-KE","2019/09/02 18:49:31","新北市永和區文化路67巷9號","121.513495","25.0147133333333","6500400","永和區"
"249005","172-UM","2019/09/02 18:49:42","新北市八里區長道坑16-1號","121.395571666667","25.1170183333333","6502300","八里區"
"249001","173-UM","2019/09/02 18:49:27","新北市八里區龍米路二段88-1號","121.447235","25.1432733333333","6502300","八里區"
"249004","303-UY","2019/09/02 18:49:26","新北市八里區中山路一段89號","121.416418333333","25.1593216666667","6502300","八里區"
"249002","305-UY","2019/09/02 18:49:38","新北市八里區龍形一街33巷6-2號","121.449305","25.1294933333333","6502300","八里區"
"249003","593-UM","2019/09/02 18:35:25","新北市八里區博物館路10-1號","121.415085","25.1639633333333","6502300","八里區"
"248016","026-BX","2019/09/02 18:49:42","新北市五股區成泰路三段543巷39號","121.44989","25.1028816666667","6501500","五股區"
"248006","077-UY","2019/09/02 18:49:34","新北市五股區四維路85號","121.467283333333","25.0724466666667","6501500","五股區"
"248008","KED-0815","2019/09/02 18:49:39","新北市五股區中興路一段151巷23號","121.465213333333","25.0723683333333","6501500","五股區"
"248018","KED-0813","2019/09/02 18:49:25","新北市五股區民義路二段48巷2-2號","121.414321666667","25.1029016666667","6501500","五股區"
"248012","247-BX","2019/09/02 18:49:38","新北市五股區成泰路二段147巷19號","121.438783333333","25.086545","6501500","五股區"
"248014","261-SL","2019/09/02 18:49:39","新北市五股區民義路一段107巷32號","121.432158333333","25.0845","6501500","五股區"
"248004","677-BX","2019/09/02 18:49:31","新北市五股區民義路二段73號","121.408996666667","25.105605","6501500","五股區"
"248002","678-BX","2019/09/02 18:49:40","新北市五股區成泰路三段495-1號","121.451186666667","25.099935","6501500","五股區"
"248010","682-TV","2019/09/02 18:49:27","新北市五股區水碓五路81號","121.429991666667","25.07189","6501500","五股區"
"234023","9380-KE","2019/09/02 18:49:43","新北市永和區竹林路119巷45號","121.521993333333","25.0117683333333","6500400","永和區"
"234077","969-R7","2019/09/02 18:49:44","新北市永和區中正路2巷29弄1號","121.513738333333","24.993665","6500400","永和區"
"234003","AAC-295","2019/09/02 18:49:30","新北市永和區永和路二段28號","121.51469","25.0103516666667","6500400","永和區"
"232011","375-UM","2019/09/02 18:49:41","新北市坪林區坪碇路71號","121.711481666667","24.9376666666667","6502000","坪林區"
"244019","402-UM","2019/09/02 18:49:35","新北市林口區麗園二街1巷9-1號","121.378948333333","25.070065","6501700","林口區"
"244013","KEA-2802","2019/09/02 18:49:36","新北市林口區麗園二街1巷6-1號","121.37797","25.0703733333333","6501700","林口區"
"244023","483-VK","2019/09/02 18:49:44","新北市林口區民享路46號","121.380806666667","25.080835","6501700","林口區"
"244017","485-VK","2019/09/02 18:49:36","新北市林口區文化二路一段120巷5號","121.3679","25.0699683333333","6501700","林口區"
"244009","656-BX","2019/09/02 18:49:38","新北市林口區台電新村3號","121.388051666667","25.0861566666667","6501700","林口區"
"244011","701-TV","2019/09/02 18:49:29","新北市林口區仁愛路一段285巷108號","121.39506","25.0755416666667","6501700","林口區"
"244025","837-TS","2019/09/02 18:49:45","新北市林口區忠孝一路148號","121.360221666667","25.07396","6501700","林口區"
"244021","838-TS","2019/09/02 18:49:41","新北市林口區工六路19號","121.400398333333","25.077285","6501700","林口區"
"243010","297-R6","2019/09/02 18:49:40","新北市泰山區辭修路48號","121.428475","25.0572216666667","6501600","泰山區"
"243016","421-VK","2019/09/02 18:49:39","新北市泰山區明志路一段519號","121.43043","25.0540533333333","6501600","泰山區"
"243015","680-BX","2019/09/02 18:49:32","新北市泰山區美寧街54號","121.430543333333","25.0645266666667","6501600","泰山區"
"222003","436-BY","2019/09/02 18:49:38","新北市深坑區深南路50號","121.620043333333","25.008975","6501800","深坑區"
"222002","659-BX","2019/09/02 18:49:39","新北市深坑區文山路一段69號","121.62702","25.00194","6501800","深坑區"
"231061","002-UM","2019/09/02 18:49:27","新北市新店區安華路28-1號","121.51971","24.9608216666667","6500600","新店區"
"231058","0293-UT","2019/09/02 18:49:26","新北市新店區北宜路一段105巷4弄9號","121.540366666667","24.9554533333333","6500600","新店區"
"231044","046-UY","2019/09/02 18:49:35","新北市新店區中正路69號","121.543573333333","24.9700833333333","6500600","新店區"
"231060","106-UY","2019/09/02 18:49:37","新北市新店區安華路28-1號","121.519566666667","24.9608283333333","6500600","新店區"
"231051","107-UY","2019/09/02 18:49:35","新北市新店區中央路79號","121.532403333333","24.97664","6500600","新店區"
"231049","108-UY","2019/09/02 18:49:40","新北市新店區力行路15號","121.53712","24.9660166666667","6500600","新店區"
"231065","110-UY","2019/09/02 18:49:25","新北市新店區安康路三段237號","121.48734","24.9517833333333","6500600","新店區"
"221031","KEA-2785","2019/09/02 18:49:33","新北市汐止區福德一路270號","121.632208333333","25.06398","6501100","汐止區"
"231062","256-BX","2019/09/02 18:49:39","新北市新店區安一路一段1-1號","121.5196","24.9611766666667","6500600","新店區"
"231054","260-TV","2019/09/02 18:49:31","新北市新店區安康路一段131號","121.528003333333","24.9618916666667","6500600","新店區"
"231042","268-BY","2019/09/02 18:49:29","新北市新店區北新路一段96巷27號","121.543018333333","24.96945","6500600","新店區"
"231064","278-BY","2019/09/02 18:49:32","新北市新店區安一路一段1-1號","121.519668333333","24.9610733333333","6500600","新店區"
"231050","AAD-862","2019/09/02 18:49:27","新北市新店區安康路一段92-1號","121.527865","24.9620283333333","6500600","新店區"
"231045","355-BY","2019/09/02 18:49:45","新北市新店區安華路28-1號","121.519306666667","24.9609166666667","6500600","新店區"
"231055","4716-K9","2019/09/02 18:49:29","新北市新店區中華路47巷2弄1號","121.53971","24.9675616666667","6500600","新店區"
"231056","4715-K9","2019/09/02 18:49:32","新北市新店區大同街7號","121.539355","24.9800416666667","6500600","新店區"
"231067","4772-VM","2019/09/02 18:42:17","新北市新店區安華路3號","121.518568333333","24.959965","6500600","新店區"
"231052","512-UM","2019/09/02 18:49:37","新北市新店區新烏路一段105巷19號","121.546431666667","24.9404066666667","6500600","新店區"
"231063","616-UM","2019/09/02 18:49:41","新北市新店區安華路1-1號","121.519365","24.9604716666667","6500600","新店區"
"231041","619-UM","2019/09/02 18:49:27","新北市新店區安華路28-1號","121.519466666667","24.96092","6500600","新店區"
"231047","KED-0819","2019/09/02 18:49:42","新北市新店區安康路一段79巷1號","121.529813333333","24.9612516666667","6500600","新店區"
"231046","719-UM","2019/09/02 18:49:32","新北市新店區直潭路71號","121.53241","24.942205","6500600","新店區"
"231057","720-UM","2019/09/02 18:49:34","新北市新店區新烏路一段215號","121.549181666667","24.93137","6500600","新店區"
"231059","897-TW","2019/09/02 18:49:32","新北市新店區安華路28-1號","121.519536666667","24.9607666666667","6500600","新店區"
"231040","898-TW","2019/09/02 18:49:37","新北市新店區安康路一段355號","121.519846666667","24.9627216666667","6500600","新店區"
"231043","899-TW","2019/09/02 18:49:32","新北市新店區安康路一段289號","121.522846666667","24.963645","6500600","新店區"
"231066","AKT-0513","2019/09/02 18:49:39","新北市新店區安華路1-1號","121.519588333333","24.960495","6500600","新店區"
"235066","003-UY","2019/09/02 18:49:29","新北市中和區中山路二段131巷33號","121.503815","25.0028616666667","6500300","中和區"
"235063","006-UY","2019/09/02 18:49:31","新北市中和區錦和路174號","121.489926666667","24.9956783333333","6500300","中和區"
"235056","096-UM","2019/09/02 18:49:41","新北市中和區員山路466巷17弄18號","121.480536666667","25.0074366666667","6500300","中和區"
"235039","097-UM","2019/09/02 18:49:31","新北市中和區安樂路217巷13號","121.51388","24.9984483333333","6500300","中和區"
"235065","098-UM","2019/09/02 18:49:35","新北市中和區中山路二段2巷45弄36號","121.501435","25.00689","6500300","中和區"
"235004","150-BY","2019/09/02 18:49:31","新北市中和區保健路72號","121.511421666667","24.996485","6500300","中和區"
"235058","151-BY","2019/09/02 18:49:33","新北市中和區連城路571號","121.479151666667","24.9945","6500300","中和區"
"235055","183-VK","2019/09/02 18:49:38","新北市中和區民生街85巷5弄2號","121.469271666667","25.0040033333333","6500300","中和區"
"235038","185-VK","2019/09/02 18:49:36","新北市中和區大勇街31巷13弄13號","121.517428333333","24.9940516666667","6500300","中和區"
"235049","186-VK","2019/09/02 18:49:39","新北市中和區景安路177巷21號","121.506355","24.994405","6500300","中和區"
"235067","255-BX","2019/09/02 18:49:32","新北市中和區中正路861巷1號","121.484556666667","25.0032633333333","6500300","中和區"
"235044","293-VK","2019/09/02 18:49:40","新北市中和區復興路348號","121.499986666667","24.9904183333333","6500300","中和區"
"235072","301-VK","2019/09/02 18:49:37","新北市中和區中山路二段261號","121.49721","25.0022533333333","6500300","中和區"
"235043","352-BY","2019/09/02 18:49:31","新北市中和區秀朗路三段72號","121.526308333333","24.9944183333333","6500300","中和區"
"235042","KEA-2878","2019/09/02 18:49:32","新北市中和區秀朗路三段104號","121.52549","24.9930716666667","6500300","中和區"
"235050","4979-A6","2019/09/02 18:49:41","新北市中和區忠孝街112號","121.512291666667","24.9854083333333","6500300","中和區"
"235069","4980-A6","2019/09/02 18:48:18","新北市中和區南山路111巷5號","121.502693333333","24.99781","6500300","中和區"
"235070","558-UM","2019/09/02 18:49:43","新北市中和區安和路215號","121.50588","24.9990833333333","6500300","中和區"
"235045","565-BX","2019/09/02 18:49:36","新北市中和區景新街467巷3號","121.513638333333","24.98826","6500300","中和區"
"235060","KED-0823","2019/09/02 18:49:33","新北市中和區中山路三段152號","121.473498333333","25.0063133333333","6500300","中和區"
"235054","640-BX","2019/09/02 18:49:45","新北市中和區中山路三段147號","121.473726666667","25.0061433333333","6500300","中和區"
"235047","732-UM","2019/09/02 18:49:29","新北市中和區興南路二段34巷55弄1號","121.504833333333","24.986235","6500300","中和區"
"235046","733-UM","2019/09/02 18:49:25","新北市中和區興南路一段89號","121.509843333333","24.9888116666667","6500300","中和區"
"235062","800-TS","2019/09/02 18:49:33","新北市中和區中山路二段496號","121.486883333333","25.00495","6500300","中和區"
"235057","801-TS","2019/09/02 18:49:30","新北市中和區民安街65巷3號","121.47872","24.9994216666667","6500300","中和區"
"235052","805-TS","2019/09/02 18:49:26","新北市中和區興南路二段399巷35-2號","121.500243333333","24.978205","6500300","中和區"
"235048","896-TW","2019/09/02 18:49:38","新北市中和區華新街42號","121.507938333333","24.98424","6500300","中和區"
"235053","900-TW","2019/09/02 18:49:35","新北市中和區民德路290巷2號","121.46731","24.9957116666667","6500300","中和區"
"235064","911-UM","2019/09/02 18:49:30","新北市中和區泰和街46巷2號","121.49864","25.0001316666667","6500300","中和區"
"235051","157-BY","2019/09/02 18:49:38","新北市中和區忠孝街106巷52號","121.513581666667","24.9841733333333","6500300","中和區"
"235037","AAC-213","2019/09/02 18:49:32","新北市中和區秀朗路三段10巷14弄43號","121.524068333333","24.9964133333333","6500300","中和區"
"235059","AAC-215","2019/09/02 18:49:32","新北市中和區圓通路393巷9號","121.489873333333","24.9886383333333","6500300","中和區"
"220065","072-UY","2019/09/02 18:49:39","新北市板橋區館前東路112號","121.46339","25.00785","6500100","板橋區"
"220086","073-UY","2019/09/02 18:49:47","新北市板橋區南雅西路二段145巷3號","121.4517","25.0115016666667","6500100","板橋區"
"220106","075-UY","2019/09/02 18:49:32","新北市板橋區莒光路36號","121.470326666667","25.02451","6500100","板橋區"
"220069","AAD-861","2019/09/02 18:49:42","新北市板橋區華興街73-1號","121.457135","25.0050083333333","6500100","板橋區"
"220068","120-SR","2019/09/02 18:49:43","新北市板橋區大同街30號","121.478193333333","25.0273733333333","6500100","板橋區"
"226004","312-R5","2019/09/02 18:49:30","新北市平溪區平溪里三坑路17號","121.736825","25.0285","6502400","平溪區"
"235041","251-BX","2019/09/02 18:49:31","新北市中和區宜安路92巷13號","121.51126","24.99799","6500300","中和區"
"228003","097-TW","2019/09/02 18:49:25","新北市貢寮區和美里龍洞街53號","121.91231","25.1136783333333","6502600","貢寮區"
"228001","212-TW","2019/09/02 18:49:27","新北市貢寮區仁理村保健街71號","121.92374","25.051645","6502600","貢寮區"
"228002","663-BX","2019/09/02 18:49:43","新北市貢寮區福隆里東興街6-11號","121.950785","25.0211066666667","6502600","貢寮區"
"224006","676-BX","2019/09/02 18:49:29","新北市瑞芳區中正路90號","121.80533","25.1077316666667","6501200","瑞芳區"
"224002","639-TC","2019/09/02 18:49:32","新北市瑞芳區傑魚坑路311-1號","121.793863333333","25.10617","6501200","瑞芳區"
"224007","285-BY","2019/09/02 18:49:43","新北市瑞芳區大埔路東泰新村1號","121.76133","25.1010933333333","6501200","瑞芳區"
"224009","275-VK","2019/09/02 18:49:42","新北市瑞芳區祈堂路12號","121.8589","25.11247","6501200","瑞芳區"
"224008","273-VK","2019/09/02 18:49:40","新北市瑞芳區逢甲路282巷5弄2號","121.80358","25.111405","6501200","瑞芳區"
"224005","271-BY","2019/09/02 18:49:35","新北市瑞芳區濱二路71-1號","121.829006666667","25.1206016666667","6501200","瑞芳區"
"227001","642-TC","2019/09/02 18:49:32","新北市雙溪區牡丹里聖南26號","121.856313333333","25.0535","6502500","雙溪區"
"227002","400-TW","2019/09/02 18:49:42","新北市雙溪區魚行里坤溪35號","121.870596666667","25.03043","6502500","雙溪區"
"253005","032-BX","2019/09/02 18:49:29","新北市石門區中山路28-3號","121.565683333333","25.2897933333333","6502200","石門區"
"253006","295-VK","2019/09/02 18:49:33","新北市石門區下員坑15-12號","121.512768333333","25.284005","6502200","石門區"
"222001","KEA-2212","2019/09/02 18:49:40","新北市深坑區北深路一段32-2號","121.638243333333","25.01046","6501800","深坑區"
"208002","KEA-2872","2019/09/02 18:49:40","新北市金山區信義路66號","121.635715","25.2189116666667","6502700","金山區"
"208003","665-BX","2019/09/02 18:49:42","新北市金山區中山路393號","121.633333333333","25.225125","6502700","金山區"
"251009","008-UM","2019/09/02 18:49:41","新北市淡水區重建街199號","121.44113","25.1746383333333","6501000","淡水區"
"251004","009-UM","2019/09/02 18:49:32","新北市淡水區中正東路二段161巷11弄10號","121.46147","25.14608","6501000","淡水區"
"251001","011-UM","2019/09/02 18:49:43","新北市淡水區自強路201巷79號","121.462388333333","25.12813","6501000","淡水區"
"251015","KEA-2871","2019/09/02 18:49:41","新北市淡水區糞箕湖20號","121.485625","25.171025","6501000","淡水區"
"251016","179-VK","2019/09/02 18:49:35","新北市淡水區下圭柔山71-3號","121.447036666667","25.2062616666667","6501000","淡水區"
"251008","181-VK","2019/09/02 18:49:44","新北市淡水區北投子14-2號","121.448601666667","25.18374","6501000","淡水區"
"251013","182-VK","2019/09/02 18:49:47","新北市淡水區安子內5號","121.484066666667","25.21515","6501000","淡水區"
"251010","413-VK","2019/09/02 18:49:44","新北市淡水區沙崙路24號","121.421376666667","25.18128","6501000","淡水區"
"251012","441-VK","2019/09/02 18:49:28","新北市淡水區北新路2號","121.44435","25.17766","6501000","淡水區"
"251014","577-R6","2019/09/02 18:49:46","新北市淡水區崙頂3號","121.491056666667","25.2239066666667","6501000","淡水區"
"251011","650-BX","2019/09/02 18:49:35","新北市淡水區學府路32巷31號","121.4484","25.1681366666667","6501000","淡水區"
"251002","672-BX","2019/09/02 18:49:37","新北市淡水區學府路75號","121.448498333333","25.1699333333333","6501000","淡水區"
"251003","673-BX","2019/09/02 18:49:35","新北市淡水區中山北路一段212巷38號","121.446313333333","25.1790416666667","6501000","淡水區"
"207003","550-UM","2019/09/02 18:49:36","新北市萬里區野柳里港東路156號","121.68994","25.2050583333333","6502800","萬里區"
"207004","291-VK","2019/09/02 18:49:27","新北市萬里區萬里里獅頭路23號","121.693198333333","25.1783016666667","6502800","萬里區"
"252002","178-VK","2019/09/02 18:49:34","新北市三芝區中正路二段1號","121.504826666667","25.25593","6502100","三芝區"
"252003","249-BX","2019/09/02 18:49:32","新北市三芝區後厝里大片頭77-1號","121.459251666667","25.2454733333333","6502100","三芝區"
"208001","170-UY","2019/09/02 18:49:30","新北市金山區文化三路66巷1號","121.634233333333","25.225645","6502700","金山區"
"237004","KEA-2597","2019/09/02 18:49:36","新北市三峽區插角222號","121.414943333333","24.867675","6500900","三峽區"
"237007","153-BY","2019/09/02 18:49:42","新北市三峽區柑樹路2巷26號","121.361683333333","24.90535","6500900","三峽區"
"237013","252-BX","2019/09/02 18:49:39","新北市三峽區光明路69巷25號","121.37654","24.9291466666667","6500900","三峽區"
"237012","275-BY","2019/09/02 18:49:40","新北市三峽區三樹路340號","121.38395","24.9433316666667","6500900","三峽區"
"237008","302-VK","2019/09/02 18:49:45","新北市三峽區正義街29號","121.36965","24.919475","6500900","三峽區"
"237014","433-BY","2019/09/02 18:49:32","新北市三峽區隆恩街178號","121.361798333333","24.94265","6500900","三峽區"
"237006","5529-G3","2019/09/02 18:49:46","新北市三峽區溪東路211巷15號","121.405253333333","24.9337333333333","6500900","三峽區"
"237011","KEA-2596","2019/09/02 18:49:34","新北市三峽區溪東路273號","121.408833333333","24.9314933333333","6500900","三峽區"
"237015","649-BX","2019/09/02 18:49:26","新北市三峽區建安71-3號","121.447943333333","24.926575","6500900","三峽區"
"237010","706-TV","2019/09/02 18:45:51","新北市三峽區復興路451號","121.362433333333","24.938465","6500900","三峽區"
"237005","AKY-6261","2019/09/02 18:49:38","新北市三峽區新興街25號","121.372798333333","24.935335","6500900","三峽區"
"236042","KED-0685","2019/09/02 18:49:38","新北市土城區裕民路92巷25弄3號","121.44969","24.985915","6501300","土城區"
"236078","166-UM","2019/09/02 18:49:42","新北市土城區中央路四段196-1號","121.416303333333","24.95775","6501300","土城區"
"236030","253-BX","2019/09/02 18:49:34","新北市土城區忠義路26巷10號","121.439855","24.9699116666667","6501300","土城區"
"236026","269-VK","2019/09/02 18:49:26","新北市土城區慶安街45巷11號","121.441513333333","24.9727983333333","6501300","土城區"
"236014","270-VK","2019/09/02 18:49:28","新北市土城區金城路二段354巷20號","121.460775","24.9841033333333","6501300","土城區"
"236039","271-VK","2019/09/02 18:49:46","新北市土城區明德路一段195巷3弄2號","121.464286666667","24.9785583333333","6501300","土城區"
"236069","KEA-2877","2019/09/02 18:49:30","新北市土城區永豐路157巷4號","121.468238333333","24.9815183333333","6501300","土城區"
"252001","KED-0821","2019/09/02 18:49:45","新北市三芝區中正路三段9號","121.502886666667","25.2539633333333","6502100","三芝區"
"236020","401-BY","2019/09/02 18:49:40","新北市土城區延安街35巷2號","121.468026666667","24.984225","6501300","土城區"
"236059","912-UM","2019/09/02 18:49:39","新北市土城區金城路一段56號","121.442406666667","24.970615","6501300","土城區"
"236048","913-UM","2019/09/02 18:49:39","新北市土城區青雲路2-1號","121.460293333333","24.9897333333333","6501300","土城區"
"236063","915-UM","2019/09/02 18:49:33","新北市土城區金城路三段197號","121.47013","24.9891666666667","6501300","土城區"
"236055","AAC-216","2019/09/02 18:49:38","新北市土城區學府路一段169號","121.452783333333","24.9853683333333","6501300","土城區"
"242009","349-TH","2019/09/02 18:49:36","新北市樹林區環河路2號","121.427951666667","24.9788616666667","6500500","新莊區"
"238023","601-UM","2019/09/02 18:49:39","新北市樹林區工興街14巷1號","121.398941666667","25.0138366666667","6500700","樹林區"
"238024","5061-A6","2019/09/02 18:49:47","新北市樹林區太平路200號","121.418836666667","24.9753166666667","6500700","樹林區"
"238018","KEA-2217","2019/09/02 18:49:42","新北市樹林區太平路50號","121.419","24.98248","6500700","樹林區"
"238022","KEA-2213","2019/09/02 18:49:25","新北市樹林區中華路190-1號","121.41136","24.98049","6500700","樹林區"
"238021","KEA-2539","2019/09/02 18:49:32","新北市樹林區西圳街二段29號","121.388351666667","24.96158","6500700","樹林區"
"238025","303-VK","2019/09/02 18:49:31","新北市樹林區中山路三段22號","121.395618333333","24.9729366666667","6500700","樹林區"
"238014","282-BY","2019/09/02 18:49:37","新北市樹林區大安路111巷11號","121.423106666667","24.9977916666667","6500700","樹林區"
"238020","268-VK","2019/09/02 18:49:41","新北市樹林區俊英街280號","121.423746666667","25.0132833333333","6500700","樹林區"
"238026","172-UY","2019/09/02 18:49:23","新北市樹林區中山路三段182號","121.387955","24.9693766666667","6500700","樹林區"
"238016","169-UY","2019/09/02 18:49:31","新北市樹林區中山路一段412號","121.417393333333","24.9851433333333","6500700","樹林區"
"239007","AAC-297","2019/09/02 18:49:26","新北市鶯歌區中正一路478號","121.366478333333","24.9568083333333","6500800","鶯歌區"
"239008","527-UM","2019/09/02 18:49:30","新北市鶯歌區朝陽街4號","121.336266666667","24.976585","6500800","鶯歌區"
"239001","417-VK","2019/09/02 18:49:36","新北市鶯歌區國中街178號","121.33828","24.939245","6500800","鶯歌區"
"239003","360-BY","2019/09/02 18:49:32","新北市鶯歌區鶯桃路399號","121.333323333333","24.9641366666667","6500800","鶯歌區"
"239002","359-BY","2019/09/02 18:49:35","新北市鶯歌區文化路110號","121.352293333333","24.9523166666667","6500800","鶯歌區"
"239004","193-VK","2019/09/02 18:49:33","新北市鶯歌區尖山路302巷18號","121.341685","24.9432683333333","6500800","鶯歌區"
"221036","130-UY","2019/09/02 18:49:37","新北市汐止區大同路三段49號","121.666993333333","25.0766766666667","6501100","汐止區"
"221015","131-UY","2019/09/02 18:49:40","新北市汐止區鄉友街12號","121.668371666667","25.0808333333333","6501100","汐止區"
"221032","280-BY","2019/09/02 18:49:42","新北市汐止區民權街二段35-1號","121.62021","25.0501716666667","6501100","汐止區"
"221029","298-VK","2019/09/02 18:49:33","新北市汐止區樟樹一路1巷52號","121.64115","25.06276","6501100","汐止區"
"221021","299-VK","2019/09/02 18:49:27","新北市汐止區新興路47號","121.657141666667","25.0631983333333","6501100","汐止區"
"221035","622-UM","2019/09/02 18:49:42","新北市汐止區新台五路一段79-10號","121.645755","25.06213","6501100","汐止區"
"221025","623-UM","2019/09/02 18:49:35","新北市汐止區福安街20巷20號","121.661955","25.06459","6501100","汐止區"
"221002","707-TV","2019/09/02 18:49:31","新北市汐止區大同路一段149號","121.632121666667","25.0561266666667","6501100","汐止區"
"221018","753-BX","2019/09/02 18:49:29","新北市汐止區茄苳路278號","121.672276666667","25.0678516666667","6501100","汐止區"
"220079","145-BY","2019/09/02 18:49:44","新北市板橋區南雅西路二段192巷1弄48號","121.45257","25.0153333333333","6500100","板橋區"
"220080","200-UY","2019/09/02 18:49:36","新北市板橋區大觀路二段265巷66弄30號","121.441531666667","24.9970433333333","6500100","板橋區"
"220082","610-BX","2019/09/02 18:49:38","新北市板橋區篤行路三段24號","121.428666666667","24.9869816666667","6500100","板橋區"
"220101","245-BX","2019/09/02 18:49:33","新北市板橋區文化路二段182巷27號","121.472426666667","25.0265033333333","6500100","板橋區"
"220056","276-BY","2019/09/02 18:49:40","新北市板橋區四川路一段287號","121.45895","25.0008233333333","6500100","板橋區"
"220072","277-BY","2019/09/02 18:49:38","新北市板橋區金門街19巷1號","121.43382","24.9947116666667","6500100","板橋區"
"220094","283-UM","2019/09/02 18:49:36","新北市板橋區莒光路5號","121.46969","25.024855","6500100","板橋區"
"220071","283-VK","2019/09/02 18:49:39","新北市板橋區四川路一段60號","121.459588333333","25.0056566666667","6500100","板橋區"
"220053","285-VK","2019/09/02 18:49:39","新北市板橋區永豐街42號","121.47453","25.0178266666667","6500100","板橋區"
"220083","286-VK","2019/09/02 18:49:40","新北市板橋區大觀路二段22巷31號","121.44503","25.0035783333333","6500100","板橋區"
"220081","287-VK","2019/09/02 18:49:34","新北市板橋區光華街13巷33號","121.452903333333","25.0112316666667","6500100","板橋區"
"220090","288-VK","2019/09/02 18:49:44","新北市板橋區四維路177巷4弄10號","121.46358","25.0263466666667","6500100","板橋區"
"220061","293-UM","2019/09/02 18:49:41","新北市板橋區永豐街161號","121.475436666667","25.0204466666667","6500100","板橋區"
"220062","295-UM","2019/09/02 18:49:44","新北市板橋區中山路二段31號","121.47267","25.01545","6500100","板橋區"
"220084","296-UM","2019/09/02 18:49:38","新北市板橋區大觀路二段148巷1-2號","121.44168","24.9992066666667","6500100","板橋區"
"220075","303-R5","2019/09/02 18:49:39","新北市板橋區大觀路一段28巷96號","121.450473333333","25.0110283333333","6500100","板橋區"
"220092","307-R5","2019/09/02 18:49:43","新北市板橋區文化路一段136巷8弄1號","121.46555","25.01826","6500100","板橋區"
"220098","317-R6","2019/09/02 18:49:27","新北市板橋區民生路二段226巷17弄3號","121.470431666667","25.02215","6500100","板橋區"
"220089","487-VK","2019/09/02 18:49:27","新北市板橋區仁化街45號","121.475","25.0318316666667","6500100","板橋區"
"220088","491-VK","2019/09/02 18:49:42","新北市板橋區民生路二段216號","121.469338333333","25.0215883333333","6500100","板橋區"
"220035","560-BX","2019/09/02 18:49:44","新北市板橋區中正路275巷73號","121.45257","25.0181083333333","6500100","板橋區"
"220103","561-BX","2019/09/02 18:49:36","新北市板橋區文化路一段188巷9弄86-3號","121.46899","25.0187983333333","6500100","板橋區"
"220063","609-BX","2019/09/02 18:49:41","新北市板橋區民生路一段35號","121.475838333333","25.0126866666667","6500100","板橋區"
"220091","637-BX","2019/09/02 18:49:32","新北市板橋區莒光路165巷14-1號","121.473983333333","25.02437","6500100","板橋區"
"220057","686-BX","2019/09/02 18:49:46","新北市板橋區重慶路182號","121.462463333333","25.0034533333333","6500100","板橋區"
"220077","687-BX","2019/09/02 18:49:41","新北市板橋區大觀路二段174巷174號","121.442001666667","25.0034766666667","6500100","板橋區"
"220093","689-BX","2019/09/02 18:49:37","新北市板橋區文化路一段435巷16號","121.467911666667","25.02359","6500100","板橋區"
"220054","741-BX","2019/09/02 18:49:24","新北市板橋區館前東路15號","121.460036666667","25.0073516666667","6500100","板橋區"
"220102","KEA-2699","2019/09/02 18:49:32","新北市板橋區萬板路478號","121.480005","25.02599","6500100","板橋區"
"220055","827-TW","2019/09/02 18:49:34","新北市板橋區忠孝路116號","121.462833333333","25.0021816666667","6500100","板橋區"
"220067","829-TW","2019/09/02 18:49:37","新北市板橋區中山路二段90巷43弄2號","121.476536666667","25.0147233333333","6500100","板橋區"
"220074","895-R6","2019/09/02 18:49:25","新北市板橋區南門街1號","121.457895","25.0094716666667","6500100","板橋區"
"220073","985-R7","2019/09/02 18:49:31","新北市板橋區館前西路50號","121.45844","25.0071016666667","6500100","板橋區"
"220097","AAC-210","2019/09/02 18:49:36","新北市板橋區陽明街162號","121.463506666667","25.024465","6500100","板橋區"
"220064","AAC-253","2019/09/02 18:49:46","新北市板橋區縣民大道二段106號","121.466841666667","25.0152516666667","6500100","板橋區"
"235068","KEA-2873","2019/09/02 18:49:23","新北市中和區中正路211巷38號","121.497761666667","24.9926833333333","6500300","中和區"
"235061","KEA-2875","2019/09/02 18:49:41","新北市中和區民享街71號","121.474193333333","25.00206","6500300","中和區"
