"lineid","car","time","location","longitude","latitude","cityid","cityname"
"234046","148-BY","2019/09/02 19:29:43","新北市永和區秀朗路二段119號","121.524053333333","25.001665","6500400","永和區"
"234081","298-R6","2019/09/02 19:29:46","新北市永和區福和路5-9號","121.525463333333","25.00843","6500400","永和區"
"234038","336-UY","2019/09/02 19:29:35","新北市永和區民樂街41巷1號","121.52747","25.0001416666667","6500400","永和區"
"234064","337-UY","2019/09/02 19:29:35","新北市永和區中正路368巷1弄75號","121.520511666667","25.0007966666667","6500400","永和區"
"234086","338-UY","2019/09/02 19:29:38","新北市永和區永元路138號","121.522918333333","25.0031116666667","6500400","永和區"
"234070","552-UM","2019/09/02 19:29:43","新北市永和區警光街12號","121.519761666667","25.009555","6500400","永和區"
"234017","745-BX","2019/09/02 19:29:27","新北市永和區環河西路一段87號","121.51232","25.017855","6500400","永和區"
"234030","746-BX","2019/09/02 19:29:31","新北市永和區民生路12號","121.522665","24.99768","6500400","永和區"
"234054","KEA-2590","2019/09/02 19:29:34","新北市永和區復興街19巷2號","121.516176666667","25.0131283333333","6500400","永和區"
"234007","KED-0605","2019/09/02 19:29:34","新北市永和區永和路一段63號","121.51309","25.00706","6500400","永和區"
"234013","KEA-2591","2019/09/02 19:29:31","新北市永和區保福路二段2號","121.511366666667","25.0107133333333","6500400","永和區"
"234061","AAD-866","2019/09/02 19:29:44","新北市永和區中正路576號","121.517143333333","25.0064083333333","6500400","永和區"
"234042","862-TW","2019/09/02 19:29:46","新北市永和區水源街39巷10號","121.510491666667","25.00383","6500400","永和區"
"234050","863-TW","2019/09/02 19:29:26","新北市永和區信義路120號","121.512343333333","25.0146683333333","6500400","永和區"
"234026","9371-KE","2019/09/02 19:29:25","新北市中和區安樂路185號","121.514883333333","24.9981233333333","6500400","永和區"
"234011","9373-KE","2019/09/02 19:29:31","新北市永和區保安路288號","121.505321666667","25.011915","6500400","永和區"
"249003","593-UM","2019/09/02 19:29:31","新北市八里區中山路二段502號","121.39816","25.1469166666667","6502300","八里區"
"248016","026-BX","2019/09/02 19:29:41","新北市五股區成洲五路12號","121.45224","25.101575","6501500","五股區"
"248008","KED-0815","2019/09/02 19:29:38","新北市五股區中興路一段95巷9號","121.466635","25.0724816666667","6501500","五股區"
"248018","KED-0813","2019/09/02 19:29:05","新北市五股區壟路15號","121.416205","25.0839233333333","6501500","五股區"
"248012","247-BX","2019/09/02 19:29:38","新北市五股區成泰路二段91巷9號","121.437653333333","25.0843266666667","6501500","五股區"
"248014","261-SL","2019/09/02 19:29:39","新北市五股區民義路一段161號","121.432488333333","25.0875833333333","6501500","五股區"
"248004","677-BX","2019/09/02 19:29:31","新北市五股區工商路99巷1號","121.437423333333","25.085375","6501500","五股區"
"248002","678-BX","2019/09/02 19:29:40","新北市五股區凌雲路一段158巷6號","121.447801666667","25.1029783333333","6501500","五股區"
"234023","9380-KE","2019/09/02 19:29:43","新北市永和區竹林路91巷43弄2號","121.52127","25.012815","6500400","永和區"
"234077","969-R7","2019/09/02 19:29:44","新北市永和區民治街29號","121.519665","24.9977033333333","6500400","永和區"
"234074","AAC-211","2019/09/02 19:29:39","新北市永和區竹林路9號","121.516613333333","25.014905","6500400","永和區"
"234067","AAC-212","2019/09/02 19:29:37","新北市永和區永貞路408號","121.508991666667","25.007765","6500400","永和區"
"234003","AAC-295","2019/09/02 19:29:30","新北市永和區福和路379號","121.514356666667","25.0075983333333","6500400","永和區"
"244023","483-VK","2019/09/02 19:29:44","新北市林口區民富街198號","121.37063","25.0754033333333","6501700","林口區"
"243010","297-R6","2019/09/02 19:29:40","新北市泰山區民生路31巷2號","121.430426666667","25.052295","6501600","泰山區"
"243014","KEA-2801","2019/09/02 19:29:40","新北市泰山區中港西路486號","121.432915","25.0528","6501600","泰山區"
"243016","421-VK","2019/09/02 19:29:39","新北市泰山區明志路三段222號","121.421415","25.0359566666667","6501600","泰山區"
"243012","539-UM","2019/09/02 19:29:27","新北市泰山區仁義路220巷2號","121.432963333333","25.05389","6501600","泰山區"
"243009","KEA-2215","2019/09/02 19:29:46","新北市泰山區半山雅4號","121.431623333333","25.06733","6501600","泰山區"
"243011","KEA-2216","2019/09/02 19:29:39","新北市泰山區貴子路41-1號","121.429681666667","25.0401866666667","6501600","泰山區"
"243013","646-TV","2019/09/02 19:29:40","新北市泰山區貴子路36巷3弄2號","121.425998333333","25.0411333333333","6501600","泰山區"
"243015","680-BX","2019/09/02 19:29:32","新北市泰山區明志路二段136巷1-1號","121.427296666667","25.0512","6501600","泰山區"
"222003","436-BY","2019/09/02 19:29:38","新北市深坑區深南路51-1號","121.621346666667","25.0097683333333","6501800","深坑區"
"222002","659-BX","2019/09/02 19:29:39","新北市深坑區北深路一段177號","121.632496666667","25.0108433333333","6501800","深坑區"
"231061","002-UM","2019/09/02 19:29:27","新北市新店區安康路一段222號","121.523718333333","24.963575","6500600","新店區"
"231058","0293-UT","2019/09/02 19:29:26","新北市新店區北新路二段228巷2號","121.543301666667","24.977155","6500600","新店區"
"231044","046-UY","2019/09/02 19:29:35","新北市新店區中興路三段173號","121.544183333333","24.9806583333333","6500600","新店區"
"231060","106-UY","2019/09/02 19:29:37","新北市新店區安康路二段3-1號","121.516028333333","24.9636983333333","6500600","新店區"
"231051","107-UY","2019/09/02 19:29:16","新北市新店區中央五街42號","121.528298333333","24.9749516666667","6500600","新店區"
"231049","108-UY","2019/09/02 19:29:40","新北市新店區北新路三段105巷11號","121.540633333333","24.982065","6500600","新店區"
"231065","110-UY","2019/09/02 19:29:25","新北市新店區安祥路109巷1弄35號","121.476796666667","24.9602466666667","6500600","新店區"
"221031","KEA-2785","2019/09/02 19:29:33","新北市汐止區汐萬路一段256巷3號","121.652363333333","25.0746533333333","6501100","汐止區"
"231062","256-BX","2019/09/02 19:29:39","新北市新店區莒光路87巷10號","121.523935","24.9556416666667","6500600","新店區"
"231054","260-TV","2019/09/02 19:29:31","新北市新店區文中路40號","121.539691666667","24.956585","6500600","新店區"
"231042","268-BY","2019/09/02 19:29:29","新北市新店區中興路一段152號","121.542416666667","24.9638533333333","6500600","新店區"
"231064","278-BY","2019/09/02 19:29:32","新北市新店區安康路二段85巷10號","121.513506666667","24.9625233333333","6500600","新店區"
"231050","AAD-862","2019/09/02 19:29:27","新北市新店區北宜路二段82巷11號","121.553788333333","24.9517483333333","6500600","新店區"
"231045","355-BY","2019/09/02 19:29:25","新北市新店區北宜路二段207號","121.553136666667","24.953285","6500600","新店區"
"231056","4715-K9","2019/09/02 19:29:32","新北市新店區安康路二段414巷2號","121.495915","24.9577266666667","6500600","新店區"
"231052","512-UM","2019/09/02 19:29:36","新北市新店區新烏路二段200巷11號","121.547716666667","24.9167966666667","6500600","新店區"
"231063","616-UM","2019/09/02 19:29:41","新北市新店區達觀路16號","121.502571666667","24.9406283333333","6500600","新店區"
"231041","619-UM","2019/09/02 19:29:27","新北市新店區中正路543-4號","121.533701666667","24.9873633333333","6500600","新店區"
"231047","KED-0819","2019/09/02 19:29:42","新北市新店區中興路二段57巷18號","121.545751666667","24.97086","6500600","新店區"
"231046","719-UM","2019/09/02 19:29:32","新北市新店區北新路一段46號","121.540978333333","24.9661883333333","6500600","新店區"
"231057","720-UM","2019/09/02 19:29:22","新北市新店區花園一路四段43號","121.55111","24.9324866666667","6500600","新店區"
"231059","897-TW","2019/09/02 19:29:32","新北市新店區安和路三段46號","121.51799","24.9817466666667","6500600","新店區"
"231040","898-TW","2019/09/02 19:29:37","新北市新店區中華路66號","121.539156666667","24.9690316666667","6500600","新店區"
"231043","899-TW","2019/09/02 19:29:32","新北市新店區北新路二段187號","121.542773333333","24.9776666666667","6500600","新店區"
"231066","AKT-0513","2019/09/02 19:29:39","新北市新店區安康路三段359巷12弄2號","121.48454","24.9500533333333","6500600","新店區"
"241028","022-UY","2019/09/02 19:29:27","新北市三重區中寮街20-6號","121.492411666667","25.0591883333333","6500200","三重區"
"241008","059-VK","2019/09/02 19:29:38","新北市三重區永福街135巷31號","121.477543333333","25.0771633333333","6500200","三重區"
"241031","061-VK","2019/09/02 19:29:31","新北市三重區集美街35號","121.488043333333","25.0557366666667","6500200","三重區"
"241017","063-VK","2019/09/02 19:29:40","新北市三重區中正北路25巷8號","121.493441666667","25.0629","6500200","三重區"
"241007","066-VK","2019/09/02 19:29:38","新北市三重區慈愛街149號","121.489386666667","25.079455","6500200","三重區"
"241006","262-UM","2019/09/02 19:29:31","新北市三重區三和路四段111-2號","121.485703333333","25.0772433333333","6500200","三重區"
"241009","267-UM","2019/09/02 19:29:25","新北市三重區溪尾街242巷70號","121.486126666667","25.0813583333333","6500200","三重區"
"241013","270-UM","2019/09/02 19:29:34","新北市三重區仁賢街12-1號","121.495743333333","25.0749666666667","6500200","三重區"
"241030","KED-0822","2019/09/02 19:29:27","新北市三重區成功路41巷20號","121.490456666667","25.0518316666667","6500200","三重區"
"241020","478-VK","2019/09/02 19:29:33","新北市三重區三和路四段20巷22號","121.490068333333","25.0736133333333","6500200","三重區"
"241026","480-VK","2019/09/02 19:29:38","新北市三重區文化南路38-2號","121.500385","25.060845","6500200","三重區"
"241035","743-BX","2019/09/02 19:29:29","新北市三重區信義西街1巷21號","121.498025","25.065305","6500200","三重區"
"241022","KED-0820","2019/09/02 19:29:46","新北市三重區三民街175巷1號","121.483695","25.0651933333333","6500200","三重區"
"241023","887-TS","2019/09/02 19:29:32","新北市三重區頂崁街99號","121.478003333333","25.0638166666667","6500200","三重區"
"241029","942-UM","2019/09/02 19:29:28","新北市三重區重安街140號","121.495373333333","25.0549483333333","6500200","三重區"
"235066","003-UY","2019/09/02 19:29:29","新北市中和區中和路136號","121.503513333333","24.9993216666667","6500300","中和區"
"235063","006-UY","2019/09/02 19:29:31","新北市中和區連城路203巷10弄6號","121.494831666667","24.9972266666667","6500300","中和區"
"235056","096-UM","2019/09/02 19:29:41","新北市中和區員山路581巷31弄22號","121.476605","25.01036","6500300","中和區"
"235039","097-UM","2019/09/02 19:29:30","新北市中和區秀峰街103巷3弄1號","121.520565","24.9900816666667","6500300","中和區"
"235065","098-UM","2019/09/02 19:29:35","新北市中和區中山路二段2巷45弄5號","121.502358333333","25.00644","6500300","中和區"
"235004","150-BY","2019/09/02 19:29:31","新北市中和區景安路79巷50號","121.507771666667","24.995765","6500300","中和區"
"235058","151-BY","2019/09/02 19:29:33","新北市中和區連城路519號","121.482058333333","24.99518","6500300","中和區"
"235055","183-VK","2019/09/02 19:29:38","新北市中和區民享街33-1號","121.474016666667","25.0041266666667","6500300","中和區"
"235038","185-VK","2019/09/02 19:29:36","新北市中和區自立路127號","121.521896666667","24.9940816666667","6500300","中和區"
"235049","186-VK","2019/09/02 19:29:39","新北市中和區景新街273巷30號","121.510676666667","24.99403","6500300","中和區"
"235067","255-BX","2019/09/02 19:29:40","新北市中和區員山路124巷48號","121.482681666667","24.9963","6500300","中和區"
"235044","293-VK","2019/09/02 19:29:40","新北市中和區捷運路83號","121.508351666667","24.99003","6500300","中和區"
"235072","301-VK","2019/09/02 19:29:37","新北市中和區連城路265巷10弄1號","121.49163","24.9952683333333","6500300","中和區"
"235043","352-BY","2019/09/02 19:29:39","新北市中和區安和路27號","121.510453333333","24.9942683333333","6500300","中和區"
"235042","KEA-2878","2019/09/02 19:29:27","新北市中和區中和路350巷8弄26號","121.510093333333","25.0000983333333","6500300","中和區"
"235070","558-UM","2019/09/02 19:29:43","新北市中和區景平路628號","121.500306666667","24.9978766666667","6500300","中和區"
"235045","565-BX","2019/09/02 19:29:36","新北市中和區四維街7號","121.513505","24.9871383333333","6500300","中和區"
"235060","KED-0823","2019/09/02 19:29:33","新北市中和區員山路314巷7弄8號","121.482118333333","25.003225","6500300","中和區"
"235054","640-BX","2019/09/02 19:29:24","新北市中和區德光路12號","121.471456666667","25.0045933333333","6500300","中和區"
"235047","732-UM","2019/09/02 19:29:29","新北市中和區景平路259巷34號","121.50699","24.99281","6500300","中和區"
"235046","733-UM","2019/09/02 19:29:25","新北市中和區忠孝街60巷9號","121.51185","24.983865","6500300","中和區"
"235071","783-BX","2019/09/02 19:29:39","新北市中和區新生街288號","121.48368","24.996515","6500300","中和區"
"235057","801-TS","2019/09/02 19:29:30","新北市中和區員山路200號","121.481328333333","25.000555","6500300","中和區"
"235052","805-TS","2019/09/02 19:29:26","新北市中和區華新街143巷65弄2號","121.506648333333","24.9789883333333","6500300","中和區"
"235048","896-TW","2019/09/02 19:29:38","新北市中和區忠孝街2-9號","121.509245","24.98304","6500300","中和區"
"235053","900-TW","2019/09/02 19:29:35","新北市中和區民德路74號","121.468733333333","25.0015133333333","6500300","中和區"
"235064","911-UM","2019/09/02 19:29:30","新北市中和區南山路81巷68號","121.503975","24.9977","6500300","中和區"
"235051","157-BY","2019/09/02 19:29:37","新北市中和區南華路7號","121.50215","24.9954683333333","6500300","中和區"
"235037","AAC-213","2019/09/02 19:29:39","新北市中和區秀朗路三段10巷29弄5號","121.525058333333","24.9960366666667","6500300","中和區"
"235059","AAC-215","2019/09/02 19:29:32","新北市中和區圓通路252巷36弄1號","121.492338333333","24.9930683333333","6500300","中和區"
"220065","072-UY","2019/09/02 19:29:39","新北市板橋區國泰街75巷45號","121.468278333333","25.00487","6500100","板橋區"
"220086","073-UY","2019/09/02 19:29:27","新北市板橋區中正路216巷72號","121.457885","25.018955","6500100","板橋區"
"220106","075-UY","2019/09/02 19:29:32","新北市板橋區文化路二段446號","121.474533333333","25.0322516666667","6500100","板橋區"
"220069","AAD-861","2019/09/02 19:29:42","新北市板橋區貴興路106巷3號","121.455261666667","25.00258","6500100","板橋區"
"220068","120-SR","2019/09/02 19:29:43","新北市板橋區萬安街94號","121.483823333333","25.0240683333333","6500100","板橋區"
"247004","336-TH","2019/09/02 19:29:40","新北市蘆洲區長安街130號","121.460365","25.0820483333333","6501400","蘆洲區"
"226004","312-R5","2019/09/02 19:29:30","新北市平溪區十分里十分街170號","121.778425","25.0437266666667","6502400","平溪區"
"235041","251-BX","2019/09/02 19:29:31","新北市中和區中和路400巷21號","121.511666666667","25.0023116666667","6500300","中和區"
"228003","097-TW","2019/09/02 19:29:45","新北市貢寮區和美里和美街22-1號","121.912815","25.0826166666667","6502600","貢寮區"
"228001","212-TW","2019/09/02 19:29:27","新北市貢寮區真理里大澳街23號","121.92507","25.0561583333333","6502600","貢寮區"
"228002","663-BX","2019/09/02 19:29:43","新北市貢寮區龍門里龍門街75號","121.93113","25.026845","6502600","貢寮區"
"224010","AGQ-8101","2019/09/02 19:29:33","新北市瑞芳區基山街215號","121.842475","25.1072583333333","6501200","瑞芳區"
"224008","273-VK","2019/09/02 19:29:40","新北市瑞芳區一坑路323號","121.801485","25.1091333333333","6501200","瑞芳區"
"227001","642-TC","2019/09/02 19:29:32","新北市雙溪區新基里新基北街43號","121.868171666667","25.03972","6502500","雙溪區"
"227002","400-TW","2019/09/02 19:29:42","新北市雙溪區雙溪里太平路54號","121.864841666667","25.0353083333333","6502500","雙溪區"
"222001","KEA-2212","2019/09/02 19:29:40","新北市深坑區深坑街10號","121.615831666667","25.0027916666667","6501800","深坑區"
"208002","KEA-2872","2019/09/02 19:29:40","新北市金山區中山路313巷8號","121.635383333333","25.223405","6502700","金山區"
"208003","665-BX","2019/09/02 19:29:41","新北市金山區忠孝一路88號","121.636705","25.2211916666667","6502700","金山區"
"251009","008-UM","2019/09/02 19:29:41","新北市淡水區中正路28號","121.444355","25.169085","6501000","淡水區"
"251001","011-UM","2019/09/02 19:29:43","新北市淡水區民權路141號","121.460136666667","25.13645","6501000","淡水區"
"251015","KEA-2871","2019/09/02 19:29:41","新北市淡水區山子頂24-1號","121.49139","25.1872016666667","6501000","淡水區"
"251016","179-VK","2019/09/02 19:29:35","新北市淡水區淡金路三段350巷18號","121.450778333333","25.2083216666667","6501000","淡水區"
"251008","181-VK","2019/09/02 19:29:24","新北市淡水區中正路一段66號","121.425276666667","25.1769533333333","6501000","淡水區"
"251013","182-VK","2019/09/02 19:29:27","新北市淡水區大牛稠5號","121.47032","25.219605","6501000","淡水區"
"251010","413-VK","2019/09/02 19:29:24","新北市淡水區中正路二段214號","121.426555","25.1896616666667","6501000","淡水區"
"251007","442-VK","2019/09/02 19:29:42","新北市淡水區八勢路50巷6-2號","121.463295","25.15262","6501000","淡水區"
"251005","443-VK","2019/09/02 19:29:44","新北市淡水區水源街一段47巷39號","121.444078333333","25.173555","6501000","淡水區"
"251006","561-UM","2019/09/02 19:29:41","新北市淡水區大義街29巷18號","121.441483333333","25.178125","6501000","淡水區"
"251014","577-R6","2019/09/02 19:29:46","新北市淡水區小中寮15-2號","121.484753333333","25.2297816666667","6501000","淡水區"
"251002","672-BX","2019/09/02 19:29:37","新北市淡水區新民街一段117號","121.42867","25.1873483333333","6501000","淡水區"
"251003","673-BX","2019/09/02 19:29:35","新北市淡水區中山北路三段16巷30號","121.443831666667","25.1898116666667","6501000","淡水區"
"207003","550-UM","2019/09/02 19:29:36","新北市萬里區大鵬里萬里加投143-2號","121.64642","25.2132883333333","6502800","萬里區"
"207004","291-VK","2019/09/02 19:29:47","新北市萬里區萬里里瑪鋉路135號","121.688936666667","25.1777533333333","6502800","萬里區"
"252002","178-VK","2019/09/02 19:29:34","新北市三芝區淡金路二段26-1號","121.502756666667","25.2596366666667","6502100","三芝區"
"208001","170-UY","2019/09/02 19:29:30","新北市金山區金包里街117號","121.637573333333","25.222505","6502700","金山區"
"237004","KEA-2597","2019/09/02 19:29:36","新北市三峽區有木206號","121.439095","24.8516366666667","6500900","三峽區"
"237007","153-BY","2019/09/02 19:29:42","新北市三峽區二鬮路124號","121.359886666667","24.9082783333333","6500900","三峽區"
"237009","210-TH","2019/09/02 19:29:32","新北市三峽區中山路29號","121.368528333333","24.9343883333333","6500900","三峽區"
"237013","252-BX","2019/09/02 19:29:39","新北市三峽區介壽路一段237號","121.379501666667","24.9301866666667","6500900","三峽區"
"237012","275-BY","2019/09/02 19:29:40","新北市三峽區三樹路98巷169號","121.384526666667","24.93946","6500900","三峽區"
"237008","302-VK","2019/09/02 19:29:45","新北市三峽區永安街95巷21號","121.374533333333","24.9283266666667","6500900","三峽區"
"237014","433-BY","2019/09/02 19:29:32","新北市三峽區中山路196號","121.363403333333","24.9370033333333","6500900","三峽區"
"237006","5529-G3","2019/09/02 19:29:26","新北市三峽區中正路一段336巷15弄2號","121.369963333333","24.9249433333333","6500900","三峽區"
"237011","KEA-2596","2019/09/02 19:29:34","新北市三峽區介壽路一段586號","121.388723333333","24.9343583333333","6500900","三峽區"
"237015","649-BX","2019/09/02 19:29:46","新北市三峽區安坑39號","121.452431666667","24.9308966666667","6500900","三峽區"
"237010","706-TV","2019/09/02 19:29:41","新北市三峽區民生街68號","121.374653333333","24.935975","6500900","三峽區"
"237005","AKY-6261","2019/09/02 19:29:39","新北市三峽區復興路367巷5號","121.363561666667","24.9378483333333","6500900","三峽區"
"236078","166-UM","2019/09/02 19:29:42","新北市土城區中央路四段183號","121.414995","24.9567333333333","6501300","土城區"
"236014","270-VK","2019/09/02 19:29:28","新北市土城區廣明街41巷32號","121.453741666667","24.992645","6501300","土城區"
"236069","KEA-2877","2019/09/02 19:29:30","新北市土城區學府路一段155巷8號","121.453521666667","24.9856333333333","6501300","土城區"
"252001","KED-0821","2019/09/02 19:29:44","新北市三芝區長勤街63-5號","121.50012","25.256035","6502100","三芝區"
"236020","401-BY","2019/09/02 19:29:40","新北市土城區峰廷街3號","121.469081666667","24.9873183333333","6501300","土城區"
"236048","913-UM","2019/09/02 19:29:45","新北市土城區清水路211號","121.460548333333","24.9820566666667","6501300","土城區"
"236055","AAC-216","2019/09/02 19:29:38","新北市土城區學府路一段276號","121.450243333333","24.9833283333333","6501300","土城區"
"242004","751-BX","2019/09/02 19:29:28","新北市新莊區思源路157號","121.459835","25.0445833333333","6500500","新莊區"
"238015","755-BX","2019/09/02 19:29:29","新北市樹林區大安路593號","121.411656666667","24.983285","6500700","樹林區"
"238023","601-UM","2019/09/02 19:29:39","新北市樹林區三福街39號","121.408381666667","25.0165433333333","6500700","樹林區"
"238019","599-UM","2019/09/02 19:29:42","新北市樹林區鎮前街347巷1弄26號","121.417368333333","24.98386","6500700","樹林區"
"238024","5061-A6","2019/09/02 19:29:36","新北市樹林區福德街45-1號","121.400006666667","24.975045","6500700","樹林區"
"238018","KEA-2217","2019/09/02 19:29:29","新北市樹林區中華路211號","121.419691666667","24.9814016666667","6500700","樹林區"
"238022","KEA-2213","2019/09/02 19:29:45","新北市樹林區中山路二段125號","121.407763333333","24.97964","6500700","樹林區"
"238021","KEA-2539","2019/09/02 19:29:28","新北市樹林區學士路76號","121.383015","24.9475216666667","6500700","樹林區"
"238025","303-VK","2019/09/02 19:29:31","新北市樹林區中山路二段153號","121.406341666667","24.97884","6500700","樹林區"
"238017","283-BY","2019/09/02 19:29:35","新北市樹林區光興街196號","121.407978333333","25.00468","6500700","樹林區"
"238014","282-BY","2019/09/02 19:29:36","新北市樹林區千歲街4號","121.425028333333","24.9955916666667","6500700","樹林區"
"238020","268-VK","2019/09/02 19:29:40","新北市樹林區俊英街111巷1-17號","121.423496666667","25.0093533333333","6500700","樹林區"
"238026","172-UY","2019/09/02 19:29:43","新北市樹林區佳園路二段141號","121.390068333333","24.9577066666667","6500700","樹林區"
"238016","169-UY","2019/09/02 19:29:31","新北市樹林區復興路464巷17號","121.41303","24.9834033333333","6500700","樹林區"
"239007","AAC-297","2019/09/02 19:29:25","新北市鶯歌區中山路138巷3-5號","121.349541666667","24.9580816666667","6500800","鶯歌區"
"239006","891-R6","2019/09/02 19:29:43","新北市鶯歌區鶯桃路296巷68號","121.336421666667","24.9614366666667","6500800","鶯歌區"
"239008","527-UM","2019/09/02 19:29:30","新北市鶯歌區國際二路4巷2號","121.338723333333","24.97314","6500800","鶯歌區"
"239001","417-VK","2019/09/02 19:29:36","新北市鶯歌區永智街43巷13號","121.336995","24.953965","6500800","鶯歌區"
"239003","360-BY","2019/09/02 19:29:31","新北市鶯歌區鶯桃路451-1號","121.332138333333","24.9656583333333","6500800","鶯歌區"
"239002","359-BY","2019/09/02 19:29:35","新北市鶯歌區中山路198號","121.34661","24.95705","6500800","鶯歌區"
"239004","193-VK","2019/09/02 19:29:33","新北市鶯歌區二甲路12號","121.334868333333","24.934615","6500800","鶯歌區"
"221008","489-VK","2019/09/02 19:29:44","新北市汐止區三民街1巷1號","121.624281666667","25.0667516666667","6501100","汐止區"
"221032","280-BY","2019/09/02 19:29:42","新北市汐止區汐萬路一段256巷3號","121.653333333333","25.0746083333333","6501100","汐止區"
"221027","281-BY","2019/09/02 19:29:26","新北市汐止區忠孝東路9號","121.658288333333","25.0658933333333","6501100","汐止區"
"221025","623-UM","2019/09/02 19:29:45","新北市汐止區秀峰路57號","121.659726666667","25.0650683333333","6501100","汐止區"
"221002","707-TV","2019/09/02 19:29:31","新北市汐止區大同路一段335號","121.638333333333","25.0595183333333","6501100","汐止區"
"220079","145-BY","2019/09/02 19:29:41","新北市板橋區民權路202巷9弄23號","121.459673333333","25.015555","6500100","板橋區"
"220080","200-UY","2019/09/02 19:29:46","新北市板橋區大觀路二段3巷18號","121.447806666667","25.003695","6500100","板橋區"
"220082","610-BX","2019/09/02 19:29:43","新北市板橋區金門街288-1號","121.429283333333","24.985885","6500100","板橋區"
"220101","245-BX","2019/09/02 19:29:33","新北市板橋區縣民大道三段33巷6弄1號","121.473961666667","25.0212166666667","6500100","板橋區"
"220056","276-BY","2019/09/02 19:29:40","新北市板橋區信義路64號","121.457291666667","24.9937233333333","6500100","板橋區"
"220072","277-BY","2019/09/02 19:29:38","新北市板橋區金門街283號","121.431345","24.9879016666667","6500100","板橋區"
"220094","283-UM","2019/09/02 19:29:36","新北市板橋區銘傳街37號","121.468675","25.0310466666667","6500100","板橋區"
"220071","283-VK","2019/09/02 19:29:39","新北市板橋區忠孝路48巷9弄19號","121.46201","25.0004416666667","6500100","板橋區"
"220053","285-VK","2019/09/02 19:29:39","新北市板橋區富山街53巷1弄54號","121.477998333333","25.020545","6500100","板橋區"
"220083","286-VK","2019/09/02 19:29:31","新北市板橋區龍興街73巷24號","121.443053333333","25.0025633333333","6500100","板橋區"
"220081","287-VK","2019/09/02 19:29:33","新北市板橋區南雅南路一段131號","121.455001666667","25.0044116666667","6500100","板橋區"
"220090","288-VK","2019/09/02 19:29:34","新北市板橋區長江路一段48巷19弄1號","121.459476666667","25.0280083333333","6500100","板橋區"
"220061","293-UM","2019/09/02 19:29:27","新北市板橋區中山路二段91號","121.474138333333","25.0159316666667","6500100","板橋區"
"220062","295-UM","2019/09/02 19:29:24","新北市板橋區三民路二段165號","121.479113333333","25.0146416666667","6500100","板橋區"
"220084","296-UM","2019/09/02 19:29:42","新北市板橋區篤行路三段玉平巷57號","121.428435","24.9865266666667","6500100","板橋區"
"220075","303-R5","2019/09/02 19:29:39","新北市板橋區中正路275巷93號","121.45079","25.0180583333333","6500100","板橋區"
"220092","307-R5","2019/09/02 19:29:43","新北市板橋區陽明街164巷18號","121.4643","25.024495","6500100","板橋區"
"220098","317-R6","2019/09/02 19:29:47","新北市板橋區民有街83號","121.464903333333","25.0273766666667","6500100","板橋區"
"220089","487-VK","2019/09/02 19:29:28","新北市板橋區綠堤街41-1號","121.45527","25.0259366666667","6500100","板橋區"
"220088","491-VK","2019/09/02 19:29:42","新北市板橋區文化路二段576號","121.47661","25.0346016666667","6500100","板橋區"
"220035","560-BX","2019/09/02 19:29:45","新北市板橋區中正路433巷1號","121.454085","25.023175","6500100","板橋區"
"220103","561-BX","2019/09/02 19:29:36","新北市板橋區陽明街27巷5號","121.465693333333","25.021615","6500100","板橋區"
"220063","609-BX","2019/09/02 19:29:41","新北市板橋區萬安街53巷38號","121.482868333333","25.0236","6500100","板橋區"
"220091","637-BX","2019/09/02 19:29:32","新北市板橋區文聖街149巷18號","121.479326666667","25.0282683333333","6500100","板橋區"
"220057","686-BX","2019/09/02 19:29:42","新北市板橋區和平路安樂巷11-2號","121.461388333333","24.9940733333333","6500100","板橋區"
"220077","687-BX","2019/09/02 19:29:41","新北市板橋區大觀路一段28巷72號","121.44982","25.010665","6500100","板橋區"
"220093","689-BX","2019/09/02 19:29:43","新北市板橋區新海路389號","121.458868333333","25.0263466666667","6500100","板橋區"
"220054","741-BX","2019/09/02 19:29:24","新北市板橋區校前街80號","121.462165","25.0032816666667","6500100","板橋區"
"220102","KEA-2699","2019/09/02 19:29:32","新北市板橋區雙十路二段130巷2弄76號","121.475616666667","25.0291366666667","6500100","板橋區"
"220055","827-TW","2019/09/02 19:29:32","新北市板橋區重慶路278巷20-3號","121.462711666667","24.9996466666667","6500100","板橋區"
"220067","829-TW","2019/09/02 19:29:45","新北市板橋區長安街138巷8號","121.472891666667","25.00928","6500100","板橋區"
"220074","895-R6","2019/09/02 19:29:45","新北市板橋區北門街8號","121.457691666667","25.01054","6500100","板橋區"
"220073","985-R7","2019/09/02 19:29:31","新北市板橋區瑞安街48號","121.455436666667","25.0219566666667","6500100","板橋區"
"220097","AAC-210","2019/09/02 19:29:36","新北市板橋區文化路一段285巷2弄1號","121.464588333333","25.0190683333333","6500100","板橋區"
"220064","AAC-253","2019/09/02 19:29:26","新北市板橋區民權路33號","121.462245","25.0109583333333","6500100","板橋區"
"235068","KEA-2873","2019/09/02 19:29:23","新北市中和區連勝街57巷20號","121.49813","24.9964333333333","6500300","中和區"
"235061","KEA-2875","2019/09/02 19:29:41","新北市中和區民利街47號","121.479541666667","24.998805","6500300","中和區"
