"lineid","car","time","location","longitude","latitude","cityid","cityname"
"234046","148-BY","2019/09/02 19:49:43","新北市永和區永亨路203號","121.526118333333","25.00278","6500400","永和區"
"234081","298-R6","2019/09/02 19:49:26","新北市永和區永亨路98號","121.52306","25.0048783333333","6500400","永和區"
"234038","336-UY","2019/09/02 19:49:41","新北市永和區民樂街39巷18弄24號","121.528495","24.9992683333333","6500400","永和區"
"234064","337-UY","2019/09/02 19:49:35","新北市永和區中正路368巷4號","121.51801","25.00078","6500400","永和區"
"234086","338-UY","2019/09/02 19:49:37","新北市永和區永亨路134號","121.524756666667","25.0039583333333","6500400","永和區"
"234070","552-UM","2019/09/02 19:49:43","新北市永和區竹林路88號","121.519408333333","25.01257","6500400","永和區"
"234017","745-BX","2019/09/02 19:49:37","新北市永和區永和路二段301巷1號","121.515776666667","25.0164316666667","6500400","永和區"
"234030","746-BX","2019/09/02 19:49:31","新北市永和區民生路67巷29號","121.524303333333","24.9973766666667","6500400","永和區"
"234054","KEA-2590","2019/09/02 19:49:46","新北市永和區竹林路75巷25弄6號","121.520283333333","25.0143533333333","6500400","永和區"
"234007","KED-0605","2019/09/02 19:49:27","新北市中和區水源路102號","121.506158333333","25.0033916666667","6500400","永和區"
"234013","KEA-2591","2019/09/02 19:49:36","新北市永和區永平路286-1號","121.50763","25.0119816666667","6500400","永和區"
"234061","AAD-866","2019/09/02 19:49:30","新北市永和區中正路106號","121.514453333333","24.995855","6500400","永和區"
"234042","862-TW","2019/09/02 19:49:26","新北市永和區中和路389巷22號","121.50816","25.001255","6500400","永和區"
"234050","863-TW","2019/09/02 19:49:34","新北市永和區文化路210號","121.510111666667","25.0166266666667","6500400","永和區"
"234026","9371-KE","2019/09/02 19:49:25","新北市永和區雙和街25巷4號","121.508891666667","25.0018783333333","6500400","永和區"
"234011","9373-KE","2019/09/02 19:49:31","新北市永和區仁愛路352巷112弄7號","121.50083","25.00849","6500400","永和區"
"249005","172-UM","2019/09/02 19:49:42","新北市八里區中華路三段186號","121.390736666667","25.127385","6502300","八里區"
"249001","173-UM","2019/09/02 19:49:37","新北市八里區中華路二段177號","121.406781666667","25.1507716666667","6502300","八里區"
"249004","303-UY","2019/09/02 19:49:32","新北市八里區仁愛路33號","121.413546666667","25.1607166666667","6502300","八里區"
"249002","305-UY","2019/09/02 19:49:38","新北市八里區頂寮五街17號","121.45154","25.1260216666667","6502300","八里區"
"249003","593-UM","2019/09/02 19:49:31","新北市八里區中華路二段552號","121.398665","25.1453433333333","6502300","八里區"
"248016","026-BX","2019/09/02 19:49:41","新北市五股區成泰路四段22巷22號","121.454998333333","25.107805","6501500","五股區"
"248008","KED-0815","2019/09/02 19:49:38","新北市蘆洲區中山一路417號","121.468458333333","25.0765466666667","6501500","五股區"
"248018","KED-0813","2019/09/02 19:49:45","新北市五股區外寮路1-2號","121.428263333333","25.07724","6501500","五股區"
"248012","247-BX","2019/09/02 19:49:38","新北市五股區蓬萊路4號","121.435546666667","25.079455","6501500","五股區"
"248014","261-SL","2019/09/02 19:49:39","新北市五股區五福路22巷6號","121.434633333333","25.0890266666667","6501500","五股區"
"248004","677-BX","2019/09/02 19:49:31","新北市五股區成泰路一段68號","121.435453333333","25.069585","6501500","五股區"
"248002","678-BX","2019/09/02 19:49:40","新北市五股區成泰路3段651-1號","121.452915","25.1054066666667","6501500","五股區"
"248010","682-TV","2019/09/02 19:49:27","新北市五股區登林路貿商巷1弄2號","121.429586666667","25.0698983333333","6501500","五股區"
"234023","9380-KE","2019/09/02 19:49:23","新北市永和區仁愛路301號","121.503803333333","25.008045","6500400","永和區"
"234077","969-R7","2019/09/02 19:49:44","新北市永和區民治街66號","121.51792","24.997975","6500400","永和區"
"234074","AAC-211","2019/09/02 19:49:39","新北市永和區豫溪街160巷17號","121.523338333333","25.0091216666667","6500400","永和區"
"234067","AAC-212","2019/09/02 19:49:35","新北市永和區保平路236巷24弄2號","121.508398333333","25.007","6500400","永和區"
"234003","AAC-295","2019/09/02 19:49:30","新北市永和區福和路310-1號","121.516193333333","25.0073466666667","6500400","永和區"
"244023","483-VK","2019/09/02 19:49:44","新北市林口區文化北路二段266號","121.373261666667","25.0860216666667","6501700","林口區"
"243016","421-VK","2019/09/02 19:49:38","新北市泰山區明志路三段513號","121.421376666667","25.0320633333333","6501600","泰山區"
"243012","539-UM","2019/09/02 19:46:26","新北市泰山區中港西路430號","121.433538333333","25.054275","6501600","泰山區"
"243009","KEA-2215","2019/09/02 19:49:46","新北市泰山區美寧街60號","121.430943333333","25.06467","6501600","泰山區"
"243011","KEA-2216","2019/09/02 19:49:39","新北市泰山區明志路三段204巷10弄15號","121.4229","25.0386733333333","6501600","泰山區"
"222003","436-BY","2019/09/02 19:49:34","新北市深坑區深南路51-1號","121.621301666667","25.0097233333333","6501800","深坑區"
"222002","659-BX","2019/09/02 19:49:38","新北市深坑區北深路一段361號","121.622308333333","25.0049183333333","6501800","深坑區"
"231061","002-UM","2019/09/02 19:49:27","新北市新店區安民街158號","121.516731666667","24.9701616666667","6500600","新店區"
"231044","046-UY","2019/09/02 19:49:35","新北市新店區復興路31號","121.538623333333","24.9866183333333","6500600","新店區"
"231060","106-UY","2019/09/02 19:49:37","新北市新店區安康路二段159巷2號","121.510326666667","24.9593466666667","6500600","新店區"
"231051","107-UY","2019/09/02 19:49:35","新北市新店區中央三街36號","121.528053333333","24.9742716666667","6500600","新店區"
"231049","108-UY","2019/09/02 19:49:40","新北市新店區民權路99號","121.536856666667","24.982935","6500600","新店區"
"231065","110-UY","2019/09/02 19:49:25","新北市新店區安祥路109巷151弄1號","121.477905","24.9584916666667","6500600","新店區"
"231068","187-VK","2019/09/02 19:49:37","新北市新店區安一路一段1-1號","121.519638333333","24.9611166666667","6500600","新店區"
"221031","KEA-2785","2019/09/02 19:49:33","新北市汐止區汐萬路一段333巷23號","121.648775","25.076085","6501100","汐止區"
"231062","256-BX","2019/09/02 19:49:39","新北市新店區碧潭路43號","121.53407","24.9562833333333","6500600","新店區"
"231054","260-TV","2019/09/02 19:49:31","新北市新店區光明街17號","121.53843","24.9593866666667","6500600","新店區"
"231042","268-BY","2019/09/02 19:49:29","新北市新店區中興路一段267-1號","121.544936666667","24.967765","6500600","新店區"
"231064","278-BY","2019/09/02 19:49:32","新北市新店區光華街5巷4號","121.517808333333","24.9688133333333","6500600","新店區"
"231050","AAD-862","2019/09/02 19:49:46","新北市新店區北宜路二段228號","121.55975","24.954395","6500600","新店區"
"231045","355-BY","2019/09/02 19:49:45","新北市新店區北宜路二段270號","121.560793333333","24.95426","6500600","新店區"
"231055","4716-K9","2019/09/02 19:49:29","新北市新店區中華路83巷67號","121.538241666667","24.967255","6500600","新店區"
"231056","4715-K9","2019/09/02 19:49:32","新北市新店區中央路7號","121.533483333333","24.9786133333333","6500600","新店區"
"231067","4772-VM","2019/09/02 19:49:37","新北市新店區精忠路10-1號","121.532588333333","24.9591366666667","6500600","新店區"
"231052","512-UM","2019/09/02 19:49:36","新北市新店區新烏路三段286號","121.549893333333","24.8988166666667","6500600","新店區"
"231063","616-UM","2019/09/02 19:49:41","新北市新店區車子路11號","121.503055","24.952035","6500600","新店區"
"231041","619-UM","2019/09/02 19:49:27","新北市新店區中央路196號","121.530746666667","24.9744733333333","6500600","新店區"
"231047","KED-0819","2019/09/02 19:49:42","新北市新店區五峰路63巷8弄20號","121.547411666667","24.9693066666667","6500600","新店區"
"231046","719-UM","2019/09/02 19:48:32","新北市新店區福園街10巷3號","121.5327","24.9728433333333","6500600","新店區"
"231057","720-UM","2019/09/02 19:49:43","新北市新店區梅崗三路1號","121.558145","24.9312133333333","6500600","新店區"
"231059","897-TW","2019/09/02 19:49:32","新北市新店區安和路二段208號","121.518141666667","24.975145","6500600","新店區"
"231040","898-TW","2019/09/02 19:49:37","新北市新店區中正路75巷71號","121.54315","24.9688133333333","6500600","新店區"
"231043","899-TW","2019/09/02 19:49:32","新北市新店區中正路257號","121.538845","24.9735333333333","6500600","新店區"
"231066","AKT-0513","2019/09/02 19:49:39","新北市新店區安康路三段165巷2弄8號","121.489263333333","24.9513483333333","6500600","新店區"
"241011","013-R5","2019/09/02 19:49:30","新北市三重區介壽路39巷6號","121.498901666667","25.07016","6500200","三重區"
"241028","022-UY","2019/09/02 19:49:47","新北市三重區中正南路131號","121.493925","25.0570683333333","6500200","三重區"
"241008","059-VK","2019/09/02 19:49:38","新北市三重區永福街147-8號","121.47873","25.07621","6500200","三重區"
"241031","061-VK","2019/09/02 19:49:31","新北市三重區重新路四段101-5號","121.48574","25.0541766666667","6500200","三重區"
"241015","062-VK","2019/09/02 19:49:32","新北市三重區三和路一段2號","121.50386","25.0642483333333","6500200","三重區"
"241017","063-VK","2019/09/02 19:49:34","新北市三重區重陽路三段5巷8弄29號","121.489493333333","25.066655","6500200","三重區"
"241024","065-VK","2019/09/02 19:49:40","新北市三重區大勇街49號","121.481308333333","25.0719833333333","6500200","三重區"
"241007","066-VK","2019/09/02 19:49:38","新北市三重區慈愛街8號","121.484521666667","25.0783816666667","6500200","三重區"
"241003","091-VK","2019/09/02 19:49:42","新北市三重區五華街93巷87號","121.493805","25.08492","6500200","三重區"
"241004","742-BX","2019/09/02 19:49:44","新北市三重區五華街74號","121.493321666667","25.0818833333333","6500200","三重區"
"241006","262-UM","2019/09/02 19:49:31","新北市三重區永福街210號","121.48269","25.074635","6500200","三重區"
"241016","266-UM","2019/09/02 19:49:36","新北市三重區正德街41巷8號","121.4961","25.0629133333333","6500200","三重區"
"241009","267-UM","2019/09/02 19:49:25","新北市三重區三和路四段396巷18號","121.480463333333","25.0789483333333","6500200","三重區"
"241018","268-UM","2019/09/02 19:49:28","新北市三重區雙園街57巷1號","121.494893333333","25.0675516666667","6500200","三重區"
"241013","270-UM","2019/09/02 19:49:34","新北市三重區三和路三段105號","121.494096666667","25.0728183333333","6500200","三重區"
"241025","271-UM","2019/09/02 19:49:34","新北市三重區頂崁街210巷10號","121.47682","25.0676316666667","6500200","三重區"
"241030","KED-0822","2019/09/02 19:49:35","新北市三重區環河南路252號","121.491286666667","25.05069","6500200","三重區"
"241020","478-VK","2019/09/02 19:49:27","新北市三重區後竹圍街1號","121.49143","25.073665","6500200","三重區"
"241026","480-VK","2019/09/02 19:49:38","新北市三重區中央南路37號","121.50134","25.0620066666667","6500200","三重區"
"241014","543-UM","2019/09/02 19:49:37","新北市三重區長元街98巷18弄24號","121.50193","25.0674033333333","6500200","三重區"
"241001","547-UM","2019/09/02 19:49:36","新北市三重區仁愛街325號","121.492415","25.07958","6500200","三重區"
"241019","KEA-2593","2019/09/02 19:49:26","新北市三重區自強路二段74巷23-1號","121.487783333333","25.06972","6500200","三重區"
"241005","AAD-863","2019/09/02 19:49:33","新北市三重區溪尾街325巷32號","121.488671666667","25.0833866666667","6500200","三重區"
"241035","743-BX","2019/09/02 19:49:29","新北市三重區文化北路6-3號","121.499518333333","25.0636816666667","6500200","三重區"
"241023","887-TS","2019/09/02 19:49:32","新北市三重區頂崁街172號","121.477636666667","25.0659666666667","6500200","三重區"
"241012","941-UM","2019/09/02 19:49:41","新北市三重區仁興街41號","121.499213333333","25.0758216666667","6500200","三重區"
"241029","942-UM","2019/09/02 19:49:28","新北市三重區光明路40號","121.491406666667","25.0583066666667","6500200","三重區"
"241033","AAC-255","2019/09/02 19:49:32","新北市三重區中興南街29-1號","121.470596666667","25.0439566666667","6500200","三重區"
"235066","003-UY","2019/09/02 19:49:29","新北市中和區南工路22巷1號","121.505595","25.000795","6500300","中和區"
"235056","096-UM","2019/09/02 19:49:41","新北市中和區漢民路415號","121.472388333333","25.0069233333333","6500300","中和區"
"235039","097-UM","2019/09/02 19:49:30","新北市中和區大勇街27巷17號","121.51664","24.993595","6500300","中和區"
"235065","098-UM","2019/09/02 19:49:35","新北市中和區福祥路72號","121.49927","25.00546","6500300","中和區"
"235004","150-BY","2019/09/02 19:49:31","新北市中和區安和路39號","121.509666666667","24.9948933333333","6500300","中和區"
"235058","151-BY","2019/09/02 19:49:33","新北市中和區員山路150巷2弄18號","121.481673333333","24.9977516666667","6500300","中和區"
"235055","183-VK","2019/09/02 19:49:38","新北市中和區德光路15巷14號","121.47131","25.0036816666667","6500300","中和區"
"235038","185-VK","2019/09/02 19:49:36","新北市中和區更生街1號","121.521406666667","24.9962833333333","6500300","中和區"
"235049","186-VK","2019/09/02 19:49:39","新北市中和區景平路401號","121.502388333333","24.9946966666667","6500300","中和區"
"235067","255-BX","2019/09/02 19:49:32","新北市中和區新生街186巷1弄10號","121.483321666667","24.99925","6500300","中和區"
"235044","293-VK","2019/09/02 19:49:40","新北市中和區南山路146巷7號","121.50344","24.9923716666667","6500300","中和區"
"235072","301-VK","2019/09/02 19:49:37","新北市中和區連城路162巷3弄2號","121.493246666667","24.998895","6500300","中和區"
"235043","352-BY","2019/09/02 19:49:31","新北市中和區興南路二段159巷7號","121.505291666667","24.9830666666667","6500300","中和區"
"235042","KEA-2878","2019/09/02 19:49:47","新北市中和區宜安路171號","121.508408333333","24.9991383333333","6500300","中和區"
"235070","558-UM","2019/09/02 19:49:43","新北市中和區景平路632-8號","121.499761666667","24.99855","6500300","中和區"
"235060","KED-0823","2019/09/02 19:49:33","新北市中和區新生街22號","121.483073333333","25.0040983333333","6500300","中和區"
"235047","732-UM","2019/09/02 19:49:29","新北市中和區和平街74號","121.507726666667","24.9911133333333","6500300","中和區"
"235046","733-UM","2019/09/02 19:49:45","新北市中和區興南路一段61號","121.510308333333","24.9897116666667","6500300","中和區"
"235026","800-TS","2019/09/02 19:47:48","新北市中和區員山路36巷16-3號","121.484933333333","24.99152","6500300","中和區"
"235052","805-TS","2019/09/02 19:49:45","新北市中和區華新街30巷16號","121.506758333333","24.9845633333333","6500300","中和區"
"235048","896-TW","2019/09/02 19:49:38","新北市中和區興南路一段58號","121.510926666667","24.9905266666667","6500300","中和區"
"235053","900-TW","2019/09/02 19:49:35","新北市中和區民德路218號","121.468235","24.9979416666667","6500300","中和區"
"235051","157-BY","2019/09/02 19:49:37","新北市中和區中興街202巷2號","121.499583333333","24.9901833333333","6500300","中和區"
"235037","AAC-213","2019/09/02 19:49:32","新北市中和區自立路16號","121.522016666667","24.9938016666667","6500300","中和區"
"235059","AAC-215","2019/09/02 19:49:32","新北市中和區圓通路335巷5弄15號","121.493483333333","24.9901166666667","6500300","中和區"
"220065","072-UY","2019/09/02 19:49:39","新北市板橋區國泰街39巷7弄15號","121.469116666667","25.0058166666667","6500100","板橋區"
"220086","073-UY","2019/09/02 19:49:47","新北市板橋區中正路234-1號","121.455736666667","25.0189433333333","6500100","板橋區"
"220106","075-UY","2019/09/02 19:49:31","新北市板橋區民治街96巷21-1號","121.478476666667","25.0321616666667","6500100","板橋區"
"220069","AAD-861","2019/09/02 19:49:41","新北市板橋區貴興路54號","121.456845","25.0031016666667","6500100","板橋區"
"220068","120-SR","2019/09/02 19:49:43","新北市板橋區光復街150號","121.484726666667","25.019485","6500100","板橋區"
"247014","341-TH","2019/09/02 19:49:31","新北市蘆洲區中央路91號","121.472711666667","25.084195","6501400","蘆洲區"
"247004","336-TH","2019/09/02 19:49:40","新北市蘆洲區長安街233巷31號","121.458313333333","25.0821933333333","6501400","蘆洲區"
"247002","001-UY","2019/09/02 19:49:32","新北市蘆洲區永樂街38巷65號","121.458491666667","25.0904033333333","6501400","蘆洲區"
"226004","312-R5","2019/09/02 19:49:42","新北市平溪區十分里十分街312號","121.774966666667","25.043415","6502400","平溪區"
"235041","251-BX","2019/09/02 19:49:31","新北市中和區中安街58號","121.512651666667","25.0022033333333","6500300","中和區"
"228003","097-TW","2019/09/02 19:49:45","新北市貢寮區真理里美艷山街3-1號","121.925545","25.0594733333333","6502600","貢寮區"
"228001","212-TW","2019/09/02 19:49:27","新北市貢寮區真理里新港街101號","121.92689","25.056605","6502600","貢寮區"
"224010","AGQ-8101","2019/09/02 19:49:33","新北市瑞芳區輕便路39號","121.845438333333","25.110355","6501200","瑞芳區"
"224002","639-TC","2019/09/02 19:49:32","新北市瑞芳區民享新村22號","121.81708","25.105545","6501200","瑞芳區"
"227001","642-TC","2019/09/02 19:49:32","新北市雙溪區新基里中華路45號","121.865808333333","25.0376083333333","6502500","雙溪區"
"227002","400-TW","2019/09/02 19:49:42","新北市雙溪區雙溪里內挖路47號","121.863196666667","25.03681","6502500","雙溪區"
"222001","KEA-2212","2019/09/02 19:49:40","新北市深坑區北深路三段83號","121.606575","25.0014733333333","6501800","深坑區"
"208002","KEA-2872","2019/09/02 19:49:40","新北市金山區環金路159號","121.633695","25.2181783333333","6502700","金山區"
"208003","665-BX","2019/09/02 19:49:41","新北市金山區環金路341號","121.630771666667","25.2238816666667","6502700","金山區"
"251009","008-UM","2019/09/02 19:49:41","新北市淡水區中山北路一段104號","121.442676666667","25.1767133333333","6501000","淡水區"
"251001","011-UM","2019/09/02 19:49:43","新北市淡水區中正東路二段31號","121.459196666667","25.156495","6501000","淡水區"
"251015","KEA-2871","2019/09/02 19:49:41","新北市淡水區山子頂24-1號","121.49139","25.1871933333333","6501000","淡水區"
"251016","179-VK","2019/09/02 19:49:36","新北市淡水區三塊厝2號","121.453461666667","25.2099266666667","6501000","淡水區"
"251008","181-VK","2019/09/02 19:49:44","新北市淡水區中正路一段24巷2-4號","121.426775","25.1769966666667","6501000","淡水區"
"251013","182-VK","2019/09/02 19:49:27","新北市淡水區頂田寮路160號","121.459133333333","25.215905","6501000","淡水區"
"251010","413-VK","2019/09/02 19:49:44","新北市淡水區下圭柔山91-3號","121.431026666667","25.2099183333333","6501000","淡水區"
"251012","441-VK","2019/09/02 19:49:28","新北市淡水區淡金路三段56號","121.448223333333","25.1997333333333","6501000","淡水區"
"251007","442-VK","2019/09/02 19:49:42","新北市淡水區竿蓁一街102巷1號","121.454236666667","25.16628","6501000","淡水區"
"251005","443-VK","2019/09/02 19:49:44","新北市淡水區中正東路6號","121.447151666667","25.1672383333333","6501000","淡水區"
"251006","561-UM","2019/09/02 19:49:32","新北市淡水區水碓街15號","121.443498333333","25.1769433333333","6501000","淡水區"
"251014","577-R6","2019/09/02 19:49:26","新北市淡水區番社前1-8號","121.468378333333","25.2360416666667","6501000","淡水區"
"251011","650-BX","2019/09/02 19:49:34","新北市淡水區中正東路二段5巷31號","121.460565","25.1584916666667","6501000","淡水區"
"251002","672-BX","2019/09/02 19:49:37","新北市淡水區崁頂133號","121.431103333333","25.2056516666667","6501000","淡水區"
"207003","550-UM","2019/09/02 19:49:36","新北市萬里區大鵬里下社36號","121.649225","25.2165416666667","6502800","萬里區"
"207004","291-VK","2019/09/02 19:49:27","新北市萬里區萬里里瑪鋉路207號","121.690313333333","25.1794083333333","6502800","萬里區"
"252002","178-VK","2019/09/02 19:49:34","新北市三芝區三民街33-1號","121.504625","25.2585483333333","6502100","三芝區"
"208001","170-UY","2019/09/02 19:49:30","新北市金山區重和里六股林口53-1號","121.602066666667","25.21972","6502700","金山區"
"237004","KEA-2597","2019/09/02 19:49:36","新北市三峽區添福285-5號","121.376386666667","24.8914483333333","6500900","三峽區"
"237007","153-BY","2019/09/02 19:49:42","新北市三峽區二鬮路136巷24弄55號","121.35713","24.9105616666667","6500900","三峽區"
"237009","210-TH","2019/09/02 19:49:32","新北市三峽區清水街424號","121.368731666667","24.9261866666667","6500900","三峽區"
"237013","252-BX","2019/09/02 19:49:39","新北市三峽區溪北街60號","121.397308333333","24.93582","6500900","三峽區"
"237012","275-BY","2019/09/02 19:49:40","新北市三峽區中華路11巷2號","121.373998333333","24.9322866666667","6500900","三峽區"
"237008","302-VK","2019/09/02 19:49:45","新北市三峽區安溪路345號","121.369995","24.9264","6500900","三峽區"
"237014","433-BY","2019/09/02 19:49:32","新北市三峽區嘉添91號","121.369108333333","24.909735","6500900","三峽區"
"237006","5529-G3","2019/09/02 19:49:26","新北市三峽區中正路一段336巷15弄2號","121.369938333333","24.924935","6500900","三峽區"
"237011","KEA-2596","2019/09/02 19:49:34","新北市三峽區中正路一段432號","121.37065","24.9222783333333","6500900","三峽區"
"237015","649-BX","2019/09/02 19:49:45","新北市三峽區溪東路385號","121.41194","24.9290616666667","6500900","三峽區"
"237005","AKY-6261","2019/09/02 19:49:47","新北市三峽區長泰街20號","121.378791666667","24.931795","6500900","三峽區"
"236042","KED-0685","2019/09/02 19:49:38","新北市土城區裕民路233巷5號","121.454905","24.9834783333333","6501300","土城區"
"236078","166-UM","2019/09/02 19:49:42","新北市土城區溪頭路18號","121.413171666667","24.9555866666667","6501300","土城區"
"236030","253-BX","2019/09/02 19:49:34","新北市土城區中央路一段290號","121.443318333333","24.9824483333333","6501300","土城區"
"236026","269-VK","2019/09/02 19:49:40","新北市土城區中央路二段61巷28號","121.443441666667","24.97865","6501300","土城區"
"236069","KEA-2877","2019/09/02 19:49:47","新北市土城區中央路二段192巷2號","121.441573333333","24.9760933333333","6501300","土城區"
"252001","KED-0821","2019/09/02 19:49:44","新北市三芝區公正街66號","121.499791666667","25.257465","6502100","三芝區"
"236020","401-BY","2019/09/02 19:49:40","新北市土城區峰廷街39號","121.469668333333","24.98624","6501300","土城區"
"236059","912-UM","2019/09/02 19:49:35","新北市土城區中央路一段134號","121.446293333333","24.9876883333333","6501300","土城區"
"236048","913-UM","2019/09/02 19:49:45","新北市土城區青雲路145號","121.458753333333","24.984245","6501300","土城區"
"236063","915-UM","2019/09/02 19:49:33","新北市土城區延和路146巷8號","121.467973333333","24.9896916666667","6501300","土城區"
"236055","AAC-216","2019/09/02 19:49:38","新北市土城區延和路207號","121.46974","24.9900266666667","6501300","土城區"
"242004","751-BX","2019/09/02 19:49:32","新北市新莊區化成路63巷15號","121.464451666667","25.0458566666667","6500500","新莊區"
"242048","566-BX","2019/09/02 19:49:33","新北市新莊區建安街76巷5弄13號","121.425655","25.0250433333333","6500500","新莊區"
"242034","442-UM","2019/09/02 19:49:37","新北市新莊區仁愛街73號","121.444141666667","25.0377833333333","6500500","新莊區"
"242007","440-UM","2019/09/02 19:49:41","新北市新莊區思源路593巷6弄23號","121.457888333333","25.0599016666667","6500500","新莊區"
"242013","413-TV","2019/09/02 19:49:32","新北市新莊區中泰街51號","121.450235","25.0468316666667","6500500","新莊區"
"242025","362-BY","2019/09/02 19:49:35","新北市新莊區五權一路12巷21弄2號","121.457688333333","25.0642633333333","6500500","新莊區"
"242023","353-BY","2019/09/02 19:49:27","新北市新莊區化成路144號","121.465393333333","25.0448183333333","6500500","新莊區"
"242039","135-UY","2019/09/02 19:49:38","新北市新莊區民安路299巷24號","121.429328333333","25.023145","6500500","新莊區"
"242056","172-VK","2019/09/02 19:49:38","新北市新莊區新泰路91號","121.448883333333","25.034315","6500500","新莊區"
"242017","173-VK","2019/09/02 19:49:30","新北市新莊區復興路一段16號","121.445911666667","25.04153","6500500","新莊區"
"242031","175-VK","2019/09/02 19:49:36","新北市新莊區忠孝街101號","121.44392","25.0372683333333","6500500","新莊區"
"242021","346-TH","2019/09/02 19:49:43","新北市新莊區新泰路137號","121.448083333333","25.0363583333333","6500500","新莊區"
"242036","348-TH","2019/09/02 19:49:37","新北市新莊區民安路207巷30弄4號","121.427776666667","25.0238316666667","6500500","新莊區"
"238015","755-BX","2019/09/02 19:49:29","新北市樹林區中山路一段108巷41號","121.421668333333","24.9914183333333","6500700","樹林區"
"238023","601-UM","2019/09/02 19:49:39","新北市樹林區中正路415號","121.417156666667","25.0075183333333","6500700","樹林區"
"238019","599-UM","2019/09/02 19:49:44","新北市樹林區八德街17號","121.418083333333","24.9842883333333","6500700","樹林區"
"238024","5061-A6","2019/09/02 19:49:41","新北市樹林區佳園路一段72巷7號","121.392938333333","24.96999","6500700","樹林區"
"238022","KEA-2213","2019/09/02 19:49:45","新北市樹林區國凱街46號","121.419985","24.9787266666667","6500700","樹林區"
"238021","KEA-2539","2019/09/02 19:49:28","新北市樹林區佳園路三段181巷81號","121.39067","24.9484916666667","6500700","樹林區"
"238025","303-VK","2019/09/02 19:49:31","新北市樹林區中山路二段64號","121.415875","24.9842416666667","6500700","樹林區"
"238017","283-BY","2019/09/02 19:49:38","新北市樹林區保安街二段167巷9號","121.414771666667","25.0028766666667","6500700","樹林區"
"238014","282-BY","2019/09/02 19:49:36","新北市樹林區千歲街70巷3弄2號","121.42681","24.997155","6500700","樹林區"
"238026","172-UY","2019/09/02 19:49:44","新北市樹林區佳園路二段25號","121.392198333333","24.9635516666667","6500700","樹林區"
"238016","169-UY","2019/09/02 19:49:31","新北市樹林區東佳路8-7號","121.40227","24.97713","6500700","樹林區"
"239007","AAC-297","2019/09/02 19:49:45","新北市鶯歌區大湖路326巷24號","121.346166666667","24.9698783333333","6500800","鶯歌區"
"239006","891-R6","2019/09/02 19:49:43","新北市鶯歌區建國路512巷19號","121.340001666667","24.9510866666667","6500800","鶯歌區"
"239001","417-VK","2019/09/02 19:49:38","新北市鶯歌區尖山埔路114號","121.34415","24.9502216666667","6500800","鶯歌區"
"239003","360-BY","2019/09/02 19:49:31","新北市鶯歌區重慶街15號","121.351761666667","24.9526633333333","6500800","鶯歌區"
"239002","359-BY","2019/09/02 19:49:35","新北市鶯歌區中山路93號","121.350421666667","24.9569716666667","6500800","鶯歌區"
"239004","193-VK","2019/09/02 19:49:33","新北市鶯歌區二甲路43-12號","121.337263333333","24.934355","6500800","鶯歌區"
"221008","489-VK","2019/09/02 19:49:44","新北市汐止區康寧街61巷22弄5號","121.61954","25.0670133333333","6501100","汐止區"
"221010","269-BY","2019/09/02 19:49:36","新北市汐止區汐萬路一段411號","121.649215","25.0793783333333","6501100","汐止區"
"221012","278-VK","2019/09/02 19:49:38","新北市汐止區大同路三段495號","121.680008333333","25.0710633333333","6501100","汐止區"
"221023","279-VK","2019/09/02 19:49:41","新北市汐止區中興路284號","121.628458333333","25.0693883333333","6501100","汐止區"
"221029","298-VK","2019/09/02 19:49:33","新北市汐止區康寧街901號","121.65145","25.074965","6501100","汐止區"
"221021","299-VK","2019/09/02 19:49:47","新北市汐止區新興路78號","121.657586666667","25.0618433333333","6501100","汐止區"
"221025","623-UM","2019/09/02 19:49:35","新北市汐止區秀峰路81巷19號","121.660981666667","25.0647066666667","6501100","汐止區"
"221038","646-BX","2019/09/02 19:49:27","新北市汐止區忠孝東路403號","121.665745","25.071105","6501100","汐止區"
"220079","145-BY","2019/09/02 19:49:46","新北市板橋區民權路202巷17弄59號","121.45874","25.016555","6500100","板橋區"
"220080","200-UY","2019/09/02 19:49:35","新北市板橋區大觀路二段153巷46弄10號","121.448986666667","24.9995083333333","6500100","板橋區"
"220082","610-BX","2019/09/02 19:49:43","新北市板橋區篤行路一段37號","121.432013333333","24.9939783333333","6500100","板橋區"
"220101","245-BX","2019/09/02 19:49:33","新北市板橋區縣民大道三段101號","121.476253333333","25.022265","6500100","板橋區"
"220056","276-BY","2019/09/02 19:49:40","新北市板橋區四川路二段47巷1弄2號","121.454141666667","24.9949233333333","6500100","板橋區"
"220072","277-BY","2019/09/02 19:49:38","新北市板橋區金門街149號","121.432765","24.9906083333333","6500100","板橋區"
"220094","283-UM","2019/09/02 19:49:36","新北市板橋區雨農路17巷1號","121.46201","25.0245733333333","6500100","板橋區"
"220071","283-VK","2019/09/02 19:49:39","新北市板橋區和平路174巷1弄2號","121.46417","24.9950266666667","6500100","板橋區"
"220053","285-VK","2019/09/02 19:49:39","新北市板橋區中山路二段90巷10號","121.475393333333","25.0159683333333","6500100","板橋區"
"220083","286-VK","2019/09/02 19:49:31","新北市板橋區龍興街61巷1號","121.442996666667","25.0011966666667","6500100","板橋區"
"220081","287-VK","2019/09/02 19:49:33","新北市板橋區大觀路一段29巷179弄12號","121.449023333333","25.0047916666667","6500100","板橋區"
"220090","288-VK","2019/09/02 19:49:34","新北市板橋區漢生西路165巷36號","121.462155","25.0234933333333","6500100","板橋區"
"220061","293-UM","2019/09/02 19:49:47","新北市板橋區板新路106號","121.471681666667","25.01523","6500100","板橋區"
"220062","295-UM","2019/09/02 19:49:24","新北市板橋區三民路二段29巷31弄5-3號","121.481558333333","25.0176883333333","6500100","板橋區"
"220084","296-UM","2019/09/02 19:49:38","新北市板橋區溪崑二街124巷12號","121.425638333333","24.9883616666667","6500100","板橋區"
"220075","303-R5","2019/09/02 19:49:42","新北市板橋區大勇街36號","121.453361666667","25.01683","6500100","板橋區"
"220092","307-R5","2019/09/02 19:49:43","新北市板橋區幸福路32巷57號","121.460271666667","25.0219883333333","6500100","板橋區"
"220098","317-R6","2019/09/02 19:49:47","新北市板橋區四維路269巷29號","121.461936666667","25.0278016666667","6500100","板橋區"
"220089","487-VK","2019/09/02 19:49:42","新北市板橋區互助街56號","121.461438333333","25.0268333333333","6500100","板橋區"
"220088","491-VK","2019/09/02 19:49:42","新北市板橋區懷德街183號","121.479593333333","25.0298533333333","6500100","板橋區"
"220035","560-BX","2019/09/02 19:49:35","新北市板橋區金華街85巷42號","121.459148333333","25.02134","6500100","板橋區"
"220103","561-BX","2019/09/02 19:49:36","新北市板橋區自由路26巷1號","121.465825","25.0227683333333","6500100","板橋區"
"220063","609-BX","2019/09/02 19:49:45","新北市板橋區三民路一段45號","121.479586666667","25.02247","6500100","板橋區"
"220091","637-BX","2019/09/02 19:49:32","新北市板橋區民治街83號","121.479808333333","25.0321983333333","6500100","板橋區"
"220057","686-BX","2019/09/02 19:49:38","新北市板橋區德興街35號","121.453523333333","24.9938016666667","6500100","板橋區"
"220077","687-BX","2019/09/02 19:49:42","新北市板橋區僑中二街120巷2號","121.445538333333","25.0059733333333","6500100","板橋區"
"220093","689-BX","2019/09/02 19:49:37","新北市板橋區長江路三段134號","121.475578333333","25.0346166666667","6500100","板橋區"
"220054","741-BX","2019/09/02 19:49:24","新北市板橋區忠孝路239巷25號","121.466713333333","25.0033883333333","6500100","板橋區"
"220102","KEA-2699","2019/09/02 19:49:32","新北市板橋區雙十路二段142號","121.47369","25.0292216666667","6500100","板橋區"
"220055","827-TW","2019/09/02 19:49:32","新北市板橋區國慶路124號","121.460408333333","24.9958283333333","6500100","板橋區"
"220067","829-TW","2019/09/02 19:49:45","新北市板橋區長安街331巷19弄13號","121.47342","25.0122483333333","6500100","板橋區"
"220074","895-R6","2019/09/02 19:49:45","新北市板橋區東門街6號","121.457883333333","25.009165","6500100","板橋區"
"220073","985-R7","2019/09/02 19:49:31","新北市板橋區國光路51號","121.458036666667","25.0179683333333","6500100","板橋區"
"220097","AAC-210","2019/09/02 19:49:37","新北市板橋區光正街11-2號","121.462671666667","25.0171783333333","6500100","板橋區"
"220064","AAC-253","2019/09/02 19:49:46","新北市板橋區民族路230號","121.468863333333","25.007275","6500100","板橋區"
"235068","KEA-2873","2019/09/02 19:49:23","新北市中和區永和路8巷23弄7號","121.500671666667","25.0038783333333","6500300","中和區"
"235061","KEA-2875","2019/09/02 19:49:41","新北市中和區員山路325-5號","121.481183333333","25.0010233333333","6500300","中和區"
