"lineid","car","time","location","longitude","latitude","cityid","cityname"
"234050","863-TW","2019/09/02 21:09:25","新北市新店區薏仁坑路11號","121.498513333333","24.9590533333333","6500400","永和區"
"231061","002-UM","2019/09/02 21:09:28","新北市新店區永平街32號","121.51628","24.983915","6500600","新店區"
"231060","106-UY","2019/09/02 21:09:37","新北市新店區安康路三段28號","121.493163333333","24.953215","6500600","新店區"
"231051","107-UY","2019/09/02 21:09:35","新北市新店區中正路700巷40號","121.535621666667","24.991725","6500600","新店區"
"231065","110-UY","2019/09/02 21:09:45","新北市新店區安祥路65號","121.483836666667","24.96025","6500600","新店區"
"231068","187-VK","2019/09/02 21:09:37","新北市新店區寶興路45巷2弄70號","121.551061666667","24.9733833333333","6500600","新店區"
"231062","256-BX","2019/09/02 21:09:33","新北市新店區安康路二段382號","121.500258333333","24.95695","6500600","新店區"
"231054","260-TV","2019/09/02 21:09:31","新北市新店區北新路一段99號","121.539085","24.96204","6500600","新店區"
"231042","268-BY","2019/09/02 21:09:29","新北市新店區安興路20號","121.514951666667","24.9658383333333","6500600","新店區"
"231064","278-BY","2019/09/02 21:09:31","新北市新店區薏仁坑路自強巷6號","121.496446666667","24.9582566666667","6500600","新店區"
"231050","AAD-862","2019/09/02 21:09:27","新北市新店區中華路117巷1號","121.538098333333","24.9685916666667","6500600","新店區"
"231063","616-UM","2019/09/02 21:09:41","新北市新店區玫瑰路59巷1號","121.495926666667","24.9458583333333","6500600","新店區"
"231059","897-TW","2019/09/02 21:09:32","新北市新店區僑信路48號","121.499351666667","24.95048","6500600","新店區"
"231040","898-TW","2019/09/02 21:09:37","新北市新店區北新路一段263號","121.540986666667","24.9665166666667","6500600","新店區"
"241011","013-R5","2019/09/02 21:09:30","新北市三重區秀江街57號","121.500936666667","25.0725933333333","6500200","三重區"
"241028","022-UY","2019/09/02 21:09:47","新北市三重區正義南路111號","121.49876","25.0583916666667","6500200","三重區"
"241008","059-VK","2019/09/02 21:09:38","新北市三重區自強路一段60號","121.497341666667","25.0667116666667","6500200","三重區"
"241031","061-VK","2019/09/02 21:09:31","新北市三重區重新路五段406-1號","121.476205","25.0477533333333","6500200","三重區"
"241015","062-VK","2019/09/02 21:09:32","新北市三重區三和路一段39巷11號","121.504068333333","25.0652883333333","6500200","三重區"
"241017","063-VK","2019/09/02 21:09:34","新北市三重區國隆路30號","121.492245","25.06442","6500200","三重區"
"241024","065-VK","2019/09/02 21:09:40","新北市三重區大勇街82巷15弄30號","121.481238333333","25.07194","6500200","三重區"
"241007","066-VK","2019/09/02 21:09:38","新北市三重區三和路四段145巷85號","121.486405","25.0787883333333","6500200","三重區"
"241002","090-VK","2019/09/02 21:09:31","新北市三重區五華街11號","121.494996666667","25.08031","6500200","三重區"
"241003","091-VK","2019/09/02 21:09:42","新北市三重區進安街198號","121.493866666667","25.0859733333333","6500200","三重區"
"241004","742-BX","2019/09/02 21:09:44","新北市三重區仁愛街420號","121.490401666667","25.0814266666667","6500200","三重區"
"241006","262-UM","2019/09/02 21:09:31","新北市三重區中正北路2號","121.489271666667","25.063215","6500200","三重區"
"241016","266-UM","2019/09/02 21:09:36","新北市三重區大智街12號","121.495358333333","25.0645033333333","6500200","三重區"
"241009","267-UM","2019/09/02 21:09:45","新北市三重區忠孝路二段126號","121.482923333333","25.0687866666667","6500200","三重區"
"241018","268-UM","2019/09/02 21:09:28","新北市三重區正義北路340號","121.494193333333","25.07068","6500200","三重區"
"241032","269-UM","2019/09/02 21:09:44","新北市三重區新北大道二段80-1號","121.469968333333","25.0615516666667","6500200","三重區"
"241013","270-UM","2019/09/02 21:09:45","新北市三重區仁愛街139號","121.495133333333","25.0751416666667","6500200","三重區"
"241025","271-UM","2019/09/02 21:09:34","新北市三重區中正北路208巷8號","121.482318333333","25.06695","6500200","三重區"
"241030","KED-0822","2019/09/02 21:09:26","新北市三重區五谷王北街20巷15弄1號","121.475046666667","25.04849","6500200","三重區"
"241026","480-VK","2019/09/02 21:09:38","新北市三重區福德南路150號","121.500576666667","25.0583316666667","6500200","三重區"
"241014","543-UM","2019/09/02 21:09:37","新北市三重區三和路二段37-8號","121.501323333333","25.0675866666667","6500200","三重區"
"241001","547-UM","2019/09/02 21:09:36","新北市三重區溪尾街54號","121.490455","25.0774666666667","6500200","三重區"
"241019","KEA-2593","2019/09/02 21:09:26","新北市三重區自強路二段74巷19號","121.487966666667","25.0699316666667","6500200","三重區"
"241005","AAD-863","2019/09/02 21:09:33","新北市三重區仁華街85號","121.485716666667","25.0829816666667","6500200","三重區"
"241022","KED-0820","2019/09/02 21:09:25","新北市三重區中正北路64巷24號","121.486068333333","25.0637483333333","6500200","三重區"
"241023","887-TS","2019/09/02 21:09:32","新北市三重區洛陽街45巷15號","121.482468333333","25.063725","6500200","三重區"
"241012","941-UM","2019/09/02 21:09:41","新北市三重區龍門路274巷45號","121.501133333333","25.0754583333333","6500200","三重區"
"241029","942-UM","2019/09/02 21:09:28","新北市三重區正義南路111號","121.498191666667","25.0585366666667","6500200","三重區"
"241033","AAC-255","2019/09/02 21:09:32","新北市三重區中興北街289號","121.469021666667","25.062505","6500200","三重區"
"235055","183-VK","2019/09/02 21:09:38","新北市中和區中山路二段479號","121.483091666667","25.004875","6500300","中和區"
"247016","KEA-2869","2019/09/02 21:09:44","新北市蘆洲區中正路185巷68弄1號","121.466548333333","25.0845066666667","6501400","蘆洲區"
"247010","KED-0682","2019/09/02 21:09:34","新北市蘆洲區鷺江街69號","121.477285","25.0829083333333","6501400","蘆洲區"
"235018","640-BX","2019/09/02 20:56:33","新北市中和區員山路36巷16-2號","121.485325","24.9916016666667","6500300","中和區"
"235010","733-UM","2019/09/02 21:02:04","新北市中和區員山路36巷13號","121.484156666667","24.990815","6500300","中和區"
"247006","893-R6","2019/09/02 21:09:30","新北市蘆洲區九芎街86號","121.466021666667","25.079655","6501400","蘆洲區"
"247020","546-UM","2019/09/02 21:09:44","新北市蘆洲區民族路460號","121.472015","25.091895","6501400","蘆洲區"
"247014","341-TH","2019/09/02 21:09:31","新北市蘆洲區中央路155號","121.472576666667","25.0847116666667","6501400","蘆洲區"
"247012","337-TH","2019/09/02 21:09:31","新北市蘆洲區民權路8-1號","121.476711666667","25.0857533333333","6501400","蘆洲區"
"247004","336-TH","2019/09/02 21:09:39","新北市蘆洲區永安南路二段322號","121.457041666667","25.0826983333333","6501400","蘆洲區"
"247024","057-VK","2019/09/02 21:09:37","新北市蘆洲區長興路50巷1號","121.463731666667","25.083785","6501400","蘆洲區"
"247018","053-VK","2019/09/02 21:09:33","新北市蘆洲區民族路408巷14號","121.474971666667","25.0920666666667","6501400","蘆洲區"
"247022","007-UY","2019/09/02 21:09:41","新北市蘆洲區三民路229號","121.469448333333","25.0885633333333","6501400","蘆洲區"
"247008","002-UY","2019/09/02 21:09:25","新北市蘆洲區民生街49號","121.474971666667","25.0788333333333","6501400","蘆洲區"
"247002","001-UY","2019/09/02 21:09:32","新北市蘆洲區永樂街38巷40號","121.458626666667","25.0900066666667","6501400","蘆洲區"
"251009","008-UM","2019/09/02 21:09:41","新北市淡水區民族路112巷57號","121.462005","25.13425","6501000","淡水區"
"251004","009-UM","2019/09/02 21:09:42","新北市淡水區民族路61號","121.462928333333","25.1347933333333","6501000","淡水區"
"251001","011-UM","2019/09/02 21:09:43","新北市淡水區新市一路三段2號","121.444871666667","25.182825","6501000","淡水區"
"251015","KEA-2871","2019/09/02 21:09:41","新北市淡水區淡金路四段542巷91號","121.454351666667","25.2251883333333","6501000","淡水區"
"251016","179-VK","2019/09/02 21:09:35","新北市淡水區前洲子2號","121.44465","25.21678","6501000","淡水區"
"251008","181-VK","2019/09/02 21:09:24","新北市淡水區北投子78-8號","121.457621666667","25.1790833333333","6501000","淡水區"
"251013","182-VK","2019/09/02 21:09:47","新北市淡水區水汴頭12號","121.46975","25.2034916666667","6501000","淡水區"
"251010","413-VK","2019/09/02 21:09:44","新北市淡水區中正路一段63巷7弄2號","121.423031666667","25.1772666666667","6501000","淡水區"
"251012","441-VK","2019/09/02 21:09:28","新北市淡水區淡金路五段172號","121.45708","25.2400416666667","6501000","淡水區"
"251005","443-VK","2019/09/02 21:09:44","新北市淡水區博愛街39號","121.446506666667","25.169315","6501000","淡水區"
"251014","577-R6","2019/09/02 21:09:40","新北市淡水區六塊厝1-2號","121.450788333333","25.2426","6501000","淡水區"
"251011","650-BX","2019/09/02 21:09:34","新北市淡水區新民街180巷7弄27號","121.43698","25.1798083333333","6501000","淡水區"
"251003","673-BX","2019/09/02 21:09:35","新北市淡水區新春街132號","121.440873333333","25.18173","6501000","淡水區"
"242025","362-BY","2019/09/02 21:09:35","新北市林口區太平里180號","121.366576666667","25.1341866666667","6500500","新莊區"
"242009","349-TH","2019/09/02 21:09:36","新北市五股區新五路二段372巷20號","121.447871666667","25.08511","6500500","新莊區"
"220056","276-BY","2019/09/02 21:09:40","新北市新莊區立信一街63號","121.442233333333","25.04984","6500100","板橋區"
"220084","296-UM","2019/09/02 21:08:58","新北市八里區荖阡坑路32號","121.403153333333","25.1275783333333","6500100","板橋區"
