"lineid","car","time","location","longitude","latitude","cityid","cityname"
"232006","291-BY","2019/09/03 06:39:23","新北市坪林區北宜路八段558號","121.717986666667","24.9092316666667","6502000","坪林區"
"232002","758-BX","2019/09/03 06:39:41","新北市坪林區北宜路八段553號","121.716391666667","24.9110633333333","6502000","坪林區"
"223006","022-BY","2019/09/03 06:39:33","新北市石碇區楓子林55-5號","121.642863333333","25.0080766666667","6501900","石碇區"
"223002","KEA-2673","2019/09/03 06:39:29","新北市石碇區碇坪路一段73號","121.660286666667","24.9913883333333","6501900","石碇區"
"223003","205-TH","2019/09/03 06:39:37","新北市石碇區湳窟22-1號","121.661576666667","24.9914416666667","6501900","石碇區"
"223008","406-TH","2019/09/03 06:39:31","新北市石碇區小粗坑(潭邊里)15-3號","121.67808","24.97814","6501900","石碇區"
"223001","592-UM","2019/09/03 06:39:26","新北市石碇區碇坪路一段186號","121.667815","24.9837916666667","6501900","石碇區"
"223007","661-BX","2019/09/03 06:39:29","新北市石碇區石崁14-1號","121.655128333333","24.9944216666667","6501900","石碇區"
"227004","282-VK","2019/09/03 06:39:25","新北市雙溪區牡丹里聖南10-3號","121.860821666667","25.04948","6502500","雙溪區"
