"lineid","car","time","location","longitude","latitude","cityid","cityname"
"232001","758-BX","2019/07/18 08:29:08","新北市坪林區大粗坑6-1號","121.731795","24.9493266666667","6502000","坪林區"
"244006","080-UY","2019/07/18 08:29:11","新北市林口區湖子14號","121.385995","25.09003","6501700","林口區"
"244004","248-BX","2019/07/18 08:29:19","新北市林口區下福20號","121.311465","25.1124433333333","6501700","林口區"
"244018","402-UM","2019/07/18 08:29:28","新北市林口區公園路138號","121.371366666667","25.0715616666667","6501700","林口區"
"244012","KEA-2802","2019/07/18 08:29:12","新北市林口區中山路40號","121.395445","25.0783133333333","6501700","林口區"
"244022","483-VK","2019/07/18 08:29:13","新北市林口區東明一街55巷23號","121.392616666667","25.0710366666667","6501700","林口區"
"244016","485-VK","2019/07/18 08:29:24","新北市林口區公園路185-2號","121.371176666667","25.0724266666667","6501700","林口區"
"244008","657-BX","2019/07/18 08:29:10","新北市林口區中北三街52號","121.38469","25.085895","6501700","林口區"
"244010","701-TV","2019/07/18 08:29:12","新北市林口區中正路243號","121.39094","25.077625","6501700","林口區"
"244024","837-TS","2019/07/18 08:29:16","新北市林口區文化三路一段179號","121.36198","25.0695166666667","6501700","林口區"
"244020","838-TS","2019/07/18 08:29:17","新北市林口區中山路2-2號","121.396828333333","25.0787116666667","6501700","林口區"
"222006","289-BY","2019/07/18 08:29:16","新北市深坑區萬福路187號","121.6161","25.0152","6501800","深坑區"
"231069","189-VK","2019/07/18 08:29:19","新北市新店區新潭路三段81巷1號","121.505273333333","24.9103866666667","6500600","新店區"
"231008","192-VK","2019/07/18 08:29:18","新北市新店區新烏路二段417號","121.55159","24.9092366666667","6500600","新店區"
"226007","7418-A5","2019/07/18 08:28:41","新北市平溪區東勢里芊蓁坑3號","121.743288333333","25.00265","6502400","平溪區"
"226003","AGD-0702","2019/07/18 08:29:07","新北市平溪區十分里十分街246號","121.777588333333","25.044455","6502400","平溪區"
"223003","205-TH","2019/07/18 08:29:11","新北市石碇區北宜路六段塗潭巷21號","121.650828333333","24.93379","6501900","石碇區"
"223008","406-TH","2019/07/18 08:29:13","新北市石碇區串空湖8-2號","121.669286666667","25.001185","6501900","石碇區"
"223001","592-UM","2019/07/18 08:29:10","新北市石碇區北宜路六段塗潭巷23號","121.651028333333","24.9340566666667","6501900","石碇區"
"223004","660-BX","2019/07/18 08:29:16","新北市石碇區石碇東街12號","121.661795","24.9907366666667","6501900","石碇區"
"223007","661-BX","2019/07/18 08:29:16","新北市石碇區靜安路一段97號","121.661535","25.0074966666667","6501900","石碇區"
"223005","677-TV","2019/07/18 08:29:15","新北市石碇區石碇東街12號","121.661685","24.9907333333333","6501900","石碇區"
"252004","249-BX","2019/07/18 08:29:18","新北市三芝區興華里車埕9-1號","121.502305","25.2000766666667","6502100","三芝區"
"252007","AAC-283","2019/07/18 08:29:14","新北市三芝區後厝里番子崙17-1號","121.482566666667","25.23708","6502100","三芝區"
"237014","760-BX","2019/07/18 08:29:15","新北市三峽區有木248號","121.42619","24.859845","6500900","三峽區"
"226005","ANY-2373","2019/07/18 08:29:25","新北市平溪區南山里六分8號","121.796105","25.0496183333333","6502400","平溪區"
"242038","AAC-296","2019/07/18 08:29:24","新北市新莊區民安西路24巷13號","121.426381666667","25.020945","6500500","新莊區"
"242059","986-R7","2019/07/18 08:29:14","新北市新莊區新樹路259號","121.434636666667","25.0215533333333","6500500","新莊區"
"242001","751-BX","2019/07/18 08:29:28","新北市新莊區新莊路14-2號","121.459033333333","25.0375716666667","6500500","新莊區"
"242028","615-BX","2019/07/18 08:29:16","新北市新莊區中平路202-1號","121.444875","25.0488033333333","6500500","新莊區"
"242026","613-BX","2019/07/18 08:29:25","新北市新莊區思源路351號","121.459785","25.0504116666667","6500500","新莊區"
"242057","612-BX","2019/07/18 08:29:27","新北市新莊區壽山路160巷21號","121.417458333333","25.0319166666667","6500500","新莊區"
"242045","566-BX","2019/07/18 08:29:19","新北市新莊區福營路184號","121.431266666667","25.0307916666667","6500500","新莊區"
"242049","497-BY","2019/07/18 08:29:16","新北市新莊區民本街27巷17號","121.429151666667","25.01921","6500500","新莊區"
"242055","441-UM","2019/07/18 08:29:24","新北市新莊區豐年街124巷1號","121.44636","25.0297966666667","6500500","新莊區"
"242003","440-UM","2019/07/18 08:29:14","新北市新莊區自信街79號","121.455928333333","25.0481383333333","6500500","新莊區"
"242040","415-TV","2019/07/18 08:29:17","新北市新莊區天祥街123號","121.414416666667","25.0297083333333","6500500","新莊區"
"242047","400-BY","2019/07/18 08:29:17","新北市新莊區萬安街11號","121.421651666667","25.0246666666667","6500500","新莊區"
"242024","362-BY","2019/07/18 08:29:27","新北市新莊區五工路99-2號","121.456995","25.0642083333333","6500500","新莊區"
"242022","353-BY","2019/07/18 08:29:11","新北市新莊區幸福路8號","121.459291666667","25.0495033333333","6500500","新莊區"
"242012","132-UY","2019/07/18 08:29:14","新北市新莊區中和街123號","121.447288333333","25.0485533333333","6500500","新莊區"
"242035","135-UY","2019/07/18 08:29:27","新北市新莊區建福路48巷3號","121.42621","25.0273833333333","6500500","新莊區"
"242052","172-VK","2019/07/18 08:29:25","新北市新莊區民安西路470-1號","121.4317","25.007825","6500500","新莊區"
"242014","173-VK","2019/07/18 08:29:22","新北市新莊區中平路132巷9號","121.44604","25.0467333333333","6500500","新莊區"
"242020","175-VK","2019/07/18 08:29:15","新北市新莊區建興街52-1號","121.450025","25.0379666666667","6500500","新莊區"
"242018","KED-0687","2019/07/18 08:29:16","新北市新莊區民樂街30號","121.4577","25.0408","6500500","新莊區"
"242010","346-TH","2019/07/18 08:29:23","新北市新莊區中信街88號","121.447881666667","25.05332","6500500","新莊區"
"242033","348-TH","2019/07/18 08:29:27","新北市新莊區福海街8號","121.445291666667","25.03338","6500500","新莊區"
"242006","349-TH","2019/07/18 08:29:22","新北市新莊區自立街62號","121.454008333333","25.0453666666667","6500500","新莊區"
"242030","350-TH","2019/07/18 08:29:25","新北市新莊區新泰路277巷9號","121.44532","25.0402566666667","6500500","新莊區"
"242016","351-TH","2019/07/18 08:29:25","新北市新莊區永樂街157號","121.44903","25.0447","6500500","新莊區"
"233003","KEA-2870","2019/07/18 08:29:22","新北市烏來區環山路43號","121.54934","24.8635666666667","6502900","烏來區"
"242043","281-VK","2019/07/18 08:29:22","新北市新莊區雙鳳路163巷2號","121.412826666667","25.0268266666667","6500500","新莊區"
"242008","280-VK","2019/07/18 08:29:25","新北市新莊區昌平街71巷15號","121.45389","25.0535833333333","6500500","新莊區"
