"lineid","car","time","location","longitude","latitude","cityid","cityname"
"244006","080-UY","2019/07/18 09:09:11","新北市林口區林口路124巷10弄9號","121.389203333333","25.081545","6501700","林口區"
"244018","402-UM","2019/07/18 09:09:08","新北市林口區忠孝路561巷2號","121.373093333333","25.06861","6501700","林口區"
"244012","KEA-2802","2019/07/18 09:09:12","新北市林口區麗園一街6巷6-3號","121.375341666667","25.0705833333333","6501700","林口區"
"244022","483-VK","2019/07/18 09:09:13","新北市林口區東湖路153巷2號","121.382776666667","25.0728216666667","6501700","林口區"
"244016","485-VK","2019/07/18 09:09:24","新北市林口區文化二路一段150號","121.368296666667","25.0713383333333","6501700","林口區"
"244008","657-BX","2019/07/18 09:09:10","新北市林口區福林路117-1號","121.377066666667","25.0892433333333","6501700","林口區"
"244010","701-TV","2019/07/18 09:09:11","新北市林口區新寮1-82號","121.392686666667","25.0768","6501700","林口區"
"244024","837-TS","2019/07/18 09:09:16","新北市林口區南勢街190號","121.360903333333","25.0746183333333","6501700","林口區"
"222006","289-BY","2019/07/18 09:09:16","新北市深坑區土庫尖路27-1號","121.636838333333","25.016855","6501800","深坑區"
"231069","189-VK","2019/07/18 09:09:19","新北市新店區新潭路三段215巷26號","121.507925","24.90368","6500600","新店區"
"231008","192-VK","2019/07/18 09:09:18","新北市新店區廣興路60巷35號","121.542568333333","24.9164433333333","6500600","新店區"
"226007","7418-A5","2019/07/18 09:09:21","新北市平溪區東勢里芊蓁坑4號","121.740755","24.9995516666667","6502400","平溪區"
"226003","AGD-0702","2019/07/18 09:09:26","新北市平溪區平溪里三坑路1-2號","121.741298333333","25.02883","6502400","平溪區"
"223003","205-TH","2019/07/18 09:09:11","新北市石碇區北宜路六段十三股巷1號","121.651735","24.9469716666667","6501900","石碇區"
"223008","406-TH","2019/07/18 09:02:03","新北市石碇區光明路13號","121.679966666667","25.0336216666667","6501900","石碇區"
"223001","592-UM","2019/07/18 09:09:10","新北市石碇區北宜路六段十三股巷1號","121.651226666667","24.947015","6501900","石碇區"
"223004","660-BX","2019/07/18 09:09:16","新北市石碇區磨石坑36-8號","121.691125","24.9658666666667","6501900","石碇區"
"223007","661-BX","2019/07/18 09:09:16","新北市石碇區光明路7號","121.678206666667","25.0278133333333","6501900","石碇區"
"223005","677-TV","2019/07/18 09:09:15","新北市石碇區磨石坑36號","121.692086666667","24.9667716666667","6501900","石碇區"
"252004","249-BX","2019/07/18 09:09:18","新北市三芝區興華里車埕69-3號","121.493375","25.1936233333333","6502100","三芝區"
"252007","AAC-283","2019/07/18 09:09:14","新北市三芝區古庄里四棧橋18-3號","121.490078333333","25.2607116666667","6502100","三芝區"
"237014","760-BX","2019/07/18 09:09:15","新北市三峽區金敏39-2號","121.395341666667","24.8844233333333","6500900","三峽區"
"242038","AAC-296","2019/07/18 09:09:27","新北市新莊區龍安路507號","121.426265","25.017995","6500500","新莊區"
"242059","986-R7","2019/07/18 09:09:14","新北市新莊區瓊林路70號","121.44516","25.0286783333333","6500500","新莊區"
"242001","751-BX","2019/07/18 09:09:28","新北市新莊區化成路35號","121.465196666667","25.0440666666667","6500500","新莊區"
"242028","615-BX","2019/07/18 09:09:16","新北市新莊區昌隆街3巷1弄2號","121.453808333333","25.0514633333333","6500500","新莊區"
"242026","613-BX","2019/07/18 09:09:25","新北市新莊區幸福路703號","121.449955","25.049105","6500500","新莊區"
"242057","612-BX","2019/07/18 09:09:27","新北市新莊區八德街135號","121.423821666667","25.0202983333333","6500500","新莊區"
"242045","566-BX","2019/07/18 09:09:19","新北市新莊區裕民街103巷19號","121.419443333333","25.0228","6500500","新莊區"
"242049","497-BY","2019/07/18 09:09:22","新北市新莊區民安西路151號","121.426306666667","25.0166033333333","6500500","新莊區"
"242055","441-UM","2019/07/18 09:09:24","新北市新莊區新豐街20巷14號","121.44802","25.0345733333333","6500500","新莊區"
"242003","440-UM","2019/07/18 09:09:14","新北市新莊區化成路312號","121.466006666667","25.0483166666667","6500500","新莊區"
"242040","415-TV","2019/07/18 09:09:17","新北市新莊區壽山路49號","121.414115","25.0311633333333","6500500","新莊區"
"242047","400-BY","2019/07/18 09:09:18","新北市新莊區四維路150巷12號","121.42261","25.0234933333333","6500500","新莊區"
"242024","362-BY","2019/07/18 09:09:27","新北市新莊區五工路68巷19-1號","121.458903333333","25.0644116666667","6500500","新莊區"
"242022","353-BY","2019/07/18 09:09:11","新北市新莊區化成路846號","121.464815","25.0604516666667","6500500","新莊區"
"242012","132-UY","2019/07/18 09:09:14","新北市新莊區中平路270巷6號","121.445213333333","25.0502133333333","6500500","新莊區"
"242035","135-UY","2019/07/18 09:09:17","新北市新莊區建安街55號","121.428336666667","25.0254566666667","6500500","新莊區"
"242052","172-VK","2019/07/18 09:09:25","新北市新莊區民安西路290號","121.426165","25.0124766666667","6500500","新莊區"
"242014","173-VK","2019/07/18 09:09:12","新北市新莊區永樂街254號","121.445501666667","25.0443833333333","6500500","新莊區"
"242020","175-VK","2019/07/18 09:09:15","新北市新莊區復興路一段8號","121.44567","25.04144","6500500","新莊區"
"242018","KED-0687","2019/07/18 09:09:18","新北市新莊區銘德街96號","121.455895","25.0434483333333","6500500","新莊區"
"242010","346-TH","2019/07/18 09:09:23","新北市新莊區中信街23巷1號","121.451025","25.0504766666667","6500500","新莊區"
"242033","348-TH","2019/07/18 09:09:07","新北市新莊區中正路316號","121.44632","25.03507","6500500","新莊區"
"242006","349-TH","2019/07/18 09:09:22","新北市新莊區福壽街56巷7號","121.45875","25.0488283333333","6500500","新莊區"
"242030","350-TH","2019/07/18 09:09:25","新北市新莊區中正路362號","121.443371666667","25.0342383333333","6500500","新莊區"
"242016","351-TH","2019/07/18 09:09:16","新北市新莊區中平路82巷2號","121.44479","25.0448633333333","6500500","新莊區"
"233003","KEA-2870","2019/07/18 09:09:22","新北市烏來區李茂岸8號","121.49616","24.786065","6502900","烏來區"
"242043","281-VK","2019/07/18 09:09:22","新北市新莊區雙鳳路134巷6號","121.412865","25.028145","6500500","新莊區"
"242008","280-VK","2019/07/18 09:09:25","新北市新莊區思源路33號","121.460091666667","25.039585","6500500","新莊區"
