"lineid","car","time","location","longitude","latitude","cityid","cityname"
"244006","080-UY","2019/07/18 09:19:11","新北市林口區竹林路548號","121.387586666667","25.0847316666667","6501700","林口區"
"244018","402-UM","2019/07/18 09:19:28","新北市林口區忠孝路616巷22-1號","121.37722","25.0675316666667","6501700","林口區"
"244012","KEA-2802","2019/07/18 09:19:12","新北市林口區麗園一街11巷11號","121.378666666667","25.07051","6501700","林口區"
"244022","483-VK","2019/07/18 09:19:13","新北市林口區東湖路155號","121.383051666667","25.0728866666667","6501700","林口區"
"244016","485-VK","2019/07/18 09:19:24","新北市林口區文化二路一段20巷59號","121.365321666667","25.0662883333333","6501700","林口區"
"244008","657-BX","2019/07/18 09:19:10","新北市林口區文化三路二段291-11號","121.378156666667","25.0865216666667","6501700","林口區"
"244010","701-TV","2019/07/18 09:19:11","新北市林口區粉寮路一段50號","121.396515","25.076985","6501700","林口區"
"244024","837-TS","2019/07/18 09:19:16","新北市林口區民族路216巷13號","121.369431666667","25.0772883333333","6501700","林口區"
"222006","289-BY","2019/07/18 09:19:16","新北市深坑區北深路一段278巷16號","121.629155","25.0101683333333","6501800","深坑區"
"231069","189-VK","2019/07/18 09:19:19","新北市新店區新潭路三段215巷25號","121.508086666667","24.9039566666667","6500600","新店區"
"231008","192-VK","2019/07/18 09:19:18","新北市新店區廣興路116號","121.536168333333","24.91171","6500600","新店區"
"226003","AGD-0702","2019/07/18 09:19:07","新北市平溪區平溪里三坑路1-2號","121.741285","25.028655","6502400","平溪區"
"223003","205-TH","2019/07/18 09:19:11","新北市石碇區北宜路五段坑內巷1號","121.63692","24.9532466666667","6501900","石碇區"
"223008","406-TH","2019/07/18 09:19:02","新北市石碇區光明路17-2號","121.686015","25.03205","6501900","石碇區"
"223001","592-UM","2019/07/18 09:19:10","新北市石碇區北宜路五段十股寮巷9號","121.642673333333","24.9532033333333","6501900","石碇區"
"223004","660-BX","2019/07/18 09:19:16","新北市石碇區磨石坑24-6號","121.690218333333","24.9717666666667","6501900","石碇區"
"223007","661-BX","2019/07/18 09:16:16","新北市石碇區光明路17-2號","121.686028333333","25.0323433333333","6501900","石碇區"
"223005","677-TV","2019/07/18 09:19:15","新北市石碇區大崙16-2號","121.690785","24.9784866666667","6501900","石碇區"
"252004","249-BX","2019/07/18 09:19:18","新北市三芝區興華里田心子7-6號","121.497906666667","25.20374","6502100","三芝區"
"252007","AAC-283","2019/07/18 09:19:14","新北市三芝區淡金路二段103號","121.504325","25.2614233333333","6502100","三芝區"
"237014","760-BX","2019/07/18 09:19:15","新北市三峽區金敏19號","121.389796666667","24.8773416666667","6500900","三峽區"
"242038","AAC-296","2019/07/18 09:19:24","新北市新莊區成功街29號","121.425506666667","25.0213166666667","6500500","新莊區"
"242059","986-R7","2019/07/18 09:19:19","新北市新莊區瓊林路96-6號","121.443918333333","25.0270583333333","6500500","新莊區"
"242001","751-BX","2019/07/18 09:19:28","新北市新莊區中正路78-1號","121.458501666667","25.037845","6500500","新莊區"
"242028","615-BX","2019/07/18 09:19:16","新北市新莊區中華路一段228號","121.452581666667","25.0431916666667","6500500","新莊區"
"242026","613-BX","2019/07/18 09:19:25","新北市新莊區思源路273號","121.459691666667","25.047925","6500500","新莊區"
"242057","612-BX","2019/07/18 09:19:27","新北市新莊區龍安路266巷34號","121.421528333333","25.0186066666667","6500500","新莊區"
"242045","566-BX","2019/07/18 09:19:27","新北市新莊區中正路新生巷8號","121.41692","25.0240083333333","6500500","新莊區"
"242055","441-UM","2019/07/18 09:19:24","新北市新莊區豐年街52號","121.446295","25.031825","6500500","新莊區"
"242003","440-UM","2019/07/18 09:19:28","新北市新莊區頭興街52號","121.463761666667","25.0535616666667","6500500","新莊區"
"242040","415-TV","2019/07/18 09:19:17","新北市新莊區中正路694巷3弄2號","121.41842","25.02831","6500500","新莊區"
"242047","400-BY","2019/07/18 09:19:18","新北市新莊區萬安街165巷34號","121.421186666667","25.0206566666667","6500500","新莊區"
"242024","362-BY","2019/07/18 09:19:19","新北市新莊區五工二路62巷15號","121.461066666667","25.0661183333333","6500500","新莊區"
"242022","353-BY","2019/07/18 09:19:21","新北市新莊區化成路658號","121.465903333333","25.056105","6500500","新莊區"
"242012","132-UY","2019/07/18 09:19:14","新北市新莊區中和街175巷11號","121.447223333333","25.0506716666667","6500500","新莊區"
"242035","135-UY","2019/07/18 09:19:08","新北市新莊區建安街75號","121.42776","25.02487","6500500","新莊區"
"242052","172-VK","2019/07/18 09:19:27","新北市新莊區西盛街344巷7號","121.427643333333","25.0141316666667","6500500","新莊區"
"242014","173-VK","2019/07/18 09:19:12","新北市新莊區中和街32號","121.448233333333","25.043855","6500500","新莊區"
"242020","175-VK","2019/07/18 09:19:15","新北市新莊區公園路58號","121.449366666667","25.0393733333333","6500500","新莊區"
"242010","346-TH","2019/07/18 09:19:23","新北市新莊區中榮街102號","121.447241666667","25.0528666666667","6500500","新莊區"
"242033","348-TH","2019/07/18 09:19:27","新北市新莊區新泰路199巷3號","121.446751666667","25.0379133333333","6500500","新莊區"
"242006","349-TH","2019/07/18 09:19:21","新北市新莊區碧江街1號","121.456671666667","25.0355616666667","6500500","新莊區"
"242030","350-TH","2019/07/18 09:19:25","新北市新莊區中正路418號","121.441023333333","25.0337366666667","6500500","新莊區"
"242016","351-TH","2019/07/18 09:19:16","新北市新莊區新泰路357巷3弄57號","121.442108333333","25.0395366666667","6500500","新莊區"
"233003","KEA-2870","2019/07/18 09:19:22","新北市烏來區李茂岸45號","121.50303","24.777535","6502900","烏來區"
"242043","281-VK","2019/07/18 09:19:22","新北市新莊區中正路929巷35號","121.411466666667","25.01974","6500500","新莊區"
