"lineid","car","time","location","longitude","latitude","cityid","cityname"
"234044","148-BY","2019/07/18 13:19:11","新北市永和區得和路373巷4號","121.524783333333","24.9996916666667","6500400","永和區"
"234078","298-R6","2019/07/18 13:19:18","新北市永和區福和路26號","121.523945","25.0083416666667","6500400","永和區"
"234036","336-UY","2019/07/18 13:19:25","新北市永和區民樂街55巷2號","121.527466666667","24.9983283333333","6500400","永和區"
"234062","337-UY","2019/07/18 13:19:09","新北市永和區永元路17巷6弄1號","121.521371666667","25.0007683333333","6500400","永和區"
"234084","338-UY","2019/07/18 13:19:25","新北市永和區中正路556號","121.517453333333","25.0056883333333","6500400","永和區"
"234015","745-BX","2019/07/18 13:19:14","新北市永和區文化路144巷31弄8號","121.512388333333","25.0167783333333","6500400","永和區"
"234028","746-BX","2019/07/18 13:19:22","新北市永和區厚德街68號","121.523916666667","24.998895","6500400","永和區"
"234052","KEA-2590","2019/07/18 13:19:10","新北市永和區中興街30號","121.516256666667","25.0117783333333","6500400","永和區"
"234005","KED-0605","2019/07/18 13:19:24","新北市永和區保平路268巷51弄12號","121.506303333333","25.0064283333333","6500400","永和區"
"234012","KEA-2591","2019/07/18 13:19:19","新北市永和區信義路50號","121.513223333333","25.012385","6500400","永和區"
"234060","AAD-866","2019/07/18 13:19:12","新北市永和區秀朗路一段175號","121.517043333333","25.00367","6500400","永和區"
"234068","748-BX","2019/07/18 13:19:11","新北市永和區豫溪街71號","121.517761666667","25.009965","6500400","永和區"
"234040","862-TW","2019/07/18 13:19:27","新北市永和區保平路151巷2弄7-2號","121.509675","25.0052716666667","6500400","永和區"
"234048","863-TW","2019/07/18 13:19:24","新北市永和區仁愛路104巷1號","121.511941666667","25.013415","6500400","永和區"
"234025","9371-KE","2019/07/18 13:19:27","新北市永和區豫溪街28巷9號","121.51523","25.0094566666667","6500400","永和區"
"234010","9381-KE","2019/07/18 13:19:11","新北市永和區仁愛路141巷3弄9號","121.512001666667","25.0125316666667","6500400","永和區"
"248013","025-BX","2019/07/18 13:19:19","新北市五股區自強路90巷49號","121.431516666667","25.0713966666667","6501500","五股區"
"248015","026-BX","2019/07/18 13:19:10","新北市五股區成泰路三段477巷18號","121.449916666667","25.0989216666667","6501500","五股區"
"248005","077-UY","2019/07/18 13:19:17","新北市五股區中興路一段82號","121.466778333333","25.07305","6501500","五股區"
"248007","KED-0815","2019/07/18 13:19:22","新北市五股區更洲路32巷8弄14號","121.459251666667","25.0796383333333","6501500","五股區"
"248017","KED-0813","2019/07/18 13:19:19","新北市五股區御史路195-3號","121.436036666667","25.0976383333333","6501500","五股區"
"248011","247-BX","2019/07/18 13:19:15","新北市五股區御史路1巷101弄2號","121.44098","25.091225","6501500","五股區"
"248009","272-BY","2019/07/18 13:19:21","新北市五股區成泰路一段189巷24-5號","121.433453333333","25.07767","6501500","五股區"
"248003","677-BX","2019/07/18 13:19:23","新北市五股區成泰路二段226號","121.439743333333","25.0863916666667","6501500","五股區"
"248001","678-BX","2019/07/18 13:19:24","新北市五股區西雲路46號","121.443568333333","25.0909266666667","6501500","五股區"
"234022","9380-KE","2019/07/18 13:19:22","新北市永和區竹林路109巷7號","121.520265","25.0119633333333","6500400","永和區"
"234076","969-R7","2019/07/18 13:19:25","新北市永和區民有街100號","121.517598333333","24.9958433333333","6500400","永和區"
"234072","AAC-211","2019/07/18 13:19:25","新北市永和區復興街83號","121.51755","25.0140783333333","6500400","永和區"
"234066","AAC-212","2019/07/18 13:19:15","新北市永和區保平路50巷8弄20號","121.511768333333","25.0078916666667","6500400","永和區"
"234001","AAC-295","2019/07/18 13:19:21","新北市永和區保福路一段86號","121.512225","25.01033","6500400","永和區"
"244003","248-BX","2019/07/18 13:19:17","新北市林口區嘉寶里89-1號","121.332521666667","25.1204733333333","6501700","林口區"
"243005","646-TV","2019/07/18 13:19:10","新北市泰山區南林路99巷1-1號","121.415465","25.05113","6501600","泰山區"
"231030","002-UM","2019/07/18 13:19:10","新北市新店區安華路28-1號","121.519605","24.9608983333333","6500600","新店區"
"231027","0293-UT","2019/07/18 13:19:10","新北市新店區安康路一段355-3號","121.519823333333","24.962355","6500600","新店區"
"231005","046-UY","2019/07/18 13:19:18","新北市新店區安華路28-1號","121.519406666667","24.9607716666667","6500600","新店區"
"231029","106-UY","2019/07/18 13:19:16","新北市新店區安華路28-1號","121.519723333333","24.9608133333333","6500600","新店區"
"231018","107-UY","2019/07/18 13:19:17","新北市新店區環河路121-2號","121.530453333333","24.971415","6500600","新店區"
"231013","108-UY","2019/07/18 13:19:27","新北市新店區安一路一段1-1號","121.519461666667","24.9610516666667","6500600","新店區"
"231036","110-UY","2019/07/18 13:19:28","新北市新店區車子路10-4號","121.505063333333","24.9545866666667","6500600","新店區"
"231031","256-BX","2019/07/18 13:19:09","新北市新店區安一路一段1-1號","121.519895","24.96111","6500600","新店區"
"231023","260-TV","2019/07/18 13:19:28","新北市新店區安一路一段1-1號","121.519316666667","24.9612583333333","6500600","新店區"
"231003","268-BY","2019/07/18 13:19:12","新北市新店區中興路一段172巷1號","121.542866666667","24.9644433333333","6500600","新店區"
"231035","278-BY","2019/07/18 13:19:18","新北市新店區安一路一段1-1號","121.519613333333","24.961165","6500600","新店區"
"231017","AAD-862","2019/07/18 13:19:29","新北市新店區安康路一段323-1號","121.521868333333","24.963635","6500600","新店區"
"231006","355-BY","2019/07/18 13:19:15","新北市新店區安華路28-1號","121.519211666667","24.96086","6500600","新店區"
"231038","3712-VJ","2019/07/18 13:19:12","新北市新店區安華路1-1號","121.519285","24.9605233333333","6500600","新店區"
"231024","4716-K9","2019/07/18 13:19:16","新北市新店區安康路一段100號","121.527466666667","24.9623133333333","6500600","新店區"
"231025","4715-K9","2019/07/18 13:19:22","新北市新店區中央五街2號","121.530095","24.9739866666667","6500600","新店區"
"231021","513-UM","2019/07/18 13:19:11","新北市新店區安一路一段1-1號","121.51981","24.9621633333333","6500600","新店區"
"231002","619-UM","2019/07/18 13:19:15","新北市新店區安華路28-1號","121.519545","24.96089","6500600","新店區"
"231034","641-BX","2019/07/18 13:19:16","新北市新店區安華路28-1號","121.519525","24.960555","6500600","新店區"
"231011","KED-0819","2019/07/18 13:19:10","新北市新店區安一路一段1-1號","121.519711666667","24.9612183333333","6500600","新店區"
"231010","719-UM","2019/07/18 13:19:13","新北市新店區安一路一段1-1號","121.519486666667","24.9610633333333","6500600","新店區"
"231026","720-UM","2019/07/18 13:19:09","新北市新店區安一路一段1-1號","121.51937","24.9613183333333","6500600","新店區"
"231028","897-TW","2019/07/18 13:19:12","新北市新店區安華路28-1號","121.5196","24.960875","6500600","新店區"
"231001","898-TW","2019/07/18 13:19:10","新北市新店區安華路28-1號","121.519506666667","24.9607833333333","6500600","新店區"
"231004","899-TW","2019/07/18 13:19:22","新北市新店區安華路28-1號","121.519233333333","24.9606916666667","6500600","新店區"
"231037","AKT-0513","2019/07/18 13:18:55","新北市新店區安忠路57巷26弄64號","121.512191666667","24.9570183333333","6500600","新店區"
"235030","003-UY","2019/07/18 13:19:16","新北市中和區中山路二段120號","121.502741666667","25.0038883333333","6500300","中和區"
"235028","005-UY","2019/07/18 13:19:12","新北市中和區圓通路167巷6號","121.497961666667","24.9951616666667","6500300","中和區"
"235027","006-UY","2019/07/18 13:19:11","新北市中和區中正路589巷1號","121.485921666667","24.994335","6500300","中和區"
"235020","096-UM","2019/07/18 13:19:27","新北市中和區中正路748號","121.485491666667","24.9985333333333","6500300","中和區"
"235003","097-UM","2019/07/18 13:19:20","新北市中和區安平路38號","121.50999","24.9950316666667","6500300","中和區"
"235029","098-UM","2019/07/18 13:19:18","新北市中和區莊敬路49巷20弄20號","121.502633333333","25.0058033333333","6500300","中和區"
"235040","150-BY","2019/07/18 13:19:26","新北市中和區安平路59號","121.50968","24.995165","6500300","中和區"
"235022","151-BY","2019/07/18 13:19:23","新北市中和區圓通路369巷156弄19號","121.488733333333","24.98195","6500300","中和區"
"235019","183-VK","2019/07/18 13:19:24","新北市中和區莒光路222-1號","121.469381666667","24.9951166666667","6500300","中和區"
"235002","185-VK","2019/07/18 13:19:18","新北市中和區大智街42巷2號","121.521933333333","24.992125","6500300","中和區"
"235013","186-VK","2019/07/18 13:19:22","新北市中和區中正路501號","121.488971666667","24.9935783333333","6500300","中和區"
"235031","255-BX","2019/07/18 13:19:25","新北市中和區新生街240號","121.48377","24.9978983333333","6500300","中和區"
"235036","301-VK","2019/07/18 13:19:20","新北市中和區連城路263巷4弄10號","121.491675","24.995355","6500300","中和區"
"235007","352-BY","2019/07/18 13:19:12","新北市中和區景平路381號","121.503851666667","24.99341","6500300","中和區"
"235006","KEA-2878","2019/07/18 13:19:27","新北市中和區景平路161-1號","121.512565","24.992345","6500300","中和區"
"235033","4980-A6","2019/07/18 13:19:27","新北市中和區連城路259號","121.492676666667","24.9967616666667","6500300","中和區"
"235034","558-UM","2019/07/18 13:19:16","新北市中和區景平路429-1號","121.501371666667","24.9953783333333","6500300","中和區"
"235009","565-BX","2019/07/18 13:19:31","新北市中和區復興路33號","121.505265","24.9898616666667","6500300","中和區"
"235024","KED-0823","2019/07/18 13:19:24","新北市中和區員山路473號","121.480258333333","25.004865","6500300","中和區"
"235018","640-BX","2019/07/18 13:19:16","新北市中和區民享街119巷2號","121.474408333333","24.998685","6500300","中和區"
"235011","732-UM","2019/07/18 13:19:23","新北市中和區復興路348號","121.500013333333","24.9903266666667","6500300","中和區"
"235035","783-BX","2019/07/18 13:19:21","新北市中和區中板路20號","121.483868333333","25.01212","6500300","中和區"
"235021","801-TS","2019/07/18 13:19:20","新北市中和區民享街97巷19號","121.475403333333","24.999545","6500300","中和區"
"235005","802-TS","2019/07/18 13:19:12","新北市中和區中和路294號","121.508623333333","24.999795","6500300","中和區"
"235016","805-TS","2019/07/18 13:19:20","新北市中和區興南路二段94號","121.505256666667","24.9842283333333","6500300","中和區"
"235017","900-TW","2019/07/18 13:19:13","新北市中和區員山路36巷16-2號","121.485255","24.99138","6500300","中和區"
"235012","911-UM","2019/07/18 13:19:21","新北市中和區錦和路350-1號","121.490423333333","24.993535","6500300","中和區"
"235015","157-BY","2019/07/18 13:19:14","新北市中和區忠孝街1巷2-1號","121.50902","24.9830683333333","6500300","中和區"
"235001","AAC-213","2019/07/18 13:19:16","新北市中和區景新街383巷50號","121.514481666667","24.99094","6500300","中和區"
"235023","AAC-215","2019/07/18 13:19:12","新北市中和區員山路36巷16-3號","121.485028333333","24.9912016666667","6500300","中和區"
"220013","072-UY","2019/07/18 13:19:14","新北市板橋區華東街1-9號","121.44811","24.9949216666667","6500100","板橋區"
"247011","056-VK","2019/07/18 13:19:09","新北市五股區中興路三段2巷10號","121.449113333333","25.08122","6501400","蘆洲區"
"247005","002-UY","2019/07/18 13:19:28","新北市五股區中興路三段163號","121.449048333333","25.0807633333333","6501400","蘆洲區"
"228005","097-TW","2019/07/18 13:19:25","新北市貢寮區美豐里丹裡街18-2號","121.911983333333","25.0580566666667","6502600","貢寮區"
"228004","212-TW","2019/07/18 13:19:11","新北市貢寮區吉林里內寮街21號","121.900635","24.9826233333333","6502600","貢寮區"
"253003","6232-TK","2019/07/18 13:19:14","新北市石門區石崩山20-7號","121.567775","25.275695","6502200","石門區"
"253004","6251-TK","2019/07/18 13:19:16","新北市石門區阿里荖69號","121.612038333333","25.2712066666667","6502200","石門區"
"253002","637-UY","2019/07/18 13:19:21","新北市石門區大溪墘9號","121.55348","25.271495","6502200","石門區"
"253001","KEC-0718","2019/07/18 13:19:20","新北市石門區崁子腳41-2號","121.533246666667","25.2883583333333","6502200","石門區"
"207002","749-BX","2019/07/18 13:19:29","新北市萬里區崁腳里內崁路2-3號","121.638935","25.16053","6502800","萬里區"
"207001","662-BX","2019/07/18 13:19:15","新北市萬里區龜吼里玉田路29號","121.68132","25.1945766666667","6502800","萬里區"
"252005","AAC-283","2019/07/18 13:19:17","新北市三芝區八賢里八連溪87號","121.520281666667","25.2293266666667","6502100","三芝區"
"220028","200-UY","2019/07/18 13:19:10","新北市板橋區華東街1-10號","121.448285","24.9950366666667","6500100","板橋區"
"220030","610-BX","2019/07/18 13:19:28","新北市板橋區華東街1-10號","121.448241666667","24.9949616666667","6500100","板橋區"
"220104","560-BX","2019/07/18 13:19:27","新北市板橋區華東街1-10號","121.448578333333","24.9950166666667","6500100","板橋區"
"220021","985-R7","2019/07/18 13:19:27","新北市板橋區華東街1-10號","121.448303333333","24.9949783333333","6500100","板橋區"
"220046","AAC-210","2019/07/18 13:19:25","新北市板橋區民生路二段120號","121.470466666667","25.0198183333333","6500100","板橋區"
"235032","KEA-2873","2019/07/18 13:19:17","新北市中和區中正路637巷60弄61號","121.485603333333","24.9931716666667","6500300","中和區"
"235025","KEA-2875","2019/07/18 13:19:21","新北市中和區民享街97巷9號","121.475135","24.9993383333333","6500300","中和區"
"235026","KEA-2876","2019/07/18 13:19:14","新北市中和區景平路989巷6號","121.495131666667","25.0051616666667","6500300","中和區"
