"lineid","car","time","location","longitude","latitude","cityid","cityname"
"248007","KED-0815","2019/07/18 15:39:23","新北市五股區中興路一段1巷12弄2號","121.469125","25.071445","6501500","五股區"
"231030","002-UM","2019/07/18 15:39:10","新北市新店區新和街93巷6弄24號","121.521471666667","24.9871566666667","6500600","新店區"
"231005","046-UY","2019/07/18 15:39:18","新北市新店區建國路118號","121.53927","24.9785966666667","6500600","新店區"
"231029","106-UY","2019/07/18 15:39:16","新北市新店區安康路三段47號","121.492713333333","24.9525683333333","6500600","新店區"
"231018","107-UY","2019/07/18 15:39:17","新北市新店區中正路663巷1弄15號","121.532856666667","24.9898916666667","6500600","新店區"
"231013","108-UY","2019/07/18 15:39:27","新北市新店區永業路81巷3弄34號","121.53098","24.9501183333333","6500600","新店區"
"231036","110-UY","2019/07/18 15:39:28","新北市新店區安祥路65號","121.483823333333","24.9602366666667","6500600","新店區"
"231039","187-VK","2019/07/18 15:39:13","新北市新店區寶元路二段16巷1號","121.54609","24.98232","6500600","新店區"
"231031","256-BX","2019/07/18 15:39:17","新北市新店區雙城路12號","121.490623333333","24.9502716666667","6500600","新店區"
"231023","260-TV","2019/07/18 15:39:28","新北市新店區大新街7巷13號","121.543858333333","24.9681466666667","6500600","新店區"
"231003","268-BY","2019/07/18 15:39:12","新北市新店區寶興路60巷3號","121.549878333333","24.9718483333333","6500600","新店區"
"231035","278-BY","2019/07/18 15:39:18","新北市新店區安興路81號","121.515548333333","24.97552","6500600","新店區"
"231017","AAD-862","2019/07/18 15:39:09","新北市新店區明山路29號","121.56492","24.95677","6500600","新店區"
"231038","3712-VJ","2019/07/18 15:39:12","新北市新店區安康路二段242巷10號","121.508845","24.959725","6500600","新店區"
"231021","513-UM","2019/07/18 15:39:11","新北市新店區湖興路109號","121.559923333333","24.93672","6500600","新店區"
"231034","641-BX","2019/07/18 15:39:16","新北市新店區玫瑰路58巷31號","121.493963333333","24.9467366666667","6500600","新店區"
"231011","KED-0819","2019/07/18 15:39:24","新北市新店區中興路三段160號","121.54454","24.9806983333333","6500600","新店區"
"231026","720-UM","2019/07/18 15:39:21","新北市新店區三民路57號","121.536726666667","24.9711033333333","6500600","新店區"
"231028","897-TW","2019/07/18 15:39:12","新北市新店區僑義路11巷1號","121.500306666667","24.951735","6500600","新店區"
"231037","AKT-0513","2019/07/18 15:39:14","新北市新店區安興路81號","121.515458333333","24.975525","6500600","新店區"
"241011","013-R5","2019/07/18 15:39:21","新北市三重區龍濱路285號","121.501003333333","25.07338","6500200","三重區"
"241028","022-UY","2019/07/18 15:39:07","新北市三重區捷運路36號","121.48292","25.0551166666667","6500200","三重區"
"241015","062-VK","2019/07/18 15:39:10","新北市三重區重新路四段121號","121.485123333333","25.052005","6500200","三重區"
"241017","063-VK","2019/07/18 15:39:10","新北市三重區大仁街1號","121.491686666667","25.0635833333333","6500200","三重區"
"241016","266-UM","2019/07/18 15:39:16","新北市三重區重新路四段121號","121.48523","25.0520466666667","6500200","三重區"
"241018","268-UM","2019/07/18 15:39:26","新北市三重區重新路四段121號","121.485323333333","25.0520583333333","6500200","三重區"
"241013","270-UM","2019/07/18 15:39:20","新北市三重區力行路一段80號","121.483788333333","25.069535","6500200","三重區"
"241025","271-UM","2019/07/18 15:39:21","新北市三重區重新路四段121號","121.484758333333","25.0524083333333","6500200","三重區"
"241007","398-BY","2019/07/18 15:39:28","新北市三重區重新路四段121號","121.484923333333","25.0519366666667","6500200","三重區"
"241020","478-VK","2019/07/18 15:39:18","新北市三重區忠孝路二段52號","121.485033333333","25.07045","6500200","三重區"
"241014","543-UM","2019/07/18 15:39:24","新北市三重區重新路四段121號","121.48511","25.0520716666667","6500200","三重區"
"241006","AAD-863","2019/07/18 15:39:22","新北市三重區重新路四段121號","121.48464","25.0521266666667","6500200","三重區"
"241012","941-UM","2019/07/18 15:39:13","新北市三重區自強路一段66號","121.497078333333","25.0666433333333","6500200","三重區"
"241029","942-UM","2019/07/18 15:39:11","新北市三重區中正南路269號","121.493258333333","25.0522266666667","6500200","三重區"
"241033","AAC-255","2019/07/18 15:39:19","新北市三重區重新路五段283號","121.47898","25.049295","6500200","三重區"
"235019","183-VK","2019/07/18 15:39:24","新北市林口區太平里180號","121.368348333333","25.13434","6500300","中和區"
"235033","4980-A6","2019/07/18 15:39:27","新北市中和區員山路381巷1弄2號","121.480873333333","25.0023733333333","6500300","中和區"
"235012","911-UM","2019/07/18 15:39:14","新北市中和區景新街397號","121.512615","24.9899083333333","6500300","中和區"
"235023","AAC-215","2019/07/18 15:39:12","新北市中和區員山路17號","121.480408333333","24.98472","6500300","中和區"
"227002","642-TC","2019/07/18 15:39:19","新北市雙溪區牡丹里中正路54號","121.865455","25.040125","6502500","雙溪區"
"227001","400-TW","2019/07/18 15:39:29","新北市雙溪區牡丹里中正路54號","121.865413333333","25.0401733333333","6502500","雙溪區"
"236040","KED-0685","2019/07/18 15:39:29","新北市土城區學享街11號","121.450925","24.987385","6501300","土城區"
"236074","166-UM","2019/07/18 15:39:16","新北市土城區龍泉路13-1號","121.411001666667","24.9478783333333","6501300","土城區"
"236029","253-BX","2019/07/18 15:39:25","新北市土城區中央路一段69巷3號","121.447978333333","24.9895016666667","6501300","土城區"
"236024","269-VK","2019/07/18 15:39:13","新北市土城區明德路二段291號","121.444681666667","24.9842083333333","6501300","土城區"
"236012","270-VK","2019/07/18 15:39:19","新北市土城區廣明街65號","121.454873333333","24.993605","6501300","土城區"
"236068","KEA-2877","2019/07/18 15:39:26","新北市土城區中央路三段130-1號","121.434713333333","24.9659","6501300","土城區"
"236017","401-BY","2019/07/18 15:39:16","新北市土城區延吉街137巷25弄5號","121.471471666667","24.9851433333333","6501300","土城區"
"236057","912-UM","2019/07/18 15:39:25","新北市土城區中央路二段27號","121.442831666667","24.9801266666667","6501300","土城區"
"236045","913-UM","2019/07/18 15:39:26","新北市土城區金城路三段243號","121.471596666667","24.9897833333333","6501300","土城區"
"236054","AAC-216","2019/07/18 15:39:13","新北市土城區學府路一段148號","121.454761666667","24.9869766666667","6501300","土城區"
"238002","755-BX","2019/07/18 15:39:16","新北市樹林區啟智街28號","121.420848333333","24.9934033333333","6500700","樹林區"
"238010","601-UM","2019/07/18 15:39:29","新北市樹林區龍興街13巷20號","121.40353","25.0164716666667","6500700","樹林區"
"238006","599-UM","2019/07/18 15:39:10","新北市樹林區太平路235-1號","121.419238333333","24.974115","6500700","樹林區"
"238011","5061-A6","2019/07/18 15:39:12","新北市樹林區中山路二段189巷6號","121.405408333333","24.9764283333333","6500700","樹林區"
"238005","KEA-2217","2019/07/18 15:39:24","新北市樹林區中華路69號","121.423155","24.98318","6500700","樹林區"
"238008","KEA-2539","2019/07/18 15:39:21","新北市樹林區柑園街二段9號","121.388128333333","24.9558016666667","6500700","樹林區"
"238012","303-VK","2019/07/18 15:39:19","新北市樹林區中山路一段376-3號","121.418668333333","24.98559","6500700","樹林區"
"238004","283-BY","2019/07/18 15:39:13","新北市樹林區光榮街3巷1號","121.413086666667","25.0039166666667","6500700","樹林區"
"238001","282-BY","2019/07/18 15:39:26","新北市樹林區潭興街143巷9號","121.425495","24.9999883333333","6500700","樹林區"
"238007","268-VK","2019/07/18 15:39:16","新北市樹林區俊英街222號","121.424945","25.0099233333333","6500700","樹林區"
"238013","172-UY","2019/07/18 15:39:26","新北市樹林區中洲街51巷4號","121.396715","24.971005","6500700","樹林區"
"238003","169-UY","2019/07/18 15:39:25","新北市樹林區文化街56號","121.418038333333","24.9885816666667","6500700","樹林區"
"220031","286-VK","2019/07/18 15:39:27","新北市板橋區僑中二街106巷27號","121.444611666667","25.00773","6500100","板橋區"
"235026","KEA-2876","2019/07/18 15:39:13","新北市中和區立業路83巷26號","121.491278333333","25.0066383333333","6500300","中和區"
