"lineid","car","time","location","longitude","latitude","cityid","cityname"
"249005","172-UM","2019/07/18 16:59:19","新北市八里區渡船頭3-19號","121.4338","25.1515616666667","6502300","八里區"
"249001","173-UM","2019/07/18 16:59:22","新北市八里區中山路三段106號","121.391325","25.1423716666667","6502300","八里區"
"249004","303-UY","2019/07/18 16:59:19","新北市八里區忠孝路353號","121.416506666667","25.1612183333333","6502300","八里區"
"249002","305-UY","2019/07/18 16:57:04","新北市八里區牛寮埔29號","121.432276666667","25.1451516666667","6502300","八里區"
"249003","593-UM","2019/07/18 16:58:39","新北市八里區中山路二段356巷12號","121.402221666667","25.14919","6502300","八里區"
"244007","080-UY","2019/07/18 16:59:21","新北市林口區林口路296號","121.38601","25.0854866666667","6501700","林口區"
"244019","402-UM","2019/07/18 16:59:16","新北市林口區中山路152-1號","121.391016666667","25.078725","6501700","林口區"
"244023","483-VK","2019/07/18 16:59:15","新北市林口區粉寮路二段128號","121.404326666667","25.090655","6501700","林口區"
"244017","485-VK","2019/07/18 16:59:12","新北市林口區粉寮69號","121.40506","25.0908116666667","6501700","林口區"
"244009","657-BX","2019/07/18 16:59:19","新北市林口區粉寮路一段77-1號","121.397006666667","25.0792916666667","6501700","林口區"
"244025","837-TS","2019/07/18 16:59:28","新北市林口區粉寮路二段128號","121.404511666667","25.090675","6501700","林口區"
"244021","838-TS","2019/07/18 16:59:23","新北市林口區粉寮一街124號","121.405056666667","25.0859566666667","6501700","林口區"
"231046","719-UM","2019/07/18 16:59:25","新北市新店區灣潭路15-8號","121.541455","24.9395183333333","6500600","新店區"
"241011","013-R5","2019/07/18 16:59:21","新北市三重區仁愛街55巷130號","121.499036666667","25.0728","6500200","三重區"
"241028","022-UY","2019/07/18 16:59:27","新北市三重區光興街150號","121.494406666667","25.059445","6500200","三重區"
"241008","059-VK","2019/07/18 16:59:21","新北市三重區永福街179巷38號","121.477645","25.07477","6500200","三重區"
"241031","061-VK","2019/07/18 16:59:14","新北市三重區三寧街15號","121.489508333333","25.0598433333333","6500200","三重區"
"241015","062-VK","2019/07/18 16:59:25","新北市三重區福德北路82-1號","121.501658333333","25.066275","6500200","三重區"
"241017","063-VK","2019/07/18 16:59:10","新北市三重區國隆路12巷11號","121.49245","25.0636533333333","6500200","三重區"
"241024","065-VK","2019/07/18 16:59:26","新北市三重區力行路二段1號","121.482116666667","25.0718316666667","6500200","三重區"
"241002","090-VK","2019/07/18 16:59:24","新北市三重區仁義街192號","121.496503333333","25.0817316666667","6500200","三重區"
"241003","091-VK","2019/07/18 16:59:19","新北市三重區碧華街317號","121.49111","25.0842116666667","6500200","三重區"
"241030","742-BX","2019/07/18 16:59:21","新北市三重區昌隆街50號","121.491465","25.0514666666667","6500200","三重區"
"241016","266-UM","2019/07/18 16:59:25","新北市三重區大同北路97-3號","121.494343333333","25.0637","6500200","三重區"
"241009","267-UM","2019/07/18 16:59:30","新北市三重區溪尾街218巷41號","121.486336666667","25.08097","6500200","三重區"
"241018","268-UM","2019/07/18 16:59:26","新北市三重區六張街126巷6號","121.492331666667","25.0690166666667","6500200","三重區"
"241032","269-UM","2019/07/18 16:59:12","新北市三重區重陽路一段120巷13號","121.486108333333","25.06011","6500200","三重區"
"241013","270-UM","2019/07/18 16:59:20","新北市三重區仁興街28巷42號","121.49843","25.0749783333333","6500200","三重區"
"241025","271-UM","2019/07/18 16:59:21","新北市三重區中正北路357號","121.472663333333","25.0717233333333","6500200","三重區"
"241007","398-BY","2019/07/18 16:59:28","新北市三重區慈愛街147號","121.489356666667","25.0795916666667","6500200","三重區"
"241004","475-VK","2019/07/18 16:59:17","新北市三重區五華街92巷26-1號","121.49167","25.0815333333333","6500200","三重區"
"241020","478-VK","2019/07/18 16:59:17","新北市三重區國道路一段7號","121.4862","25.0734433333333","6500200","三重區"
"241026","480-VK","2019/07/18 16:59:15","新北市三重區文化南路42號","121.500365","25.0601616666667","6500200","三重區"
"241014","543-UM","2019/07/18 16:59:23","新北市三重區三和路二段173巷49號","121.49936","25.0701983333333","6500200","三重區"
"241023","545-UM","2019/07/18 16:59:11","新北市三重區新北大道一段252號","121.479988333333","25.0616966666667","6500200","三重區"
"241001","547-UM","2019/07/18 16:59:17","新北市三重區仁政街9號","121.493383333333","25.076395","6500200","三重區"
"241019","KEA-2593","2019/07/18 16:59:26","新北市三重區自強路二段74巷19號","121.487991666667","25.0699116666667","6500200","三重區"
"241006","AAD-863","2019/07/18 16:59:22","新北市三重區車路頭街143巷1號","121.484025","25.0765983333333","6500200","三重區"
"241022","KED-0820","2019/07/18 16:59:24","新北市三重區中華路96號","121.483498333333","25.0632783333333","6500200","三重區"
"241005","887-TS","2019/07/18 16:59:29","新北市三重區仁華街63號","121.48425","25.08271","6500200","三重區"
"241012","941-UM","2019/07/18 16:59:12","新北市三重區仁和街161號","121.499546666667","25.0746316666667","6500200","三重區"
"241029","942-UM","2019/07/18 16:59:31","新北市三重區中正南路248-6號","121.493255","25.0536333333333","6500200","三重區"
"241033","AAC-255","2019/07/18 16:59:19","新北市三重區中興北街275號","121.469186666667","25.060735","6500200","三重區"
"235064","005-UY","2019/07/18 16:32:10","新北市中和區員山路36巷16-3號","121.484985","24.991145","6500300","中和區"
"247014","KEA-2869","2019/07/18 16:59:24","新北市蘆洲區三民路24號","121.475756666667","25.0824616666667","6501400","蘆洲區"
"247008","KED-0682","2019/07/18 16:59:12","新北市蘆洲區信義路57號","121.475041666667","25.0799183333333","6501400","蘆洲區"
"235054","640-BX","2019/07/18 16:50:56","新北市中和區員山路36巷16-2號","121.485341666667","24.9916066666667","6500300","中和區"
"247004","893-R6","2019/07/18 16:59:21","新北市蘆洲區長安街110號","121.461008333333","25.0814883333333","6501400","蘆洲區"
"247018","546-UM","2019/07/18 16:59:08","新北市蘆洲區民族路227巷25號","121.476846666667","25.0890783333333","6501400","蘆洲區"
"247002","500-BY","2019/07/18 16:58:55","新北市蘆洲區永平街16號","121.459158333333","25.0906066666667","6501400","蘆洲區"
"247024","337-TH","2019/07/18 16:59:13","新北市蘆洲區長興路202號","121.460595","25.0874083333333","6501400","蘆洲區"
"247022","057-VK","2019/07/18 16:59:13","新北市蘆洲區三民路128巷166-1號","121.468406666667","25.0925533333333","6501400","蘆洲區"
"247012","056-VK","2019/07/18 16:59:14","新北市蘆洲區信義路296號","121.47764","25.0875366666667","6501400","蘆洲區"
"247016","053-VK","2019/07/18 16:59:22","新北市蘆洲區中正路69號","121.470406666667","25.08267","6501400","蘆洲區"
"247020","007-UY","2019/07/18 16:59:18","新北市蘆洲區民族路422巷82弄2號","121.473668333333","25.0936916666667","6501400","蘆洲區"
"247006","002-UY","2019/07/18 16:59:24","新北市蘆洲區長安街99巷23號","121.460966666667","25.0799966666667","6501400","蘆洲區"
"228003","097-TW","2019/07/18 16:59:23","新北市貢寮區福隆里興隆街13-5號","121.944161666667","25.016545","6502600","貢寮區"
"228002","663-BX","2019/07/18 16:59:24","新北市貢寮區貢寮里朝陽街142號","121.904958333333","25.0234866666667","6502600","貢寮區"
"224007","285-BY","2019/07/18 16:59:29","新北市瑞芳區瑞竹路109號","121.762778333333","25.103555","6501200","瑞芳區"
"224009","275-VK","2019/07/18 16:59:12","新北市瑞芳區明燈路一段1號","121.826565","25.1093333333333","6501200","瑞芳區"
"224008","273-VK","2019/07/18 16:59:29","新北市瑞芳區明燈路一段267號","121.816895","25.1084583333333","6501200","瑞芳區"
"224005","271-BY","2019/07/18 16:59:23","新北市瑞芳區哩咾路1號","121.875015","25.1236766666667","6501200","瑞芳區"
"227002","642-TC","2019/07/18 16:59:19","新北市雙溪區上林里內平林90號","121.828231666667","25.0277783333333","6502500","雙溪區"
"227001","400-TW","2019/07/18 16:59:09","新北市雙溪區三貂里政光路6-5號","121.851458333333","25.07172","6502500","雙溪區"
"251004","009-UM","2019/07/18 16:58:53","新北市淡水區中正東路36號","121.448845","25.1657433333333","6501000","淡水區"
"251005","010-UM","2019/07/18 16:59:20","新北市淡水區中正路二段31號","121.419328333333","25.1821","6501000","淡水區"
"251015","KEA-2871","2019/07/18 16:59:16","新北市淡水區忠愛街5-2號","121.460708333333","25.1715783333333","6501000","淡水區"
"251016","179-VK","2019/07/18 16:59:28","新北市淡水區瓦坑3號","121.477615","25.18085","6501000","淡水區"
"251007","180-VK","2019/07/18 16:59:13","新北市淡水區中正東路一段3巷2號","121.450428333333","25.1648533333333","6501000","淡水區"
"251008","181-VK","2019/07/18 16:59:12","新北市淡水區樹梅坑9號","121.472911666667","25.142665","6501000","淡水區"
"251013","182-VK","2019/07/18 16:59:25","新北市淡水區泉洲厝32號","121.489286666667","25.192615","6501000","淡水區"
"251012","441-VK","2019/07/18 16:59:10","新北市淡水區中正路一段22巷100號","121.426815","25.1858433333333","6501000","淡水區"
"251006","561-UM","2019/07/18 16:59:14","新北市淡水區中正路二段31號","121.41931","25.1818983333333","6501000","淡水區"
"251014","577-R6","2019/07/18 16:59:23","新北市淡水區淡金路四段472巷22號","121.452456666667","25.2239316666667","6501000","淡水區"
"251011","650-BX","2019/07/18 16:59:26","新北市淡水區坪頂路51巷2號","121.458073333333","25.1626966666667","6501000","淡水區"
"252002","178-VK","2019/07/18 16:59:19","新北市三芝區忠孝街154-1號","121.506165","25.2585166666667","6502100","三芝區"
"237008","302-VK","2019/07/18 16:59:30","新北市三峽區中山路459巷137號","121.349828333333","24.9336633333333","6500900","三峽區"
"233002","762-BX","2019/07/18 16:59:16","新北市烏來區啦卡路9巷5號","121.554503333333","24.8610416666667","6502900","烏來區"
"247010","KED-0683","2019/07/18 16:59:24","新北市蘆洲區信義路176號","121.479211666667","25.08401","6501400","蘆洲區"
"252001","KED-0821","2019/07/18 16:59:19","新北市三芝區淡金路二段76-1號","121.503873333333","25.2608366666667","6502100","三芝區"
"242061","986-R7","2019/07/18 16:59:14","新北市新莊區新泰路357巷3弄57號","121.442265","25.0392466666667","6500500","新莊區"
"242002","751-BX","2019/07/18 16:59:12","新北市新莊區新泰路255巷83號","121.442235","25.0388066666667","6500500","新莊區"
"242058","612-BX","2019/07/18 16:59:23","新北市新莊區新泰路357巷3弄57號","121.44216","25.0391983333333","6500500","新莊區"
"242051","497-BY","2019/07/18 16:59:21","新北市新莊區新泰路357巷3弄57號","121.442193333333","25.0394533333333","6500500","新莊區"
"242042","415-TV","2019/07/18 16:59:15","新北市新莊區新泰路255巷83號","121.442081666667","25.0388066666667","6500500","新莊區"
"242048","400-BY","2019/07/18 16:59:08","新北市新莊區新泰路357巷3弄57號","121.442441666667","25.0395","6500500","新莊區"
"242025","362-BY","2019/07/18 16:59:18","新北市新莊區新泰路357巷3弄57號","121.442011666667","25.0390066666667","6500500","新莊區"
"242053","172-VK","2019/07/18 16:59:15","新北市新莊區三和路12-21號","121.442056666667","25.0387433333333","6500500","新莊區"
"242019","KED-0687","2019/07/18 16:59:17","新北市新莊區三和路12-21號","121.442283333333","25.0381066666667","6500500","新莊區"
"242017","351-TH","2019/07/18 16:59:25","新北市新莊區新泰路357巷3弄57號","121.442061666667","25.0394766666667","6500500","新莊區"
"238023","601-UM","2019/07/18 16:59:09","新北市樹林區中正路433-1號","121.41491","25.0078583333333","6500700","樹林區"
"238018","KEA-2217","2019/07/18 16:59:21","新北市樹林區八德街588-1號","121.39836","24.96925","6500700","樹林區"
"238025","303-VK","2019/07/18 16:59:19","新北市樹林區中正路22-1號","121.427788333333","24.9994633333333","6500700","樹林區"
"238017","283-BY","2019/07/18 16:59:12","新北市樹林區中正路433-2號","121.41481","25.0082133333333","6500700","樹林區"
"238001","282-BY","2019/07/18 16:59:26","新北市樹林區大慶街99-1號","121.427635","24.9997333333333","6500700","樹林區"
"239007","AAC-297","2019/07/18 16:59:18","新北市鶯歌區環河路85號","121.347418333333","24.9397133333333","6500800","鶯歌區"
"239008","527-UM","2019/07/18 16:59:28","新北市鶯歌區二甲路12-2號","121.345806666667","24.935145","6500800","鶯歌區"
"239001","417-VK","2019/07/18 16:59:25","新北市鶯歌區環河路81-2號","121.349333333333","24.942065","6500800","鶯歌區"
"233001","KEA-2870","2019/07/18 16:59:17","新北市烏來區溫泉街86巷10號","121.549948333333","24.8614933333333","6502900","烏來區"
"242044","281-VK","2019/07/18 16:59:10","新北市新莊區三和路12-21號","121.441965","25.038325","6500500","新莊區"
