"lineid","car","time","location","longitude","latitude","cityid","cityname"
"234046","148-BY","2019/07/18 18:39:15","新北市永和區永元路68號","121.522553333333","25.00157","6500400","永和區"
"234081","298-R6","2019/07/18 18:39:28","新北市永和區林森路81號","121.523841666667","25.0038683333333","6500400","永和區"
"234062","337-UY","2019/07/18 18:39:12","新北市永和區福和路1號","121.526441666667","25.0100316666667","6500400","永和區"
"234086","338-UY","2019/07/18 18:39:14","新北市永和區中正路362號","121.517701666667","25.0007733333333","6500400","永和區"
"234030","746-BX","2019/07/18 18:39:13","新北市永和區豫溪街217巷3號","121.52474","25.009515","6500400","永和區"
"234013","KEA-2591","2019/07/18 18:39:25","新北市永和區仁愛路99號","121.512796666667","25.0129533333333","6500400","永和區"
"234070","748-BX","2019/07/18 18:39:25","新北市永和區福和路1號","121.525803333333","25.0096666666667","6500400","永和區"
"234042","862-TW","2019/07/18 18:39:25","新北市永和區福和路346號","121.514971666667","25.0072133333333","6500400","永和區"
"234026","9371-KE","2019/07/18 18:39:14","新北市永和區自由街60號","121.513605","25.00597","6500400","永和區"
"234011","9373-KE","2019/07/18 18:39:15","新北市永和區永和路二段231巷8號","121.51497","25.0140833333333","6500400","永和區"
"249005","172-UM","2019/07/18 18:39:19","新北市八里區中華路三段196號","121.388121666667","25.125565","6502300","八里區"
"249001","173-UM","2019/07/18 18:39:21","新北市八里區龍米路一段386巷1-1號","121.45156","25.1323316666667","6502300","八里區"
"249004","303-UY","2019/07/18 18:39:19","新北市八里區中山路一段50號","121.422035","25.1590766666667","6502300","八里區"
"249002","305-UY","2019/07/18 18:39:23","新北市八里區龍形一街12巷10號","121.449875","25.1308066666667","6502300","八里區"
"248014","025-BX","2019/07/18 18:39:13","新北市五股區成泰路二段87號","121.438171666667","25.084045","6501500","五股區"
"248016","026-BX","2019/07/18 18:39:19","新北市五股區凌雲路一段149巷5-1號","121.44891","25.101715","6501500","五股區"
"248008","KED-0815","2019/07/18 18:39:10","新北市五股區中興路一段140巷11號","121.465018333333","25.0746466666667","6501500","五股區"
"248020","KED-0813","2019/07/18 18:39:26","新北市五股區孝義路108-1號","121.441775","25.1200083333333","6501500","五股區"
"248012","247-BX","2019/07/18 18:39:12","新北市五股區成泰路三段2巷1-20號","121.441125","25.08675","6501500","五股區"
"248010","272-BY","2019/07/18 18:39:26","新北市五股區水碓一路92號","121.431808333333","25.0736116666667","6501500","五股區"
"248004","677-BX","2019/07/18 18:39:21","新北市五股區民義路一段216-2號","121.429963333333","25.0895366666667","6501500","五股區"
"248002","678-BX","2019/07/18 18:39:19","新北市五股區西雲路199號","121.44802","25.0960983333333","6501500","五股區"
"234023","9380-KE","2019/07/18 18:39:21","新北市永和區福和路76巷5弄14號","121.522278333333","25.0083616666667","6500400","永和區"
"234077","969-R7","2019/07/18 18:39:17","新北市永和區中正路330號","121.517576666667","24.9997966666667","6500400","永和區"
"234003","AAC-295","2019/07/18 18:39:16","新北市永和區福和路1號","121.526536666667","25.00992","6500400","永和區"
"232011","375-UM","2019/07/18 18:39:17","新北市坪林區坪雙路一段41號","121.711698333333","24.9424516666667","6502000","坪林區"
"244007","080-UY","2019/07/18 18:39:21","新北市林口區後湖5-1號","121.388706666667","25.0981666666667","6501700","林口區"
"244019","402-UM","2019/07/18 18:39:16","新北市林口區麗園二街47巷51號","121.382713333333","25.0694633333333","6501700","林口區"
"244013","KEA-2802","2019/07/18 18:39:21","新北市林口區麗園路2巷31號","121.375085","25.0709","6501700","林口區"
"244023","483-VK","2019/07/18 18:39:15","新北市林口區信義路128號","121.380446666667","25.0794016666667","6501700","林口區"
"244017","485-VK","2019/07/18 18:39:12","新北市林口區文化二路一段20巷9號","121.365298333333","25.0671583333333","6501700","林口區"
"244009","657-BX","2019/07/18 18:39:19","新北市林口區竹林路326巷74號","121.392633333333","25.0822733333333","6501700","林口區"
"244011","701-TV","2019/07/18 18:39:20","新北市林口區新寮1-72號","121.392208333333","25.0766633333333","6501700","林口區"
"244025","837-TS","2019/07/18 18:39:28","新北市林口區南勢四街328號","121.357393333333","25.07622","6501700","林口區"
"244021","838-TS","2019/07/18 18:39:23","新北市林口區工六路52號","121.399215","25.07807","6501700","林口區"
"243010","297-R6","2019/07/18 18:39:26","新北市泰山區黎明路25號","121.422083333333","25.0610933333333","6501600","泰山區"
"243014","KEA-2801","2019/07/18 18:39:18","新北市泰山區犁頭窠3-1號","121.422348333333","25.0605133333333","6501600","泰山區"
"243011","KEA-2216","2019/07/18 18:39:25","新北市泰山區泰林路二段37-2號","121.435386666667","25.05725","6501600","泰山區"
"243015","680-BX","2019/07/18 18:39:10","新北市泰山區憲訓路36號","121.42902","25.06462","6501600","泰山區"
"222002","016-RS","2019/07/18 18:39:15","新北市深坑區雲鄉路3-1號","121.621086666667","25.0000716666667","6501800","深坑區"
"222003","436-BY","2019/07/18 18:39:16","新北市深坑區翠谷街10號","121.627095","25.0083966666667","6501800","深坑區"
"231061","002-UM","2019/07/18 18:39:16","新北市新店區安華路28-1號","121.519563333333","24.96074","6500600","新店區"
"231044","046-UY","2019/07/18 18:39:25","新北市新店區安康路一段355號","121.519781666667","24.9633383333333","6500600","新店區"
"231060","106-UY","2019/07/18 18:39:17","新北市新店區安華路28-1號","121.51975","24.9607733333333","6500600","新店區"
"231051","107-UY","2019/07/18 18:39:23","新北市新店區中央路167-3號","121.53365","24.9702766666667","6500600","新店區"
"221035","KEA-2785","2019/07/18 18:39:20","新北市汐止區大同路二段187巷8弄4號","121.652583333333","25.065555","6501100","汐止區"
"231062","256-BX","2019/07/18 18:39:17","新北市新店區安一路一段1-1號","121.519758333333","24.9611433333333","6500600","新店區"
"231054","260-TV","2019/07/18 18:39:24","新北市新店區安華路28-1號","121.519241666667","24.9609","6500600","新店區"
"231042","268-BY","2019/07/18 18:39:19","新北市新店區中正路82號","121.54375","24.97041","6500600","新店區"
"231050","AAD-862","2019/07/18 18:39:23","新北市新店區安一路一段1-1號","121.520478333333","24.9611866666667","6500600","新店區"
"231045","355-BY","2019/07/18 18:39:18","新北市新店區安華路28-1號","121.518951666667","24.9607566666667","6500600","新店區"
"231058","3713-VJ","2019/07/18 18:38:54","新北市新店區國校路32-3號","121.537803333333","24.9541833333333","6500600","新店區"
"231055","4716-K9","2019/07/18 18:39:12","新北市新店區華興街38巷3號","121.537176666667","24.9691783333333","6500600","新店區"
"231056","4715-K9","2019/07/18 18:39:15","新北市新店區大豐路68巷17號","121.538466666667","24.9803283333333","6500600","新店區"
"231052","513-UM","2019/07/18 18:39:28","新北市新店區新烏路一段58-2號","121.54614","24.9455333333333","6500600","新店區"
"231063","616-UM","2019/07/18 18:39:22","新北市新店區安華路28-1號","121.51958","24.960585","6500600","新店區"
"231041","619-UM","2019/07/18 18:39:21","新北市新店區安華路28-1號","121.519321666667","24.9605933333333","6500600","新店區"
"231046","719-UM","2019/07/18 18:39:19","新北市新店區直潭二街1號","121.535425","24.94317","6500600","新店區"
"231057","720-UM","2019/07/18 18:39:11","新北市新店區北宜路一段64號","121.538491666667","24.956025","6500600","新店區"
"231059","897-TW","2019/07/18 18:39:19","新北市新店區安華路1-1號","121.519823333333","24.9604216666667","6500600","新店區"
"231040","898-TW","2019/07/18 18:39:25","新北市新店區安華路28-1號","121.51933","24.960925","6500600","新店區"
"231066","AKT-0513","2019/07/18 18:39:13","新北市新店區安華路28-1號","121.51959","24.96065","6500600","新店區"
"235066","003-UY","2019/07/18 18:39:31","新北市中和區水源路34巷2號","121.50469","25.0035566666667","6500300","中和區"
"235064","005-UY","2019/07/18 18:39:28","新北市中和區連城路75巷7號","121.498261666667","24.9986866666667","6500300","中和區"
"235063","006-UY","2019/07/18 18:39:23","新北市中和區連城路347巷4弄23號","121.487285","24.99559","6500300","中和區"
"235056","096-UM","2019/07/18 18:39:15","新北市中和區員山路611巷1號","121.477895","25.01125","6500300","中和區"
"235039","097-UM","2019/07/18 18:39:19","新北市中和區宜安路18巷14號","121.513683333333","24.99632","6500300","中和區"
"235065","098-UM","2019/07/18 18:39:20","新北市中和區莊敬路33巷38弄1號","121.500516666667","25.0066916666667","6500300","中和區"
"235040","150-BY","2019/07/18 18:39:19","新北市中和區宜安路47巷2號","121.511715","24.9964183333333","6500300","中和區"
"235058","151-BY","2019/07/18 18:39:28","新北市中和區員山路143巷5號","121.480501666667","24.9960866666667","6500300","中和區"
"235055","183-VK","2019/07/18 18:39:20","新北市板橋區民族路308號","121.47067","25.0064783333333","6500300","中和區"
"235038","185-VK","2019/07/18 18:39:25","新北市中和區大勇街60巷9號","121.51839","24.9948116666667","6500300","中和區"
"235049","186-VK","2019/07/18 18:39:15","新北市中和區明義街40巷2號","121.503778333333","24.9955583333333","6500300","中和區"
"235067","255-BX","2019/07/18 18:39:19","新北市中和區新生街15號","121.48324","25.00428","6500300","中和區"
"235044","293-VK","2019/07/18 18:39:15","新北市中和區復興路261號","121.502851666667","24.9902716666667","6500300","中和區"
"235072","301-VK","2019/07/18 18:39:16","新北市中和區中山路二段40號","121.50436","25.0050916666667","6500300","中和區"
"235043","352-BY","2019/07/18 18:39:27","新北市中和區景平路73-3號","121.518476666667","24.9915133333333","6500300","中和區"
"235042","KEA-2878","2019/07/18 18:39:11","新北市中和區秀朗路三段179號","121.524431666667","24.99092","6500300","中和區"
"235050","4979-A6","2019/07/18 18:39:16","新北市中和區忠孝街136號","121.511986666667","24.9867083333333","6500300","中和區"
"235069","4980-A6","2019/07/18 18:39:24","新北市中和區景平路668號","121.497163333333","25.0009366666667","6500300","中和區"
"235070","558-UM","2019/07/18 18:39:09","新北市中和區南山路27號","121.501995","24.998955","6500300","中和區"
"235045","565-BX","2019/07/18 18:39:19","新北市中和區南山路206號","121.506076666667","24.9903083333333","6500300","中和區"
"235060","KED-0823","2019/07/18 18:39:07","新北市中和區中山路三段150號","121.473535","25.0063016666667","6500300","中和區"
"235054","640-BX","2019/07/18 18:39:26","新北市中和區自治街1號","121.474575","25.0032733333333","6500300","中和區"
"235047","732-UM","2019/07/18 18:39:21","新北市中和區南山路320巷10弄13號","121.506788333333","24.9865616666667","6500300","中和區"
"235046","733-UM","2019/07/18 18:39:24","新北市中和區忠孝街126-2號","121.512188333333","24.9862133333333","6500300","中和區"
"235057","801-TS","2019/07/18 18:39:29","新北市中和區民安街25巷11號","121.480516666667","25.00031","6500300","中和區"
"235041","802-TS","2019/07/18 18:39:25","新北市中和區中安街178巷13弄1號","121.51025","24.998665","6500300","中和區"
"235052","805-TS","2019/07/18 18:39:13","新北市中和區興南路三段52號","121.495003333333","24.97629","6500300","中和區"
"235053","900-TW","2019/07/18 18:39:22","新北市中和區華安街16巷9號","121.466016666667","24.997835","6500300","中和區"
"235048","911-UM","2019/07/18 18:39:07","新北市中和區南山路305號","121.504755","24.9916133333333","6500300","中和區"
"235051","157-BY","2019/07/18 18:39:15","新北市中和區華新街232巷8號","121.505885","24.9820383333333","6500300","中和區"
"235037","AAC-213","2019/07/18 18:39:18","新北市中和區秀朗路三段128巷13號","121.524443333333","24.9933583333333","6500300","中和區"
"235059","AAC-215","2019/07/18 18:39:25","新北市中和區錦和路354巷15號","121.489483333333","24.9915533333333","6500300","中和區"
"220068","015-TV","2019/07/18 18:36:24","新北市板橋區三民路一段120號","121.479241666667","25.0209116666667","6500100","板橋區"
"220065","072-UY","2019/07/18 18:39:12","新北市板橋區館前東路116號","121.4635","25.00777","6500100","板橋區"
"220086","073-UY","2019/07/18 18:39:15","新北市板橋區華東街1-10號","121.448256666667","24.9950516666667","6500100","板橋區"
"220106","075-UY","2019/07/18 18:39:19","新北市板橋區民生路二段161巷5號","121.470025","25.0196516666667","6500100","板橋區"
"220069","AAD-861","2019/07/18 18:39:20","新北市板橋區大華街9號","121.45896","25.0062066666667","6500100","板橋區"
"220098","120-SR","2019/07/18 18:39:25","新北市板橋區民生路二段161巷3號","121.470138333333","25.0197316666667","6500100","板橋區"
"226004","312-R5","2019/07/18 18:39:14","新北市平溪區石底里公園街18-3號","121.733315","25.025815","6502400","平溪區"
"228003","097-TW","2019/07/18 18:39:20","新北市貢寮區和美里龍洞街40-2號","121.915236666667","25.11168","6502600","貢寮區"
"228001","212-TW","2019/07/18 18:39:22","新北市貢寮區仁理村研海街12-1號","121.923758333333","25.0516433333333","6502600","貢寮區"
"228002","663-BX","2019/07/18 18:39:24","新北市貢寮區福隆里東興街6-11號","121.950843333333","25.0210733333333","6502600","貢寮區"
"224006","676-BX","2019/07/18 18:39:21","新北市瑞芳區明燈路三段156號","121.803663333333","25.1090183333333","6501200","瑞芳區"
"224007","285-BY","2019/07/18 18:39:29","新北市瑞芳區大埔路123號","121.763636666667","25.1011616666667","6501200","瑞芳區"
"224009","275-VK","2019/07/18 18:39:27","新北市瑞芳區祈堂路53-1號","121.859335","25.1109983333333","6501200","瑞芳區"
"224008","273-VK","2019/07/18 18:39:09","新北市瑞芳區岳王路162號","121.80798","25.1113283333333","6501200","瑞芳區"
"224005","271-BY","2019/07/18 18:39:23","新北市瑞芳區瑞濱路139號","121.81973","25.1198916666667","6501200","瑞芳區"
"227002","642-TC","2019/07/18 18:39:08","新北市雙溪區魚行里坤溪3-5號","121.875653333333","25.0212083333333","6502500","雙溪區"
"227001","400-TW","2019/07/18 18:39:09","新北市雙溪區牡丹里牡丹132號","121.850598333333","25.0595133333333","6502500","雙溪區"
"253006","032-BX","2019/07/18 18:39:28","新北市石門區楓林28-1號","121.542218333333","25.289385","6502200","石門區"
"253005","295-VK","2019/07/18 18:39:19","新北市石門區石門街3號","121.565895","25.2910516666667","6502200","石門區"
"222001","KEA-2212","2019/07/18 18:39:17","新北市深坑區北深路一段84號","121.636135","25.0107083333333","6501800","深坑區"
"208002","KEA-2872","2019/07/18 18:39:12","新北市金山區忠孝一路19巷5號","121.638306666667","25.2182366666667","6502700","金山區"
"208003","665-BX","2019/07/18 18:39:27","新北市金山區中山路340號","121.633485","25.225255","6502700","金山區"
"251004","009-UM","2019/07/18 18:39:21","新北市淡水區大同路2號","121.461535","25.1408066666667","6501000","淡水區"
"251001","011-UM","2019/07/18 18:39:12","新北市淡水區自強路166號","121.465611666667","25.1341483333333","6501000","淡水區"
"251002","012-UM","2019/07/18 18:39:30","新北市淡水區中正東路一段3巷14弄1號","121.450925","25.16426","6501000","淡水區"
"251015","KEA-2871","2019/07/18 18:39:16","新北市淡水區興福寮66巷319號","121.48482","25.161715","6501000","淡水區"
"251016","179-VK","2019/07/18 18:39:28","新北市淡水區下圭柔山84-1號","121.439108333333","25.2050883333333","6501000","淡水區"
"251008","181-VK","2019/07/18 18:39:12","新北市淡水區北投子69-1號","121.453971666667","25.1818883333333","6501000","淡水區"
"251013","182-VK","2019/07/18 18:39:25","新北市淡水區奎柔山路1262號","121.482476666667","25.2056366666667","6501000","淡水區"
"251010","413-VK","2019/07/18 18:39:23","新北市淡水區沙崙路122號","121.42333","25.1828","6501000","淡水區"
"251012","441-VK","2019/07/18 18:39:10","新北市淡水區北新路121號","121.448921666667","25.1786716666667","6501000","淡水區"
"251006","561-UM","2019/07/18 18:39:14","新北市淡水區崁頂36號","121.438928333333","25.1946566666667","6501000","淡水區"
"251014","577-R6","2019/07/18 18:39:23","新北市淡水區崙頂12-8號","121.495586666667","25.21722","6501000","淡水區"
"251011","650-BX","2019/07/18 18:39:26","新北市淡水區中正東路75號","121.447413333333","25.1674183333333","6501000","淡水區"
"251003","673-BX","2019/07/18 18:39:17","新北市淡水區北新路69巷26號","121.44668","25.18008","6501000","淡水區"
"207003","550-UM","2019/07/18 18:39:27","新北市萬里區野柳里港東路151-2號","121.688396666667","25.2050966666667","6502800","萬里區"
"207004","225-TW","2019/07/18 18:39:20","新北市萬里區萬里里獅頭路7號","121.691985","25.1783283333333","6502800","萬里區"
"252002","178-VK","2019/07/18 18:39:19","新北市三芝區民生街36號","121.50375","25.2561633333333","6502100","三芝區"
"252003","249-BX","2019/07/18 18:39:12","新北市三芝區後厝里土地公坑56號","121.463508333333","25.248715","6502100","三芝區"
"208001","170-UY","2019/07/18 18:39:12","新北市金山區文化三路7號","121.635148333333","25.22497","6502700","金山區"
"237004","KEA-2597","2019/07/18 18:39:16","新北市三峽區插角82號","121.406163333333","24.8708983333333","6500900","三峽區"
"237007","153-BY","2019/07/18 18:39:11","新北市三峽區柑樹路2巷98號","121.361738333333","24.904295","6500900","三峽區"
"237009","210-TH","2019/07/18 18:39:19","新北市三峽區大同路286巷12號","121.363978333333","24.9252783333333","6500900","三峽區"
"237013","252-BX","2019/07/18 18:39:26","新北市三峽區光明路69巷24號","121.376618333333","24.92911","6500900","三峽區"
"237012","275-BY","2019/07/18 18:39:24","新北市三峽區三樹路340號","121.383998333333","24.9433333333333","6500900","三峽區"
"237008","302-VK","2019/07/18 18:39:10","新北市三峽區白雞115-16號","121.400871666667","24.9060266666667","6500900","三峽區"
"237014","433-BY","2019/07/18 18:39:09","新北市三峽區隆恩街177巷16號","121.362158333333","24.9415566666667","6500900","三峽區"
"237006","5529-G3","2019/07/18 18:39:23","新北市三峽區溪東路375號","121.411828333333","24.929105","6500900","三峽區"
"237011","KEA-2596","2019/07/18 18:39:24","新北市三峽區溪東路325號","121.410568333333","24.9302066666667","6500900","三峽區"
"237015","649-BX","2019/07/18 18:39:24","新北市三峽區成福路311號","121.429235","24.9236183333333","6500900","三峽區"
"237010","706-TV","2019/07/18 18:39:22","新北市三峽區復興路487號","121.361295","24.9384216666667","6500900","三峽區"
"237005","AKY-6261","2019/07/18 18:39:21","新北市三峽區文化路1-1號","121.373576666667","24.935045","6500900","三峽區"
"236042","KED-0685","2019/07/18 18:39:23","新北市土城區學成路108巷8-2號","121.45017","24.9895483333333","6501300","土城區"
"236078","166-UM","2019/07/18 18:39:18","新北市土城區中央路四段52巷32號","121.419648333333","24.9608116666667","6501300","土城區"
"236030","253-BX","2019/07/18 18:39:25","新北市土城區慶利街32號","121.438841666667","24.9744516666667","6501300","土城區"
"236026","269-VK","2019/07/18 18:39:15","新北市土城區忠義路53-1號","121.440515","24.9687533333333","6501300","土城區"
"236014","270-VK","2019/07/18 18:39:24","新北市土城區清水路207巷19號","121.459865","24.9824066666667","6501300","土城區"
"236038","271-VK","2019/07/18 18:39:21","新北市土城區明德路一段313巷7號","121.459656666667","24.9760783333333","6501300","土城區"
"236070","KEA-2877","2019/07/18 18:39:26","新北市土城區永豐路157巷29弄1號","121.468668333333","24.9814783333333","6501300","土城區"
"252001","KED-0821","2019/07/18 18:39:12","新北市三芝區中興街二段260號","121.501851666667","25.2529","6502100","三芝區"
"236021","401-BY","2019/07/18 18:39:23","新北市土城區延吉街262號","121.466011666667","24.9845016666667","6501300","土城區"
"236059","912-UM","2019/07/18 18:39:28","新北市土城區中央路三段193號","121.430356666667","24.964695","6501300","土城區"
"236049","913-UM","2019/07/18 18:39:20","新北市土城區明德路一段6-1號","121.464898333333","24.9856016666667","6501300","土城區"
"236063","915-UM","2019/07/18 18:39:12","新北市土城區延壽路13巷17號","121.470013333333","24.99132","6501300","土城區"
"236055","AAC-216","2019/07/18 18:39:17","新北市土城區中華路一段31-2號","121.446286666667","24.988975","6501300","土城區"
"242061","986-R7","2019/07/18 18:39:14","新北市新莊區民安路188巷1弄2號","121.425268333333","25.0234866666667","6500500","新莊區"
"242058","612-BX","2019/07/18 18:39:23","新北市新莊區中正路891-36號","121.414471666667","25.0232533333333","6500500","新莊區"
"242056","441-UM","2019/07/18 18:39:18","新北市新莊區環漢路三段525號","121.435491666667","25.002645","6500500","新莊區"
"242042","415-TV","2019/07/18 18:39:15","新北市新莊區天祥街102號","121.415193333333","25.03005","6500500","新莊區"
"242007","349-TH","2019/07/18 18:39:21","新北市新莊區環漢路三段532號","121.435378333333","25.000765","6500500","新莊區"
"238023","601-UM","2019/07/18 18:39:09","新北市樹林區三福街114號","121.40641","25.016275","6500700","樹林區"
"238019","599-UM","2019/07/18 18:39:10","新北市樹林區中華路190-16號","121.411701666667","24.9805883333333","6500700","樹林區"
"238024","5061-A6","2019/07/18 18:39:25","新北市樹林區太順街79巷1號","121.416881666667","24.9782716666667","6500700","樹林區"
"238022","KEA-2213","2019/07/18 18:39:10","新北市樹林區中華路190-1號","121.41137","24.9805116666667","6500700","樹林區"
"238025","303-VK","2019/07/18 18:39:19","新北市樹林區中山路三段128號","121.392186666667","24.9721816666667","6500700","樹林區"
"238014","282-BY","2019/07/18 18:39:26","新北市樹林區中山路二段121號","121.40858","24.9800766666667","6500700","樹林區"
"238020","268-VK","2019/07/18 18:39:20","新北市樹林區三俊街127號","121.41791","25.0157633333333","6500700","樹林區"
"238026","172-UY","2019/07/18 18:39:26","新北市樹林區育德街78-1號","121.38798","24.9681166666667","6500700","樹林區"
"238016","169-UY","2019/07/18 18:39:24","新北市樹林區中山路二段34號","121.41744","24.9849216666667","6500700","樹林區"
"239007","AAC-297","2019/07/18 18:39:18","新北市鶯歌區中正一路建德巷38號","121.36449","24.9578183333333","6500800","鶯歌區"
"239008","527-UM","2019/07/18 18:39:28","新北市鶯歌區朝陽街4號","121.33624","24.9766","6500800","鶯歌區"
"239001","417-VK","2019/07/18 18:39:25","新北市鶯歌區國中街171-1號","121.337718333333","24.93885","6500800","鶯歌區"
"239003","360-BY","2019/07/18 18:39:16","新北市鶯歌區永和街126號","121.334875","24.96942","6500800","鶯歌區"
"239004","193-VK","2019/07/18 18:39:25","新北市鶯歌區尖山路293巷13號","121.341556666667","24.9442533333333","6500800","鶯歌區"
"221036","130-UY","2019/07/18 18:39:12","新北市汐止區長興街一段5號","121.669493333333","25.0785266666667","6501100","汐止區"
"221015","131-UY","2019/07/18 18:39:18","新北市汐止區鄉友街42號","121.668986666667","25.0815466666667","6501100","汐止區"
"221010","269-BY","2019/07/18 18:39:30","新北市汐止區瑞松街41號","121.645405","25.105895","6501100","汐止區"
"221012","278-VK","2019/07/18 18:39:12","新北市汐止區保長路53號","121.67374","25.07872","6501100","汐止區"
"221023","279-VK","2019/07/18 18:39:16","新北市汐止區康寧街541巷9號","121.633781666667","25.0693366666667","6501100","汐止區"
"221032","280-BY","2019/07/18 18:39:27","新北市汐止區民權街二段93號","121.618993333333","25.04748","6501100","汐止區"
"221033","297-VK","2019/07/18 18:39:10","新北市汐止區宜興街1號","121.620738333333","25.04116","6501100","汐止區"
"221029","298-VK","2019/07/18 18:39:25","新北市汐止區樟樹一路133巷1號","121.64217","25.0651116666667","6501100","汐止區"
"221021","299-VK","2019/07/18 18:39:10","新北市汐止區新台五路一段123號","121.651683333333","25.0616366666667","6501100","汐止區"
"221031","353-TW","2019/07/18 18:39:15","新北市汐止區大同路一段403巷1號","121.641433333333","25.0601833333333","6501100","汐止區"
"221025","623-UM","2019/07/18 18:39:24","新北市汐止區福安街22巷10號","121.662806666667","25.0643166666667","6501100","汐止區"
"221002","707-TV","2019/07/18 18:39:27","新北市汐止區中興路20號","121.636971666667","25.0596533333333","6501100","汐止區"
"221018","753-BX","2019/07/18 18:39:27","新北市汐止區茄苳路224巷3弄23號","121.67124","25.0680483333333","6501100","汐止區"
"220079","145-BY","2019/07/18 18:39:24","新北市板橋區大觀路二段111號","121.446225","25.0015416666667","6500100","板橋區"
"220080","200-UY","2019/07/18 18:39:24","新北市板橋區大觀路二段435-10號","121.445986666667","24.9944283333333","6500100","板橋區"
"220082","610-BX","2019/07/18 18:39:18","新北市板橋區大觀路二段443-2號","121.438671666667","24.9952233333333","6500100","板橋區"
"224002","257-TC","2019/07/18 18:39:17","新北市瑞芳區三爪子坑路3號","121.814266666667","25.1077716666667","6501200","瑞芳區"
"220056","276-BY","2019/07/18 18:39:10","新北市板橋區南雅南路二段18號","121.454461666667","25.0034833333333","6500100","板橋區"
"220072","277-BY","2019/07/18 18:39:19","新北市板橋區板城路421號","121.448065","24.996165","6500100","板橋區"
"220071","283-VK","2019/07/18 18:39:15","新北市板橋區四川路二段243號","121.45048","24.993625","6500100","板橋區"
"220094","285-UM","2019/07/18 18:39:23","新北市板橋區民生路二段161巷1號","121.469911666667","25.0197833333333","6500100","板橋區"
"220083","286-VK","2019/07/18 18:39:21","新北市板橋區板城路421號","121.448175","24.9961033333333","6500100","板橋區"
"220081","287-VK","2019/07/18 18:39:24","新北市板橋區大觀路二段153巷44弄5號","121.44657","24.9993883333333","6500100","板橋區"
"220090","288-VK","2019/07/18 18:39:15","新北市板橋區民生路二段171號","121.469595","25.02008","6500100","板橋區"
"220084","296-UM","2019/07/18 18:39:11","新北市板橋區大觀路二段153巷46弄1號","121.448535","24.99864","6500100","板橋區"
"242044","281-VK","2019/07/18 18:39:10","新北市新莊區中正路887-19號","121.415958333333","25.024105","6500500","新莊區"
"220075","303-R5","2019/07/18 18:39:15","新北市板橋區板城路421號","121.448296666667","24.9958616666667","6500100","板橋區"
"220062","305-R5","2019/07/18 18:39:22","新北市板橋區民生路二段161巷7號","121.470158333333","25.0196333333333","6500100","板橋區"
"220092","307-R5","2019/07/18 18:39:21","新北市板橋區民生路二段89-4號","121.471005","25.018285","6500100","板橋區"
"220088","491-VK","2019/07/18 18:39:26","新北市板橋區民生路二段175號","121.469803333333","25.0201783333333","6500100","板橋區"
"220035","560-BX","2019/07/18 18:39:27","新北市板橋區南雅西路二段145巷10號","121.45154","25.01201","6500100","板橋區"
"220103","561-BX","2019/07/18 18:39:20","新北市板橋區民生路二段121號","121.47067","25.0185","6500100","板橋區"
"220063","609-BX","2019/07/18 18:38:55","新北市板橋區民生路二段171號","121.469776666667","25.0200483333333","6500100","板橋區"
"220074","630-UY","2019/07/18 18:39:12","新北市板橋區南雅南路二段140號","121.451918333333","24.996205","6500100","板橋區"
"220091","637-BX","2019/07/18 18:39:09","新北市板橋區民生路二段161巷1號","121.46986","25.019885","6500100","板橋區"
"220057","686-BX","2019/07/18 18:39:19","新北市板橋區館前西路4號","121.459085","25.0072433333333","6500100","板橋區"
"220077","687-BX","2019/07/18 18:39:25","新北市板橋區華東街1-10號","121.448383333333","24.99499","6500100","板橋區"
"220093","689-BX","2019/07/18 18:39:15","新北市板橋區民生路二段161巷1號","121.469966666667","25.0200433333333","6500100","板橋區"
"220054","741-BX","2019/07/18 18:39:27","新北市板橋區華東街1-9號","121.448065","24.9949483333333","6500100","板橋區"
"220055","827-TW","2019/07/18 18:39:27","新北市板橋區忠孝路31-1號","121.460701666667","25.00198","6500100","板橋區"
"220067","829-TW","2019/07/18 18:39:08","新北市板橋區民生路二段161巷1號","121.470125","25.0199283333333","6500100","板橋區"
"220073","985-R7","2019/07/18 18:39:26","新北市板橋區四川路二段23-3號","121.454663333333","24.99564","6500100","板橋區"
"220097","AAC-210","2019/07/18 18:39:10","新北市板橋區民生路二段120號","121.470333333333","25.01974","6500100","板橋區"
"220064","AAC-253","2019/07/18 18:39:26","新北市板橋區民生路二段36-1號","121.472118333333","25.0167933333333","6500100","板橋區"
"235068","KEA-2873","2019/07/18 18:39:24","新北市中和區中正路215號","121.496688333333","24.9937083333333","6500300","中和區"
"235061","KEA-2875","2019/07/18 18:39:27","新北市中和區民享街40-1號","121.47386","25.00284","6500300","中和區"
"235062","KEA-2876","2019/07/18 18:39:23","新北市中和區中山路二段312巷20號","121.495225","25.0039716666667","6500300","中和區"
