"lineid","car","time","location","longitude","latitude","cityid","cityname"
"234046","148-BY","2019/07/18 19:29:15","新北市永和區秀朗路二段249號","121.526443333333","24.9995066666667","6500400","永和區"
"234081","298-R6","2019/07/18 19:29:28","新北市永和區環河東路三段58號","121.526955","25.006075","6500400","永和區"
"234038","336-UY","2019/07/18 19:29:22","新北市永和區民樂街38號","121.527545","25.00072","6500400","永和區"
"234064","337-UY","2019/07/18 19:29:23","新北市永和區得和路243巷28弄3號","121.520935","25.0013666666667","6500400","永和區"
"234086","338-UY","2019/07/18 19:29:14","新北市永和區林森路31-1號","121.525976666667","25.0049566666667","6500400","永和區"
"234017","745-BX","2019/07/18 19:29:17","新北市永和區環河西路一段79號","121.513126666667","25.0180116666667","6500400","永和區"
"234030","746-BX","2019/07/18 19:29:13","新北市永和區民生路29號","121.52287","24.998385","6500400","永和區"
"234054","KEA-2590","2019/07/18 19:29:29","新北市永和區復興街19巷9號","121.516115","25.0131733333333","6500400","永和區"
"234007","KED-0605","2019/07/18 19:29:29","新北市永和區永和路一段147-1號","121.514186666667","25.0090516666667","6500400","永和區"
"234013","KEA-2591","2019/07/18 19:29:25","新北市永和區中山路一段184巷9弄19號","121.508156666667","25.0088816666667","6500400","永和區"
"234061","AAD-866","2019/07/18 19:29:18","新北市永和區中正路522號","121.517266666667","25.0049266666667","6500400","永和區"
"234070","748-BX","2019/07/18 19:29:25","新北市永和區警光街5-1號","121.51975","25.009525","6500400","永和區"
"234042","862-TW","2019/07/18 19:29:25","新北市永和區中和路519巷2號","121.51095","25.0028733333333","6500400","永和區"
"234050","863-TW","2019/07/18 19:29:18","新北市永和區仁愛路88號","121.512528333333","25.01333","6500400","永和區"
"234026","9371-KE","2019/07/18 19:29:14","新北市永和區安樂路84號","121.514501666667","24.9986266666667","6500400","永和區"
"234011","9373-KE","2019/07/18 19:29:11","新北市永和區保福路二段163巷13弄16號","121.509218333333","25.014255","6500400","永和區"
"248014","025-BX","2019/07/18 19:29:27","新北市五股區民義路一段152號","121.433141666667","25.0873933333333","6501500","五股區"
"248008","KED-0815","2019/07/18 19:29:29","新北市五股區中興路一段107號","121.466218333333","25.07319","6501500","五股區"
"248020","KED-0813","2019/07/18 19:29:26","新北市五股區凌雲路三段94-1號","121.427453333333","25.12211","6501500","五股區"
"248012","247-BX","2019/07/18 19:29:12","新北市五股區成泰路二段91巷9號","121.437515","25.084135","6501500","五股區"
"248010","272-BY","2019/07/18 19:29:26","新北市五股區自強路90巷72號","121.430801666667","25.0712416666667","6501500","五股區"
"248004","677-BX","2019/07/18 19:29:21","新北市五股區五福路2號","121.434026666667","25.0875416666667","6501500","五股區"
"248002","678-BX","2019/07/18 19:29:19","新北市五股區凌雲路一段158巷6號","121.447806666667","25.1029633333333","6501500","五股區"
"234023","9380-KE","2019/07/18 19:29:19","新北市永和區竹林路91巷45號","121.521365","25.01285","6500400","永和區"
"234077","969-R7","2019/07/18 19:29:17","新北市永和區民權路58巷3號","121.519533333333","24.998305","6500400","永和區"
"234074","AAC-211","2019/07/18 19:29:23","新北市永和區竹林路6號","121.516301666667","25.0148566666667","6500400","永和區"
"234067","AAC-212","2019/07/18 19:29:30","新北市永和區永貞路351號","121.509228333333","25.0075533333333","6500400","永和區"
"234003","AAC-295","2019/07/18 19:29:17","新北市永和區福和路385號","121.514285","25.0076533333333","6500400","永和區"
"244023","483-VK","2019/07/18 19:29:15","新北市林口區民有街70號","121.372893333333","25.07697","6501700","林口區"
"243012","AAD-798","2019/07/18 19:29:17","新北市泰山區仁義路220巷2號","121.433005","25.0538233333333","6501600","泰山區"
"243010","297-R6","2019/07/18 19:29:26","新北市泰山區明志路二段93-1號","121.4287","25.0518983333333","6501600","泰山區"
"243014","KEA-2801","2019/07/18 19:29:18","新北市泰山區仁義路220巷53號","121.432165","25.0526766666667","6501600","泰山區"
"243016","421-VK","2019/07/18 19:29:22","新北市泰山區明志路三段222號","121.42145","25.0360066666667","6501600","泰山區"
"243009","KEA-2215","2019/07/18 19:29:21","新北市五股區成泰路一段7巷38號","121.432578333333","25.067085","6501600","泰山區"
"243011","KEA-2216","2019/07/18 19:29:25","新北市泰山區中山路二段561-9號","121.429981666667","25.0405883333333","6501600","泰山區"
"243013","646-TV","2019/07/18 19:29:11","新北市泰山區明志路三段145巷5弄26號","121.425721666667","25.040535","6501600","泰山區"
"243015","680-BX","2019/07/18 19:29:09","新北市泰山區明志路二段136巷1-1號","121.427348333333","25.05117","6501600","泰山區"
"222002","016-RS","2019/07/18 19:29:15","新北市深坑區北深路一段177號","121.632591666667","25.0108383333333","6501800","深坑區"
"222003","436-BY","2019/07/18 19:29:16","新北市深坑區深南路51-1號","121.621328333333","25.009755","6501800","深坑區"
"231061","002-UM","2019/07/18 19:29:16","新北市新店區安康路一段230-3號","121.52231","24.9637933333333","6500600","新店區"
"231044","046-UY","2019/07/18 19:29:25","新北市新店區中興路三段182號","121.544025","24.9812716666667","6500600","新店區"
"231060","106-UY","2019/07/18 19:29:18","新北市新店區安康路二段74號","121.514361666667","24.9635116666667","6500600","新店區"
"231051","107-UY","2019/07/18 19:29:23","新北市新店區中央五街20號","121.529386666667","24.9744116666667","6500600","新店區"
"231049","108-UY","2019/07/18 19:29:13","新北市新店區二十張路1巷3弄3號","121.54067","24.9821483333333","6500600","新店區"
"231065","110-UY","2019/07/18 19:29:21","新北市新店區安祥路109巷1弄59號","121.478178333333","24.9608583333333","6500600","新店區"
"221035","KEA-2785","2019/07/18 19:29:20","新北市汐止區汐萬路一段256巷3號","121.652441666667","25.07458","6501100","汐止區"
"231062","256-BX","2019/07/18 19:29:17","新北市新店區莒光路4號","121.527541666667","24.961715","6500600","新店區"
"231054","260-TV","2019/07/18 19:29:24","新北市新店區文中路40-6號","121.539801666667","24.9564933333333","6500600","新店區"
"231042","268-BY","2019/07/18 19:29:18","新北市新店區中興路一段144號","121.542393333333","24.9637666666667","6500600","新店區"
"231064","278-BY","2019/07/18 19:29:31","新北市新店區安康路二段85巷11號","121.51369","24.9622666666667","6500600","新店區"
"231050","AAD-862","2019/07/18 19:29:23","新北市新店區北宜路二段82-40號","121.55347","24.9531266666667","6500600","新店區"
"231045","355-BY","2019/07/18 19:29:18","新北市新店區北宜路二段187號","121.552708333333","24.9533016666667","6500600","新店區"
"231058","3713-VJ","2019/07/18 19:29:14","新北市新店區北新路二段228巷13號","121.543478333333","24.9771466666667","6500600","新店區"
"231056","4715-K9","2019/07/18 19:29:15","新北市新店區安民街35巷9弄6號","121.514928333333","24.9656616666667","6500600","新店區"
"231052","513-UM","2019/07/18 19:29:28","新北市新店區屈尺路16號","121.548808333333","24.92261","6500600","新店區"
"231063","616-UM","2019/07/18 19:29:22","新北市新店區達觀路14巷3號","121.503201666667","24.9417483333333","6500600","新店區"
"231041","619-UM","2019/07/18 19:29:21","新北市新店區中正路669號","121.533928333333","24.98994","6500600","新店區"
"231047","KED-0819","2019/07/18 19:29:18","新北市新店區五峰路62號","121.545866666667","24.9682883333333","6500600","新店區"
"231046","719-UM","2019/07/18 19:29:19","新北市新店區北新路一段32號","121.540868333333","24.9658966666667","6500600","新店區"
"231057","720-UM","2019/07/18 19:29:11","新北市新店區花園一路三段34號","121.550281666667","24.9329883333333","6500600","新店區"
"231059","897-TW","2019/07/18 19:29:20","新北市新店區安和路三段7號","121.518145","24.980485","6500600","新店區"
"231040","898-TW","2019/07/18 19:29:25","新北市新店區中華路68號","121.539136666667","24.9690633333333","6500600","新店區"
"231043","899-TW","2019/07/18 19:29:17","新北市新店區北新路二段256號","121.542985","24.978015","6500600","新店區"
"231066","AKT-0513","2019/07/18 19:29:13","新北市新店區安康路三段359巷12弄27號","121.483963333333","24.9492466666667","6500600","新店區"
"241011","013-R5","2019/07/18 19:29:30","新北市三重區河邊北街124巷27號","121.50307","25.0713466666667","6500200","三重區"
"241028","022-UY","2019/07/18 19:29:26","新北市三重區中寮街28號","121.492493333333","25.059105","6500200","三重區"
"241008","059-VK","2019/07/18 19:29:28","新北市三重區永福街135巷30號","121.47751","25.0771066666667","6500200","三重區"
"241031","061-VK","2019/07/18 19:29:14","新北市三重區集美街21-1號","121.487945","25.0560233333333","6500200","三重區"
"241017","063-VK","2019/07/18 19:29:29","新北市三重區大仁街52號","121.492065","25.064695","6500200","三重區"
"241030","742-BX","2019/07/18 19:29:20","新北市三重區成功路41巷10號","121.49026","25.0516066666667","6500200","三重區"
"241009","267-UM","2019/07/18 19:29:09","新北市三重區溪尾街242巷54號","121.486436666667","25.08151","6500200","三重區"
"241032","269-UM","2019/07/18 19:29:26","新北市三重區三陽路25號","121.485508333333","25.0588466666667","6500200","三重區"
"241013","270-UM","2019/07/18 19:29:28","新北市三重區仁愛街99號","121.495713333333","25.0738183333333","6500200","三重區"
"241025","271-UM","2019/07/18 19:29:26","新北市三重區頂崁街210巷28弄9號","121.475791666667","25.067145","6500200","三重區"
"241007","398-BY","2019/07/18 19:29:28","新北市三重區慈愛街151號","121.489483333333","25.07939","6500200","三重區"
"241035","462-BY","2019/07/18 19:29:15","新北市三重區信義西街1巷3號","121.498035","25.06489","6500200","三重區"
"241020","478-VK","2019/07/18 19:29:16","新北市三重區三和路四段20巷22-1號","121.49022","25.0736883333333","6500200","三重區"
"241026","480-VK","2019/07/18 19:29:14","新北市三重區文化南路47巷41號","121.499145","25.0611683333333","6500200","三重區"
"241023","545-UM","2019/07/18 19:29:10","新北市三重區頂崁街99號","121.477976666667","25.0638433333333","6500200","三重區"
"241006","AAD-863","2019/07/18 19:29:21","新北市三重區三和路四段156號","121.488033333333","25.0758283333333","6500200","三重區"
"241022","KED-0820","2019/07/18 19:29:25","新北市三重區三民街173號","121.483226666667","25.06499","6500200","三重區"
"241012","941-UM","2019/07/18 19:29:12","新北市三重區河邊北街379-1號","121.501706666667","25.0764966666667","6500200","三重區"
"241029","942-UM","2019/07/18 19:29:11","新北市三重區中正南路269號","121.493215","25.0522533333333","6500200","三重區"
"235066","003-UY","2019/07/18 19:29:11","新北市中和區景新街47號","121.504256666667","24.9990866666667","6500300","中和區"
"235064","005-UY","2019/07/18 19:29:28","新北市中和區南山路127巷32弄2號","121.503976666667","24.997635","6500300","中和區"
"235063","006-UY","2019/07/18 19:29:23","新北市中和區連城路219巷4號","121.494375","24.997265","6500300","中和區"
"235056","096-UM","2019/07/18 19:29:15","新北市中和區員山路581巷31弄33號","121.476516666667","25.01043","6500300","中和區"
"235039","097-UM","2019/07/18 19:29:19","新北市中和區秀峰街103巷4弄2號","121.520513333333","24.9900883333333","6500300","中和區"
"235065","098-UM","2019/07/18 19:29:20","新北市中和區莊敬路23號","121.500105","25.004535","6500300","中和區"
"235040","150-BY","2019/07/18 19:29:19","新北市中和區保健路46巷26弄8號","121.50824","24.9954466666667","6500300","中和區"
"235058","151-BY","2019/07/18 19:29:08","新北市中和區員山路124巷42號","121.482543333333","24.996135","6500300","中和區"
"235055","183-VK","2019/07/18 19:29:20","新北市中和區民享街34號","121.47395","25.0031183333333","6500300","中和區"
"235038","185-VK","2019/07/18 19:29:25","新北市中和區立人街3號","121.521795","24.9941566666667","6500300","中和區"
"235049","186-VK","2019/07/18 19:29:15","新北市中和區安和路37號","121.509851666667","24.9945866666667","6500300","中和區"
"235067","255-BX","2019/07/18 19:29:19","新北市中和區新生街242巷9號","121.482976666667","24.9977933333333","6500300","中和區"
"235044","293-VK","2019/07/18 19:29:15","新北市中和區捷運路189號","121.505461666667","24.9913283333333","6500300","中和區"
"235072","301-VK","2019/07/18 19:29:16","新北市中和區連城路265巷10弄1號","121.49172","24.9952633333333","6500300","中和區"
"235043","352-BY","2019/07/18 19:29:14","新北市中和區安和路65號","121.508518333333","24.9950566666667","6500300","中和區"
"235042","KEA-2878","2019/07/18 19:29:11","新北市中和區中安街178巷3弄5-2號","121.510941666667","24.9989633333333","6500300","中和區"
"235070","558-UM","2019/07/18 19:29:29","新北市中和區景平路634-7號","121.499086666667","24.9991516666667","6500300","中和區"
"235045","565-BX","2019/07/18 19:29:19","新北市中和區景新街383巷45號","121.513218333333","24.9905883333333","6500300","中和區"
"235060","KED-0823","2019/07/18 19:29:27","新北市中和區中山路二段523巷1號","121.481601666667","25.004425","6500300","中和區"
"235054","640-BX","2019/07/18 19:29:26","新北市中和區莒光路63-1號","121.472286666667","25.0040016666667","6500300","中和區"
"235047","732-UM","2019/07/18 19:29:21","新北市中和區景平路259巷30號","121.507118333333","24.9927683333333","6500300","中和區"
"235046","733-UM","2019/07/18 19:29:10","新北市中和區忠孝街37巷2號","121.51104","24.983675","6500300","中和區"
"235071","783-BX","2019/07/18 19:29:15","新北市中和區連城路469巷21弄22號","121.484206666667","24.9950666666667","6500300","中和區"
"235057","801-TS","2019/07/18 19:29:25","新北市中和區員山路210號","121.481296666667","25.0007833333333","6500300","中和區"
"235041","802-TS","2019/07/18 19:29:24","新北市中和區中和路400巷21號","121.511698333333","25.00221","6500300","中和區"
"235052","805-TS","2019/07/18 19:29:13","新北市中和區華新街143巷69弄20號","121.507683333333","24.978965","6500300","中和區"
"235053","900-TW","2019/07/18 19:29:22","新北市中和區民德路163號","121.46862","24.999665","6500300","中和區"
"235048","911-UM","2019/07/18 19:29:27","新北市中和區忠孝街79號","121.512111666667","24.98516","6500300","中和區"
"235051","157-BY","2019/07/18 19:29:15","新北市中和區景新街196號","121.506383333333","24.9958083333333","6500300","中和區"
"235037","AAC-213","2019/07/18 19:29:18","新北市中和區秀朗路三段50巷4弄2號","121.52572","24.9956066666667","6500300","中和區"
"235059","AAC-215","2019/07/18 19:29:25","新北市中和區圓通路252巷2-5號","121.493395","24.991425","6500300","中和區"
"220068","015-TV","2019/07/18 19:29:29","新北市板橋區萬安街108號","121.483741666667","25.0244216666667","6500100","板橋區"
"220065","072-UY","2019/07/18 19:29:19","新北市板橋區國泰街39巷6弄30號","121.467915","25.0055816666667","6500100","板橋區"
"220086","073-UY","2019/07/18 19:29:15","新北市板橋區中正路216巷69號","121.457815","25.0190133333333","6500100","板橋區"
"220106","075-UY","2019/07/18 19:29:19","新北市板橋區文化路二段426號","121.474375","25.0321166666667","6500100","板橋區"
"220069","AAD-861","2019/07/18 19:29:20","新北市板橋區稚暉街2巷52號","121.455326666667","25.0028483333333","6500100","板橋區"
"220098","120-SR","2019/07/18 19:29:25","新北市板橋區民有街89巷7號","121.46444","25.0274133333333","6500100","板橋區"
"226004","312-R5","2019/07/18 19:29:14","新北市平溪區十分里十分街182號","121.778645","25.0439166666667","6502400","平溪區"
"228003","097-TW","2019/07/18 19:29:20","新北市貢寮區和美里和美街22-1號","121.912818333333","25.0826316666667","6502600","貢寮區"
"228001","212-TW","2019/07/18 19:29:22","新北市貢寮區真理里大澳街60號","121.925515","25.0567666666667","6502600","貢寮區"
"224008","273-VK","2019/07/18 19:29:29","新北市瑞芳區一坑路162-2號","121.801655","25.1092333333333","6501200","瑞芳區"
"227002","642-TC","2019/07/18 19:29:28","新北市雙溪區雙溪里光復街3號","121.865108333333","25.0355433333333","6502500","雙溪區"
"227001","400-TW","2019/07/18 19:29:29","新北市雙溪區新基里新基北街64號","121.868785","25.0397216666667","6502500","雙溪區"
"253005","295-VK","2019/07/18 19:29:19","新北市石門區小坑9號","121.594335","25.2886016666667","6502200","石門區"
"222001","KEA-2212","2019/07/18 19:29:16","新北市深坑區深坑街10號","121.615805","25.00286","6501800","深坑區"
"208002","KEA-2872","2019/07/18 19:29:18","新北市金山區仁愛路59號","121.63525","25.2209166666667","6502700","金山區"
"208003","665-BX","2019/07/18 19:29:23","新北市金山區中山路263巷14號","121.636393333333","25.221575","6502700","金山區"
"251005","010-UM","2019/07/18 19:29:19","新北市淡水區水源街一段47巷32號","121.444076666667","25.17327","6501000","淡水區"
"251001","011-UM","2019/07/18 19:29:12","新北市淡水區民權路141-1號","121.459988333333","25.13634","6501000","淡水區"
"251002","012-UM","2019/07/18 19:29:10","新北市淡水區沙崙路303號","121.427245","25.1869533333333","6501000","淡水區"
"251015","KEA-2871","2019/07/18 19:29:16","新北市淡水區山子頂24-1號","121.491405","25.1871616666667","6501000","淡水區"
"251016","179-VK","2019/07/18 19:29:28","新北市淡水區淡金路三段350巷18號","121.450813333333","25.2083283333333","6501000","淡水區"
"251007","180-VK","2019/07/18 19:29:13","新北市淡水區八勢路30巷1號","121.461733333333","25.1540416666667","6501000","淡水區"
"251008","181-VK","2019/07/18 19:29:15","新北市淡水區中正路一段33號","121.425925","25.1765466666667","6501000","淡水區"
"251013","182-VK","2019/07/18 19:29:25","新北市淡水區安子內18號","121.471775","25.2187066666667","6501000","淡水區"
"251010","413-VK","2019/07/18 19:29:22","新北市淡水區中正路二段151號","121.422763333333","25.18775","6501000","淡水區"
"251006","561-UM","2019/07/18 19:29:14","新北市淡水區大義街29巷18號","121.441491666667","25.1780083333333","6501000","淡水區"
"251009","575-R6","2019/07/18 19:29:27","新北市淡水區中山路163號","121.44099","25.1736183333333","6501000","淡水區"
"251014","577-R6","2019/07/18 19:29:23","新北市淡水區小中寮19-7號","121.484741666667","25.2295966666667","6501000","淡水區"
"251003","673-BX","2019/07/18 19:29:17","新北市淡水區中山北路三段71號","121.444503333333","25.191805","6501000","淡水區"
"207003","550-UM","2019/07/18 19:29:27","新北市萬里區大鵬里萬里加投103-1號","121.646111666667","25.212995","6502800","萬里區"
"207004","225-TW","2019/07/18 19:29:20","新北市萬里區萬里里瑪鋉路77號","121.688321666667","25.1765166666667","6502800","萬里區"
"252002","178-VK","2019/07/18 19:29:19","新北市三芝區淡金路二段18-1號","121.502658333333","25.2595233333333","6502100","三芝區"
"208001","170-UY","2019/07/18 19:29:12","新北市金山區金包里街舊市場24號","121.63862","25.2215866666667","6502700","金山區"
"237004","KEA-2597","2019/07/18 19:29:16","新北市三峽區有木205-1號","121.439066666667","24.851575","6500900","三峽區"
"237007","153-BY","2019/07/18 19:29:11","新北市三峽區二鬮路136巷43號","121.358105","24.908745","6500900","三峽區"
"237009","210-TH","2019/07/18 19:29:28","新北市三峽區中山路25號","121.368626666667","24.934305","6500900","三峽區"
"237013","252-BX","2019/07/18 19:29:26","新北市三峽區介壽路一段251號","121.379551666667","24.9301333333333","6500900","三峽區"
"237012","275-BY","2019/07/18 19:29:23","新北市三峽區三樹路98巷119號","121.38241","24.93944","6500900","三峽區"
"237008","302-VK","2019/07/18 19:29:10","新北市三峽區大同路154號","121.373116666667","24.9266866666667","6500900","三峽區"
"237014","433-BY","2019/07/18 19:29:09","新北市三峽區中山路63巷8號","121.366895","24.9343133333333","6500900","三峽區"
"237006","5529-G3","2019/07/18 19:29:23","新北市三峽區中正路一段336巷15弄2號","121.369983333333","24.9249133333333","6500900","三峽區"
"237011","KEA-2596","2019/07/18 19:29:24","新北市三峽區介壽路三段107號","121.395495","24.93928","6500900","三峽區"
"237015","649-BX","2019/07/18 19:29:24","新北市三峽區建安25-3號","121.44564","24.9274983333333","6500900","三峽區"
"237010","706-TV","2019/07/18 19:29:22","新北市三峽區復興路96號","121.372806666667","24.9375116666667","6500900","三峽區"
"237005","AKY-6261","2019/07/18 19:29:21","新北市三峽區復興路367巷3號","121.36372","24.9380516666667","6500900","三峽區"
"236042","KED-0685","2019/07/18 19:29:16","新北市土城區學府路一段239號","121.45042","24.98341","6501300","土城區"
"236078","166-UM","2019/07/18 19:29:30","新北市土城區中州路3巷11弄4號","121.413948333333","24.95688","6501300","土城區"
"236070","KEA-2877","2019/07/18 19:29:26","新北市土城區裕民路185巷36弄10號","121.454358333333","24.9845233333333","6501300","土城區"
"252001","KED-0821","2019/07/18 19:29:12","新北市三芝區長勤街62號","121.500183333333","25.256055","6502100","三芝區"
"236021","401-BY","2019/07/18 19:29:23","新北市土城區峰廷街18號","121.469036666667","24.9872616666667","6501300","土城區"
"236049","913-UM","2019/07/18 19:29:20","新北市土城區清水路144號","121.458903333333","24.9815183333333","6501300","土城區"
"242056","441-UM","2019/07/18 19:29:18","新北市新莊區環河路636-7號","121.43725","25.0112733333333","6500500","新莊區"
"242053","172-VK","2019/07/18 19:29:14","新北市新莊區民安西路415巷3號","121.430718333333","25.008945","6500500","新莊區"
"238015","755-BX","2019/07/18 19:29:26","新北市樹林區中興街20-4號","121.420865","24.990115","6500700","樹林區"
"238023","601-UM","2019/07/18 19:29:09","新北市樹林區三福街75號","121.407526666667","25.0162766666667","6500700","樹林區"
"238019","599-UM","2019/07/18 19:29:30","新北市樹林區東榮街88巷8號","121.415821666667","24.9829716666667","6500700","樹林區"
"238024","5061-A6","2019/07/18 19:29:25","新北市樹林區中山路三段39號","121.401133333333","24.9753633333333","6500700","樹林區"
"238022","KEA-2213","2019/07/18 19:29:10","新北市樹林區名園街11號","121.419275","24.9795483333333","6500700","樹林區"
"238021","KEA-2539","2019/07/18 19:29:16","新北市樹林區佳園路三段546-1號","121.380765","24.9441433333333","6500700","樹林區"
"238025","303-VK","2019/07/18 19:29:19","新北市樹林區保安二街12號","121.424966666667","24.9939483333333","6500700","樹林區"
"238017","283-BY","2019/07/18 19:29:12","新北市樹林區光興街153-6號","121.408045","25.0034333333333","6500700","樹林區"
"238014","282-BY","2019/07/18 19:29:26","新北市樹林區保安二街64巷1弄1號","121.423998333333","24.995365","6500700","樹林區"
"238020","268-VK","2019/07/18 19:29:16","新北市樹林區俊英街111巷1-5號","121.424251666667","25.0096233333333","6500700","樹林區"
"238026","172-UY","2019/07/18 19:29:26","新北市樹林區佳園路三段26號","121.387946666667","24.9540483333333","6500700","樹林區"
"238016","169-UY","2019/07/18 19:29:24","新北市樹林區復興路446巷2弄2號","121.413411666667","24.9843633333333","6500700","樹林區"
"239007","AAC-297","2019/07/18 19:29:17","新北市鶯歌區大湖路326巷57號","121.345985","24.9695916666667","6500800","鶯歌區"
"239006","891-R6","2019/07/18 19:29:19","新北市鶯歌區鶯桃路294-1號","121.334936666667","24.96035","6500800","鶯歌區"
"239008","527-UM","2019/07/18 19:29:08","新北市鶯歌區大湖路564號","121.336825","24.9732333333333","6500800","鶯歌區"
"239005","526-UM","2019/07/18 19:29:07","新北市鶯歌區大湖路361巷20號","121.330481666667","24.9780466666667","6500800","鶯歌區"
"239001","417-VK","2019/07/18 19:29:24","新北市鶯歌區尖山埔路114號","121.344233333333","24.9502483333333","6500800","鶯歌區"
"239003","360-BY","2019/07/18 19:29:19","新北市鶯歌區中正二路14號","121.351658333333","24.951785","6500800","鶯歌區"
"239004","193-VK","2019/07/18 19:29:25","新北市鶯歌區中正三路鄭厝巷16-6號","121.334095","24.9342716666667","6500800","鶯歌區"
"221008","489-VK","2019/07/18 19:29:25","新北市汐止區康寧街237號","121.62422","25.0668466666667","6501100","汐止區"
"221015","131-UY","2019/07/18 19:29:18","新北市汐止區康寧街901號","121.651401666667","25.07497","6501100","汐止區"
"221027","281-BY","2019/07/18 19:29:23","新北市汐止區忠孝東路9號","121.658266666667","25.0659183333333","6501100","汐止區"
"221031","353-TW","2019/07/18 19:29:15","新北市汐止區汐萬路一段312號","121.650688333333","25.0752783333333","6501100","汐止區"
"221025","623-UM","2019/07/18 19:29:25","新北市汐止區新台五路二段10號","121.660281666667","25.0650133333333","6501100","汐止區"
"221038","646-BX","2019/07/18 19:29:07","新北市汐止區忠孝東路201號","121.65933","25.065715","6501100","汐止區"
"221002","707-TV","2019/07/18 19:29:26","新北市汐止區大同路一段331號","121.638331666667","25.0592666666667","6501100","汐止區"
"220079","145-BY","2019/07/18 19:29:24","新北市板橋區民權路202巷9弄64號","121.459016666667","25.0158666666667","6500100","板橋區"
"220080","200-UY","2019/07/18 19:29:25","新北市板橋區大觀路二段3巷5號","121.44755","25.00377","6500100","板橋區"
"220082","610-BX","2019/07/18 19:29:18","新北市板橋區金門街231號","121.432178333333","24.989665","6500100","板橋區"
"220101","245-BX","2019/07/18 19:29:25","新北市板橋區莊敬路233號","121.472738333333","25.02149","6500100","板橋區"
"220056","276-BY","2019/07/18 19:29:10","新北市板橋區信義路209號","121.459363333333","24.99159","6500100","板橋區"
"220072","277-BY","2019/07/18 19:29:19","新北市板橋區溪北路168號","121.430921666667","24.98816","6500100","板橋區"
"220071","283-VK","2019/07/18 19:29:28","新北市板橋區忠孝路48巷9弄28號","121.462086666667","25.000185","6500100","板橋區"
"220094","285-UM","2019/07/18 19:29:22","新北市板橋區銘傳街37號","121.468656666667","25.03104","6500100","板橋區"
"220053","285-VK","2019/07/18 19:29:23","新北市板橋區富山街53巷1弄42號","121.477663333333","25.0199","6500100","板橋區"
"220083","286-VK","2019/07/18 19:29:21","新北市板橋區龍興街73巷20號","121.443148333333","25.0024466666667","6500100","板橋區"
"220081","287-VK","2019/07/18 19:29:24","新北市板橋區南雅西路一段116號","121.452388333333","25.00632","6500100","板橋區"
"220090","288-VK","2019/07/18 19:29:20","新北市板橋區長江路一段48巷6弄1號","121.459346666667","25.0281633333333","6500100","板橋區"
"220061","295-UM","2019/07/18 19:29:23","新北市板橋區中山路二段147號","121.475601666667","25.01659","6500100","板橋區"
"220084","296-UM","2019/07/18 19:29:11","新北市板橋區滿平街110巷22號","121.427581666667","24.98787","6500100","板橋區"
"220075","303-R5","2019/07/18 19:29:15","新北市板橋區中正路275巷93號","121.450781666667","25.0180666666667","6500100","板橋區"
"220062","305-R5","2019/07/18 19:29:22","新北市板橋區三民路二段153巷2弄2號","121.479558333333","25.0148333333333","6500100","板橋區"
"220092","307-R5","2019/07/18 19:29:21","新北市板橋區陽明街164巷21號","121.464348333333","25.0245433333333","6500100","板橋區"
"220089","487-VK","2019/07/18 19:29:22","新北市板橋區龍泉街84-1號","121.456336666667","25.0254483333333","6500100","板橋區"
"220088","491-VK","2019/07/18 19:29:26","新北市板橋區文化路二段503號","121.476193333333","25.0343516666667","6500100","板橋區"
"220035","560-BX","2019/07/18 19:29:27","新北市板橋區中正路352號","121.454305","25.0237916666667","6500100","板橋區"
"220103","561-BX","2019/07/18 19:29:21","新北市板橋區陽明街29巷11號","121.464845","25.0219083333333","6500100","板橋區"
"220063","609-BX","2019/07/18 19:29:15","新北市板橋區中山路二段553巷20弄7號","121.482803333333","25.0233016666667","6500100","板橋區"
"220074","630-UY","2019/07/18 19:29:13","新北市板橋區後菜園街4號","121.457736666667","25.010465","6500100","板橋區"
"220091","637-BX","2019/07/18 19:29:29","新北市板橋區文聖街113號","121.477733333333","25.029245","6500100","板橋區"
"220057","686-BX","2019/07/18 19:29:19","新北市板橋區國慶路143號","121.461186666667","24.9961316666667","6500100","板橋區"
"220077","687-BX","2019/07/18 19:29:25","新北市板橋區僑中一街2號","121.449398333333","25.0111766666667","6500100","板橋區"
"220093","689-BX","2019/07/18 19:29:29","新北市板橋區新海路405號","121.45859","25.0267866666667","6500100","板橋區"
"220054","741-BX","2019/07/18 19:28:27","新北市板橋區重慶路155巷19號","121.462995","25.0040533333333","6500100","板橋區"
"220102","KEA-2699","2019/07/18 19:29:17","新北市板橋區文化路二段410巷2弄28號","121.474325","25.0304283333333","6500100","板橋區"
"220055","827-TW","2019/07/18 19:29:27","新北市板橋區重慶路278巷18-1號","121.462375","24.9996","6500100","板橋區"
"220067","829-TW","2019/07/18 19:29:28","新北市板橋區漢生東路313巷2弄3號","121.472255","25.0081833333333","6500100","板橋區"
"220073","985-R7","2019/07/18 19:29:27","新北市板橋區瑞安街54號","121.455395","25.0218016666667","6500100","板橋區"
"220097","AAC-210","2019/07/18 19:29:18","新北市板橋區文化路一段285巷2弄31號","121.463931666667","25.0195816666667","6500100","板橋區"
"220064","AAC-253","2019/07/18 19:29:26","新北市板橋區中山路一段84號","121.461858333333","25.0100983333333","6500100","板橋區"
"235068","KEA-2873","2019/07/18 19:29:24","新北市中和區連勝街57巷11號","121.497966666667","24.9967466666667","6500300","中和區"
"235061","KEA-2875","2019/07/18 19:29:27","新北市中和區員山路226巷22弄2號","121.481946666667","25.0002866666667","6500300","中和區"
"235062","KEA-2876","2019/07/18 19:29:23","新北市林口區太平里180號","121.367956666667","25.1345416666667","6500300","中和區"
