"lineid","car","time","location","longitude","latitude","cityid","cityname"
"234046","148-BY","2019/07/18 19:59:22","新北市永和區成功路一段74號","121.526926666667","25.0033466666667","6500400","永和區"
"234081","298-R6","2019/07/18 19:59:28","新北市永和區林森路112巷12弄2號","121.522505","25.0044316666667","6500400","永和區"
"234038","336-UY","2019/07/18 19:59:22","新北市永和區成功路二段134號","121.526538333333","24.9974133333333","6500400","永和區"
"234064","337-UY","2019/07/18 19:59:27","新北市永和區中正路412巷20弄28號","121.519005","25.0013433333333","6500400","永和區"
"234086","338-UY","2019/07/18 19:59:14","新北市永和區福和路79號","121.522473333333","25.0079066666667","6500400","永和區"
"234017","745-BX","2019/07/18 19:59:30","新北市永和區文化路62號","121.51445","25.0151866666667","6500400","永和區"
"234030","746-BX","2019/07/18 19:59:13","新北市永和區民生路22巷3號","121.522176666667","24.9972483333333","6500400","永和區"
"234054","KEA-2590","2019/07/18 19:59:29","新北市永和區環河東路一段122號","121.520593333333","25.0154716666667","6500400","永和區"
"234007","KED-0605","2019/07/18 19:59:29","新北市永和區保生路22巷8號","121.507176666667","25.008065","6500400","永和區"
"234013","KEA-2591","2019/07/18 19:59:25","新北市永和區保生路55號","121.504736666667","25.0105916666667","6500400","永和區"
"234061","AAD-866","2019/07/18 19:59:18","新北市永和區得和路68號","121.516241666667","24.9998216666667","6500400","永和區"
"234070","748-BX","2019/07/18 19:59:25","新北市永和區國光路39號","121.519208333333","25.0081716666667","6500400","永和區"
"234042","862-TW","2019/07/18 19:59:25","新北市永和區中和路335巷18弄8號","121.507726666667","25.0002283333333","6500400","永和區"
"234050","863-TW","2019/07/18 19:59:18","新北市永和區保安路250號","121.506323333333","25.0125616666667","6500400","永和區"
"234026","9371-KE","2019/07/18 19:59:16","新北市永和區水源街27巷9號","121.511301666667","25.0039783333333","6500400","永和區"
"234011","9373-KE","2019/07/18 19:59:20","新北市永和區仁愛路352巷122弄13號","121.500655","25.008985","6500400","永和區"
"249005","172-UM","2019/07/18 19:59:19","新北市八里區楓林路8號","121.387006666667","25.1314316666667","6502300","八里區"
"249001","173-UM","2019/07/18 19:59:08","新北市八里區中華路二段310號","121.403911666667","25.14836","6502300","八里區"
"249004","303-UY","2019/07/18 19:59:15","新北市八里區中華路一段333-1號","121.413023333333","25.15416","6502300","八里區"
"249002","305-UY","2019/07/18 19:59:23","新北市八里區頂寮一街55號","121.450313333333","25.1244966666667","6502300","八里區"
"249003","593-UM","2019/07/18 19:35:27","新北市八里區中華路二段486號","121.400265","25.14608","6502300","八里區"
"248014","025-BX","2019/07/18 19:59:27","新北市五股區成泰路二段163號","121.43899","25.086105","6501500","五股區"
"248016","026-BX","2019/07/18 19:59:19","新北市五股區成泰路三段577巷80弄7號","121.449505","25.1042883333333","6501500","五股區"
"248008","KED-0815","2019/07/18 19:59:29","新北市五股區四維路155巷36弄6號","121.46685","25.074675","6501500","五股區"
"248020","KED-0813","2019/07/18 19:59:26","新北市五股區凌雲路三段19-1號","121.430675","25.1092","6501500","五股區"
"248012","247-BX","2019/07/18 19:59:23","新北市五股區工商路205號","121.433296666667","25.0871016666667","6501500","五股區"
"248010","272-BY","2019/07/18 19:59:26","新北市五股區登林路46巷2號","121.432081666667","25.0686466666667","6501500","五股區"
"248004","677-BX","2019/07/18 19:59:21","新北市五股區成泰路一段32巷60號","121.434958333333","25.066975","6501500","五股區"
"248002","678-BX","2019/07/18 19:59:19","新北市五股區成泰路三段557號","121.452033333333","25.1019916666667","6501500","五股區"
"234023","9380-KE","2019/07/18 19:59:18","新北市永和區中正路702巷18號","121.516473333333","25.0105666666667","6500400","永和區"
"234077","969-R7","2019/07/18 19:59:17","新北市永和區智光街94號","121.51607","24.9969983333333","6500400","永和區"
"234074","AAC-211","2019/07/18 19:59:14","新北市永和區豫溪街215巷9號","121.523831666667","25.0098616666667","6500400","永和區"
"234067","AAC-212","2019/07/18 19:59:25","新北市永和區永貞路335號","121.509693333333","25.0070883333333","6500400","永和區"
"234003","AAC-295","2019/07/18 19:59:16","新北市永和區中正路730號","121.515525","25.010205","6500400","永和區"
"243012","AAD-798","2019/07/18 19:59:17","新北市泰山區全興路20號","121.432291666667","25.058915","6501600","泰山區"
"243010","297-R6","2019/07/18 19:59:26","新北市泰山區民生路6號","121.429795","25.0527","6501600","泰山區"
"243014","KEA-2801","2019/07/18 19:59:18","新北市泰山區泰林路二段29號","121.435866666667","25.0567416666667","6501600","泰山區"
"243016","421-VK","2019/07/18 19:59:22","新北市泰山區貴陽街3號","121.421018333333","25.0335133333333","6501600","泰山區"
"243009","KEA-2215","2019/07/18 19:59:21","新北市泰山區楓江路16巷25號","121.434066666667","25.0614233333333","6501600","泰山區"
"243011","KEA-2216","2019/07/18 19:59:25","新北市泰山區工專路65號","121.422143333333","25.0404016666667","6501600","泰山區"
"222002","016-RS","2019/07/18 19:59:15","新北市深坑區北深路二段81巷8弄1號","121.618301666667","25.003085","6501800","深坑區"
"222003","436-BY","2019/07/18 19:59:13","新北市深坑區埔新街14號","121.620755","25.00395","6501800","深坑區"
"231061","002-UM","2019/07/18 19:59:16","新北市新店區安民街338號","121.517175","24.9752","6500600","新店區"
"231044","046-UY","2019/07/18 19:59:25","新北市新店區建國路299號","121.537231666667","24.9869416666667","6500600","新店區"
"231060","106-UY","2019/07/18 19:59:17","新北市新店區安康路二段400號","121.497075","24.9553866666667","6500600","新店區"
"231051","107-UY","2019/07/18 19:59:23","新北市新店區中央路218號","121.52981","24.9730833333333","6500600","新店區"
"231049","108-UY","2019/07/18 19:59:13","新北市新店區建國路220號","121.537755","24.9811433333333","6500600","新店區"
"231065","110-UY","2019/07/18 19:59:21","新北市新店區安祥路106巷10號","121.478746666667","24.96266","6500600","新店區"
"231068","187-VK","2019/07/18 19:59:29","新北市新店區安康路一段266巷4號","121.520065","24.9645","6500600","新店區"
"221035","KEA-2785","2019/07/18 19:59:20","新北市汐止區長江街13巷6弄2號","121.65472","25.071645","6501100","汐止區"
"231062","256-BX","2019/07/18 19:59:17","新北市新店區華城路36巷1-1號","121.528161666667","24.9554316666667","6500600","新店區"
"231054","260-TV","2019/07/18 19:59:25","新北市新店區光明街179-2號","121.53986","24.9629016666667","6500600","新店區"
"231042","268-BY","2019/07/18 19:59:18","新北市新店區中興路一段292號","121.54589","24.9692216666667","6500600","新店區"
"231064","278-BY","2019/07/18 19:59:11","新北市新店區安光路10-1號","121.513823333333","24.9640966666667","6500600","新店區"
"231050","AAD-862","2019/07/18 19:59:23","新北市新店區北宜路二段431號","121.560735","24.9543416666667","6500600","新店區"
"231045","355-BY","2019/07/18 19:59:18","新北市新店區北宜路二段382號","121.564491666667","24.9529216666667","6500600","新店區"
"231056","4715-K9","2019/07/18 19:59:31","新北市新店區北新路二段29巷2弄2號","121.542313333333","24.9728933333333","6500600","新店區"
"231067","4772-VM","2019/07/18 19:59:14","新北市新店區秀山路11巷18弄1號","121.531663333333","24.9590283333333","6500600","新店區"
"231052","513-UM","2019/07/18 19:59:28","新北市新店區新烏路三段336號","121.546745","24.896105","6500600","新店區"
"231041","619-UM","2019/07/18 19:59:21","新北市新店區中央路13號","121.533348333333","24.9784633333333","6500600","新店區"
"231063","641-BX","2019/07/18 19:59:22","新北市新店區安忠路205巷8號","121.509726666667","24.9551383333333","6500600","新店區"
"231047","KED-0819","2019/07/18 19:59:18","新北市新店區寶興路64巷1號","121.550726666667","24.971575","6500600","新店區"
"231046","719-UM","2019/07/18 19:59:19","新北市新店區中央路95巷8號","121.531695","24.974805","6500600","新店區"
"231057","720-UM","2019/07/18 19:59:11","新北市新店區花園二路一段11號","121.555468333333","24.93247","6500600","新店區"
"231059","897-TW","2019/07/18 19:59:20","新北市新店區安和路二段105號","121.51869","24.9697116666667","6500600","新店區"
"231040","898-TW","2019/07/18 19:59:25","新北市新店區中正路75巷71號","121.543058333333","24.96886","6500600","新店區"
"231043","899-TW","2019/07/18 19:59:17","新北市新店區中正路263-4號","121.538265","24.973775","6500600","新店區"
"231066","AKT-0513","2019/07/18 19:59:13","新北市新店區安康路二段341巷21號","121.497111666667","24.9545683333333","6500600","新店區"
"241011","013-R5","2019/07/18 19:59:30","新北市三重區三和路二段119號","121.498906666667","25.0690266666667","6500200","三重區"
"241028","022-UY","2019/07/18 19:59:26","新北市三重區中正南路47號","121.49393","25.0596416666667","6500200","三重區"
"241008","059-VK","2019/07/18 19:59:28","新北市三重區永福街179巷3號","121.47871","25.07498","6500200","三重區"
"241031","061-VK","2019/07/18 19:59:13","新北市三重區重新路四段144巷30號","121.487133333333","25.0551733333333","6500200","三重區"
"241015","062-VK","2019/07/18 19:59:09","新北市三重區三和路二段8號","121.501078333333","25.0669583333333","6500200","三重區"
"241017","063-VK","2019/07/18 19:59:29","新北市三重區自強路一段215號","121.491336666667","25.0685183333333","6500200","三重區"
"241024","065-VK","2019/07/18 19:59:17","新北市三重區力行路一段178巷21號","121.48124","25.0715133333333","6500200","三重區"
"241002","090-VK","2019/07/18 19:59:24","新北市三重區仁愛街245巷25號","121.494753333333","25.0778883333333","6500200","三重區"
"241003","091-VK","2019/07/18 19:59:29","新北市三重區五華街130號","121.491658333333","25.0835216666667","6500200","三重區"
"241030","742-BX","2019/07/18 19:59:20","新北市三重區成功路173號","121.48597","25.05269","6500200","三重區"
"241016","266-UM","2019/07/18 19:59:15","新北市三重區正義北路28巷1號","121.49714","25.0632916666667","6500200","三重區"
"241009","267-UM","2019/07/18 19:59:29","新北市三重區三和路四段390巷20號","121.481216666667","25.078775","6500200","三重區"
"241018","268-UM","2019/07/18 19:59:16","新北市三重區正義北路244巷52號","121.494441666667","25.067705","6500200","三重區"
"241032","269-UM","2019/07/18 19:59:26","新北市三重區朝陽街28號","121.483466666667","25.0566183333333","6500200","三重區"
"241013","270-UM","2019/07/18 19:59:28","新北市三重區三和路三段125巷42號","121.494111666667","25.073765","6500200","三重區"
"241025","271-UM","2019/07/18 19:59:26","新北市三重區頂崁街210巷16號","121.476518333333","25.0676783333333","6500200","三重區"
"241007","398-BY","2019/07/18 19:59:08","新北市三重區慈愛街91號","121.48753","25.0794183333333","6500200","三重區"
"241035","462-BY","2019/07/18 19:59:15","新北市三重區大榮街7號","121.498186666667","25.0630466666667","6500200","三重區"
"241004","475-VK","2019/07/18 19:59:15","新北市三重區五華街74號","121.493448333333","25.0819633333333","6500200","三重區"
"241020","478-VK","2019/07/18 19:59:16","新北市三重區忠孝路一段101號","121.489475","25.0721683333333","6500200","三重區"
"241026","480-VK","2019/07/18 19:59:15","新北市三重區中央南路8號","121.501455","25.062965","6500200","三重區"
"241014","543-UM","2019/07/18 19:59:23","新北市三重區三和路二段140號","121.499658333333","25.068175","6500200","三重區"
"241023","545-UM","2019/07/18 19:59:10","新北市三重區頂崁街172號","121.477591666667","25.0659233333333","6500200","三重區"
"241001","547-UM","2019/07/18 19:59:23","新北市三重區福隆路2號","121.489661666667","25.0771983333333","6500200","三重區"
"241019","KEA-2593","2019/07/18 19:59:26","新北市三重區自強路二段9號","121.490118333333","25.0690316666667","6500200","三重區"
"241006","AAD-863","2019/07/18 19:59:21","新北市三重區力行路二段90號","121.481998333333","25.0743616666667","6500200","三重區"
"241012","941-UM","2019/07/18 19:59:12","新北市三重區仁厚街49號","121.500363333333","25.0765616666667","6500200","三重區"
"241029","942-UM","2019/07/18 19:59:31","新北市三重區重安街1號","121.490071666667","25.0582583333333","6500200","三重區"
"241033","AAC-255","2019/07/18 19:59:28","新北市三重區中興北街20號","121.469581666667","25.0484066666667","6500200","三重區"
"235066","003-UY","2019/07/18 19:59:11","新北市中和區光華街6號","121.504093333333","25.004325","6500300","中和區"
"235039","097-UM","2019/07/18 19:59:19","新北市中和區景平路278巷14弄1號","121.513828333333","24.9930766666667","6500300","中和區"
"235065","098-UM","2019/07/18 19:59:20","新北市中和區永和路90巷2弄1號","121.497356666667","25.0058116666667","6500300","中和區"
"235040","150-BY","2019/07/18 19:59:19","新北市中和區景安路79巷19弄19號","121.507533333333","24.9974383333333","6500300","中和區"
"235055","183-VK","2019/07/18 19:59:20","新北市中和區民生街21-6號","121.470755","25.0055116666667","6500300","中和區"
"235067","255-BX","2019/07/18 19:59:19","新北市中和區民樂路81號","121.484621666667","25.0012733333333","6500300","中和區"
"235044","293-VK","2019/07/18 19:59:15","新北市中和區板南路174號","121.50118","24.9926616666667","6500300","中和區"
"247014","KEA-2869","2019/07/18 19:59:13","新北市蘆洲區得勝街145號","121.47178","25.0831133333333","6501400","蘆洲區"
"247008","KED-0682","2019/07/18 19:59:20","新北市蘆洲區信義路115號","121.478451666667","25.080295","6501400","蘆洲區"
"235050","4979-A6","2019/07/18 19:59:16","新北市中和區景平路241巷64弄2號","121.507765","24.99243","6500300","中和區"
"235070","558-UM","2019/07/18 19:59:29","新北市中和區中正路222號","121.496353333333","24.9940133333333","6500300","中和區"
"235046","733-UM","2019/07/18 19:59:10","新北市中和區興南路一段105巷20弄16號","121.510336666667","24.9854616666667","6500300","中和區"
"235052","805-TS","2019/07/18 19:59:13","新北市中和區華新街30巷33號","121.506646666667","24.98398","6500300","中和區"
"235048","911-UM","2019/07/18 19:59:29","新北市中和區景新街467巷20弄110號","121.514738333333","24.9867","6500300","中和區"
"235051","157-BY","2019/07/18 19:59:15","新北市中和區復興路301巷16號","121.501423333333","24.98953","6500300","中和區"
"235037","AAC-213","2019/07/18 19:59:18","新北市中和區立人街59號","121.520208333333","24.9943466666667","6500300","中和區"
"235059","AAC-215","2019/07/18 19:59:25","新北市中和區圓通路333號","121.491955","24.9905666666667","6500300","中和區"
"220068","015-TV","2019/07/18 19:59:27","新北市板橋區中山路二段489號","121.482433333333","25.020805","6500100","板橋區"
"220065","072-UY","2019/07/18 19:59:12","新北市板橋區民族路278號","121.469976666667","25.006965","6500100","板橋區"
"220086","073-UY","2019/07/18 19:59:15","新北市板橋區光華街1號","121.454206666667","25.0111333333333","6500100","板橋區"
"220106","075-UY","2019/07/18 19:59:19","新北市板橋區文聖街20-3號","121.476155","25.0316416666667","6500100","板橋區"
"220069","AAD-861","2019/07/18 19:59:20","新北市板橋區大明街20巷19弄6號","121.458436666667","25.0033133333333","6500100","板橋區"
"220098","120-SR","2019/07/18 19:59:25","新北市板橋區新海路385巷12號","121.458425","25.0258083333333","6500100","板橋區"
"247018","546-UM","2019/07/18 19:59:23","新北市蘆洲區民族路290巷7號","121.478313333333","25.0898616666667","6501400","蘆洲區"
"247024","337-TH","2019/07/18 19:59:18","新北市蘆洲區光榮路120巷8弄21號","121.465221666667","25.0882383333333","6501400","蘆洲區"
"247002","336-TH","2019/07/18 19:59:15","新北市蘆洲區永樂街31巷9號","121.458161666667","25.08718","6501400","蘆洲區"
"247012","056-VK","2019/07/18 19:59:24","新北市蘆洲區民族路151號","121.479543333333","25.08791","6501400","蘆洲區"
"247016","053-VK","2019/07/18 19:59:08","新北市蘆洲區中正路101號","121.469906666667","25.0839883333333","6501400","蘆洲區"
"247020","007-UY","2019/07/18 19:59:15","新北市蘆洲區民義街53號","121.472766666667","25.08978","6501400","蘆洲區"
"247006","002-UY","2019/07/18 19:59:24","新北市蘆洲區九芎街115號","121.465458333333","25.079465","6501400","蘆洲區"
"226004","312-R5","2019/07/18 19:59:14","新北市平溪區靜安路三段392巷3號","121.784396666667","25.0495416666667","6502400","平溪區"
"228003","097-TW","2019/07/18 19:59:19","新北市貢寮區仁理村仁和路220號","121.923906666667","25.053475","6502600","貢寮區"
"227002","642-TC","2019/07/18 19:59:08","新北市雙溪區雙溪里太平路81號","121.865406666667","25.0361633333333","6502500","雙溪區"
"227001","400-TW","2019/07/18 19:59:18","新北市雙溪區新基里朝陽街3號","121.866313333333","25.03836","6502500","雙溪區"
"222001","KEA-2212","2019/07/18 19:59:16","新北市深坑區北深路三段165-1號","121.602226666667","25.0033383333333","6501800","深坑區"
"208002","KEA-2872","2019/07/18 19:59:25","新北市金山區環金路65號","121.637826666667","25.2174233333333","6502700","金山區"
"208003","665-BX","2019/07/18 19:59:23","新北市金山區永興里濆水路5號","121.627736666667","25.26723","6502700","金山區"
"251004","009-UM","2019/07/18 19:59:24","新北市淡水區民權路177巷7號","121.460781666667","25.13555","6501000","淡水區"
"251005","010-UM","2019/07/18 19:59:19","新北市淡水區學府路136巷6號","121.450783333333","25.1729433333333","6501000","淡水區"
"251001","011-UM","2019/07/18 19:59:12","新北市淡水區淡金路一段166-5號","121.454016666667","25.1799966666667","6501000","淡水區"
"251002","012-UM","2019/07/18 19:59:10","新北市淡水區新市一路一段6號","121.429088333333","25.187365","6501000","淡水區"
"251015","KEA-2871","2019/07/18 19:59:24","新北市淡水區大埤頭1號","121.49274","25.1946683333333","6501000","淡水區"
"251016","179-VK","2019/07/18 19:59:27","新北市淡水區淡金路四段660號","121.452355","25.2317933333333","6501000","淡水區"
"251008","181-VK","2019/07/18 19:59:12","新北市淡水區淡海路61號","121.422965","25.18091","6501000","淡水區"
"251013","182-VK","2019/07/18 19:59:24","新北市淡水區下圭柔山63-7號","121.451886666667","25.2061633333333","6501000","淡水區"
"251012","441-VK","2019/07/18 19:59:30","新北市淡水區下圭柔山93號","121.435995","25.20908","6501000","淡水區"
"251006","561-UM","2019/07/18 19:59:14","新北市淡水區水碓街10號","121.44365","25.177085","6501000","淡水區"
"251009","575-R6","2019/07/18 19:59:27","新北市淡水區英專路21巷6號","121.445081666667","25.1697866666667","6501000","淡水區"
"251014","577-R6","2019/07/18 19:59:23","新北市淡水區石頭厝2-1號","121.458098333333","25.2357516666667","6501000","淡水區"
"251011","650-BX","2019/07/18 19:59:26","新北市淡水區淡金路二段270-1號","121.44704","25.189095","6501000","淡水區"
"207003","550-UM","2019/07/18 19:59:27","新北市萬里區大鵬里萬里加投51-1號","121.641925","25.211485","6502800","萬里區"
"207004","225-TW","2019/07/18 19:59:28","新北市萬里區北基里忠二街35號","121.685668333333","25.1757533333333","6502800","萬里區"
"252002","178-VK","2019/07/18 19:59:19","新北市三芝區三民街39巷36號","121.505378333333","25.2576","6502100","三芝區"
"208001","170-UY","2019/07/18 19:59:26","新北市金山區重和里茅埔頭15號","121.60164","25.2134516666667","6502700","金山區"
"237004","KEA-2597","2019/07/18 19:59:16","新北市三峽區添福15-32號","121.372563333333","24.90476","6500900","三峽區"
"237009","210-TH","2019/07/18 19:59:19","新北市三峽區民族街76-5號","121.369378333333","24.9299166666667","6500900","三峽區"
"237012","275-BY","2019/07/18 19:59:23","新北市三峽區中華路3巷2號","121.374806666667","24.9322866666667","6500900","三峽區"
"237008","302-VK","2019/07/18 19:59:30","新北市三峽區中正路一段292巷12弄6號","121.371161666667","24.9261416666667","6500900","三峽區"
"237014","433-BY","2019/07/18 19:59:09","新北市三峽區添福11-3號","121.372396666667","24.9068633333333","6500900","三峽區"
"237006","5529-G3","2019/07/18 19:59:23","新北市三峽區中正路一段443號","121.368628333333","24.9200616666667","6500900","三峽區"
"237011","KEA-2596","2019/07/18 19:59:24","新北市三峽區中正路一段406巷1號","121.370776666667","24.922785","6500900","三峽區"
"237015","649-BX","2019/07/18 19:59:24","新北市三峽區介壽路三段11號","121.395623333333","24.936315","6500900","三峽區"
"237005","AKY-6261","2019/07/18 19:59:21","新北市三峽區民生街1巷13-1號","121.379826666667","24.935555","6500900","三峽區"
"236042","KED-0685","2019/07/18 19:59:16","新北市土城區學府路一段98巷23-1號","121.45529","24.9887133333333","6501300","土城區"
"236078","166-UM","2019/07/18 19:59:09","新北市土城區民權街17號","121.414498333333","24.9639566666667","6501300","土城區"
"236030","253-BX","2019/07/18 19:59:25","新北市土城區中華路一段201號","121.443065","24.98507","6501300","土城區"
"236026","269-VK","2019/07/18 19:59:27","新北市土城區中央路二段89號","121.442295","24.97813","6501300","土城區"
"236038","271-VK","2019/07/18 19:59:28","新北市土城區國際路52號","121.466438333333","24.9783466666667","6501300","土城區"
"247010","KED-0683","2019/07/18 19:59:07","新北市蘆洲區集賢路200號","121.483683333333","25.087875","6501400","蘆洲區"
"236070","KEA-2877","2019/07/18 19:59:26","新北市土城區忠義路55巷75號","121.44234","24.9657816666667","6501300","土城區"
"252001","KED-0821","2019/07/18 19:59:12","新北市三芝區公正街66號","121.499788333333","25.2574566666667","6502100","三芝區"
"236021","401-BY","2019/07/18 19:59:30","新北市土城區延吉街111巷1弄6號","121.47171","24.9862383333333","6501300","土城區"
"236059","912-UM","2019/07/18 19:59:28","新北市土城區中央路一段306號","121.443353333333","24.98176","6501300","土城區"
"236049","913-UM","2019/07/18 19:59:20","新北市土城區金城路三段115號","121.467835","24.9878133333333","6501300","土城區"
"236063","915-UM","2019/07/18 19:59:23","新北市土城區金城路三段149巷4弄14號","121.468478333333","24.9891566666667","6501300","土城區"
"236055","AAC-216","2019/07/18 19:59:17","新北市土城區學府路一段39號","121.457816666667","24.98834","6501300","土城區"
"242039","AAC-296","2019/07/18 19:59:16","新北市新莊區民安路316號","121.428496666667","25.0220133333333","6500500","新莊區"
"242061","986-R7","2019/07/18 19:59:18","新北市新莊區瓊泰路49號","121.443501666667","25.0285933333333","6500500","新莊區"
"242002","751-BX","2019/07/18 19:59:12","新北市新莊區新泰路105號","121.448918333333","25.0350033333333","6500500","新莊區"
"242029","615-BX","2019/07/18 19:59:22","新北市新莊區中榮街152巷18號","121.446036666667","25.0534033333333","6500500","新莊區"
"242058","612-BX","2019/07/18 19:59:29","新北市新莊區八德街99號","121.424303333333","25.02127","6500500","新莊區"
"242051","497-BY","2019/07/18 19:59:20","新北市新莊區西盛街137號","121.42821","25.0185266666667","6500500","新莊區"
"242056","441-UM","2019/07/18 19:59:18","新北市新莊區中正路347巷15號","121.44736","25.0343833333333","6500500","新莊區"
"242004","440-UM","2019/07/18 19:59:23","新北市新莊區化成路159號","121.465695","25.049235","6500500","新莊區"
"242048","400-BY","2019/07/18 19:59:28","新北市新莊區民安路207巷5號","121.426768333333","25.0229883333333","6500500","新莊區"
"242025","362-BY","2019/07/18 19:59:24","新北市新莊區五工二路86巷29號","121.460323333333","25.0672033333333","6500500","新莊區"
"242023","353-BY","2019/07/18 19:59:12","新北市新莊區化成路370號","121.465881666667","25.04971","6500500","新莊區"
"242013","132-UY","2019/07/18 19:59:27","新北市新莊區中港路399號","121.451595","25.047095","6500500","新莊區"
"242036","135-UY","2019/07/18 19:59:25","新北市新莊區民安路207巷57號","121.428771666667","25.0248883333333","6500500","新莊區"
"242053","172-VK","2019/07/18 19:59:14","新北市新莊區民安西路303號","121.426813333333","25.01165","6500500","新莊區"
"242015","173-VK","2019/07/18 19:59:25","新北市新莊區復興路一段47巷12號","121.446808333333","25.0426733333333","6500500","新莊區"
"242021","175-VK","2019/07/18 19:59:27","新北市新莊區建中街16巷27號","121.44911","25.038685","6500500","新莊區"
"242019","KED-0687","2019/07/18 19:59:18","新北市新莊區民生街15巷14號","121.45531","25.0426283333333","6500500","新莊區"
"242011","346-TH","2019/07/18 19:59:21","新北市新莊區中港路531巷54號","121.45013","25.0515166666667","6500500","新莊區"
"242034","348-TH","2019/07/18 19:59:27","新北市新莊區建中街116巷1弄2號","121.445701666667","25.0367516666667","6500500","新莊區"
"242007","349-TH","2019/07/18 19:59:21","新北市新莊區思源路587號","121.459825","25.0594916666667","6500500","新莊區"
"242031","350-TH","2019/07/18 19:59:10","新北市新莊區公園一路61號","121.443063333333","25.0364466666667","6500500","新莊區"
"242017","351-TH","2019/07/18 19:59:25","新北市新莊區中安街1號","121.452808333333","25.045275","6500500","新莊區"
"238021","KEA-2539","2019/07/18 19:59:16","新北市樹林區佳園路三段99巷33-1號","121.391321666667","24.952245","6500700","樹林區"
"238017","283-BY","2019/07/18 19:59:12","新北市樹林區保安街一段406號","121.416913333333","24.9994516666667","6500700","樹林區"
"239006","891-R6","2019/07/18 19:59:19","新北市鶯歌區尖山埔路263號","121.34399","24.9499066666667","6500800","鶯歌區"
"239002","661-UM","2019/07/18 19:59:12","新北市鶯歌區大湖路273號","121.345398333333","24.9731733333333","6500800","鶯歌區"
"239005","526-UM","2019/07/18 19:59:07","新北市鶯歌區中湖街307巷2號","121.347055","24.9779766666667","6500800","鶯歌區"
"221008","489-VK","2019/07/18 19:59:25","新北市汐止區康寧街83巷43號","121.620413333333","25.0673516666667","6501100","汐止區"
"221015","131-UY","2019/07/18 19:59:18","新北市汐止區橋東街9號","121.66662","25.075955","6501100","汐止區"
"221010","269-BY","2019/07/18 19:59:26","新北市汐止區康寧街885巷3號","121.650106666667","25.07651","6501100","汐止區"
"221012","278-VK","2019/07/18 19:59:12","新北市汐止區大同路三段456號","121.683303333333","25.073015","6501100","汐止區"
"221023","279-VK","2019/07/18 19:59:15","新北市汐止區民族三街44號","121.62959","25.0700666666667","6501100","汐止區"
"221027","281-BY","2019/07/18 19:59:23","新北市汐止區中正路85號","121.661321666667","25.069435","6501100","汐止區"
"221033","297-VK","2019/07/18 19:59:10","新北市汐止區東勢街190巷1號","121.633881666667","25.0416866666667","6501100","汐止區"
"221029","298-VK","2019/07/18 19:59:13","新北市汐止區樟樹一路137巷26號","121.64094","25.0659883333333","6501100","汐止區"
"221021","299-VK","2019/07/18 19:59:29","新北市汐止區水源路一段166號","121.65539","25.0621433333333","6501100","汐止區"
"221031","353-TW","2019/07/18 19:59:15","新北市汐止區福德二路55巷6弄1號","121.634578333333","25.06652","6501100","汐止區"
"221025","623-UM","2019/07/18 19:59:24","新北市汐止區秀峰路109巷26弄7號","121.661251666667","25.0634583333333","6501100","汐止區"
"221038","646-BX","2019/07/18 19:59:26","新北市汐止區忠孝東路480號","121.666206666667","25.07376","6501100","汐止區"
"220079","145-BY","2019/07/18 19:59:24","新北市板橋區民權路202巷38號","121.460868333333","25.0175616666667","6500100","板橋區"
"220080","200-UY","2019/07/18 19:59:24","新北市板橋區大觀路二段79巷2弄15號","121.447393333333","25.0017266666667","6500100","板橋區"
"220082","610-BX","2019/07/18 19:59:18","新北市板橋區存德街3號","121.429925","24.991995","6500100","板橋區"
"220101","245-BX","2019/07/18 19:59:25","新北市板橋區莒光路171巷1弄18-4號","121.474493333333","25.0246816666667","6500100","板橋區"
"224002","257-TC","2019/07/18 19:59:17","新北市瑞芳區三爪子坑路335號","121.818763333333","25.1051283333333","6501200","瑞芳區"
"220056","276-BY","2019/07/18 19:59:10","新北市板橋區四川路二段99巷2弄2號","121.452686666667","24.994515","6500100","板橋區"
"220072","277-BY","2019/07/18 19:59:20","新北市板橋區金門街109巷17號","121.433571666667","24.991645","6500100","板橋區"
"220071","283-VK","2019/07/18 19:59:17","新北市板橋區五權街32巷3號","121.464815","24.9930883333333","6500100","板橋區"
"220094","285-UM","2019/07/18 19:59:22","新北市板橋區文化路一段379號","121.466973333333","25.021625","6500100","板橋區"
"220053","285-VK","2019/07/18 19:59:30","新北市板橋區懷仁街43號","121.476683333333","25.0192666666667","6500100","板橋區"
"220083","286-VK","2019/07/18 19:59:21","新北市板橋區僑中二街8巷9號","121.44666","25.011265","6500100","板橋區"
"220081","287-VK","2019/07/18 19:59:24","新北市板橋區大觀路一段28巷107號","121.449968333333","25.0120333333333","6500100","板橋區"
"220090","288-VK","2019/07/18 19:59:15","新北市板橋區新海路72巷8號","121.462335","25.0220016666667","6500100","板橋區"
"220061","295-UM","2019/07/18 19:59:23","新北市板橋區觀光街57巷15弄1號","121.470273333333","25.016125","6500100","板橋區"
"220084","296-UM","2019/07/18 19:59:19","新北市板橋區溪崑二街126號","121.425913333333","24.988115","6500100","板橋區"
"242044","281-VK","2019/07/18 19:59:27","新北市新莊區新北大道七段726號","121.412383333333","25.025905","6500500","新莊區"
"220075","303-R5","2019/07/18 19:59:24","新北市板橋區金華街10巷25號","121.456768333333","25.020155","6500100","板橋區"
"220062","305-R5","2019/07/18 19:59:22","新北市板橋區中山路二段光榮巷30弄2號","121.48474","25.02065","6500100","板橋區"
"220092","307-R5","2019/07/18 19:59:21","新北市板橋區文化路一段35號","121.460356666667","25.013055","6500100","板橋區"
"220089","487-VK","2019/07/18 19:59:25","新北市板橋區四維路291號","121.463323333333","25.028225","6500100","板橋區"
"220088","491-VK","2019/07/18 19:59:30","新北市板橋區懷德街127巷23弄7號","121.479376666667","25.0318683333333","6500100","板橋區"
"220035","560-BX","2019/07/18 19:59:27","新北市板橋區金華街85巷42號","121.459241666667","25.02146","6500100","板橋區"
"220103","561-BX","2019/07/18 19:59:19","新北市板橋區漢生西路52號","121.463016666667","25.01866","6500100","板橋區"
"220063","609-BX","2019/07/18 19:59:16","新北市板橋區中山路二段113號","121.474793333333","25.0162233333333","6500100","板橋區"
"220074","630-UY","2019/07/18 19:59:12","新北市板橋區文化路一段46巷19號","121.460265","25.0115483333333","6500100","板橋區"
"220091","637-BX","2019/07/18 19:59:29","新北市板橋區文聖街89巷16號","121.47796","25.0301883333333","6500100","板橋區"
"220057","686-BX","2019/07/18 19:59:19","新北市板橋區四川路二段120號","121.450388333333","24.993845","6500100","板橋區"
"220077","687-BX","2019/07/18 19:59:25","新北市板橋區僑中一街70號","121.44757","25.0114666666667","6500100","板橋區"
"220093","689-BX","2019/07/18 19:59:15","新北市板橋區長江路二段188號","121.467138333333","25.032055","6500100","板橋區"
"220054","741-BX","2019/07/18 19:59:19","新北市板橋區忠孝路忠義巷15弄55號","121.465461666667","25.00486","6500100","板橋區"
"220102","KEA-2699","2019/07/18 19:59:17","新北市板橋區莒光路39巷17號","121.470926666667","25.0253916666667","6500100","板橋區"
"220055","827-TW","2019/07/18 19:59:29","新北市板橋區仁愛路62巷17弄1號","121.460081666667","24.9981883333333","6500100","板橋區"
"220067","829-TW","2019/07/18 19:59:08","新北市板橋區漢生東路193巷67號","121.472318333333","25.0120983333333","6500100","板橋區"
"220073","985-R7","2019/07/18 19:59:26","新北市板橋區大仁街86號","121.453893333333","25.0162683333333","6500100","板橋區"
"220097","AAC-210","2019/07/18 19:59:30","新北市板橋區光正街9巷2弄2號","121.462841666667","25.0169166666667","6500100","板橋區"
"220064","AAC-253","2019/07/18 19:59:26","新北市板橋區區運路82號","121.466606666667","25.0103983333333","6500100","板橋區"
"235068","KEA-2873","2019/07/18 19:59:24","新北市中和區中山路二段250巷24號","121.497323333333","25.00334","6500300","中和區"
"235062","KEA-2876","2019/07/18 19:59:23","新北市中和區中正路859號","121.484573333333","25.0032083333333","6500300","中和區"
