"lineid","car","time","location","longitude","latitude","cityid","cityname"
"234081","298-R6","2019/07/18 20:19:28","新北市永和區國中路104巷13弄2號","121.524723333333","25.0072416666667","6500400","永和區"
"234038","336-UY","2019/07/18 20:19:22","新北市永和區成功路一段93巷16號","121.52771","25.00271","6500400","永和區"
"234064","337-UY","2019/07/18 20:19:12","新北市永和區得和路129號","121.519016666667","25.0002766666667","6500400","永和區"
"234086","338-UY","2019/07/18 20:19:14","新北市永和區永和路二段259號","121.515928333333","25.015335","6500400","永和區"
"234017","745-BX","2019/07/18 20:19:19","新北市永和區仁愛路36號","121.514373333333","25.01342","6500400","永和區"
"234030","746-BX","2019/07/18 20:19:17","新北市永和區民有街73號","121.518153333333","24.9957633333333","6500400","永和區"
"234054","KEA-2590","2019/07/18 20:19:29","新北市永和區光復街2巷39號","121.517561666667","25.01667","6500400","永和區"
"234007","KED-0605","2019/07/18 20:19:29","新北市永和區環河西路二段219號","121.50122","25.0101316666667","6500400","永和區"
"234013","KEA-2591","2019/07/18 20:19:25","新北市永和區保生路55號","121.504766666667","25.0104183333333","6500400","永和區"
"234061","AAD-866","2019/07/18 20:19:27","新北市永和區得和路28號","121.51557","25.00033","6500400","永和區"
"234070","748-BX","2019/07/18 20:19:25","新北市永和區福和路263巷7弄1號","121.517926666667","25.0069483333333","6500400","永和區"
"234042","862-TW","2019/07/18 20:19:25","新北市中和區中安街168號","121.51085","24.9998916666667","6500400","永和區"
"234050","863-TW","2019/07/18 20:19:18","新北市永和區保安路23號","121.510328333333","25.016725","6500400","永和區"
"234011","9373-KE","2019/07/18 20:19:11","新北市永和區保生路55-1號","121.504485","25.0109133333333","6500400","永和區"
"249005","172-UM","2019/07/18 20:19:19","新北市八里區下罟子2-1號","121.388498333333","25.1417333333333","6502300","八里區"
"249001","173-UM","2019/07/18 20:19:28","新北市八里區中華路二段516號","121.399278333333","25.145155","6502300","八里區"
"249004","303-UY","2019/07/18 20:19:15","新北市八里區中山路一段336號","121.412611666667","25.15898","6502300","八里區"
"249002","305-UY","2019/07/18 20:19:23","新北市八里區龍米路一段72號","121.45575","25.121075","6502300","八里區"
"248016","026-BX","2019/07/18 20:19:25","新北市五股區凌雲路一段158巷39弄6號","121.446766666667","25.1038783333333","6501500","五股區"
"248008","KED-0815","2019/07/18 20:19:10","新北市五股區中興路二段83巷26-6號","121.46006","25.0753","6501500","五股區"
"248012","247-BX","2019/07/18 20:19:12","新北市五股區民義路一段71-3號","121.435326666667","25.0851766666667","6501500","五股區"
"248010","272-BY","2019/07/18 20:19:06","新北市泰山區新五路一段106-6號","121.440073333333","25.0619433333333","6501500","五股區"
"248004","677-BX","2019/07/18 20:19:21","新北市五股區中興路四段23號","121.438766666667","25.08275","6501500","五股區"
"248002","678-BX","2019/07/18 20:19:19","新北市五股區成泰路三段173號","121.445351666667","25.0920016666667","6501500","五股區"
"234023","9380-KE","2019/07/18 20:19:19","新北市永和區復興街60號","121.51661","25.0132816666667","6500400","永和區"
"234077","969-R7","2019/07/18 20:19:17","新北市永和區中正路70號","121.513558333333","24.994955","6500400","永和區"
"234074","AAC-211","2019/07/18 20:19:14","新北市永和區豫溪街160巷4號","121.523246666667","25.0095","6500400","永和區"
"234067","AAC-212","2019/07/18 20:19:16","新北市永和區保平路268巷19號","121.508188333333","25.00567","6500400","永和區"
"234003","AAC-295","2019/07/18 20:19:26","新北市永和區自強街6巷1弄3號","121.51447","25.0079583333333","6500400","永和區"
"243012","AAD-798","2019/07/18 20:19:17","新北市泰山區楓江路162號","121.440773333333","25.0656716666667","6501600","泰山區"
"243010","297-R6","2019/07/18 20:19:26","新北市泰山區明志路二段254巷16弄8號","121.426381666667","25.0482266666667","6501600","泰山區"
"243014","KEA-2801","2019/07/18 20:19:18","新北市泰山區泰林路二段262號","121.431623333333","25.0623683333333","6501600","泰山區"
"243016","421-VK","2019/07/18 20:19:22","新北市泰山區明志路二段420號","121.424951666667","25.0437616666667","6501600","泰山區"
"243009","KEA-2215","2019/07/18 20:19:21","新北市泰山區福泰街35號","121.433206666667","25.0600033333333","6501600","泰山區"
"243011","KEA-2216","2019/07/18 20:19:25","新北市新莊區壽山路160巷21號","121.417481666667","25.031905","6501600","泰山區"
"243013","646-TV","2019/07/18 20:19:25","新北市泰山區民國街56號","121.42593","25.0436833333333","6501600","泰山區"
"243015","680-BX","2019/07/18 20:19:29","新北市泰山區明志路一段298號","121.43182","25.0597066666667","6501600","泰山區"
"222002","016-RS","2019/07/18 20:19:15","新北市深坑區萬福路75巷53號","121.59818","25.0099016666667","6501800","深坑區"
"222003","436-BY","2019/07/18 20:19:13","新北市深坑區文化街86號","121.61766","25.0019433333333","6501800","深坑區"
"231061","002-UM","2019/07/18 20:19:16","新北市新店區安興路33-1號","121.515791666667","24.9704416666667","6500600","新店區"
"231044","046-UY","2019/07/18 20:19:25","新北市新店區北新路三段196號","121.54134","24.9833533333333","6500600","新店區"
"231060","106-UY","2019/07/18 20:19:17","新北市新店區安康路三段578-1號","121.481095","24.94866","6500600","新店區"
"231051","107-UY","2019/07/18 20:19:23","新北市新店區中央六街84號","121.526603333333","24.976585","6500600","新店區"
"231049","108-UY","2019/07/18 20:19:13","新北市新店區北新路二段68號","121.542913333333","24.9724","6500600","新店區"
"231065","110-UY","2019/07/18 20:19:23","新北市新店區安祥路102巷36號","121.484351666667","24.9638266666667","6500600","新店區"
"231068","187-VK","2019/07/18 20:19:18","新北市新店區民權路17號","121.542135","24.9828966666667","6500600","新店區"
"221035","KEA-2785","2019/07/18 20:19:20","新北市汐止區長江街57巷21弄2號","121.655855","25.0721816666667","6501100","汐止區"
"231062","256-BX","2019/07/18 20:19:17","新北市新店區安泰路7巷16號","121.485678333333","24.9509633333333","6500600","新店區"
"231054","260-TV","2019/07/18 20:19:24","新北市新店區檳榔路150號","121.54426","24.9615483333333","6500600","新店區"
"231042","268-BY","2019/07/18 20:19:18","新北市新店區中興路二段231-2號","121.547713333333","24.975035","6500600","新店區"
"231064","278-BY","2019/07/18 20:19:31","新北市新店區安業街33號","121.517835","24.977005","6500600","新店區"
"231050","AAD-862","2019/07/18 20:19:23","新北市新店區博愛街6巷1號","121.541086666667","24.9732816666667","6500600","新店區"
"231045","355-BY","2019/07/18 20:19:18","新北市新店區北宜路一段121-2號","121.540373333333","24.95375","6500600","新店區"
"231058","3713-VJ","2019/07/18 20:19:14","新北市新店區薏仁坑路自強巷6號","121.496493333333","24.9584666666667","6500600","新店區"
"231055","4716-K9","2019/07/18 20:19:12","新北市新店區中華路42巷12號","121.540441666667","24.9686183333333","6500600","新店區"
"231056","4715-K9","2019/07/18 20:19:15","新北市新店區中正路334巷3號","121.536808333333","24.97531","6500600","新店區"
"231067","4772-VM","2019/07/18 20:19:14","新北市新店區安華路28-1號","121.519718333333","24.9608733333333","6500600","新店區"
"231052","513-UM","2019/07/18 20:19:23","新北市新店區新烏路二段399號","121.551211666667","24.9095733333333","6500600","新店區"
"231041","619-UM","2019/07/18 20:19:25","新北市新店區民權路68號","121.538355","24.982995","6500600","新店區"
"231063","641-BX","2019/07/18 20:19:22","新北市新店區車子路10-3號","121.504756666667","24.9546783333333","6500600","新店區"
"231047","KED-0819","2019/07/18 20:19:18","新北市新店區寶橋路85巷66號","121.544985","24.97665","6500600","新店區"
"231057","720-UM","2019/07/18 20:19:11","新北市新店區花園十二路1號","121.554885","24.9346583333333","6500600","新店區"
"231059","897-TW","2019/07/18 20:19:20","新北市新店區安德街37號","121.511401666667","24.96254","6500600","新店區"
"231040","898-TW","2019/07/18 20:19:25","新北市新店區中正路110號","121.542988333333","24.97076","6500600","新店區"
"231043","899-TW","2019/07/18 20:19:17","新北市新店區建國路133號","121.539381666667","24.97829","6500600","新店區"
"231066","AKT-0513","2019/07/18 20:19:13","新北市新店區安興路20號","121.51507","24.96609","6500600","新店區"
"241011","013-R5","2019/07/18 20:19:10","新北市三重區龍濱路287號","121.500986666667","25.073775","6500200","三重區"
"241028","022-UY","2019/07/18 20:19:26","新北市三重區大同南路119號","121.496308333333","25.0582883333333","6500200","三重區"
"241008","059-VK","2019/07/18 20:19:08","新北市三重區永福街211巷2弄2號","121.479955","25.0741933333333","6500200","三重區"
"241031","061-VK","2019/07/18 20:19:13","新北市三重區三寧街15號","121.489411666667","25.0597966666667","6500200","三重區"
"241015","062-VK","2019/07/18 20:19:29","新北市三重區重新路一段122號","121.500346666667","25.06296","6500200","三重區"
"241017","063-VK","2019/07/18 20:19:29","新北市三重區自強路一段155號","121.493511666667","25.06704","6500200","三重區"
"241024","065-VK","2019/07/18 20:19:17","新北市三重區中正北路262號","121.48126","25.068355","6500200","三重區"
"241002","090-VK","2019/07/18 20:19:23","新北市三重區仁義街101巷2號","121.497545","25.0801783333333","6500200","三重區"
"241003","091-VK","2019/07/18 20:19:29","新北市三重區富華街44號","121.490095","25.0828716666667","6500200","三重區"
"241030","742-BX","2019/07/18 20:19:27","新北市三重區集成路48號","121.488966666667","25.0528483333333","6500200","三重區"
"241016","266-UM","2019/07/18 20:19:15","新北市三重區大同北路97-3號","121.494396666667","25.0636283333333","6500200","三重區"
"241009","267-UM","2019/07/18 20:19:09","新北市三重區三和路四段382巷44號","121.481188333333","25.078465","6500200","三重區"
"241018","268-UM","2019/07/18 20:19:24","新北市三重區正義北路195號","121.49624","25.06827","6500200","三重區"
"241032","269-UM","2019/07/18 20:19:26","新北市三重區捷運路19巷8弄19號","121.484155","25.057195","6500200","三重區"
"241013","270-UM","2019/07/18 20:19:28","新北市三重區三和路三段167巷17號","121.492608333333","25.07426","6500200","三重區"
"241025","271-UM","2019/07/18 20:19:26","新北市三重區頂崁街210巷9號","121.476571666667","25.0677266666667","6500200","三重區"
"241007","398-BY","2019/07/18 20:19:27","新北市三重區三和路四段117巷29號","121.486471666667","25.0778833333333","6500200","三重區"
"241035","462-BY","2019/07/18 20:19:15","新北市三重區文化北路18號","121.499375","25.0639716666667","6500200","三重區"
"241004","475-VK","2019/07/18 20:19:15","新北市三重區慈愛街193號","121.490533333333","25.0803766666667","6500200","三重區"
"241020","478-VK","2019/07/18 20:19:16","新北市三重區三和路三段170巷8弄10號","121.492506666667","25.0727383333333","6500200","三重區"
"241026","480-VK","2019/07/18 20:19:29","新北市三重區中央南路20號","121.501376666667","25.0626016666667","6500200","三重區"
"241014","543-UM","2019/07/18 20:19:23","新北市三重區長樂街135巷2號","121.503486666667","25.06988","6500200","三重區"
"241023","545-UM","2019/07/18 20:19:10","新北市三重區忠孝路三段84巷5號","121.480253333333","25.06436","6500200","三重區"
"241001","547-UM","2019/07/18 20:19:23","新北市三重區自強路四段31巷30號","121.490626666667","25.07717","6500200","三重區"
"241019","KEA-2593","2019/07/18 20:19:26","新北市三重區忠孝路一段75-1號","121.490626666667","25.07204","6500200","三重區"
"241006","AAD-863","2019/07/18 20:19:21","新北市三重區車路頭街139巷14號","121.484275","25.076185","6500200","三重區"
"241022","KED-0820","2019/07/18 20:19:26","新北市三重區新北大道一段36號","121.488188333333","25.06131","6500200","三重區"
"241012","941-UM","2019/07/18 20:19:12","新北市三重區河邊北街379-1號","121.501711666667","25.0764333333333","6500200","三重區"
"241029","942-UM","2019/07/18 20:19:11","新北市三重區光明路114號","121.492701666667","25.0561016666667","6500200","三重區"
"241033","AAC-255","2019/07/18 20:19:28","新北市三重區五谷王北街50巷37號","121.47521","25.0514216666667","6500200","三重區"
"235066","003-UY","2019/07/18 20:19:11","新北市中和區保平路372號","121.50636","25.0034866666667","6500300","中和區"
"235039","097-UM","2019/07/18 20:19:19","新北市中和區大勇街29巷12-1號","121.515928333333","24.9945666666667","6500300","中和區"
"235065","098-UM","2019/07/18 20:19:20","新北市中和區福美路312巷1號","121.496676666667","25.005065","6500300","中和區"
"235055","183-VK","2019/07/18 20:19:20","新北市五股區凌雲路二段66號","121.438475","25.1063183333333","6500300","中和區"
"235067","255-BX","2019/07/18 20:17:39","新北市五股區中直路17-3號","121.421893333333","25.1116766666667","6500300","中和區"
"247014","KEA-2869","2019/07/18 20:19:13","新北市蘆洲區中山二路138號","121.47144","25.0814783333333","6501400","蘆洲區"
"247008","KED-0682","2019/07/18 20:19:20","新北市蘆洲區集賢路300號","121.481641666667","25.0850433333333","6501400","蘆洲區"
"235050","4979-A6","2019/07/18 20:19:16","新北市中和區景平路221巷17號","121.510006666667","24.9921733333333","6500300","中和區"
"235069","4980-A6","2019/07/18 20:19:25","新北市中和區圓通路196號","121.496263333333","24.9944483333333","6500300","中和區"
"235059","AAC-215","2019/07/18 20:19:25","新北市中和區員山路30-11號","121.484135","24.9877283333333","6500300","中和區"
"247004","893-R6","2019/07/18 20:19:26","新北市蘆洲區長安街297號","121.458043333333","25.08481","6501400","蘆洲區"
"247018","546-UM","2019/07/18 20:19:29","新北市蘆洲區民族路315號","121.474615","25.0914283333333","6501400","蘆洲區"
"247024","337-TH","2019/07/18 20:19:18","新北市蘆洲區光榮路120巷8弄37號","121.464836666667","25.0878016666667","6501400","蘆洲區"
"247002","336-TH","2019/07/18 20:19:15","新北市蘆洲區長安街331巷28號","121.456178333333","25.0865883333333","6501400","蘆洲區"
"247022","057-VK","2019/07/18 20:19:21","新北市蘆洲區民族路538號","121.468053333333","25.0892333333333","6501400","蘆洲區"
"247012","056-VK","2019/07/18 20:19:24","新北市蘆洲區中興街23號","121.480855","25.0870116666667","6501400","蘆洲區"
"247006","002-UY","2019/07/18 20:19:25","新北市蘆洲區九芎街136號","121.465163333333","25.079045","6501400","蘆洲區"
"226004","312-R5","2019/07/18 20:19:14","新北市平溪區靜安路二段388號","121.738403333333","25.02452","6502400","平溪區"
"222001","KEA-2212","2019/07/18 20:16:36","新北市深坑區北深路三段207號","121.600666666667","25.0038333333333","6501800","深坑區"
"208003","665-BX","2019/07/18 20:19:23","新北市金山區南勢湖16-2號","121.6208","25.2191133333333","6502700","金山區"
"251005","010-UM","2019/07/18 20:19:19","新北市淡水區淡金路二段599號","121.446801666667","25.1920716666667","6501000","淡水區"
"251001","011-UM","2019/07/18 20:19:12","新北市淡水區淡金路二段15號","121.446335","25.1892016666667","6501000","淡水區"
"251002","012-UM","2019/07/18 20:19:10","新北市淡水區中正路177號","121.438693333333","25.1712683333333","6501000","淡水區"
"251015","KEA-2871","2019/07/18 20:19:16","新北市淡水區埤島80-2號","121.449408333333","25.1895266666667","6501000","淡水區"
"251016","179-VK","2019/07/18 20:19:28","新北市淡水區番子田32號","121.45802","25.229195","6501000","淡水區"
"251008","181-VK","2019/07/18 20:19:12","新北市淡水區淡海路180巷22號","121.421653333333","25.1845516666667","6501000","淡水區"
"251013","182-VK","2019/07/18 20:19:24","新北市淡水區相公山1-3號","121.474155","25.2066916666667","6501000","淡水區"
"251010","413-VK","2019/07/18 20:19:22","新北市淡水區中正路二段301號","121.42605","25.1905233333333","6501000","淡水區"
"251012","441-VK","2019/07/18 20:19:30","新北市淡水區下圭柔山431-1號","121.449825","25.2102016666667","6501000","淡水區"
"251006","561-UM","2019/07/18 20:19:14","新北市淡水區北新路169巷69弄24號","121.447666666667","25.1800366666667","6501000","淡水區"
"251014","577-R6","2019/07/18 20:19:23","新北市淡水區石頭厝2-1號","121.458121666667","25.2357416666667","6501000","淡水區"
"251003","673-BX","2019/07/18 20:19:17","新北市淡水區中山北路一段229號","121.444456666667","25.17954","6501000","淡水區"
"207003","550-UM","2019/07/18 20:19:27","新北市萬里區野柳里八斗60號","121.66813","25.203455","6502800","萬里區"
"207004","225-TW","2019/07/18 20:19:20","新北市萬里區北基里大仁路5號","121.682105","25.1753316666667","6502800","萬里區"
"252002","178-VK","2019/07/18 20:19:19","新北市三芝區中正路一段43號","121.503308333333","25.2582033333333","6502100","三芝區"
"237006","5529-G3","2019/07/18 20:19:23","新北市三峽區大利路18號","121.366826666667","24.91164","6500900","三峽區"
"236078","166-UM","2019/07/18 20:19:09","新北市土城區德安街20號","121.421478333333","24.9643933333333","6501300","土城區"
"236030","253-BX","2019/07/18 20:19:31","新北市土城區中央路一段45巷2弄5號","121.44844","24.9901216666667","6501300","土城區"
"236026","269-VK","2019/07/18 20:19:29","新北市土城區裕生路86巷2號","121.447016666667","24.9851816666667","6501300","土城區"
"236014","270-VK","2019/07/18 20:19:24","新北市板橋區信義路54巷17弄45號","121.456158333333","24.994895","6501300","土城區"
"247010","KED-0683","2019/07/18 20:19:27","新北市蘆洲區信義路188巷4弄2號","121.479855","25.0844683333333","6501400","蘆洲區"
"236070","KEA-2877","2019/07/18 20:19:26","新北市土城區中山路34號","121.424843333333","24.9638533333333","6501300","土城區"
"252001","KED-0821","2019/07/18 20:19:12","新北市三芝區中山路一段31號","121.500571666667","25.2580166666667","6502100","三芝區"
"236059","912-UM","2019/07/18 20:19:28","新北市土城區大安路101-5號","121.433438333333","24.968585","6501300","土城區"
"242039","AAC-296","2019/07/18 20:19:16","新北市新莊區成功街77號","121.424621666667","25.0197783333333","6500500","新莊區"
"242061","986-R7","2019/07/18 20:19:15","新北市新莊區新樹路279號","121.434003333333","25.02054","6500500","新莊區"
"242002","751-BX","2019/07/18 20:19:11","新北市新莊區中正路48-2號","121.463963333333","25.0410316666667","6500500","新莊區"
"242029","615-BX","2019/07/18 20:19:22","新北市新莊區中華路二段201號","121.452255","25.0526716666667","6500500","新莊區"
"242027","613-BX","2019/07/18 20:18:36","新北市新莊區幸福路701號","121.450025","25.049135","6500500","新莊區"
"242058","612-BX","2019/07/18 20:19:09","新北市新莊區龍安路278巷17號","121.422018333333","25.018605","6500500","新莊區"
"242046","566-BX","2019/07/18 20:19:22","新北市新莊區中正路新生巷67號","121.41742","25.0222633333333","6500500","新莊區"
"242051","497-BY","2019/07/18 20:19:20","新北市新莊區民安西路218號","121.42591","25.0147033333333","6500500","新莊區"
"242056","441-UM","2019/07/18 20:19:18","新北市新莊區豐年街28巷19號","121.445531666667","25.0322366666667","6500500","新莊區"
"242004","440-UM","2019/07/18 20:19:23","新北市新莊區頭前路2巷5號","121.46837","25.0529433333333","6500500","新莊區"
"242042","415-TV","2019/07/18 20:19:29","新北市新莊區壽山路71號","121.40963","25.032645","6500500","新莊區"
"242048","400-BY","2019/07/18 20:19:08","新北市新莊區四維路186巷1號","121.421916666667","25.0211016666667","6500500","新莊區"
"242025","362-BY","2019/07/18 20:19:18","新北市新莊區五工三路70巷14號","121.459701666667","25.065245","6500500","新莊區"
"242023","353-BY","2019/07/18 20:19:12","新北市新莊區化成路347號","121.46578","25.056515","6500500","新莊區"
"242013","132-UY","2019/07/18 20:19:27","新北市新莊區幸福路710巷8號","121.449873333333","25.049635","6500500","新莊區"
"242036","135-UY","2019/07/18 20:19:25","新北市新莊區建安街60號","121.427186666667","25.02471","6500500","新莊區"
"242053","172-VK","2019/07/18 20:19:14","新北市新莊區民安西路261巷24號","121.42692","25.0129233333333","6500500","新莊區"
"242015","173-VK","2019/07/18 20:19:25","新北市新莊區中和街31巷22號","121.447198333333","25.0438566666667","6500500","新莊區"
"242021","175-VK","2019/07/18 20:19:27","新北市新莊區和興街49號","121.446533333333","25.0407133333333","6500500","新莊區"
"242019","KED-0687","2019/07/18 20:19:24","新北市新莊區銘德街82號","121.4562","25.04357","6500500","新莊區"
"242011","346-TH","2019/07/18 20:19:21","新北市新莊區中信街21號","121.451055","25.0506933333333","6500500","新莊區"
"242034","348-TH","2019/07/18 20:19:26","新北市新莊區華興街5號","121.446005","25.0352383333333","6500500","新莊區"
"242007","349-TH","2019/07/18 20:19:21","新北市新莊區福壽街136巷38號","121.459245","25.05155","6500500","新莊區"
"242031","350-TH","2019/07/18 20:19:16","新北市新莊區中正路508巷152號","121.438828333333","25.0358783333333","6500500","新莊區"
"242017","351-TH","2019/07/18 20:19:25","新北市新莊區中港一街92號","121.44933","25.0453016666667","6500500","新莊區"
"221008","489-VK","2019/07/18 20:19:25","新北市汐止區忠三街9巷28-1號","121.624596666667","25.0802616666667","6501100","汐止區"
"221036","130-UY","2019/07/18 20:19:14","新北市汐止區福安街59巷8號","121.66435","25.0637366666667","6501100","汐止區"
"221015","131-UY","2019/07/18 20:19:18","新北市汐止區建成路160巷16號","121.661811666667","25.0739566666667","6501100","汐止區"
"221010","269-BY","2019/07/18 20:19:10","新北市汐止區八連路一段121-2號","121.643281666667","25.0797333333333","6501100","汐止區"
"221012","278-VK","2019/07/18 20:19:12","新北市汐止區汐平路一段45-1號","121.681996666667","25.0706583333333","6501100","汐止區"
"221023","279-VK","2019/07/18 20:19:15","新北市汐止區明峰街298巷10弄1號","121.624983333333","25.0689016666667","6501100","汐止區"
"221032","280-BY","2019/07/18 20:19:27","新北市汐止區弘道街53巷2號","121.61858","25.0483666666667","6501100","汐止區"
"221033","297-VK","2019/07/18 20:19:30","新北市汐止區東勢街201巷104號","121.633606666667","25.0429683333333","6501100","汐止區"
"221029","298-VK","2019/07/18 20:19:13","新北市汐止區樟樹一路99巷7弄1號","121.641165","25.0636316666667","6501100","汐止區"
"221021","299-VK","2019/07/18 20:19:09","新北市汐止區水源路一段291巷1號","121.654303333333","25.0584183333333","6501100","汐止區"
"221031","353-TW","2019/07/18 20:19:15","新北市汐止區原興路76巷2號","121.631966666667","25.06635","6501100","汐止區"
"221025","623-UM","2019/07/18 20:19:24","新北市汐止區水源路二段30號","121.654823333333","25.057345","6501100","汐止區"
"221038","646-BX","2019/07/18 20:19:26","新北市汐止區忠孝東路460號","121.666188333333","25.0729983333333","6501100","汐止區"
"221002","707-TV","2019/07/18 20:19:26","新北市汐止區福德三路26號","121.636888333333","25.0693966666667","6501100","汐止區"
"221018","753-BX","2019/07/18 20:19:26","新北市汐止區茄苳路277號","121.672313333333","25.0680116666667","6501100","汐止區"
"220079","145-BY","2019/07/18 20:19:04","新北市板橋區建國街116號","121.460428333333","25.0174666666667","6500100","板橋區"
"224002","257-TC","2019/07/18 20:19:17","新北市瑞芳區明燈路一段199號","121.818605","25.1078816666667","6501200","瑞芳區"
"220083","286-VK","2019/07/18 20:19:20","新北市板橋區僑中二街90巷31號","121.444708333333","25.00934","6500100","板橋區"
"220081","287-VK","2019/07/18 20:19:27","新北市板橋區僑中一街80巷7弄15號","121.447098333333","25.0128016666667","6500100","板橋區"
"220061","295-UM","2019/07/18 20:19:23","新北市板橋區四川路一段286巷26號","121.45787","25.0013183333333","6500100","板橋區"
"242044","281-VK","2019/07/18 20:19:30","新北市新莊區中正路895-15號","121.41283","25.02111","6500500","新莊區"
"242009","280-VK","2019/07/18 20:19:13","新北市新莊區昌平街1號","121.454796666667","25.0513183333333","6500500","新莊區"
"220035","560-BX","2019/07/18 20:19:27","新北市板橋區新生街53巷20號","121.457656666667","25.0217483333333","6500100","板橋區"
"220074","630-UY","2019/07/18 20:19:12","新北市板橋區館前西路110號","121.456986666667","25.0074666666667","6500100","板橋區"
"220055","827-TW","2019/07/18 20:19:27","新北市板橋區重慶路290巷3號","121.461565","24.998685","6500100","板橋區"
