"lineid","car","time","location","longitude","latitude","cityid","cityname"
"232019","290-BY","2019/07/19 07:29:12","新北市平溪區東勢里芊蓁林28號","121.732515","24.9758333333333","6502000","坪林區"
"232008","291-BY","2019/07/19 07:29:17","新北市坪林區魚堀14-1號","121.70428","24.9078083333333","6502000","坪林區"
"232015","705-BZ","2019/07/19 07:29:14","新北市坪林區黃舉皮寮2-1號","121.688791666667","24.9425","6502000","坪林區"
"244004","248-BX","2019/07/19 07:27:48","新北市林口區頂福59號","121.339225","25.0882183333333","6501700","林口區"
"222005","289-BY","2019/07/19 07:03:56","新北市深坑區平埔街22巷19號","121.614616666667","25.001045","6501800","深坑區"
"231050","AAD-862","2019/07/19 07:29:27","新北市新店區新和街33號","121.519013333333","24.9847016666667","6500600","新店區"
"226001","8452-VL","2019/07/19 07:18:59","新北市平溪區望古里灰4-2號","121.763278333333","25.029475","6502400","平溪區"
"226006","AGD-0702","2019/07/19 07:29:10","新北市平溪區新寮里頂寮子3-3號","121.766936666667","25.0506766666667","6502400","平溪區"
"223003","205-TH","2019/07/19 07:19:31","新北市石碇區蓬菜寮16號","121.64963","24.9730116666667","6501900","石碇區"
"223008","406-TH","2019/07/19 07:16:47","新北市石碇區靜安路一段337號","121.698775","25.0146183333333","6501900","石碇區"
"223001","592-UM","2019/07/19 07:29:19","新北市石碇區中楒子腳4號","121.64098","24.9704883333333","6501900","石碇區"
"223004","660-BX","2019/07/19 07:29:28","新北市石碇區八分寮55-5號","121.645101666667","25.0170066666667","6501900","石碇區"
"223007","661-BX","2019/07/19 07:29:07","新北市石碇區大溪墘9-1號","121.698008333333","25.008355","6501900","石碇區"
"227003","282-VK","2019/07/19 07:29:13","新北市雙溪區新基里自強路5號","121.866378333333","25.0390566666667","6502500","雙溪區"
"237014","760-BX","2019/07/19 07:29:03","新北市三峽區白雞177號","121.403041666667","24.9031133333333","6500900","三峽區"
"226005","ANY-2373","2019/07/19 07:29:20","新北市平溪區白石里中埔226號","121.721871666667","25.02017","6502400","平溪區"
