"lineid","car","time","location","longitude","latitude","cityid","cityname"
"231009","192-VK","2019/07/23 10:08:42","新北市新店區成功路58-1號","121.538846666667","24.900275","6500600","新店區"
"235001","031-BX","2019/07/23 10:09:14","新北市新店區車子路10-1號","121.504651666667","24.954765","6500300","中和區"
"227004","282-VK","2019/07/23 10:09:10","新北市雙溪區長源里盤山坑13號","121.77283","24.9960816666667","6502500","雙溪區"
"227006","030-BX","2019/07/23 10:09:12","新北市雙溪區泰平里烏山路13號","121.794575","24.9502666666667","6502500","雙溪區"
"252004","249-BX","2019/07/23 10:09:10","新北市三芝區福德里埔尾13-3號","121.503971666667","25.245085","6502100","三芝區"
"252007","AAC-283","2019/07/23 10:09:17","新北市三芝區古庄里古庄103-1號","121.494928333333","25.271965","6502100","三芝區"
"237014","760-BX","2019/07/23 10:09:22","新北市三峽區大學路86-3號","121.375611666667","24.9425583333333","6500900","三峽區"
