"lineid","car","time","location","longitude","latitude","cityid","cityname"
"234044","148-BY","2019/07/23 13:19:38","新北市永和區得和路326號","121.523263333333","24.999575","6500400","永和區"
"234078","298-R6","2019/07/23 13:19:38","新北市永和區福和路27號","121.523891666667","25.008275","6500400","永和區"
"234036","336-UY","2019/07/23 13:19:44","新北市永和區成功路二段121巷11號","121.527408333333","24.9985166666667","6500400","永和區"
"234062","337-UY","2019/07/23 13:19:48","新北市永和區永元路17巷15號","121.521316666667","25.0008016666667","6500400","永和區"
"234084","338-UY","2019/07/23 13:19:44","新北市永和區永貞路69號","121.518896666667","25.004415","6500400","永和區"
"234015","745-BX","2019/07/23 13:19:42","新北市永和區環河西路一段87號","121.512271666667","25.0179183333333","6500400","永和區"
"234028","746-BX","2019/07/23 13:19:42","新北市永和區厚德街98號","121.523541666667","24.9989316666667","6500400","永和區"
"234052","KEA-2590","2019/07/23 13:19:50","新北市永和區中興街20號","121.516085","25.0118533333333","6500400","永和區"
"234005","KED-0605","2019/07/23 13:19:53","新北市中和區中山路二段1號","121.505578333333","25.0059833333333","6500400","永和區"
"234012","KEA-2591","2019/07/23 13:19:55","新北市永和區信義路23號","121.513928333333","25.0122566666667","6500400","永和區"
"234060","AAD-866","2019/07/23 13:19:52","新北市永和區秀朗路一段175號","121.516988333333","25.0037033333333","6500400","永和區"
"234068","748-BX","2019/07/23 13:19:39","新北市永和區豫溪街53號","121.517113333333","25.0099033333333","6500400","永和區"
"234040","862-TW","2019/07/23 13:19:45","新北市永和區保平路151巷9號","121.510305","25.005445","6500400","永和區"
"234048","863-TW","2019/07/23 13:19:48","新北市永和區信義路90號","121.512443333333","25.0136916666667","6500400","永和區"
"234026","9371-KE","2019/07/23 13:19:57","新北市永和區豫溪街42巷18號","121.515283333333","25.0090983333333","6500400","永和區"
"234010","9373-KE","2019/07/23 13:19:55","新北市永和區忠孝街34巷25號","121.514418333333","25.0167616666667","6500400","永和區"
"248017","KED-0813","2019/07/23 13:19:39","新北市五股區御史路191-31號","121.437168333333","25.0964983333333","6501500","五股區"
"234022","9380-KE","2019/07/23 13:19:44","新北市永和區竹林路117-1號","121.519963333333","25.0115033333333","6500400","永和區"
"234076","969-R7","2019/07/23 13:19:56","新北市永和區民有街69號","121.51785","24.9956866666667","6500400","永和區"
"234072","AAC-211","2019/07/23 13:19:39","新北市永和區竹林路90號","121.519458333333","25.0122933333333","6500400","永和區"
"234066","AAC-212","2019/07/23 13:19:48","新北市永和區保平路50巷8弄1號","121.510945","25.007555","6500400","永和區"
"234001","AAC-295","2019/07/23 13:19:47","新北市永和區保福路一段57號","121.51259","25.00957","6500400","永和區"
"244002","248-BX","2019/07/23 13:19:46","新北市林口區頭湖74-68號","121.362801666667","25.091755","6501700","林口區"
"231030","002-UM","2019/07/23 13:19:45","新北市新店區安華路28-1號","121.519801666667","24.960985","6500600","新店區"
"231027","0293-UT","2019/07/23 13:19:45","新北市新店區安康路一段167號","121.527211666667","24.9624983333333","6500600","新店區"
"231005","046-UY","2019/07/23 13:19:46","新北市新店區安華路28-1號","121.519313333333","24.9605766666667","6500600","新店區"
"231029","106-UY","2019/07/23 13:19:58","新北市新店區安華路28-1號","121.519573333333","24.96078","6500600","新店區"
"231018","107-UY","2019/07/23 13:19:46","新北市新店區環河路120號","121.536505","24.96837","6500600","新店區"
"231013","108-UY","2019/07/23 13:19:36","新北市新店區安華路28-1號","121.519435","24.9609016666667","6500600","新店區"
"231036","110-UY","2019/07/23 13:19:37","新北市新店區安康路三段351號","121.485086666667","24.95139","6500600","新店區"
"231015","KEA-2219","2019/07/23 13:19:40","新北市新店區安一路一段1-1號","121.519686666667","24.9612733333333","6500600","新店區"
"231032","256-BX","2019/07/23 13:19:51","新北市新店區安一路一段1-1號","121.51969","24.9610716666667","6500600","新店區"
"231023","260-TV","2019/07/23 13:19:46","新北市新店區安一路一段1-1號","121.51916","24.961065","6500600","新店區"
"231003","268-BY","2019/07/23 13:19:46","新北市新店區北新路一段303號","121.541356666667","24.967385","6500600","新店區"
"231035","278-BY","2019/07/23 13:19:41","新北市新店區安一路一段1-1號","121.519796666667","24.96126","6500600","新店區"
"231006","355-BY","2019/07/23 13:19:49","新北市新店區安華路28-1號","121.519255","24.9607233333333","6500600","新店區"
"231038","3712-VJ","2019/07/23 13:19:41","新北市新店區安華路28-1號","121.519278333333","24.9605683333333","6500600","新店區"
"231024","4716-K9","2019/07/23 13:19:42","新北市新店區安康路一段116號","121.527128333333","24.9625866666667","6500600","新店區"
"231025","4715-K9","2019/07/23 13:19:41","新北市新店區中央五街5號","121.530073333333","24.974115","6500600","新店區"
"231020","513-UM","2019/07/23 13:19:41","新北市新店區安康路一段92-1號","121.527875","24.96198","6500600","新店區"
"231002","619-UM","2019/07/23 13:19:41","新北市新店區安華路28-1號","121.519496666667","24.9608166666667","6500600","新店區"
"231034","641-BX","2019/07/23 13:19:44","新北市新店區安華路1-1號","121.519483333333","24.960375","6500600","新店區"
"231012","KED-0819","2019/07/23 13:19:55","新北市新店區安一路一段1-1號","121.519923333333","24.961145","6500600","新店區"
"231010","719-UM","2019/07/23 13:19:57","新北市新店區安康路一段94-3號","121.527593333333","24.9621916666667","6500600","新店區"
"231026","720-UM","2019/07/23 13:19:42","新北市新店區安華路28-1號","121.519346666667","24.96089","6500600","新店區"
"231028","897-TW","2019/07/23 13:19:40","新北市新店區安華路28-1號","121.519586666667","24.9606316666667","6500600","新店區"
"231001","898-TW","2019/07/23 13:19:36","新北市新店區安華路28-1號","121.519405","24.96073","6500600","新店區"
"231037","AKT-0513","2019/07/23 13:19:45","新北市新店區安華路16號","121.51651","24.9579883333333","6500600","新店區"
"235030","003-UY","2019/07/23 13:19:57","新北市中和區中山路二段120號","121.502683333333","25.003685","6500300","中和區"
"235028","005-UY","2019/07/23 13:19:50","新北市中和區圓通路141巷37弄1號","121.498955","24.9949966666667","6500300","中和區"
"235027","006-UY","2019/07/23 13:19:39","新北市中和區中正路585號","121.485935","24.9944933333333","6500300","中和區"
"235001","031-BX","2019/07/23 13:19:45","新北市中和區連城路89巷34號","121.497443333333","24.9988016666667","6500300","中和區"
"235003","097-UM","2019/07/23 13:19:55","新北市中和區安平路59號","121.509658333333","24.9949783333333","6500300","中和區"
"235029","098-UM","2019/07/23 13:19:50","新北市中和區莊敬路49巷20弄22號","121.50271","25.005795","6500300","中和區"
"235004","150-BY","2019/07/23 13:19:40","新北市中和區保健路50巷66號","121.509293333333","24.9951633333333","6500300","中和區"
"235022","151-BY","2019/07/23 13:19:39","新北市中和區圓通路369巷38弄1號","121.49051","24.983125","6500300","中和區"
"235019","183-VK","2019/07/23 13:19:55","新北市土城區金城路三段253號","121.471688333333","24.9900316666667","6500300","中和區"
"235002","185-VK","2019/07/23 13:19:55","新北市中和區大智街70號","121.523341666667","24.99249","6500300","中和區"
"235013","186-VK","2019/07/23 13:19:44","新北市中和區中正路395號","121.489845","24.993555","6500300","中和區"
"235036","301-VK","2019/07/23 13:19:50","新北市中和區連城路265巷10弄2號","121.491603333333","24.9954883333333","6500300","中和區"
"235007","352-BY","2019/07/23 13:19:48","新北市中和區景平路381號","121.503876666667","24.9933366666667","6500300","中和區"
"235006","KEA-2878","2019/07/23 13:19:46","新北市中和區景平路240巷1弄2號","121.515541666667","24.9930166666667","6500300","中和區"
"235014","4979-A6","2019/07/23 13:19:47","新北市中和區捷運路61巷3號","121.508826666667","24.9895483333333","6500300","中和區"
"235033","4980-A6","2019/07/23 13:19:44","新北市中和區錦和路350-1號","121.490558333333","24.9935366666667","6500300","中和區"
"235034","558-UM","2019/07/23 13:19:45","新北市中和區景平路435號","121.501048333333","24.9958116666667","6500300","中和區"
"235009","565-BX","2019/07/23 13:19:44","新北市中和區南山路236巷24弄30號","121.50481","24.9888983333333","6500300","中和區"
"235024","KED-0823","2019/07/23 13:19:45","新北市中和區員山路457號","121.480488333333","25.0043466666667","6500300","中和區"
"235018","640-BX","2019/07/23 13:19:45","新北市中和區民享街100號","121.47476","24.9996016666667","6500300","中和區"
"235011","732-UM","2019/07/23 13:19:46","新北市中和區員山路36巷16-3號","121.48491","24.9912516666667","6500300","中和區"
"235035","783-BX","2019/07/23 13:19:30","新北市中和區中板路16號","121.48383","25.0118383333333","6500300","中和區"
"235026","800-TS","2019/07/23 13:19:41","新北市中和區景平路750號","121.49643","25.0043533333333","6500300","中和區"
"235005","802-TS","2019/07/23 13:19:56","新北市中和區中和路298號","121.508698333333","24.9998683333333","6500300","中和區"
"235016","805-TS","2019/07/23 13:19:49","新北市中和區興南路二段133號","121.505211666667","24.98416","6500300","中和區"
"235017","900-TW","2019/07/23 13:19:52","新北市中和區員山路36巷16-2號","121.485215","24.9914866666667","6500300","中和區"
"235031","911-UM","2019/07/23 13:19:48","新北市中和區民樂路67號","121.48401","25.0012766666667","6500300","中和區"
"235015","157-BY","2019/07/23 13:19:49","新北市中和區忠孝街21號","121.510288333333","24.9828533333333","6500300","中和區"
"235001","AAC-213","2019/07/23 13:19:40","新北市中和區景德街95-2號","121.515425","24.9911","6500300","中和區"
"235023","AAC-215","2019/07/23 13:19:47","新北市中和區員山路36巷16-3號","121.484876666667","24.99127","6500300","中和區"
"220013","072-UY","2019/07/23 13:19:40","新北市板橋區華東街1-10號","121.448733333333","24.994935","6500100","板橋區"
"228004","212-TW","2019/07/23 13:19:30","新北市貢寮區吉林里內寮街35號","121.900336666667","24.9814066666667","6502600","貢寮區"
"228005","828-UM","2019/07/23 13:19:43","新北市貢寮區美豐里丹裡街36號","121.909821666667","25.0598916666667","6502600","貢寮區"
"207002","749-BX","2019/07/23 13:19:47","新北市萬里區崁腳里內崁路2-3號","121.63879","25.160545","6502800","萬里區"
"207001","662-BX","2019/07/23 13:19:40","新北市萬里區龜吼里玉田路29號","121.680988333333","25.1951183333333","6502800","萬里區"
"252005","AAC-283","2019/07/23 13:19:41","新北市三芝區八賢里八連溪87號","121.520261666667","25.2293116666667","6502100","三芝區"
"221029","298-VK","2019/07/23 13:19:45","新北市汐止區南陽街111號","121.623956666667","25.061235","6501100","汐止區"
"220021","985-R7","2019/07/23 13:19:42","新北市板橋區華東街1-10號","121.448246666667","24.9949483333333","6500100","板橋區"
"235032","KEA-2873","2019/07/23 13:19:42","新北市中和區員山路36巷16-3號","121.48497","24.991285","6500300","中和區"
"235025","KEA-2875","2019/07/23 13:19:46","新北市中和區民享街97巷9號","121.47514","24.9993433333333","6500300","中和區"
"235010","KEA-2876","2019/07/23 13:19:58","新北市中和區中正路637巷60弄61號","121.485568333333","24.9925916666667","6500300","中和區"
