"lineid","car","time","location","longitude","latitude","cityid","cityname"
"234044","148-BY","2019/07/23 13:29:18","新北市永和區秀朗路二段232號","121.526248333333","24.99941","6500400","永和區"
"234078","298-R6","2019/07/23 13:29:18","新北市永和區環河東路三段54號","121.526855","25.0062716666667","6500400","永和區"
"234036","336-UY","2019/07/23 13:29:25","新北市永和區民樂街32號","121.527543333333","25.0010016666667","6500400","永和區"
"234062","337-UY","2019/07/23 13:29:24","新北市永和區中正路368巷1弄84號","121.520326666667","25.0007766666667","6500400","永和區"
"234084","338-UY","2019/07/23 13:29:24","新北市永和區永利路83-1號","121.521448333333","25.00343","6500400","永和區"
"234015","745-BX","2019/07/23 13:29:22","新北市永和區永和路二段425巷75弄6號","121.513356666667","25.0170416666667","6500400","永和區"
"234028","746-BX","2019/07/23 13:29:22","","121.524305","24.9982033333333","6500400","永和區"
"234052","KEA-2590","2019/07/23 13:29:10","新北市永和區永和路二段234號","121.515783333333","25.0146166666667","6500400","永和區"
"234005","KED-0605","2019/07/23 13:29:12","新北市永和區中山路一段203號","121.508886666667","25.008655","6500400","永和區"
"234012","KEA-2591","2019/07/23 13:29:15","新北市永和區永平路203巷5弄1號","121.50912","25.0096616666667","6500400","永和區"
"234060","AAD-866","2019/07/23 13:29:12","新北市永和區永貞路139號","121.516458333333","25.0042266666667","6500400","永和區"
"234068","748-BX","2019/07/23 13:29:19","新北市永和區竹林路177號","121.520545","25.0098083333333","6500400","永和區"
"234040","862-TW","2019/07/23 13:29:20","新北市永和區中和路523號","121.511058333333","25.0027966666667","6500400","永和區"
"234048","863-TW","2019/07/23 13:29:20","新北市永和區保福路二段145號","121.509583333333","25.0142683333333","6500400","永和區"
"234026","9371-KE","2019/07/23 13:29:17","新北市永和區永和路一段157-1號","121.514278333333","25.0096966666667","6500400","永和區"
"234010","9373-KE","2019/07/23 13:29:15","新北市永和區信義路25巷53號","121.512316666667","25.0115733333333","6500400","永和區"
"248017","KED-0813","2019/07/23 13:29:19","新北市五股區御史路269號","121.421905","25.106145","6501500","五股區"
"234022","9380-KE","2019/07/23 13:29:24","新北市永和區竹林路91巷45號","121.521388333333","25.0128416666667","6500400","永和區"
"234076","969-R7","2019/07/23 13:29:15","新北市永和區中正路286巷7號","121.51774","24.9986716666667","6500400","永和區"
"234072","AAC-211","2019/07/23 13:29:19","新北市永和區永和路二段98號","121.515028333333","25.01179","6500400","永和區"
"234066","AAC-212","2019/07/23 13:29:08","新北市永和區永貞路349號","121.509208333333","25.0073933333333","6500400","永和區"
"234001","AAC-295","2019/07/23 13:29:23","新北市永和區永和路一段105號","121.513828333333","25.0078516666667","6500400","永和區"
"244002","248-BX","2019/07/23 13:29:06","新北市林口區頂福21-6號","121.351446666667","25.085215","6501700","林口區"
"231030","002-UM","2019/07/23 13:29:25","新北市新店區安華路28-1號","121.5198","24.9607466666667","6500600","新店區"
"231027","0293-UT","2019/07/23 13:29:25","新北市新店區環河路19巷36號","121.537553333333","24.9599883333333","6500600","新店區"
"231005","046-UY","2019/07/23 13:29:26","新北市新店區北新路一段91號","121.538741666667","24.9617533333333","6500600","新店區"
"231029","106-UY","2019/07/23 13:29:18","新北市新店區安華路16號","121.516235","24.9579733333333","6500600","新店區"
"231018","107-UY","2019/07/23 13:29:26","新北市新店區中央路135號","121.530415","24.9737866666667","6500600","新店區"
"231013","108-UY","2019/07/23 13:29:16","新北市新店區中央路145號","121.530098333333","24.97346","6500600","新店區"
"231036","110-UY","2019/07/23 13:29:17","新北市新店區安祥路160號","121.477211666667","24.9562283333333","6500600","新店區"
"231015","KEA-2219","2019/07/23 13:29:20","新北市新店區北宜路一段94號","121.538803333333","24.9554766666667","6500600","新店區"
"231032","256-BX","2019/07/23 13:29:11","新北市新店區安豐路54-1號","121.49975","24.954185","6500600","新店區"
"231023","260-TV","2019/07/23 13:29:26","新北市新店區北新路一段37號","121.537956666667","24.9591533333333","6500600","新店區"
"231003","268-BY","2019/07/23 13:29:26","新北市新店區中正路84號","121.54358","24.97028","6500600","新店區"
"231035","278-BY","2019/07/23 13:29:21","新北市新店區安一路一段1-1號","121.519743333333","24.9612466666667","6500600","新店區"
"231006","355-BY","2019/07/23 13:29:29","新北市新店區安華路28-1號","121.519208333333","24.9608533333333","6500600","新店區"
"231038","3712-VJ","2019/07/23 13:29:20","新北市新店區安華路1-1號","121.519253333333","24.9605633333333","6500600","新店區"
"231024","4716-K9","2019/07/23 13:29:22","新北市新店區中正路128巷12號","121.542515","24.97196","6500600","新店區"
"231025","4715-K9","2019/07/23 13:29:21","新北市新店區中央五街38號","121.52851","24.97498","6500600","新店區"
"231020","513-UM","2019/07/23 13:29:21","新北市新店區北宜路一段310號","121.547288333333","24.9521616666667","6500600","新店區"
"231002","619-UM","2019/07/23 13:29:21","新北市新店區安康路一段86號","121.528028333333","24.9619283333333","6500600","新店區"
"231034","641-BX","2019/07/23 13:29:24","新北市新店區安華路1-1號","121.519495","24.960355","6500600","新店區"
"231012","KED-0819","2019/07/23 13:29:15","新北市新店區環河路29巷1號","121.536605","24.9612266666667","6500600","新店區"
"231010","719-UM","2019/07/23 13:29:17","新北市新店區中央路7號","121.53347","24.9785633333333","6500600","新店區"
"231026","720-UM","2019/07/23 13:29:22","新北市新店區安華路28-1號","121.51933","24.9608466666667","6500600","新店區"
"231028","897-TW","2019/07/23 13:29:20","新北市新店區安華路28-1號","121.519526666667","24.96057","6500600","新店區"
"231001","898-TW","2019/07/23 13:29:16","新北市新店區安康路一段124-1號","121.52685","24.962745","6500600","新店區"
"231037","AKT-0513","2019/07/23 13:29:04","新北市新店區薏仁坑路59號","121.49046","24.9650716666667","6500600","新店區"
"235030","003-UY","2019/07/23 13:29:17","新北市中和區中山路二段120號","121.502705","25.003795","6500300","中和區"
"235028","005-UY","2019/07/23 13:29:14","新北市中和區連城路109巷34號","121.497085","24.9981016666667","6500300","中和區"
"235027","006-UY","2019/07/23 13:29:19","新北市中和區連城路347巷2弄1號","121.488103333333","24.9958183333333","6500300","中和區"
"235064","031-BX","2019/07/23 13:29:05","新北市中和區永和路56號","121.499266666667","25.00429","6500300","中和區"
"235020","096-UM","2019/07/23 13:29:09","新北市中和區新民街85號","121.481398333333","25.0079916666667","6500300","中和區"
"235003","097-UM","2019/07/23 13:29:15","新北市中和區大仁街19巷8號","121.517246666667","24.9932366666667","6500300","中和區"
"235029","098-UM","2019/07/23 13:29:10","新北市中和區中山路二段64巷12號","121.503523333333","25.0053016666667","6500300","中和區"
"235004","150-BY","2019/07/23 13:29:20","新北市中和區安平路59號","121.509601666667","24.99513","6500300","中和區"
"235022","151-BY","2019/07/23 13:29:19","新北市中和區圓通路369巷72號","121.490148333333","24.982195","6500300","中和區"
"235019","183-VK","2019/07/23 13:29:21","新北市中和區莒光路120巷34號","121.471548333333","25.0014916666667","6500300","中和區"
"235002","185-VK","2019/07/23 13:29:23","新北市中和區自立路151號","121.522755","24.9931","6500300","中和區"
"235013","186-VK","2019/07/23 13:29:24","新北市中和區景安路96號","121.505565","24.9957883333333","6500300","中和區"
"235008","293-VK","2019/07/23 13:29:19","新北市中和區復興路301巷2弄1號","121.501428333333","24.9898783333333","6500300","中和區"
"235036","301-VK","2019/07/23 13:29:10","新北市中和區連城路237-1號","121.49379","24.9973533333333","6500300","中和區"
"235007","352-BY","2019/07/23 13:29:08","新北市中和區景平路281號","121.507525","24.9928833333333","6500300","中和區"
"235006","KEA-2878","2019/07/23 13:29:26","新北市中和區景平路64巷11號","121.52223","24.9912383333333","6500300","中和區"
"235014","4979-A6","2019/07/23 13:29:07","新北市中和區景新街368號","121.512121666667","24.99038","6500300","中和區"
"235033","4980-A6","2019/07/23 13:29:24","新北市中和區連城路203巷10弄33號","121.495535","24.996345","6500300","中和區"
"235034","558-UM","2019/07/23 13:29:23","新北市中和區南華路89號","121.505601666667","24.99737","6500300","中和區"
"235009","565-BX","2019/07/23 13:28:55","新北市中和區南山路236巷34-10號","121.504345","24.9881416666667","6500300","中和區"
"235024","KED-0823","2019/07/23 13:29:25","新北市中和區中山路三段37號","121.478228333333","25.0056","6500300","中和區"
"235018","640-BX","2019/07/23 13:29:25","新北市中和區莒光路132號","121.472521666667","25.0014633333333","6500300","中和區"
"235011","732-UM","2019/07/23 13:29:06","新北市中和區中興街166號","121.499845","24.991445","6500300","中和區"
"235035","783-BX","2019/07/23 13:29:10","新北市板橋區光環路二段22-3號","121.482403333333","25.01434","6500300","中和區"
"235026","800-TS","2019/07/23 13:29:21","新北市中和區中山路二段312巷29-3號","121.495175","25.0037166666667","6500300","中和區"
"235021","801-TS","2019/07/23 13:29:11","新北市中和區民安街42巷36號","121.47909","25.0011583333333","6500300","中和區"
"235005","802-TS","2019/07/23 13:29:16","新北市中和區中和路324巷3弄1號","121.509928333333","25.0008416666667","6500300","中和區"
"235016","805-TS","2019/07/23 13:29:09","新北市中和區興南路二段133號","121.505216666667","24.9841433333333","6500300","中和區"
"235012","896-TW","2019/07/23 13:29:26","新北市中和區中正路637巷52弄1號","121.485431666667","24.9934483333333","6500300","中和區"
"235017","900-TW","2019/07/23 13:29:12","新北市土城區金城路三段259-1號","121.471963333333","24.9900916666667","6500300","中和區"
"235031","911-UM","2019/07/23 13:29:08","新北市中和區連城路340巷14弄20號","121.482903333333","24.9972433333333","6500300","中和區"
"235015","157-BY","2019/07/23 13:29:09","新北市中和區興南路二段114巷10弄10號","121.503946666667","24.9847233333333","6500300","中和區"
"235001","AAC-213","2019/07/23 13:29:20","新北市中和區景德街52號","121.517663333333","24.99154","6500300","中和區"
"235023","AAC-215","2019/07/23 13:29:07","新北市中和區員山路36巷16-3號","121.485035","24.9911783333333","6500300","中和區"
"220013","072-UY","2019/07/23 13:29:20","新北市板橋區南雅南路二段1-1號","121.454798333333","25.00377","6500100","板橋區"
"220034","073-UY","2019/07/23 13:29:12","新北市板橋區華東街1-10號","121.448276666667","24.9950483333333","6500100","板橋區"
"228004","212-TW","2019/07/23 13:29:10","新北市貢寮區龍崗里石壁坑街17號","121.910316666667","24.9895966666667","6502600","貢寮區"
"228005","828-UM","2019/07/23 13:29:23","新北市貢寮區美豐里文秀坑8號","121.902531666667","25.0503783333333","6502600","貢寮區"
"207002","749-BX","2019/07/23 13:29:07","新北市萬里區崁腳里崁腳路166號","121.645065","25.1558516666667","6502800","萬里區"
"207001","662-BX","2019/07/23 13:29:20","新北市萬里區野柳里八斗60號","121.668015","25.2037033333333","6502800","萬里區"
"252005","AAC-283","2019/07/23 13:29:21","新北市三芝區圓山里木屐寮38-2號","121.530641666667","25.228225","6502100","三芝區"
"221029","298-VK","2019/07/23 13:29:25","新北市汐止區南陽街1巷2號","121.624761666667","25.06594","6501100","汐止區"
"220027","145-BY","2019/07/23 13:29:21","新北市板橋區華東街1-10號","121.448375","24.9950716666667","6500100","板橋區"
"220030","610-BX","2019/07/23 13:29:10","新北市板橋區華東街1-10號","121.448235","24.99498","6500100","板橋區"
"220004","276-BY","2019/07/23 13:29:05","新北市板橋區華東街1-10號","121.448295","24.9949316666667","6500100","板橋區"
"220020","277-BY","2019/07/23 13:29:18","新北市板橋區華東街1-10號","121.448321666667","24.9951016666667","6500100","板橋區"
"220043","285-UM","2019/07/23 13:29:11","新北市板橋區民生路二段120號","121.470306666667","25.0199316666667","6500100","板橋區"
"220032","296-UM","2019/07/23 13:29:26","新北市板橋區華東街1-9號","121.448125","24.9949383333333","6500100","板橋區"
"220104","560-BX","2019/07/23 13:29:24","新北市板橋區南雅南路一段112號","121.454846666667","25.0040316666667","6500100","板橋區"
"220005","686-BX","2019/07/23 13:29:16","新北市板橋區南雅南路二段144巷60號","121.451013333333","24.996605","6500100","板橋區"
"220025","687-BX","2019/07/23 13:29:22","新北市板橋區板城路421號","121.447938333333","24.9963216666667","6500100","板橋區"
"220022","895-R6","2019/07/23 13:29:10","新北市板橋區南雅南路二段144巷2號","121.451551666667","24.9961733333333","6500100","板橋區"
"220021","985-R7","2019/07/23 13:29:22","新北市板橋區四川路二段140巷20號","121.448913333333","24.9934983333333","6500100","板橋區"
"220012","AAC-253","2019/07/23 13:29:08","新北市板橋區南雅南路二段120-1號","121.452288333333","24.9996933333333","6500100","板橋區"
"235032","KEA-2873","2019/07/23 13:29:12","新北市中和區圓通路273號","121.49563","24.9930916666667","6500300","中和區"
"235025","KEA-2875","2019/07/23 13:29:16","新北市中和區民享街92巷24號","121.474043333333","24.9997733333333","6500300","中和區"
"235010","KEA-2876","2019/07/23 13:28:58","新北市中和區板南路100號","121.503855","24.9924333333333","6500300","中和區"
