"lineid","car","time","location","longitude","latitude","cityid","cityname"
"234062","337-UY","2019/07/23 14:39:24","新北市永和區保生路55-6號","121.50349","25.0122816666667","6500400","永和區"
"234026","9371-KE","2019/07/23 14:39:09","新北市永和區中和路499號","121.510598333333","25.0023566666667","6500400","永和區"
"248017","KED-0813","2019/07/23 14:39:19","新北市五股區外寮路13-1號","121.424858333333","25.0812316666667","6501500","五股區"
"234072","AAC-211","2019/07/23 14:39:19","新北市永和區環河東路二段54-1號","121.523366666667","25.0115066666667","6500400","永和區"
"244002","248-BX","2019/07/23 14:39:25","新北市林口區南勢里34-8號","121.352355","25.0702183333333","6501700","林口區"
"231030","002-UM","2019/07/23 14:39:25","新北市新店區安民街179號","121.516778333333","24.9705616666667","6500600","新店區"
"231027","0293-UT","2019/07/23 14:39:25","新北市新店區德正街21巷1號","121.543828333333","24.9722933333333","6500600","新店區"
"231005","046-UY","2019/07/23 14:39:06","新北市新店區順安街69號","121.54073","24.9866516666667","6500600","新店區"
"231029","106-UY","2019/07/23 14:39:18","新北市新店區安康路三段195號","121.488013333333","24.95175","6500600","新店區"
"231018","107-UY","2019/07/23 14:39:26","新北市新店區中央二街5巷3號","121.529105","24.9728916666667","6500600","新店區"
"231013","108-UY","2019/07/23 14:39:21","新北市新店區明德路38號","121.541488333333","24.9778983333333","6500600","新店區"
"231036","110-UY","2019/07/23 14:39:17","新北市新店區安祥路104-10號","121.479096666667","24.9620516666667","6500600","新店區"
"231015","KEA-2219","2019/07/23 14:39:20","新北市新店區北宜路三段221號","121.592441666667","24.95322","6500600","新店區"
"231032","256-BX","2019/07/23 14:39:11","新北市新店區安業街8巷1號","121.515406666667","24.9774716666667","6500600","新店區"
"231023","260-TV","2019/07/23 14:39:26","新北市新店區檳榔路109號","121.5445","24.9616866666667","6500600","新店區"
"231003","268-BY","2019/07/23 14:39:06","新北市新店區中興路一段290號","121.545871666667","24.9690983333333","6500600","新店區"
"231035","278-BY","2019/07/23 14:39:21","新北市新店區安康路二段118-5號","121.51233","24.963205","6500600","新店區"
"231006","355-BY","2019/07/23 14:39:08","新北市新店區北宜路二段133號","121.551171666667","24.953035","6500600","新店區"
"231038","3712-VJ","2019/07/23 14:39:20","新北市新店區安華路28-1號","121.519761666667","24.960895","6500600","新店區"
"231020","513-UM","2019/07/23 14:39:21","新北市新店區桂山路81巷1號","121.567471666667","24.899285","6500600","新店區"
"231002","619-UM","2019/07/23 14:39:21","新北市新店區中正路468號","121.533966666667","24.9793916666667","6500600","新店區"
"231034","641-BX","2019/07/23 14:39:24","新北市新店區黎明路11號","121.502001666667","24.9497483333333","6500600","新店區"
"231012","KED-0819","2019/07/23 14:39:15","新北市新店區寶橋路48號","121.5458","24.97501","6500600","新店區"
"231028","897-TW","2019/07/23 14:39:20","新北市新店區安德街80號","121.510078333333","24.961535","6500600","新店區"
"231001","898-TW","2019/07/23 14:39:16","新北市新店區中正路49號","121.544668333333","24.96987","6500600","新店區"
"231004","899-TW","2019/07/23 14:39:28","新北市新店區中正路277號","121.537646666667","24.9743266666667","6500600","新店區"
"231037","AKT-0513","2019/07/23 14:39:24","新北市新店區安興路20號","121.515005","24.9659466666667","6500600","新店區"
"235030","003-UY","2019/07/23 14:39:17","新北市中和區中和路196巷10號","121.504943333333","24.9991033333333","6500300","中和區"
"235027","006-UY","2019/07/23 14:39:19","新北市中和區連城路263巷7弄2號","121.492321666667","24.9958216666667","6500300","中和區"
"235064","031-BX","2019/07/23 14:39:25","新北市中和區員山路36巷13號","121.484243333333","24.990675","6500300","中和區"
"235020","096-UM","2019/07/23 14:39:09","新北市中和區民富街94號","121.476908333333","25.0085283333333","6500300","中和區"
"235003","097-UM","2019/07/23 14:39:24","新北市中和區安平路208號","121.513478333333","24.999815","6500300","中和區"
"235029","098-UM","2019/07/23 14:39:10","新北市中和區福美路252號","121.498363333333","25.0053","6500300","中和區"
"235004","150-BY","2019/07/23 14:39:20","新北市中和區保健路50巷66號","121.509223333333","24.9951966666667","6500300","中和區"
"235022","151-BY","2019/07/23 14:39:19","新北市中和區員山路150巷2弄21號","121.481776666667","24.997815","6500300","中和區"
"235002","185-VK","2019/07/23 14:39:23","新北市中和區自立路20巷3號","121.522091666667","24.99339","6500300","中和區"
"235013","186-VK","2019/07/23 14:39:24","新北市中和區中正路58號","121.501681666667","24.993665","6500300","中和區"
"235008","293-VK","2019/07/23 14:39:19","新北市中和區南山路252號","121.50788","24.9885083333333","6500300","中和區"
"235036","301-VK","2019/07/23 14:39:10","新北市中和區保平路362巷13號","121.505728333333","25.0038683333333","6500300","中和區"
"235007","352-BY","2019/07/23 14:39:08","新北市中和區南華路75號","121.505123333333","24.9973483333333","6500300","中和區"
"235006","KEA-2878","2019/07/23 14:39:26","新北市中和區宜安路169號","121.508491666667","24.9991483333333","6500300","中和區"
"247013","KEA-2869","2019/07/23 14:39:21","新北市蘆洲區中山二路130號","121.471776666667","25.0816533333333","6501400","蘆洲區"
"247007","KED-0682","2019/07/23 14:39:22","新北市蘆洲區成功路38巷2號","121.473268333333","25.079475","6501400","蘆洲區"
"235034","558-UM","2019/07/23 14:39:23","新北市中和區連城路171巷38號","121.495985","24.9965033333333","6500300","中和區"
"235018","640-BX","2019/07/23 14:39:25","新北市中和區莒光路70號","121.472303333333","25.00311","6500300","中和區"
"235011","732-UM","2019/07/23 14:39:26","新北市中和區捷運路177號","121.505778333333","24.99141","6500300","中和區"
"235035","783-BX","2019/07/23 14:38:30","新北市中和區建一路157號","121.488146666667","24.99925","6500300","中和區"
"235021","801-TS","2019/07/23 14:39:10","新北市中和區員山路150號","121.481423333333","24.997265","6500300","中和區"
"235005","802-TS","2019/07/23 14:39:16","新北市中和區宜安路117號","121.510118333333","24.997895","6500300","中和區"
"235016","805-TS","2019/07/23 14:39:09","新北市中和區興南路二段159巷21號","121.505803333333","24.98389","6500300","中和區"
"235012","896-TW","2019/07/23 14:39:26","新北市中和區景新街493號","121.513858333333","24.9872366666667","6500300","中和區"
"235017","900-TW","2019/07/23 14:39:12","新北市中和區國光街184巷14號","121.467308333333","25.0020833333333","6500300","中和區"
"235031","911-UM","2019/07/23 14:39:08","新北市中和區民樂路60號","121.483833333333","25.0011916666667","6500300","中和區"
"235015","157-BY","2019/07/23 14:39:09","新北市中和區中興街180巷33號","121.4983","24.98906","6500300","中和區"
"235001","AAC-213","2019/07/23 14:39:20","新北市中和區自立路46號","121.523048333333","24.9923266666667","6500300","中和區"
"235023","AAC-215","2019/07/23 14:39:07","新北市中和區圓通路305巷7弄1號","121.493748333333","24.9900083333333","6500300","中和區"
"220016","015-TV","2019/07/23 14:39:27","新北市板橋區中山路二段412巷18號","121.483276666667","25.019945","6500100","板橋區"
"220013","072-UY","2019/07/23 14:39:20","新北市板橋區國泰街109-1號","121.46629","25.0060816666667","6500100","板橋區"
"220034","073-UY","2019/07/23 14:39:21","新北市板橋區國光路173巷18號","121.460365","25.0192283333333","6500100","板橋區"
"220105","075-UY","2019/07/23 14:39:10","新北市板橋區民治街57巷24弄2號","121.48014","25.0337283333333","6500100","板橋區"
"220017","AAD-861","2019/07/23 14:39:14","新北市板橋區貴興路50號","121.45711","25.0031683333333","6500100","板橋區"
"247023","337-TH","2019/07/23 14:39:13","新北市蘆洲區正和街65號","121.468933333333","25.080975","6501400","蘆洲區"
"247001","336-TH","2019/07/23 14:39:19","新北市蘆洲區永樂街31巷9號","121.458093333333","25.0871183333333","6501400","蘆洲區"
"247011","056-VK","2019/07/23 14:39:10","新北市蘆洲區集賢路224巷37弄2號","121.480483333333","25.0879316666667","6501400","蘆洲區"
"247015","053-VK","2019/07/23 14:39:12","新北市蘆洲區正和街37號","121.469565","25.0817233333333","6501400","蘆洲區"
"247019","007-UY","2019/07/23 14:39:09","新北市蘆洲區民權路115號","121.472336666667","25.08974","6501400","蘆洲區"
"228004","212-TW","2019/07/23 14:39:10","新北市貢寮區福隆里福隆街2號","121.944431666667","25.0155666666667","6502600","貢寮區"
"228005","828-UM","2019/07/23 14:39:22","新北市貢寮區美豐里雞母嶺街6-6號","121.902075","25.064175","6502600","貢寮區"
"207002","749-BX","2019/07/23 14:39:28","新北市萬里區溪底里溪底路6-2號","121.616816666667","25.1511366666667","6502800","萬里區"
"207001","662-BX","2019/07/23 14:39:04","新北市萬里區磺潭里員潭路59號","121.642603333333","25.1898533333333","6502800","萬里區"
"252005","AAC-283","2019/07/23 14:39:21","新北市三芝區埔坪里埔頭坑82號","121.510833333333","25.2533466666667","6502100","三芝區"
"236040","KED-0685","2019/07/23 14:39:21","新北市土城區裕民路55巷16號","121.449661666667","24.98871","6501300","土城區"
"236074","166-UM","2019/07/23 14:39:11","新北市土城區中央路四段125巷26號","121.417015","24.9567916666667","6501300","土城區"
"236029","253-BX","2019/07/23 14:39:17","新北市土城區中華路二段185號","121.438453333333","24.9746933333333","6501300","土城區"
"236024","269-VK","2019/07/23 14:39:23","新北市土城區忠義路49號","121.440501666667","24.96922","6501300","土城區"
"236013","270-VK","2019/07/23 14:39:25","新北市土城區清水路224號","121.460921666667","24.9822383333333","6501300","土城區"
"236032","271-VK","2019/07/23 14:39:16","新北市土城區明德路一段235巷38號","121.463135","24.9773883333333","6501300","土城區"
"236065","KEA-2877","2019/07/23 14:39:27","新北市土城區永豐路255巷12號","121.47536","24.9731166666667","6501300","土城區"
"236017","401-BY","2019/07/23 14:39:24","新北市土城區延吉街251號","121.467563333333","24.9847716666667","6501300","土城區"
"236057","912-UM","2019/07/23 14:39:12","新北市土城區中央路四段25-8號","121.424621666667","24.962385","6501300","土城區"
"236045","913-UM","2019/07/23 14:39:13","新北市土城區金城路三段6號","121.464395","24.9859816666667","6501300","土城區"
"236060","915-UM","2019/07/23 14:39:23","新北市土城區延和路177巷11弄2號","121.469871666667","24.990695","6501300","土城區"
"236054","AAC-216","2019/07/23 14:39:07","新北市土城區中華路一段45號","121.445828333333","24.9884","6501300","土城區"
"221029","298-VK","2019/07/23 14:39:24","新北市新店區薏仁坑路5號","121.499063333333","24.9589566666667","6501100","汐止區"
"220027","145-BY","2019/07/23 14:39:23","新北市板橋區民權路260巷24-2號","121.458743333333","25.0152933333333","6500100","板橋區"
"220028","200-UY","2019/07/23 14:39:17","新北市板橋區大觀路二段37巷196號","121.449481666667","25.0016","6500100","板橋區"
"220030","610-BX","2019/07/23 14:39:10","新北市板橋區金門街204-4號","121.432471666667","24.99019","6500100","板橋區"
"220037","267-BY","2019/07/23 14:39:22","新北市板橋區民治街22號","121.477745","25.0342866666667","6500100","板橋區"
"220004","276-BY","2019/07/23 14:39:25","新北市板橋區干城路148號","121.459773333333","24.9930616666667","6500100","板橋區"
"220020","277-BY","2019/07/23 14:39:18","新北市板橋區金門街253巷11號","121.43268","24.9885466666667","6500100","板橋區"
"220050","280-UM","2019/07/23 14:39:14","新北市板橋區縣民大道三段79巷13號","121.47513","25.0220533333333","6500100","板橋區"
"220019","283-VK","2019/07/23 14:39:23","新北市板橋區四川路一段387號","121.458071666667","24.9994466666667","6500100","板橋區"
"220043","285-UM","2019/07/23 14:39:11","新北市板橋區吳鳳路91-1號","121.466655","25.0316683333333","6500100","板橋區"
"220001","285-VK","2019/07/23 14:39:16","新北市板橋區中山路二段148巷34號","121.476958333333","25.016195","6500100","板橋區"
"220031","286-VK","2019/07/23 14:39:16","新北市板橋區龍興街65巷82-1號","121.441666666667","25.0022683333333","6500100","板橋區"
"220029","287-VK","2019/07/23 14:39:23","新北市板橋區大觀路一段29巷131弄21號","121.450676666667","25.0048816666667","6500100","板橋區"
"220039","288-VK","2019/07/23 14:39:18","新北市板橋區龍泉街72巷13號","121.45602","25.0263183333333","6500100","板橋區"
"220009","295-UM","2019/07/23 14:39:24","新北市板橋區中山路一段283巷22號","121.470403333333","25.0152616666667","6500100","板橋區"
"220032","296-UM","2019/07/23 14:39:26","新北市板橋區滿平二街2巷1弄36號","121.424851666667","24.9874816666667","6500100","板橋區"
"220023","303-R5","2019/07/23 14:39:22","新北市板橋區中正路275巷93號","121.450805","25.0180816666667","6500100","板橋區"
"220010","305-R5","2019/07/23 14:39:11","新北市板橋區三民路二段67號","121.479455","25.01709","6500100","板橋區"
"220041","307-R5","2019/07/23 14:39:25","新北市板橋區新海路388巷12號","121.459648333333","25.0265983333333","6500100","板橋區"
"220038","487-VK","2019/07/23 14:39:24","新北市板橋區龍泉街136號","121.457011666667","25.0239633333333","6500100","板橋區"
"220104","560-BX","2019/07/23 14:39:24","新北市板橋區新生街89巷24號","121.457238333333","25.0225633333333","6500100","板橋區"
"220052","561-BX","2019/07/23 14:39:21","新北市板橋區文化路一段421巷9號","121.466901666667","25.0227866666667","6500100","板橋區"
"220011","609-BX","2019/07/23 14:39:18","新北市板橋區翠華街7巷1號","121.480193333333","25.0240283333333","6500100","板橋區"
"220040","637-BX","2019/07/23 14:39:25","新北市板橋區懷德街201巷7號","121.481096666667","25.029435","6500100","板橋區"
"220005","686-BX","2019/07/23 14:39:16","新北市板橋區廣和街81號","121.462795","24.9920583333333","6500100","板橋區"
"220025","687-BX","2019/07/23 14:39:22","新北市板橋區大觀路一段28巷74號","121.449801666667","25.01069","6500100","板橋區"
"220042","689-BX","2019/07/23 14:39:09","新北市板橋區長江路二段223號","121.468248333333","25.0324816666667","6500100","板橋區"
"220002","741-BX","2019/07/23 14:39:13","新北市板橋區忠孝路239巷34號","121.467323333333","25.0035733333333","6500100","板橋區"
"220051","KEA-2699","2019/07/23 14:39:16","新北市板橋區仁化街45號","121.475068333333","25.031755","6500100","板橋區"
"220003","827-TW","2019/07/23 14:39:20","新北市板橋區國慶路280號","121.463331666667","24.9989266666667","6500100","板橋區"
"220014","829-TW","2019/07/23 14:39:05","新北市板橋區長安街142號","121.47286","25.010165","6500100","板橋區"
"220047","831-TW","2019/07/23 14:39:23","新北市板橋區民生路三段299巷19號","121.462743333333","25.0301","6500100","板橋區"
"220022","895-R6","2019/07/23 14:39:10","新北市板橋區館前西路148號","121.455766666667","25.00834","6500100","板橋區"
"220021","985-R7","2019/07/23 14:39:22","新北市板橋區瑞安街51號","121.455413333333","25.0222633333333","6500100","板橋區"
"220046","AAC-210","2019/07/23 14:39:16","新北市板橋區文化路一段35號","121.460323333333","25.0130333333333","6500100","板橋區"
"220012","AAC-253","2019/07/23 14:39:08","新北市板橋區公園街64號","121.46197","25.00766","6500100","板橋區"
"235032","KEA-2873","2019/07/23 14:39:12","新北市中和區中山路二段246號","121.497785","25.0026633333333","6500300","中和區"
"235010","KEA-2876","2019/07/23 14:38:58","新北市中和區景新街496巷33弄3號","121.513565","24.9861633333333","6500300","中和區"
