"lineid","car","time","location","longitude","latitude","cityid","cityname"
"234026","9371-KE","2019/07/23 14:59:09","新北市永和區水源街21巷14弄3號","121.511435","25.0037583333333","6500400","永和區"
"248017","KED-0813","2019/07/23 14:59:20","新北市五股區登林路81-40號","121.426155","25.0704","6501500","五股區"
"244002","248-BX","2019/07/23 14:59:06","新北市林口區南勢里34-8號","121.352353333333","25.0702666666667","6501700","林口區"
"231030","002-UM","2019/07/23 14:59:25","新北市新店區安民街339號","121.516936666667","24.9749","6500600","新店區"
"231005","046-UY","2019/07/23 14:59:26","新北市新店區復興路44-1號","121.538581666667","24.9867283333333","6500600","新店區"
"231029","106-UY","2019/07/23 14:59:18","新北市新店區錦秀路11巷90弄2號","121.480396666667","24.943075","6500600","新店區"
"231018","107-UY","2019/07/23 14:59:26","新北市新店區中央五街3-1號","121.53024","24.9742616666667","6500600","新店區"
"231013","108-UY","2019/07/23 14:59:16","新北市新店區秀山路66號","121.530648333333","24.9609683333333","6500600","新店區"
"231036","110-UY","2019/07/23 14:59:17","新北市新店區安祥路102巷46弄31號","121.485676666667","24.963695","6500600","新店區"
"231039","187-VK","2019/07/23 14:59:08","新北市新店區中興路二段121巷1號","121.547323333333","24.97192","6500600","新店區"
"231015","KEA-2219","2019/07/23 14:59:20","新北市新店區北宜路三段168號","121.586515","24.9521916666667","6500600","新店區"
"231032","256-BX","2019/07/23 14:59:12","新北市新店區安泰路7巷16號","121.485705","24.95099","6500600","新店區"
"231023","260-TV","2019/07/23 14:59:26","新北市新店區檳榔路109號","121.544551666667","24.9616383333333","6500600","新店區"
"231003","268-BY","2019/07/23 14:59:06","新北市新店區中興路二段85號","121.547216666667","24.971115","6500600","新店區"
"231035","278-BY","2019/07/23 14:59:21","新北市新店區安和路二段251號","121.516635","24.9778266666667","6500600","新店區"
"231006","355-BY","2019/07/23 14:59:08","新北市新店區中興路一段204號","121.543746666667","24.96543","6500600","新店區"
"231038","3712-VJ","2019/07/23 14:59:20","新北市新店區安華路28-1號","121.519891666667","24.960775","6500600","新店區"
"231024","4716-K9","2019/07/23 14:59:22","新北市新店區力行路12號","121.539431666667","24.964725","6500600","新店區"
"231025","4715-K9","2019/07/23 14:59:21","新北市新店區大同街8巷9號","121.539368333333","24.98046","6500600","新店區"
"231020","513-UM","2019/07/23 14:59:21","新北市新店區桂山路2-1號","121.557056666667","24.9040433333333","6500600","新店區"
"231002","619-UM","2019/07/23 14:59:21","新北市新店區民權路117號","121.53603","24.9827883333333","6500600","新店區"
"231034","641-BX","2019/07/23 14:59:24","新北市新店區玫瑰路4-1號","121.493551666667","24.95142","6500600","新店區"
"231012","KED-0819","2019/07/23 14:59:15","新北市新店區中興路三段205巷8弄2號","121.543165","24.9815733333333","6500600","新店區"
"231026","720-UM","2019/07/23 14:59:27","新北市新店區中正路120號","121.542283333333","24.971205","6500600","新店區"
"231028","897-TW","2019/07/23 14:59:20","新北市新店區安康路二段348-1號","121.50252","24.9575583333333","6500600","新店區"
"231001","898-TW","2019/07/23 14:59:16","新北市新店區中正路253號","121.53891","24.9734833333333","6500600","新店區"
"231004","899-TW","2019/07/23 14:59:26","新北市新店區民族路41號","121.540631666667","24.978635","6500600","新店區"
"231037","AKT-0513","2019/07/23 14:59:04","新北市新店區安興路69號","121.515778333333","24.974975","6500600","新店區"
"235030","003-UY","2019/07/23 14:59:17","新北市中和區中山路二段26號","121.504665","25.00526","6500300","中和區"
"235064","031-BX","2019/07/23 14:59:25","新北市中和區員山路36巷16-2號","121.485288333333","24.9916783333333","6500300","中和區"
"235020","096-UM","2019/07/23 14:59:08","新北市中和區中山路三段170巷8弄20號","121.472973333333","25.0076083333333","6500300","中和區"
"235003","097-UM","2019/07/23 14:59:15","新北市中和區安樂路217巷40弄1號","121.513283333333","24.9979616666667","6500300","中和區"
"235004","150-BY","2019/07/23 14:59:20","新北市中和區保健路10巷1弄1號","121.507973333333","24.9979383333333","6500300","中和區"
"235013","186-VK","2019/07/23 14:59:24","新北市中和區建八路198-1號","121.491375","24.9986316666667","6500300","中和區"
"235008","293-VK","2019/07/23 14:59:28","新北市中和區中正路69號","121.501123333333","24.9934416666667","6500300","中和區"
"235036","301-VK","2019/07/23 14:59:10","新北市中和區中山路二段3巷28-3號","121.507036666667","25.005125","6500300","中和區"
"235007","352-BY","2019/07/23 14:59:08","新北市中和區興南路二段159巷7號","121.505275","24.9831016666667","6500300","中和區"
"235006","KEA-2878","2019/07/23 14:59:26","新北市新店區薏仁坑路自強巷1號","121.49757","24.957675","6500300","中和區"
"235014","4979-A6","2019/07/23 14:59:27","新北市中和區景平路155號","121.51351","24.9919616666667","6500300","中和區"
"235034","558-UM","2019/07/23 14:59:26","新北市中和區中正路218-6號","121.496461666667","24.9942","6500300","中和區"
"235035","783-BX","2019/07/23 14:59:16","新北市中和區中正路774號","121.485415","25.0001383333333","6500300","中和區"
"235012","896-TW","2019/07/23 14:59:06","新北市中和區忠孝街5巷5號","121.509353333333","24.9830433333333","6500300","中和區"
"235015","157-BY","2019/07/23 14:59:09","新北市中和區景安路220巷24號","121.502648333333","24.9914883333333","6500300","中和區"
"235001","AAC-213","2019/07/23 14:59:20","新北市中和區景平路406號","121.508756666667","24.99302","6500300","中和區"
"235023","AAC-215","2019/07/23 14:59:07","新北市中和區圓通路335巷4弄1號","121.492055","24.99034","6500300","中和區"
"220016","015-TV","2019/07/23 14:59:19","新北市板橋區中山路二段446號","121.484123333333","25.021605","6500100","板橋區"
"220013","072-UY","2019/07/23 14:59:20","新北市板橋區區運路11號","121.465373333333","25.009745","6500100","板橋區"
"220034","073-UY","2019/07/23 14:59:13","新北市板橋區林園街2號","121.454338333333","25.00934","6500100","板橋區"
"220105","075-UY","2019/07/23 14:59:10","新北市板橋區民治街135號","121.477686666667","25.0307633333333","6500100","板橋區"
"220017","AAD-861","2019/07/23 14:59:14","新北市板橋區貴興路87號","121.456573333333","25.002795","6500100","板橋區"
"228004","212-TW","2019/07/23 14:59:10","新北市貢寮區福隆里興隆街23號","121.94331","25.0165116666667","6502600","貢寮區"
"207002","749-BX","2019/07/23 14:59:27","新北市萬里區崁腳里崁腳路60-1號","121.64834","25.16014","6502800","萬里區"
"207001","662-BX","2019/07/23 14:59:20","新北市萬里區雙興里二坪路11號","121.64627","25.17505","6502800","萬里區"
"236040","KED-0685","2019/07/23 14:59:21","新北市土城區裕民路172號","121.452505","24.9853933333333","6501300","土城區"
"236074","166-UM","2019/07/23 14:59:11","新北市土城區中州路3巷46號","121.413583333333","24.9566083333333","6501300","土城區"
"236029","253-BX","2019/07/23 14:59:17","新北市土城區福仁街50巷1號","121.439696666667","24.975085","6501300","土城區"
"236024","269-VK","2019/07/23 14:59:17","新北市土城區中正路72號","121.444556666667","24.9755133333333","6501300","土城區"
"236013","270-VK","2019/07/23 14:59:25","新北市土城區立德路13巷22號","121.46156","24.9888166666667","6501300","土城區"
"236032","271-VK","2019/07/23 14:59:16","新北市土城區清水路141巷8號","121.458355","24.9819316666667","6501300","土城區"
"236065","KEA-2877","2019/07/23 14:59:27","新北市土城區中央路一段291巷14號","121.445001666667","24.983705","6501300","土城區"
"236017","401-BY","2019/07/23 14:59:04","新北市土城區延吉街219號","121.468473333333","24.98517","6501300","土城區"
"236057","912-UM","2019/07/23 14:59:12","新北市土城區明德路一段385-1號","121.452333333333","24.97968","6501300","土城區"
"236045","913-UM","2019/07/23 14:59:13","新北市土城區明德路一段365-1號","121.453666666667","24.9790783333333","6501300","土城區"
"236060","915-UM","2019/07/23 14:59:23","新北市土城區金城路三段93巷14號","121.466835","24.9881833333333","6501300","土城區"
"236054","AAC-216","2019/07/23 14:59:27","新北市土城區學成路67號","121.451583333333","24.9879766666667","6501300","土城區"
"220027","145-BY","2019/07/23 14:59:28","新北市板橋區建國街32巷1號","121.457763333333","25.0168816666667","6500100","板橋區"
"220028","200-UY","2019/07/23 14:59:14","新北市板橋區大觀路二段109巷1號","121.447341666667","25.0013483333333","6500100","板橋區"
"220030","610-BX","2019/07/23 14:59:10","新北市板橋區溪北路65號","121.428018333333","24.98971","6500100","板橋區"
"220037","267-BY","2019/07/23 14:59:12","新北市板橋區民治街42巷2號","121.478816666667","25.0339","6500100","板橋區"
"220004","276-BY","2019/07/23 14:59:10","新北市板橋區四川路二段99巷7號","121.452951666667","24.9941633333333","6500100","板橋區"
"220020","277-BY","2019/07/23 14:59:18","新北市板橋區金門街121巷10號","121.43347","24.9916733333333","6500100","板橋區"
"220050","280-UM","2019/07/23 14:59:14","新北市板橋區莒光路171巷1弄16號","121.47446","25.0245616666667","6500100","板橋區"
"220019","283-VK","2019/07/23 14:59:23","新北市板橋區五權街30巷11號","121.464331666667","24.9932383333333","6500100","板橋區"
"220043","285-UM","2019/07/23 14:59:11","新北市板橋區文化路一段98號","121.464485","25.01798","6500100","板橋區"
"220001","285-VK","2019/07/23 14:59:16","新北市板橋區永豐街111號","121.474218333333","25.0194383333333","6500100","板橋區"
"220031","286-VK","2019/07/23 14:59:16","新北市板橋區僑中二街48巷28號","121.445195","25.0103733333333","6500100","板橋區"
"220029","287-VK","2019/07/23 14:59:23","新北市板橋區僑中一街80巷12弄1號","121.448055","25.0131766666667","6500100","板橋區"
"220009","295-UM","2019/07/23 14:59:22","新北市板橋區中山路一段156號","121.465173333333","25.0115083333333","6500100","板橋區"
"220032","296-UM","2019/07/23 14:59:26","新北市板橋區溪崑二街112巷33弄1號","121.425631666667","24.98903","6500100","板橋區"
"220023","303-R5","2019/07/23 14:59:22","新北市板橋區中正路301號","121.455265","25.01961","6500100","板橋區"
"220010","305-R5","2019/07/23 14:59:10","新北市板橋區中山路二段380號","121.482028333333","25.0203666666667","6500100","板橋區"
"220041","307-R5","2019/07/23 14:59:17","新北市板橋區光正街9巷24弄12號","121.461983333333","25.0162783333333","6500100","板橋區"
"220038","487-VK","2019/07/23 14:59:22","新北市板橋區四維路162號","121.464775","25.0259716666667","6500100","板橋區"
"220104","560-BX","2019/07/23 14:59:24","新北市板橋區新生街31號","121.456485","25.0211366666667","6500100","板橋區"
"220052","561-BX","2019/07/23 14:59:21","新北市板橋區漢生東路33巷48號","121.466236666667","25.01787","6500100","板橋區"
"220011","609-BX","2019/07/23 14:59:15","新北市板橋區三民路一段147號","121.479193333333","25.019725","6500100","板橋區"
"220040","637-BX","2019/07/23 14:59:04","新北市板橋區懷德街174巷28號","121.47828","25.029195","6500100","板橋區"
"220005","686-BX","2019/07/23 14:59:16","新北市板橋區四川路二段245巷71號","121.452715","24.9920333333333","6500100","板橋區"
"220025","687-BX","2019/07/23 14:59:22","新北市板橋區僑中二街10巷2號","121.447003333333","25.010885","6500100","板橋區"
"220042","689-BX","2019/07/23 14:59:21","新北市板橋區長江路二段104號","121.465105","25.031295","6500100","板橋區"
"220002","741-BX","2019/07/23 14:59:13","新北市板橋區實踐路93巷36號","121.465518333333","25.0051333333333","6500100","板橋區"
"220051","KEA-2699","2019/07/23 14:59:15","新北市板橋區莒光路134號","121.473116666667","25.02397","6500100","板橋區"
"220003","827-TW","2019/07/23 14:59:20","新北市板橋區仁愛路64號","121.459923333333","24.9994466666667","6500100","板橋區"
"220014","829-TW","2019/07/23 14:59:05","新北市板橋區中山路一段282-1號","121.468746666667","25.0131066666667","6500100","板橋區"
"220047","831-TW","2019/07/23 14:59:23","新北市板橋區新海路385巷24號","121.457998333333","25.0255516666667","6500100","板橋區"
"220022","895-R6","2019/07/23 14:59:10","新北市板橋區文化路一段32巷21弄14號","121.460338333333","25.0113683333333","6500100","板橋區"
"220021","985-R7","2019/07/23 14:59:22","新北市板橋區南雅西路二段82號","121.45252","25.0108833333333","6500100","板橋區"
"220046","AAC-210","2019/07/23 14:59:16","新北市板橋區民權路202巷18弄9號","121.46125","25.01659","6500100","板橋區"
"220012","AAC-253","2019/07/23 14:59:08","新北市板橋區民族路258號","121.469375","25.0070933333333","6500100","板橋區"
"235032","KEA-2873","2019/07/23 14:59:12","新北市中和區連城路71號","121.497331666667","25.0010733333333","6500300","中和區"
"235010","KEA-2876","2019/07/23 14:59:26","新北市中和區忠孝街31巷47號","121.509683333333","24.9853916666667","6500300","中和區"
