"lineid","car","time","location","longitude","latitude","cityid","cityname"
"234046","148-BY","2019/07/23 18:29:45","新北市永和區福和路1號","121.525463333333","25.009555","6500400","永和區"
"234081","298-R6","2019/07/23 18:29:35","新北市永和區福和路7巷15弄20號","121.526086666667","25.0074583333333","6500400","永和區"
"234038","336-UY","2019/07/23 18:29:31","新北市永和區福和路1號","121.526673333333","25.0101316666667","6500400","永和區"
"234030","746-BX","2019/07/23 18:29:33","新北市永和區豫溪街217巷19號","121.524818333333","25.0102183333333","6500400","永和區"
"234013","KEA-2591","2019/07/23 18:29:31","新北市永和區福和路1號","121.526155","25.0093333333333","6500400","永和區"
"234026","9381-KE","2019/07/23 18:29:37","新北市永和區永和路二段35號","121.514476666667","25.010345","6500400","永和區"
"234011","9373-KE","2019/07/23 18:29:33","新北市永和區保安路128號","121.509003333333","25.0154566666667","6500400","永和區"
"249005","172-UM","2019/07/23 18:29:27","新北市八里區長坑口47-1號","121.389195","25.1338933333333","6502300","八里區"
"249001","173-UM","2019/07/23 18:29:38","新北市八里區龍米路一段288號","121.451565","25.1294816666667","6502300","八里區"
"249004","303-UY","2019/07/23 18:29:47","新北市八里區忠孝路90號","121.425918333333","25.16044","6502300","八里區"
"249002","305-UY","2019/07/23 18:29:45","新北市八里區龍形三街6巷2號","121.450255","25.131945","6502300","八里區"
"248014","025-BX","2019/07/23 18:29:37","新北市五股區明德路7巷59號","121.434188333333","25.0708333333333","6501500","五股區"
"248015","026-BX","2019/07/23 18:29:41","新北市五股區凌雲路一段83巷1-4號","121.450391666667","25.10077","6501500","五股區"
"248006","077-UY","2019/07/23 18:29:32","新北市五股區中興路二段83巷26-6號","121.459901666667","25.0752066666667","6501500","五股區"
"248007","KED-0815","2019/07/23 18:29:40","新北市五股區四維路185巷46號","121.46336","25.07767","6501500","五股區"
"248020","KED-0813","2019/07/23 18:29:48","新北市五股區孝義路55巷5號","121.451333333333","25.112045","6501500","五股區"
"248012","247-BX","2019/07/23 18:29:38","新北市五股區御成路145號","121.440973333333","25.094275","6501500","五股區"
"248004","677-BX","2019/07/23 18:29:38","新北市五股區六合街3號","121.43187","25.0885683333333","6501500","五股區"
"248002","678-BX","2019/07/23 18:29:31","新北市五股區西雲路116-6號","121.444695","25.0936583333333","6501500","五股區"
"248010","682-TV","2019/07/23 18:29:35","新北市五股區水碓路16巷32號","121.433941666667","25.0728766666667","6501500","五股區"
"234077","969-R7","2019/07/23 18:29:39","新北市永和區福和路1號","121.526566666667","25.00983","6500400","永和區"
"232011","375-UM","2019/07/23 18:29:37","新北市坪林區坪雙路一段41號","121.711708333333","24.94245","6502000","坪林區"
"244007","402-UM","2019/07/23 18:29:39","新北市林口區後湖11鄰19號","121.387826666667","25.0986133333333","6501700","林口區"
"244013","KEA-2802","2019/07/23 18:29:38","新北市林口區中正路514巷27號","121.382091666667","25.0779633333333","6501700","林口區"
"244023","483-VK","2019/07/23 18:29:32","新北市林口區東湖路208號","121.383116666667","25.0731633333333","6501700","林口區"
"244017","485-VK","2019/07/23 18:29:29","新北市林口區文化二路一段62-4號","121.365376666667","25.0684583333333","6501700","林口區"
"244009","657-BX","2019/07/23 18:29:44","新北市林口區民生路102-2號","121.377671666667","25.088325","6501700","林口區"
"244011","701-TV","2019/07/23 18:29:38","新北市林口區興林路6-1號","121.38971","25.077105","6501700","林口區"
"244025","837-TS","2019/07/23 18:29:42","新北市林口區南勢六街55號","121.355728333333","25.0716766666667","6501700","林口區"
"244021","838-TS","2019/07/23 18:29:30","新北市林口區自強二街58號","121.399456666667","25.0768783333333","6501700","林口區"
"222003","436-BY","2019/07/23 18:29:28","新北市深坑區北深路一段288號","121.628168333333","25.007625","6501800","深坑區"
"222002","659-BX","2019/07/23 18:29:35","新北市深坑區雲鄉路105號","121.62323","24.99839","6501800","深坑區"
"231061","002-UM","2019/07/23 18:29:33","新北市新店區安華路28-1號","121.519806666667","24.9608366666667","6500600","新店區"
"231058","0293-UT","2019/07/23 18:29:41","新北市新店區環河路19巷27號","121.53769","24.959635","6500600","新店區"
"231044","046-UY","2019/07/23 18:29:43","新北市新店區安華路28-1號","121.519245","24.9606616666667","6500600","新店區"
"231060","106-UY","2019/07/23 18:29:32","新北市新店區安華路28-1號","121.519831666667","24.96081","6500600","新店區"
"231051","107-UY","2019/07/23 18:29:35","新北市新店區安康路一段355號","121.519858333333","24.962725","6500600","新店區"
"231050","KEA-2219","2019/07/23 18:29:39","新北市新店區安一路一段1-1號","121.519966666667","24.9612083333333","6500600","新店區"
"231062","256-BX","2019/07/23 18:29:30","新北市新店區安一路一段1-1號","121.519821666667","24.961135","6500600","新店區"
"231054","260-TV","2019/07/23 18:29:41","新北市新店區安一路一段1-1號","121.519208333333","24.961125","6500600","新店區"
"231042","268-BY","2019/07/23 18:29:25","新北市新店區光明街231號","121.540323333333","24.9645","6500600","新店區"
"231045","355-BY","2019/07/23 18:29:30","新北市新店區安華路28-1號","121.518978333333","24.9607333333333","6500600","新店區"
"231055","4716-K9","2019/07/23 18:29:43","新北市新店區中正路128巷9弄2號","121.542451666667","24.9719866666667","6500600","新店區"
"231056","4715-K9","2019/07/23 18:29:47","新北市新店區二十張路105巷16號","121.536881666667","24.9790333333333","6500600","新店區"
"231053","513-UM","2019/07/23 18:29:28","新北市新店區北宜路一段248號","121.545241666667","24.9529","6500600","新店區"
"231041","619-UM","2019/07/23 18:29:40","新北市新店區安一路一段1-1號","121.51983","24.9611566666667","6500600","新店區"
"231063","641-BX","2019/07/23 18:29:29","新北市新店區安華路28-1號","121.519546666667","24.9605566666667","6500600","新店區"
"231048","KED-0819","2019/07/23 18:29:34","新北市新店區安一路一段1-1號","121.519773333333","24.9612883333333","6500600","新店區"
"231057","720-UM","2019/07/23 18:29:40","新北市新店區安一路一段1-1號","121.519276666667","24.9618566666667","6500600","新店區"
"231040","898-TW","2019/07/23 18:29:37","新北市新店區安華路28-1號","121.51964","24.9610016666667","6500600","新店區"
"231066","AKT-0513","2019/07/23 18:29:30","新北市新店區安華路28-1號","121.519415","24.96054","6500600","新店區"
"235066","003-UY","2019/07/23 18:29:41","新北市中和區中山路二段120號","121.502628333333","25.0037783333333","6500300","中和區"
"235064","005-UY","2019/07/23 18:29:30","新北市中和區連勝街38巷10號","121.498076666667","24.99824","6500300","中和區"
"235063","006-UY","2019/07/23 18:29:26","新北市中和區連城路389巷20號","121.486545","24.9951583333333","6500300","中和區"
"235056","096-UM","2019/07/23 18:29:47","新北市中和區員山路611巷1號","121.477833333333","25.011245","6500300","中和區"
"235039","097-UM","2019/07/23 18:29:35","新北市中和區安平路210號","121.513788333333","24.9997783333333","6500300","中和區"
"235065","098-UM","2019/07/23 18:29:37","新北市中和區莊敬路49巷20弄18號","121.502601666667","25.0058316666667","6500300","中和區"
"235040","150-BY","2019/07/23 18:29:37","新北市中和區安平路59號","121.509555","24.9951116666667","6500300","中和區"
"235058","151-BY","2019/07/23 18:29:44","新北市中和區圓通路369巷30弄34號","121.48893","24.984685","6500300","中和區"
"235055","183-VK","2019/07/23 18:29:45","新北市中和區民生街12巷1號","121.470486666667","25.0055466666667","6500300","中和區"
"235038","185-VK","2019/07/23 18:29:34","新北市中和區秀朗路三段128巷17弄26號","121.522843333333","24.9931966666667","6500300","中和區"
"235049","186-VK","2019/07/23 18:29:43","新北市中和區景安路108號","121.505466666667","24.9953","6500300","中和區"
"235067","255-BX","2019/07/23 18:29:33","新北市中和區新生街3號","121.483185","25.0046433333333","6500300","中和區"
"235044","293-VK","2019/07/23 18:29:33","新北市中和區復興路305號","121.50136","24.9902816666667","6500300","中和區"
"235072","301-VK","2019/07/23 18:29:37","新北市中和區連城路8號","121.499023333333","25.0022816666667","6500300","中和區"
"235043","352-BY","2019/07/23 18:29:41","新北市中和區景平路283號","121.507438333333","24.9929483333333","6500300","中和區"
"235042","KEA-2878","2019/07/23 18:29:40","新北市中和區自立路56巷14號","121.522778333333","24.9917016666667","6500300","中和區"
"235050","4979-A6","2019/07/23 18:29:46","新北市中和區安樂路2巷2號","121.511685","24.9914983333333","6500300","中和區"
"235069","4980-A6","2019/07/23 18:29:42","新北市中和區連城路127巷35號","121.497428333333","24.99718","6500300","中和區"
"235070","558-UM","2019/07/23 18:29:37","新北市中和區景新街129號","121.505843333333","24.9972683333333","6500300","中和區"
"235045","565-BX","2019/07/23 18:29:37","新北市中和區復興路43號","121.504931666667","24.9899783333333","6500300","中和區"
"235060","KED-0823","2019/07/23 18:29:45","新北市中和區中山路二段583號","121.48024","25.005825","6500300","中和區"
"235054","640-BX","2019/07/23 18:29:46","新北市中和區民享街86巷1號","121.4745","25.00091","6500300","中和區"
"235047","732-UM","2019/07/23 18:29:35","新北市中和區南山路282號","121.507913333333","24.9878316666667","6500300","中和區"
"235071","783-BX","2019/07/23 18:29:36","新北市中和區員山路36巷16-3號","121.48517","24.991195","6500300","中和區"
"235062","800-TS","2019/07/23 18:29:28","新北市中和區中山路二段312巷10弄2號","121.4956","25.0030366666667","6500300","中和區"
"235057","801-TS","2019/07/23 18:29:37","新北市中和區員山路327巷25號","121.480048333333","25.00186","6500300","中和區"
"235041","802-TS","2019/07/23 18:29:33","新北市中和區景安路38號","121.506941666667","24.9983666666667","6500300","中和區"
"235052","805-TS","2019/07/23 18:29:42","新北市中和區興南路二段96號","121.50504","24.9841133333333","6500300","中和區"
"235048","896-TW","2019/07/23 18:29:43","新北市中和區中正路83號","121.500683333333","24.9934183333333","6500300","中和區"
"235053","900-TW","2019/07/23 18:29:38","新北市中和區連城路518巷1號","121.476485","24.9918016666667","6500300","中和區"
"235051","157-BY","2019/07/23 18:29:39","新北市中和區興南路二段142巷35弄2號","121.50242","24.9845583333333","6500300","中和區"
"235037","AAC-213","2019/07/23 18:29:40","新北市中和區景德街122號","121.514715","24.9912416666667","6500300","中和區"
"235059","AAC-215","2019/07/23 18:29:38","新北市中和區員山路36巷16-3號","121.485073333333","24.9910666666667","6500300","中和區"
"220065","072-UY","2019/07/23 18:29:43","新北市板橋區南雅南路二段140號","121.451741666667","24.996275","6500100","板橋區"
"220086","073-UY","2019/07/23 18:29:40","新北市板橋區華東街1-10號","121.448258333333","24.9950416666667","6500100","板橋區"
"220069","AAD-861","2019/07/23 18:29:30","新北市板橋區華東街1-10號","121.448356666667","24.9951166666667","6500100","板橋區"
"226004","312-R5","2019/07/23 18:29:38","新北市平溪區靜安路二段295號","121.73247","25.0231416666667","6502400","平溪區"
"228001","212-TW","2019/07/23 18:29:41","新北市貢寮區仁理村仁義街4號","121.92369","25.052115","6502600","貢寮區"
"228002","663-BX","2019/07/23 18:29:30","新北市貢寮區福連里香蘭街5號","121.974298333333","25.0243733333333","6502600","貢寮區"
"228003","828-UM","2019/07/23 18:29:37","新北市貢寮區和美里和美街40-3號","121.913216666667","25.090715","6502600","貢寮區"
"224010","AGQ-8101","2019/07/23 18:29:36","新北市瑞芳區烏勢巷107號","121.846143333333","25.108615","6501200","瑞芳區"
"224006","676-BX","2019/07/23 18:29:38","新北市瑞芳區明燈路三段31-1號","121.808123333333","25.1076766666667","6501200","瑞芳區"
"224007","285-BY","2019/07/23 18:29:41","新北市瑞芳區大埔路國宅新村22號","121.764823333333","25.10034","6501200","瑞芳區"
"224009","275-VK","2019/07/23 18:29:39","新北市瑞芳區五號路53號","121.85533","25.1107183333333","6501200","瑞芳區"
"224008","273-VK","2019/07/23 18:29:40","新北市瑞芳區逢甲路204號","121.806898333333","25.110225","6501200","瑞芳區"
"224005","271-BY","2019/07/23 18:29:40","新北市瑞芳區建基路一段68號","121.81674","25.1277283333333","6501200","瑞芳區"
"227001","642-TC","2019/07/23 18:29:41","新北市雙溪區牡丹里牡丹39號","121.852521666667","25.0583983333333","6502500","雙溪區"
"227002","400-TW","2019/07/23 18:29:35","新北市雙溪區魚行里坤溪21-1號","121.870355","25.0285233333333","6502500","雙溪區"
"253006","032-BX","2019/07/23 18:29:42","新北市石門區公地20號","121.54581","25.290235","6502200","石門區"
"253005","295-VK","2019/07/23 18:29:45","新北市石門區老崩山10-5號","121.552648333333","25.2910666666667","6502200","石門區"
"222001","KEA-2212","2019/07/23 18:29:41","新北市深坑區北深路一段185號","121.631375","25.0102683333333","6501800","深坑區"
"208002","KEA-2872","2019/07/23 18:29:42","新北市金山區民生路202號","121.64446","25.222395","6502700","金山區"
"208003","665-BX","2019/07/23 18:29:45","新北市金山區中山路289號","121.636065","25.2232816666667","6502700","金山區"
"251004","009-UM","2019/07/23 18:29:38","新北市淡水區民族路31巷2號","121.462416666667","25.1364283333333","6501000","淡水區"
"251001","011-UM","2019/07/23 18:29:45","新北市淡水區自強路373號","121.464576666667","25.133325","6501000","淡水區"
"251002","012-UM","2019/07/23 18:29:37","新北市淡水區竿蓁二街61-2號","121.454846666667","25.1633","6501000","淡水區"
"251015","KEA-2871","2019/07/23 18:29:38","新北市淡水區興福寮88巷216號","121.485938333333","25.166645","6501000","淡水區"
"251016","179-VK","2019/07/23 18:29:42","新北市淡水區下圭柔山70-18號","121.445925","25.2089866666667","6501000","淡水區"
"251008","181-VK","2019/07/23 18:29:27","新北市淡水區水源街二段346巷1弄1號","121.464331666667","25.17548","6501000","淡水區"
"251013","182-VK","2019/07/23 18:29:37","新北市淡水區椿子林19號","121.480833333333","25.2029016666667","6501000","淡水區"
"251010","413-VK","2019/07/23 18:29:27","新北市淡水區沙崙路181巷1號","121.424148333333","25.18422","6501000","淡水區"
"251012","441-VK","2019/07/23 18:29:38","新北市淡水區北新路一段128號","121.458356666667","25.1822833333333","6501000","淡水區"
"251005","443-VK","2019/07/23 18:29:44","新北市淡水區中正東路35巷6號","121.446383333333","25.16846","6501000","淡水區"
"251006","561-UM","2019/07/23 18:29:38","新北市淡水區中山北路一段156號","121.444048333333","25.1781666666667","6501000","淡水區"
"251014","577-R6","2019/07/23 18:29:42","新北市淡水區崙頂12-2號","121.497918333333","25.2163283333333","6501000","淡水區"
"251011","650-BX","2019/07/23 18:29:37","新北市淡水區坪頂路57號","121.458788333333","25.1627683333333","6501000","淡水區"
"251003","673-BX","2019/07/23 18:29:42","新北市淡水區北新路169巷14號","121.44973","25.1801166666667","6501000","淡水區"
"207003","550-UM","2019/07/23 18:29:40","新北市萬里區野柳里港東路23號","121.687316666667","25.2036666666667","6502800","萬里區"
"207004","225-TW","2019/07/23 18:29:38","新北市萬里區萬里里瑪鋉路5號","121.686503333333","25.175055","6502800","萬里區"
"252002","178-VK","2019/07/23 18:29:27","新北市三芝區中山路二段39號","121.502913333333","25.2551216666667","6502100","三芝區"
"252003","249-BX","2019/07/23 18:29:44","新北市三芝區後厝里北勢子45-32號","121.46944","25.250915","6502100","三芝區"
"208001","170-UY","2019/07/23 18:29:39","新北市金山區文化二路6號","121.636831666667","25.2246016666667","6502700","金山區"
"237004","KEA-2597","2019/07/23 18:29:42","新北市三峽區五寮6號","121.376278333333","24.8719333333333","6500900","三峽區"
"237007","153-BY","2019/07/23 18:29:47","新北市三峽區中正路三段170巷34號","121.352623333333","24.9046866666667","6500900","三峽區"
"237009","210-TH","2019/07/23 18:29:28","新北市三峽區大同路227號","121.367213333333","24.92675","6500900","三峽區"
"237013","252-BX","2019/07/23 18:29:39","新北市三峽區光明路69巷25號","121.376608333333","24.92916","6500900","三峽區"
"237012","275-BY","2019/07/23 18:29:40","新北市三峽區三樹路168巷21號","121.379278333333","24.9406433333333","6500900","三峽區"
"237008","302-VK","2019/07/23 18:29:40","新北市三峽區白雞129-1號","121.396731666667","24.907855","6500900","三峽區"
"237014","433-BY","2019/07/23 18:29:38","新北市三峽區文化路158號","121.370243333333","24.9361783333333","6500900","三峽區"
"237006","5529-G3","2019/07/23 18:29:45","新北市三峽區溪東路351號","121.411366666667","24.9295266666667","6500900","三峽區"
"237011","KEA-2596","2019/07/23 18:29:36","新北市三峽區溪東路218巷25號","121.407093333333","24.9308766666667","6500900","三峽區"
"237015","649-BX","2019/07/23 18:29:43","新北市三峽區竹崙路105號","121.433285","24.914465","6500900","三峽區"
"237010","706-TV","2019/07/23 18:29:40","新北市三峽區復興路489號","121.361113333333","24.93841","6500900","三峽區"
"237005","AKY-6261","2019/07/23 18:29:30","新北市三峽區清水街340號","121.371038333333","24.9337866666667","6500900","三峽區"
"236042","KED-0685","2019/07/23 18:29:44","新北市土城區裕民路67巷18號","121.449931666667","24.9883016666667","6501300","土城區"
"236079","166-UM","2019/07/23 18:29:46","新北市土城區大暖路70號","121.42283","24.959045","6501300","土城區"
"236030","253-BX","2019/07/23 18:29:30","新北市土城區水源街81巷7號","121.439448333333","24.97578","6501300","土城區"
"236026","269-VK","2019/07/23 18:29:36","新北市土城區南天母路135巷20號","121.448711666667","24.954775","6501300","土城區"
"236014","270-VK","2019/07/23 18:29:44","新北市土城區青雲路39巷7號","121.460281666667","24.987425","6501300","土城區"
"236038","271-VK","2019/07/23 18:29:41","新北市土城區明德路一段323號","121.459085","24.97708","6501300","土城區"
"236070","KEA-2877","2019/07/23 18:29:27","新北市土城區永豐路255巷12號","121.475375","24.973155","6501300","土城區"
"252001","KED-0821","2019/07/23 18:29:32","新北市三芝區中興街二段6號","121.498443333333","25.256465","6502100","三芝區"
"236021","401-BY","2019/07/23 18:29:35","新北市土城區永豐路202巷7-1號","121.466196666667","24.98333","6501300","土城區"
"236059","912-UM","2019/07/23 18:29:43","新北市土城區中央路四段138號","121.417426666667","24.9584883333333","6501300","土城區"
"236049","913-UM","2019/07/23 18:29:33","新北市土城區青雲路409號","121.458891666667","24.9758466666667","6501300","土城區"
"236063","915-UM","2019/07/23 18:29:43","新北市土城區延壽路77巷6弄4號","121.468515","24.9927283333333","6501300","土城區"
"236055","AAC-216","2019/07/23 18:29:37","新北市土城區中華路一段273號","121.440251666667","24.9803316666667","6501300","土城區"
"242061","986-R7","2019/07/23 18:29:29","新北市新莊區後港一路81號","121.42735","25.0266833333333","6500500","新莊區"
"242058","612-BX","2019/07/23 18:29:34","桃園市龜山區萬壽路一段78號","121.408321666667","25.0190883333333","6500500","新莊區"
"242046","566-BX","2019/07/23 18:29:35","新北市新莊區中正路829巷121號","121.422518333333","25.02785","6500500","新莊區"
"242011","442-UM","2019/07/23 18:29:28","新北市新莊區中平路348號","121.44502","25.052865","6500500","新莊區"
"242056","441-UM","2019/07/23 18:29:24","新北市新莊區瓊泰路77巷16號","121.442643333333","25.0292483333333","6500500","新莊區"
"242042","415-TV","2019/07/23 18:29:42","新北市新莊區天祥街107巷18號","121.414381666667","25.0288033333333","6500500","新莊區"
"242025","362-BY","2019/07/23 18:29:31","新北市新莊區五工路70-1號","121.457776666667","25.06353","6500500","新莊區"
"242054","172-VK","2019/07/23 18:29:42","新北市樹林區樹新路247號","121.431215","25.0007983333333","6500500","新莊區"
"242015","173-VK","2019/07/23 18:29:30","新北市新莊區新泰路357巷2-2號","121.441951666667","25.04128","6500500","新莊區"
"242007","349-TH","2019/07/23 18:29:32","新北市新莊區中華路二段88號","121.453628333333","25.0470816666667","6500500","新莊區"
"238015","755-BX","2019/07/23 18:29:44","新北市樹林區備內街12-2號","121.413121666667","24.986905","6500700","樹林區"
"238023","601-UM","2019/07/23 18:29:46","新北市樹林區三福街114號","121.406395","25.0163266666667","6500700","樹林區"
"238019","599-UM","2019/07/23 18:29:33","新北市樹林區八德街119號","121.421476666667","24.980045","6500700","樹林區"
"238024","5061-A6","2019/07/23 18:29:27","新北市樹林區後站街6巷29號","121.42405","24.991545","6500700","樹林區"
"238018","KEA-2217","2019/07/23 18:29:33","新北市樹林區樹新路89號","121.427833333333","24.9953633333333","6500700","樹林區"
"238025","303-VK","2019/07/23 18:29:46","新北市樹林區保安街一段195號","121.420913333333","24.99609","6500700","樹林區"
"238017","283-BY","2019/07/23 18:29:34","新北市樹林區光榮街79號","121.41207","25.0030466666667","6500700","樹林區"
"238014","282-BY","2019/07/23 18:29:35","新北市樹林區大安路111巷10號","121.423166666667","24.9974366666667","6500700","樹林區"
"238020","268-VK","2019/07/23 18:29:31","新北市樹林區中正路722號","121.409016666667","25.0180883333333","6500700","樹林區"
"238026","172-UY","2019/07/23 18:29:33","新北市樹林區佳園路一段75巷11弄53號","121.395153333333","24.9699716666667","6500700","樹林區"
"238016","169-UY","2019/07/23 18:29:32","新北市樹林區中山路二段72-1號","121.415555","24.9840533333333","6500700","樹林區"
"239007","AAC-297","2019/07/23 18:29:46","新北市鶯歌區中正一路478號","121.365373333333","24.9565783333333","6500800","鶯歌區"
"239006","891-R6","2019/07/23 18:29:35","新北市鶯歌區鶯桃路268巷12-2號","121.335868333333","24.9603016666667","6500800","鶯歌區"
"239008","527-UM","2019/07/23 18:29:32","新北市鶯歌區朝陽街2號","121.336213333333","24.9765733333333","6500800","鶯歌區"
"239005","526-UM","2019/07/23 18:29:40","新北市鶯歌區鳳吉二街136號","121.328316666667","24.9747766666667","6500800","鶯歌區"
"239001","417-VK","2019/07/23 18:29:46","新北市鶯歌區二甲路17-3號","121.338805","24.9400233333333","6500800","鶯歌區"
"239003","360-BY","2019/07/23 18:29:44","新北市鶯歌區福安街13巷1號","121.335573333333","24.9653","6500800","鶯歌區"
"239002","359-BY","2019/07/23 18:29:26","新北市鶯歌區中正一路84-1號","121.352301666667","24.9545233333333","6500800","鶯歌區"
"239004","193-VK","2019/07/23 18:29:30","新北市鶯歌區尖山路258巷25號","121.341761666667","24.946965","6500800","鶯歌區"
"221008","489-VK","2019/07/23 18:29:47","新北市汐止區康寧街901號","121.6514","25.07507","6501100","汐止區"
"221036","130-UY","2019/07/23 18:29:35","新北市汐止區大同路三段139巷1弄3號","121.669233333333","25.077825","6501100","汐止區"
"221015","131-UY","2019/07/23 18:29:34","新北市汐止區鄉長路二段23巷2號","121.66711","25.082905","6501100","汐止區"
"244019","KED-0667","2019/07/23 18:29:44","新北市林口區忠孝路646巷14號","121.379008333333","25.067745","6501700","林口區"
"221010","269-BY","2019/07/23 18:29:26","新北市汐止區汐萬路35號","121.644131666667","25.09137","6501100","汐止區"
"221012","278-VK","2019/07/23 18:29:36","新北市汐止區保長路35巷11號","121.673058333333","25.079905","6501100","汐止區"
"221023","279-VK","2019/07/23 18:29:47","新北市汐止區康寧街474巷3號","121.632235","25.068085","6501100","汐止區"
"221032","280-BY","2019/07/23 18:29:44","新北市汐止區民權街二段109巷23號","121.620108333333","25.046065","6501100","汐止區"
"221027","281-BY","2019/07/23 18:29:32","新北市汐止區和平街67號","121.661506666667","25.07068","6501100","汐止區"
"221033","297-VK","2019/07/23 18:29:49","新北市汐止區宜興街22號","121.621531666667","25.0417083333333","6501100","汐止區"
"221029","298-VK","2019/07/23 18:29:35","新北市汐止區樟樹二路330巷62-1號","121.642748333333","25.0697833333333","6501100","汐止區"
"221021","299-VK","2019/07/23 18:29:39","新北市汐止區連興街116號","121.65382","25.0626616666667","6501100","汐止區"
"221031","353-TW","2019/07/23 18:29:36","新北市汐止區光復街8巷50-1號","121.637545","25.0567516666667","6501100","汐止區"
"221035","622-UM","2019/07/23 18:29:42","新北市汐止區大同路二段187巷10弄2號","121.652578333333","25.0657633333333","6501100","汐止區"
"221025","623-UM","2019/07/23 18:29:38","新北市汐止區仁愛路121巷1號","121.662751666667","25.0638116666667","6501100","汐止區"
"221038","646-BX","2019/07/23 18:29:47","新北市汐止區忠孝東路295號","121.664191666667","25.0689133333333","6501100","汐止區"
"221002","707-TV","2019/07/23 18:29:35","新北市汐止區福德一路150號","121.636595","25.0668083333333","6501100","汐止區"
"221018","753-BX","2019/07/23 18:29:40","新北市汐止區茄苳路120巷4號","121.667686666667","25.0699516666667","6501100","汐止區"
"220079","145-BY","2019/07/23 18:29:39","新北市板橋區華東街1-10號","121.448328333333","24.99511","6500100","板橋區"
"220082","610-BX","2019/07/23 18:29:43","新北市板橋區華東街1-10號","121.448286666667","24.9949633333333","6500100","板橋區"
"224002","257-TC","2019/07/23 18:29:37","新北市瑞芳區三爪子坑路29巷57號","121.813815","25.1065216666667","6501200","瑞芳區"
"220056","276-BY","2019/07/23 18:29:39","新北市板橋區華東街1-9號","121.448106666667","24.9949683333333","6500100","板橋區"
"220071","283-VK","2019/07/23 18:29:46","新北市板橋區華東街1-9號","121.448088333333","24.9949083333333","6500100","板橋區"
"220094","285-UM","2019/07/23 18:29:39","新北市板橋區民生路二段161巷1號","121.470171666667","25.0198933333333","6500100","板橋區"
"220081","287-VK","2019/07/23 18:29:35","新北市板橋區華東街1-10號","121.448228333333","24.9950116666667","6500100","板橋區"
"220084","296-UM","2019/07/23 18:29:48","新北市板橋區華東街1-9號","121.448143333333","24.9949566666667","6500100","板橋區"
"242044","281-VK","2019/07/23 18:29:43","新北市新莊區鳳山街56巷18號","121.413783333333","25.0271183333333","6500500","新莊區"
"220035","560-BX","2019/07/23 18:29:20","新北市板橋區南雅南路二段11-27號","121.453798333333","25.0017883333333","6500100","板橋區"
"220057","686-BX","2019/07/23 18:29:45","新北市板橋區華東街1-10號","121.448791666667","24.9946983333333","6500100","板橋區"
"220077","687-BX","2019/07/23 18:29:41","新北市板橋區華東街1-10號","121.448381666667","24.9949483333333","6500100","板橋區"
"220054","741-BX","2019/07/23 18:29:37","新北市板橋區華東街1-9號","121.448113333333","24.9949033333333","6500100","板橋區"
"220055","827-TW","2019/07/23 18:29:38","新北市板橋區四川路二段140巷8號","121.449596666667","24.9932083333333","6500100","板橋區"
"220073","985-R7","2019/07/23 18:29:41","新北市板橋區四川路二段140巷2號","121.449848333333","24.9931","6500100","板橋區"
"220064","AAC-253","2019/07/23 18:29:43","新北市板橋區南雅南路二段120-16號","121.451928333333","24.99915","6500100","板橋區"
"235068","KEA-2873","2019/07/23 18:29:19","新北市中和區圓通路284號","121.491465","24.9906366666667","6500300","中和區"
"235061","KEA-2875","2019/07/23 18:29:41","新北市中和區民享街90巷6號","121.474348333333","25.0003633333333","6500300","中和區"
"235046","KEA-2876","2019/07/23 18:29:30","新北市中和區南山路148號","121.50419","24.992235","6500300","中和區"
