"lineid","car","time","location","longitude","latitude","cityid","cityname"
"234046","148-BY","2019/07/23 19:09:45","新北市永和區永元路18巷35號","121.524025","25.0002783333333","6500400","永和區"
"234081","298-R6","2019/07/23 19:09:35","新北市永和區國中路156號","121.522505","25.006615","6500400","永和區"
"234038","336-UY","2019/07/23 19:09:31","新北市永和區民樂街71巷2號","121.527408333333","24.997385","6500400","永和區"
"234064","337-UY","2019/07/23 19:09:45","新北市永和區秀朗路二段15號","121.520955","25.0026633333333","6500400","永和區"
"234086","338-UY","2019/07/23 19:09:41","新北市永和區永貞路94號","121.519298333333","25.0046383333333","6500400","永和區"
"234017","745-BX","2019/07/23 19:09:30","新北市永和區文化路90巷34號","121.51356","25.016345","6500400","永和區"
"234030","746-BX","2019/07/23 19:09:33","新北市永和區四維街121號","121.523165","24.9983733333333","6500400","永和區"
"234054","KEA-2590","2019/07/23 19:09:33","新北市永和區中興街133巷24-1號","121.517895","25.0126216666667","6500400","永和區"
"234007","KED-0605","2019/07/23 19:09:46","新北市永和區中山路一段207號","121.508745","25.00853","6500400","永和區"
"234013","KEA-2591","2019/07/23 19:09:31","新北市永和區永和路二段94號","121.515085","25.0116266666667","6500400","永和區"
"234061","AAD-866","2019/07/23 19:09:46","新北市永和區安樂路320號","121.514396666667","25.0055466666667","6500400","永和區"
"234070","748-BX","2019/07/23 19:09:35","新北市永和區豫溪街95巷4弄1號","121.51836","25.0105916666667","6500400","永和區"
"234042","862-TW","2019/07/23 19:09:48","新北市永和區永貞路334號","121.511225","25.0055416666667","6500400","永和區"
"234050","863-TW","2019/07/23 19:09:33","新北市永和區保福路二段150巷18號","121.51037","25.014995","6500400","永和區"
"234026","9381-KE","2019/07/23 19:09:37","新北市永和區安樂路272巷7弄3號","121.514865","25.00443","6500400","永和區"
"234011","9373-KE","2019/07/23 19:09:40","新北市永和區信義路17巷24號","121.513003333333","25.011235","6500400","永和區"
"249005","172-UM","2019/07/23 19:09:46","新北市八里區中華路三段35號","121.396155","25.1426466666667","6502300","八里區"
"249001","173-UM","2019/07/23 19:09:38","新北市八里區龍米路二段228-7號","121.432158333333","25.1584516666667","6502300","八里區"
"249003","759-BX","2019/07/23 19:09:31","新北市八里區博物館路23號","121.414531666667","25.16316","6502300","八里區"
"248015","026-BX","2019/07/23 19:09:41","新北市五股區成泰路三段543巷29號","121.450208333333","25.10269","6501500","五股區"
"248007","KED-0815","2019/07/23 19:09:40","新北市五股區中興路一段118巷16號","121.466063333333","25.0742066666667","6501500","五股區"
"248020","KED-0813","2019/07/23 19:09:28","新北市五股區凌雲路三段57號","121.425286666667","25.12498","6501500","五股區"
"248012","247-BX","2019/07/23 19:09:38","新北市五股區中興路四段48巷16號","121.438581666667","25.0834483333333","6501500","五股區"
"248004","677-BX","2019/07/23 19:09:44","新北市五股區五福路37號","121.43351","25.0894883333333","6501500","五股區"
"248002","678-BX","2019/07/23 19:09:31","新北市五股區凌雲路一段158巷6號","121.447795","25.1029783333333","6501500","五股區"
"248010","682-TV","2019/07/23 19:09:35","新北市五股區水碓一路23號","121.430583333333","25.0712783333333","6501500","五股區"
"234023","9380-KE","2019/07/23 19:09:36","新北市永和區中興街10巷23號","121.516038333333","25.01113","6500400","永和區"
"234077","969-R7","2019/07/23 19:09:39","新北市永和區民族街25號","121.518778333333","24.9996633333333","6500400","永和區"
"234074","AAC-211","2019/07/23 19:09:36","新北市永和區福和路82-1號","121.522803333333","25.0080533333333","6500400","永和區"
"234067","AAC-212","2019/07/23 19:09:42","新北市永和區永和路一段65巷3號","121.512706666667","25.0071966666667","6500400","永和區"
"234003","AAC-295","2019/07/23 19:09:44","新北市永和區保福路一段76號","121.51238","25.01015","6500400","永和區"
"244023","483-VK","2019/07/23 19:09:31","新北市林口區文化三路二段211巷85號","121.375038333333","25.08408","6501700","林口區"
"244009","657-BX","2019/07/23 19:09:44","新北市林口區台電新村106號","121.388486666667","25.0872166666667","6501700","林口區"
"244011","701-TV","2019/07/23 19:09:38","新北市林口區中正路296巷3號","121.388301666667","25.0780366666667","6501700","林口區"
"244025","837-TS","2019/07/23 19:09:42","新北市林口區民族路86-1號","121.366166666667","25.0753733333333","6501700","林口區"
"243010","297-R6","2019/07/23 19:09:19","新北市泰山區明志路一段481號","121.4309","25.0554183333333","6501600","泰山區"
"243014","KEA-2801","2019/07/23 19:09:17","新北市泰山區泰林路2段424-1號","121.426721666667","25.0643916666667","6501600","泰山區"
"243016","421-VK","2019/07/23 19:09:29","","121.425343333333","25.0443533333333","6501600","泰山區"
"243012","539-UM","2019/07/23 19:09:28","新北市泰山區辭修路10-12號","121.429578333333","25.0580566666667","6501600","泰山區"
"243009","KEA-2215","2019/07/23 19:09:30","新北市泰山區明志路一段122巷23號","121.43278","25.0636133333333","6501600","泰山區"
"243011","KEA-2216","2019/07/23 19:09:42","新北市泰山區明志路二段336號","121.426146666667","25.0455266666667","6501600","泰山區"
"243015","680-BX","2019/07/23 19:09:29","新北市泰山區明志路一段325號","121.43125","25.05885","6501600","泰山區"
"222003","436-BY","2019/07/23 19:09:45","新北市深坑區深南路162號","121.625826666667","25.015085","6501800","深坑區"
"222002","659-BX","2019/07/23 19:09:35","新北市深坑區紅葉街63號","121.632283333333","25.013945","6501800","深坑區"
"231061","002-UM","2019/07/23 19:09:34","新北市新店區安康路一段355-10號","121.520831666667","24.9637966666667","6500600","新店區"
"231058","0293-UT","2019/07/23 19:09:41","新北市新店區光明街94號","121.538903333333","24.9603316666667","6500600","新店區"
"231044","046-UY","2019/07/23 19:09:43","新北市新店區寶中路45-2號","121.544806666667","24.9794083333333","6500600","新店區"
"231060","106-UY","2019/07/23 19:09:44","新北市新店區安康路二段307號","121.502133333333","24.957375","6500600","新店區"
"231051","107-UY","2019/07/23 19:09:35","新北市新店區中正路382巷28號","121.535521666667","24.977965","6500600","新店區"
"231049","108-UY","2019/07/23 19:09:45","新北市新店區二十張路23號","121.539055","24.9822383333333","6500600","新店區"
"231065","110-UY","2019/07/23 19:09:31","新北市新店區安祥路108巷9號","121.474973333333","24.9583033333333","6500600","新店區"
"231050","KEA-2219","2019/07/23 19:09:39","新北市新店區竹林路2巷21-1號","121.550371666667","24.9510516666667","6500600","新店區"
"231062","256-BX","2019/07/23 19:09:29","新北市新店區安平路35巷6號","121.521046666667","24.9675566666667","6500600","新店區"
"231054","260-TV","2019/07/23 19:09:41","新北市新店區新店路120號","121.537115","24.9548483333333","6500600","新店區"
"231042","268-BY","2019/07/23 19:09:45","新北市新店區中興路一段201號","121.543491666667","24.965385","6500600","新店區"
"231064","278-BY","2019/07/23 19:09:40","新北市新店區安忠路56巷6號","121.512966666667","24.9594416666667","6500600","新店區"
"231045","355-BY","2019/07/23 19:09:30","新北市新店區北宜路一段66號","121.538498333333","24.95595","6500600","新店區"
"231055","4716-K9","2019/07/23 19:09:43","新北市新店區環河路119號","121.53248","24.97068","6500600","新店區"
"231056","4715-K9","2019/07/23 19:09:27","新北市新店區安興路105號","121.515098333333","24.978125","6500600","新店區"
"231053","513-UM","2019/07/23 19:09:28","新北市新店區自強路23巷1號","121.546101666667","24.9266833333333","6500600","新店區"
"231041","619-UM","2019/07/23 19:09:40","新北市新店區中央二街62號","121.526475","24.97437","6500600","新店區"
"231063","641-BX","2019/07/23 19:09:42","新北市新店區車子路140號","121.505225","24.9476683333333","6500600","新店區"
"231048","KED-0819","2019/07/23 19:09:34","新北市新店區德正街27巷29弄76號","121.545803333333","24.9732","6500600","新店區"
"231046","719-UM","2019/07/23 19:07:59","新北市新店區華潭街14號","121.529641666667","24.9522916666667","6500600","新店區"
"231057","720-UM","2019/07/23 19:09:40","新北市新店區百齡一路12號","121.553075","24.932445","6500600","新店區"
"231059","897-TW","2019/07/23 19:09:27","新北市新店區安康路一段351-1號","121.519405","24.964055","6500600","新店區"
"231040","898-TW","2019/07/23 19:09:37","新北市新店區三民路114號","121.534335","24.9741716666667","6500600","新店區"
"231043","899-TW","2019/07/23 19:09:44","新北市新店區中興路三段1-17號","121.546695","24.9762183333333","6500600","新店區"
"231066","AKT-0513","2019/07/23 19:09:30","新北市新店區安康路二段418號","121.496226666667","24.9551116666667","6500600","新店區"
"241035","462-BY","2019/07/23 19:09:41","新北市三重區重新路三段115巷2號","121.490663333333","25.0600566666667","6500200","三重區"
"241026","480-VK","2019/07/23 19:09:44","新北市三重區重安街139號","121.495375","25.0546933333333","6500200","三重區"
"241022","KED-0820","2019/07/23 19:09:25","新北市三重區三民街155巷5號","121.484368333333","25.0647366666667","6500200","三重區"
"241029","942-UM","2019/07/23 19:09:40","新北市三重區集美街236號","121.492348333333","25.055725","6500200","三重區"
"235066","003-UY","2019/07/23 19:09:41","新北市中和區廣福路88號","121.50275","25.0014066666667","6500300","中和區"
"235064","005-UY","2019/07/23 19:09:31","新北市中和區連城路2號","121.499328333333","25.002485","6500300","中和區"
"235063","006-UY","2019/07/23 19:09:46","新北市中和區中正路588號","121.485733333333","24.9947783333333","6500300","中和區"
"235056","096-UM","2019/07/23 19:09:29","新北市中和區中正路1161號","121.482045","25.0088116666667","6500300","中和區"
"235039","097-UM","2019/07/23 19:09:35","新北市中和區秀朗路三段179號","121.524438333333","24.99065","6500300","中和區"
"235065","098-UM","2019/07/23 19:09:37","新北市中和區中山路二段64巷7弄27號","121.50264","25.0045916666667","6500300","中和區"
"235040","150-BY","2019/07/23 19:09:37","新北市中和區宜安路23巷39號","121.511945","24.994515","6500300","中和區"
"235058","151-BY","2019/07/23 19:09:43","新北市中和區員山路36巷16-6號","121.485306666667","24.9920066666667","6500300","中和區"
"235055","183-VK","2019/07/23 19:09:29","新北市中和區德光路113號","121.468055","25.0032233333333","6500300","中和區"
"235038","185-VK","2019/07/23 19:09:13","新北市中和區大仁街20巷34號","121.519313333333","24.9930883333333","6500300","中和區"
"235049","186-VK","2019/07/23 19:09:43","新北市中和區景新街176號","121.506206666667","24.996365","6500300","中和區"
"235067","255-BX","2019/07/23 19:09:33","新北市中和區新生街122號","121.483433333333","25.0013483333333","6500300","中和區"
"235044","293-VK","2019/07/23 19:09:33","新北市中和區中興街235巷1號","121.500733333333","24.9896533333333","6500300","中和區"
"235072","301-VK","2019/07/23 19:09:37","新北市中和區連城路144巷4弄11號","121.495701666667","24.9988833333333","6500300","中和區"
"235043","352-BY","2019/07/23 19:09:41","新北市中和區景平路150號","121.518153333333","24.9922","6500300","中和區"
"235042","KEA-2878","2019/07/23 19:09:40","新北市中和區自強路15巷1號","121.520855","24.9935733333333","6500300","中和區"
"235050","4979-A6","2019/07/23 19:09:26","新北市中和區復興路263巷9弄11-4號","121.503418333333","24.9898","6500300","中和區"
"235069","4980-A6","2019/07/23 19:09:41","新北市中和區中和路217巷6號","121.504173333333","25.000265","6500300","中和區"
"235070","558-UM","2019/07/23 19:09:37","新北市中和區連城路72號","121.497403333333","25.0013766666667","6500300","中和區"
"235045","565-BX","2019/07/23 19:09:37","新北市中和區景新街437巷29號","121.514616666667","24.98954","6500300","中和區"
"235060","KED-0823","2019/07/23 19:09:44","新北市中和區員山路268巷5弄8號","121.481958333333","25.0023433333333","6500300","中和區"
"235054","640-BX","2019/07/23 19:09:46","新北市中和區國光街107巷2弄28號","121.469601666667","24.9992883333333","6500300","中和區"
"235047","732-UM","2019/07/23 19:09:14","新北市中和區興南路一段52號","121.510826666667","24.9907216666667","6500300","中和區"
"235071","783-BX","2019/07/23 19:09:36","新北市中和區中正路637巷52弄3號","121.485308333333","24.9937266666667","6500300","中和區"
"235057","801-TS","2019/07/23 19:09:37","新北市中和區民利街54號","121.479211666667","24.9987533333333","6500300","中和區"
"235041","802-TS","2019/07/23 19:09:33","新北市中和區中和路294號","121.508578333333","24.9998333333333","6500300","中和區"
"235052","805-TS","2019/07/23 19:09:42","新北市中和區興南路二段142巷19弄40號","121.502455","24.9833316666667","6500300","中和區"
"235048","896-TW","2019/07/23 19:09:43","新北市中和區忠孝街12號","121.510188333333","24.9827166666667","6500300","中和區"
"235053","900-TW","2019/07/23 19:09:38","新北市中和區華福街71巷2號","121.46724","24.9968166666667","6500300","中和區"
"235051","157-BY","2019/07/23 19:09:39","新北市中和區仁愛街95號","121.511793333333","24.9868","6500300","中和區"
"235037","AAC-213","2019/07/23 19:09:40","新北市中和區秀朗路三段50巷23號","121.524445","24.9950866666667","6500300","中和區"
"235059","AAC-215","2019/07/23 19:09:38","新北市中和區圓通路296巷31弄1號","121.488613333333","24.990475","6500300","中和區"
"220068","015-TV","2019/07/23 19:09:43","新北市板橋區三民路一段31巷28號","121.480661666667","25.0229566666667","6500100","板橋區"
"220065","072-UY","2019/07/23 19:09:43","新北市板橋區民族路219巷7號","121.469361666667","25.00798","6500100","板橋區"
"220086","073-UY","2019/07/23 19:09:40","新北市板橋區中正路250巷33號","121.457038333333","25.0196283333333","6500100","板橋區"
"220106","075-UY","2019/07/23 19:09:38","新北市板橋區長江路三段24巷3號","121.47251","25.0332833333333","6500100","板橋區"
"220069","AAD-861","2019/07/23 19:09:44","新北市板橋區貴興路29號","121.457716666667","25.0040816666667","6500100","板橋區"
"226004","312-R5","2019/07/23 19:09:38","新北市平溪區靜安路二段548號","121.746485","25.0256433333333","6502400","平溪區"
"228001","212-TW","2019/07/23 19:09:41","新北市貢寮區真理里新港街10號","121.925466666667","25.05433","6502600","貢寮區"
"228002","663-BX","2019/07/23 19:09:50","新北市貢寮區福隆里福隆街32-1號","121.945081666667","25.01741","6502600","貢寮區"
"228003","828-UM","2019/07/23 19:09:37","新北市貢寮區和美里和美街36號","121.912206666667","25.0853916666667","6502600","貢寮區"
"224010","AGQ-8101","2019/07/23 19:09:35","新北市瑞芳區基山街138號","121.843656666667","25.1081883333333","6501200","瑞芳區"
"224006","676-BX","2019/07/23 19:09:28","新北市瑞芳區靜安路四段56巷6號","121.793465","25.1024166666667","6501200","瑞芳區"
"224009","275-VK","2019/07/23 19:09:39","新北市瑞芳區洞頂路101巷41號","121.86068","25.1207666666667","6501200","瑞芳區"
"224008","273-VK","2019/07/23 19:09:40","新北市瑞芳區瑞芳街92號","121.802128333333","25.1103133333333","6501200","瑞芳區"
"224005","271-BY","2019/07/23 19:09:40","新北市瑞芳區傑魚坑路319-1號","121.785611666667","25.1033683333333","6501200","瑞芳區"
"227001","642-TC","2019/07/23 19:09:41","新北市雙溪區牡丹里中正路23號","121.864681666667","25.0375616666667","6502500","雙溪區"
"227002","400-TW","2019/07/23 19:09:35","新北市雙溪區平林里外平林9-5號","121.859143333333","25.0380033333333","6502500","雙溪區"
"253006","032-BX","2019/07/23 19:09:42","新北市石門區海灣新城19號","121.525926666667","25.284825","6502200","石門區"
"253005","295-VK","2019/07/23 19:09:45","新北市石門區阿里荖41-1號","121.60577","25.2806766666667","6502200","石門區"
"222001","KEA-2212","2019/07/23 19:09:41","新北市深坑區北深路一段300號","121.624161666667","25.00574","6501800","深坑區"
"208002","KEA-2872","2019/07/23 19:09:42","新北市金山區中華路122巷11號","121.63352","25.22108","6502700","金山區"
"208003","665-BX","2019/07/23 19:09:44","新北市金山區中正路32號","121.635576666667","25.2221666666667","6502700","金山區"
"251009","008-UM","2019/07/23 19:09:36","新北市淡水區重建街36號","121.439916666667","25.1712283333333","6501000","淡水區"
"251004","009-UM","2019/07/23 19:09:38","新北市淡水區中正東路二段143巷2弄1號","121.460635","25.1473066666667","6501000","淡水區"
"251001","011-UM","2019/07/23 19:09:45","新北市淡水區民權路92巷35-1號","121.462146666667","25.1267166666667","6501000","淡水區"
"251002","012-UM","2019/07/23 19:09:37","新北市淡水區中山路50號","121.444038333333","25.1703366666667","6501000","淡水區"
"251015","KEA-2871","2019/07/23 19:09:38","新北市淡水區南勢埔27-2號","121.483681666667","25.1804666666667","6501000","淡水區"
"251016","179-VK","2019/07/23 19:09:42","新北市淡水區淡金路三段254號","121.449733333333","25.2064616666667","6501000","淡水區"
"251007","180-VK","2019/07/23 19:09:32","新北市淡水區民生路135巷30號","121.466653333333","25.1390883333333","6501000","淡水區"
"251013","182-VK","2019/07/23 19:09:37","新北市淡水區安子內12-1號","121.481486666667","25.2191083333333","6501000","淡水區"
"251010","413-VK","2019/07/23 19:09:47","新北市淡水區中正路一段156巷11號","121.421235","25.1804116666667","6501000","淡水區"
"251014","577-R6","2019/07/23 19:09:07","新北市淡水區小中寮19-7號","121.48465","25.229665","6501000","淡水區"
"251003","673-BX","2019/07/23 19:09:42","新北市淡水區大義街3號","121.443848333333","25.178035","6501000","淡水區"
"207003","550-UM","2019/07/23 19:09:40","新北市萬里區大鵬里頂社1號","121.656986666667","25.2096583333333","6502800","萬里區"
"207004","225-TW","2019/07/23 19:09:37","新北市萬里區萬里里瑪鋉下街52號","121.691593333333","25.1795133333333","6502800","萬里區"
"252002","178-VK","2019/07/23 19:09:27","新北市三芝區埔坪里埔頭坑78號","121.509255","25.254405","6502100","三芝區"
"252003","249-BX","2019/07/23 19:09:43","新北市三芝區錫板里南勢崗6號","121.479551666667","25.26195","6502100","三芝區"
"208001","170-UY","2019/07/23 19:09:39","新北市金山區金包里街68號","121.63903","25.221425","6502700","金山區"
"237004","KEA-2597","2019/07/23 19:09:42","新北市三峽區有木206號","121.439123333333","24.8515133333333","6500900","三峽區"
"237007","153-BY","2019/07/23 19:09:47","新北市三峽區中正路二段42巷50號","121.364328333333","24.9205483333333","6500900","三峽區"
"237013","252-BX","2019/07/23 19:09:39","新北市三峽區光明路69巷27號","121.376748333333","24.9293116666667","6500900","三峽區"
"237012","275-BY","2019/07/23 19:09:40","新北市三峽區三樹路222巷236弄2號","121.390546666667","24.9427416666667","6500900","三峽區"
"237008","302-VK","2019/07/23 19:09:40","新北市三峽區光明路106巷26號","121.375931666667","24.92718","6500900","三峽區"
"237014","433-BY","2019/07/23 19:09:38","新北市三峽區復興路375號","121.363221666667","24.93859","6500900","三峽區"
"237006","5529-G3","2019/07/23 19:09:45","新北市三峽區橫溪路95號","121.398441666667","24.9354066666667","6500900","三峽區"
"237011","KEA-2596","2019/07/23 19:09:36","新北市三峽區介壽路三段111號","121.396081666667","24.94106","6500900","三峽區"
"237015","649-BX","2019/07/23 19:09:43","新北市三峽區安坑40-2號","121.455381666667","24.932125","6500900","三峽區"
"237010","706-TV","2019/07/23 19:09:40","新北市三峽區國光街36號","121.374865","24.93767","6500900","三峽區"
"237005","AKY-6261","2019/07/23 19:09:30","新北市三峽區中山路459巷137號","121.350008333333","24.9336583333333","6500900","三峽區"
"236042","KED-0685","2019/07/23 19:09:44","新北市土城區學府路一段239號","121.450406666667","24.983395","6501300","土城區"
"236079","166-UM","2019/07/23 19:09:46","新北市土城區龍泉路44號","121.412186666667","24.9455616666667","6501300","土城區"
"236026","269-VK","2019/07/23 19:09:33","新北市土城區中正路74巷1弄2號","121.444703333333","24.9750033333333","6501300","土城區"
"236014","270-VK","2019/07/23 19:09:44","新北市土城區學府路一段73號","121.45699","24.98812","6501300","土城區"
"236070","KEA-2877","2019/07/23 19:09:47","","121.446841666667","24.985555","6501300","土城區"
"252001","KED-0821","2019/07/23 19:09:32","新北市三芝區長勤街45巷2號","121.500321666667","25.2550683333333","6502100","三芝區"
"236021","401-BY","2019/07/23 19:09:34","新北市土城區延峰街33巷1號","121.469665","24.9847233333333","6501300","土城區"
"236059","912-UM","2019/07/23 19:09:43","新北市土城區金城路一段11號","121.439435","24.9690366666667","6501300","土城區"
"236055","AAC-216","2019/07/23 19:09:30","新北市土城區學成路4號","121.453536666667","24.9863533333333","6501300","土城區"
"242056","441-UM","2019/07/23 19:09:42","新北市樹林區八德街395號","121.41534","24.9712983333333","6500500","新莊區"
"242015","173-VK","2019/07/23 19:09:30","新北市新莊區三和路12-21號","121.442021666667","25.038585","6500500","新莊區"
"238015","755-BX","2019/07/23 19:09:45","新北市樹林區光明街38號","121.41223","24.9911616666667","6500700","樹林區"
"238023","601-UM","2019/07/23 19:09:26","新北市樹林區三興路29號","121.396455","25.014805","6500700","樹林區"
"238019","599-UM","2019/07/23 19:09:33","新北市樹林區東榮街144號","121.414925","24.98197","6500700","樹林區"
"238024","5061-A6","2019/07/23 19:09:27","新北市樹林區中山路三段210-2號","121.38145","24.9655733333333","6500700","樹林區"
"238022","KEA-2213","2019/07/23 19:09:45","新北市樹林區中山路二段151巷6弄3號","121.406611666667","24.9782216666667","6500700","樹林區"
"238021","KEA-2539","2019/07/23 19:09:26","新北市樹林區柑園街二段411號","121.36562","24.9477566666667","6500700","樹林區"
"238025","303-VK","2019/07/23 19:09:46","新北市樹林區中山路三段299號","121.39133","24.9719033333333","6500700","樹林區"
"238017","283-BY","2019/07/23 19:09:34","新北市樹林區光興街50號","121.409835","25.002735","6500700","樹林區"
"238014","282-BY","2019/07/23 19:09:46","新北市樹林區千歲街67號","121.42719","24.998835","6500700","樹林區"
"238020","268-VK","2019/07/23 19:09:31","新北市樹林區俊英街133巷20號","121.42359","25.0111583333333","6500700","樹林區"
"238026","172-UY","2019/07/23 19:09:34","新北市樹林區吉祥街21號","121.395293333333","24.973695","6500700","樹林區"
"238016","169-UY","2019/07/23 19:09:32","新北市樹林區復興路335巷6弄15號","121.41791","24.9869516666667","6500700","樹林區"
"239007","AAC-297","2019/07/23 19:09:46","新北市鶯歌區西湖街45巷1號","121.340125","24.9587616666667","6500800","鶯歌區"
"239006","891-R6","2019/07/23 19:09:35","新北市鶯歌區鶯桃路67巷3號","121.340945","24.9525716666667","6500800","鶯歌區"
"239008","527-UM","2019/07/23 19:09:32","新北市鶯歌區國際二路14巷8號","121.337883333333","24.97482","6500800","鶯歌區"
"239005","526-UM","2019/07/23 19:09:40","新北市鶯歌區中湖街76號","121.348195","24.972915","6500800","鶯歌區"
"239001","417-VK","2019/07/23 19:09:46","新北市鶯歌區鶯桃路129巷14號","121.337725","24.95405","6500800","鶯歌區"
"239003","360-BY","2019/07/23 19:09:44","新北市鶯歌區鶯桃路429號","121.332553333333","24.9650466666667","6500800","鶯歌區"
"239002","359-BY","2019/07/23 19:09:46","新北市鶯歌區中山路292號","121.343816666667","24.9570166666667","6500800","鶯歌區"
"239004","193-VK","2019/07/23 19:09:30","新北市鶯歌區中正三路406巷1號","121.325278333333","24.9348333333333","6500800","鶯歌區"
"221008","489-VK","2019/07/23 19:09:47","新北市汐止區康寧街453號","121.631286666667","25.0683","6501100","汐止區"
"221036","130-UY","2019/07/23 19:09:35","新北市汐止區南昌街22號","121.66312","25.068245","6501100","汐止區"
"221031","353-TW","2019/07/23 19:09:36","新北市汐止區中興路181巷29弄8號","121.629765","25.06587","6501100","汐止區"
"221035","622-UM","2019/07/23 19:09:42","新北市汐止區汐萬路一段115巷2號","121.654248333333","25.070875","6501100","汐止區"
"221002","707-TV","2019/07/23 19:09:35","新北市汐止區大同路一段288號","121.634721666667","25.0576383333333","6501100","汐止區"
"220079","145-BY","2019/07/23 19:09:39","新北市板橋區中正路107號","121.456345","25.01488","6500100","板橋區"
"220080","200-UY","2019/07/23 19:09:28","新北市板橋區合安一路61號","121.44784","24.9989533333333","6500100","板橋區"
"220082","610-BX","2019/07/23 19:09:43","新北市板橋區溪北路16號","121.426608333333","24.9904533333333","6500100","板橋區"
"220088","267-BY","2019/07/23 19:09:34","新北市板橋區雙十路二段4-4號","121.476953333333","25.02565","6500100","板橋區"
"220056","276-BY","2019/07/23 19:09:39","新北市板橋區信義路74巷7弄1號","121.456648333333","24.99278","6500100","板橋區"
"220072","277-BY","2019/07/23 19:09:37","新北市板橋區溪北路160號","121.430708333333","24.9882266666667","6500100","板橋區"
"220101","280-UM","2019/07/23 19:09:38","新北市板橋區莊敬路25巷12號","121.474151666667","25.0275833333333","6500100","板橋區"
"220071","283-VK","2019/07/23 19:09:46","新北市板橋區忠孝路154巷21號","121.464341666667","25.001595","6500100","板橋區"
"220094","285-UM","2019/07/23 19:09:39","新北市板橋區吳鳳路82號","121.466965","25.0312716666667","6500100","板橋區"
"220053","285-VK","2019/07/23 19:09:48","新北市板橋區富山街53巷70號","121.477293333333","25.02021","6500100","板橋區"
"220083","286-VK","2019/07/23 19:09:48","新北市板橋區龍興街99巷11-2號","121.443735","25.0031216666667","6500100","板橋區"
"220081","287-VK","2019/07/23 19:09:35","新北市板橋區光華街35號","121.453811666667","25.0127733333333","6500100","板橋區"
"220090","288-VK","2019/07/23 19:09:39","新北市板橋區長江路一段106巷13弄21號","121.460858333333","25.0295316666667","6500100","板橋區"
"220061","295-UM","2019/07/23 19:09:34","新北市板橋區中山路二段318巷25號","121.480468333333","25.018505","6500100","板橋區"
"220084","296-UM","2019/07/23 19:09:29","新北市板橋區篤行路二段126-3號","121.431191666667","24.9906916666667","6500100","板橋區"
"220075","303-R5","2019/07/23 19:09:41","新北市板橋區館前西路81號","121.457245","25.0070083333333","6500100","板橋區"
"220062","305-R5","2019/07/23 19:09:45","新北市板橋區三民路二段245巷69弄30-2號","121.481098333333","25.0134033333333","6500100","板橋區"
"220092","307-R5","2019/07/23 19:09:48","新北市板橋區松江街72巷31號","121.469741666667","25.0279116666667","6500100","板橋區"
"220089","487-VK","2019/07/23 19:09:26","新北市板橋區文化路一段180號","121.465696666667","25.01958","6500100","板橋區"
"220035","560-BX","2019/07/23 19:09:40","新北市板橋區中正路332號","121.454338333333","25.0220583333333","6500100","板橋區"
"220103","561-BX","2019/07/23 19:09:39","新北市板橋區文化路一段210號","121.466403333333","25.0202233333333","6500100","板橋區"
"220063","609-BX","2019/07/23 19:09:39","新北市板橋區三民路二段253-1號","121.478965","25.0117183333333","6500100","板橋區"
"220091","637-BX","2019/07/23 19:09:31","新北市板橋區縣民大道三段223號","121.480541666667","25.025395","6500100","板橋區"
"220057","686-BX","2019/07/23 19:09:45","新北市板橋區和平路161巷22號","121.463355","24.9967183333333","6500100","板橋區"
"220077","687-BX","2019/07/23 19:09:41","新北市板橋區大觀路二段154號","121.441545","24.9986616666667","6500100","板橋區"
"220093","689-BX","2019/07/23 19:09:28","新北市板橋區文化路一段216號","121.466388333333","25.020465","6500100","板橋區"
"220054","741-BX","2019/07/23 19:08:37","新北市板橋區實踐路55-1號","121.463835","25.00664","6500100","板橋區"
"220102","KEA-2699","2019/07/23 19:09:39","新北市板橋區田單街35號","121.482356666667","25.028605","6500100","板橋區"
"220055","827-TW","2019/07/23 19:09:37","新北市板橋區新民街4巷2弄2-1號","121.464066666667","25.009905","6500100","板橋區"
"220067","829-TW","2019/07/23 19:09:42","新北市板橋區三民路二段正隆巷75號","121.476031666667","25.0130083333333","6500100","板橋區"
"220098","831-TW","2019/07/23 19:09:33","新北市板橋區民有街21號","121.466008333333","25.025095","6500100","板橋區"
"220074","895-R6","2019/07/23 19:09:40","新北市板橋區中正路69巷1弄4號","121.455755","25.01377","6500100","板橋區"
"220073","985-R7","2019/07/23 19:09:41","新北市板橋區中正路249號","121.455825","25.01826","6500100","板橋區"
"220097","AAC-210","2019/07/23 19:09:46","新北市板橋區幸福路32巷3弄12號","121.460798333333","25.0206933333333","6500100","板橋區"
"220064","AAC-253","2019/07/23 19:09:43","新北市板橋區板新路238號","121.468235","25.016035","6500100","板橋區"
"235068","KEA-2873","2019/07/23 19:09:19","新北市中和區圓通路162巷37弄3號","121.496476666667","24.9955116666667","6500300","中和區"
"235061","KEA-2875","2019/07/23 19:09:41","新北市中和區員山路337號","121.481258333333","25.001515","6500300","中和區"
"235046","KEA-2876","2019/07/23 19:09:45","新北市中和區忠孝街1號","121.508823333333","24.98303","6500300","中和區"
