"lineid","car","time","location","longitude","latitude","cityid","cityname"
"234046","148-BY","2019/07/23 19:39:45","新北市永和區永元路98號","121.522556666667","25.0019116666667","6500400","永和區"
"234081","298-R6","2019/07/23 19:39:35","新北市永和區國中路104巷10號","121.524753333333","25.0069616666667","6500400","永和區"
"234038","336-UY","2019/07/23 19:39:31","新北市永和區民樂街31巷4號","121.527845","25.0014783333333","6500400","永和區"
"234064","337-UY","2019/07/23 19:39:45","新北市永和區秀朗路二段24巷28弄9號","121.519558333333","25.0018416666667","6500400","永和區"
"234086","338-UY","2019/07/23 19:39:41","新北市永和區永亨路144號","121.525251666667","25.0038883333333","6500400","永和區"
"234017","745-BX","2019/07/23 19:39:30","新北市永和區永和路二段425巷33-1號","121.514328333333","25.0176266666667","6500400","永和區"
"234030","746-BX","2019/07/23 19:39:33","新北市永和區四維街115號","121.52343","24.9981466666667","6500400","永和區"
"234054","KEA-2590","2019/07/23 19:39:35","新北市永和區竹林路41號","121.518033333333","25.0142333333333","6500400","永和區"
"234007","KED-0605","2019/07/23 19:39:46","新北市永和區中和路477號","121.51026","25.0018583333333","6500400","永和區"
"234013","KEA-2591","2019/07/23 19:39:31","新北市永和區永平路203巷5弄1號","121.509098333333","25.0097083333333","6500400","永和區"
"234061","AAD-866","2019/07/23 19:39:46","新北市永和區中正路446號","121.517473333333","25.0028366666667","6500400","永和區"
"234070","748-BX","2019/07/23 19:39:34","新北市永和區永和路二段235號","121.515451666667","25.014345","6500400","永和區"
"234042","862-TW","2019/07/23 19:39:48","新北市永和區永貞路265號","121.511833333333","25.004655","6500400","永和區"
"234050","863-TW","2019/07/23 19:39:45","新北市永和區保安路90號","121.509586666667","25.016165","6500400","永和區"
"234026","9381-KE","2019/07/23 19:39:37","新北市永和區中和路501巷5號","121.510436666667","25.0026933333333","6500400","永和區"
"234011","9373-KE","2019/07/23 19:39:33","新北市永和區保生路55號","121.504415","25.0108733333333","6500400","永和區"
"249002","305-UY","2019/07/23 19:39:45","新北市八里區頂寮二街35號","121.450231666667","25.1251633333333","6502300","八里區"
"249003","759-BX","2019/07/23 19:39:40","新北市八里區中華路二段540號","121.399056666667","25.145585","6502300","八里區"
"248014","025-BX","2019/07/23 19:39:36","新北市五股區五福路42巷25號","121.434745","25.09009","6501500","五股區"
"248015","026-BX","2019/07/23 19:39:41","新北市五股區凌雲路一段39號","121.45184","25.10068","6501500","五股區"
"248007","KED-0815","2019/07/23 19:39:40","新北市五股區四維路118巷10弄2號","121.468611666667","25.0744133333333","6501500","五股區"
"248020","KED-0813","2019/07/23 19:39:28","新北市五股區中直路15號","121.42413","25.112075","6501500","五股區"
"248012","247-BX","2019/07/23 19:39:38","新北市五股區蓬萊路6巷41號","121.435793333333","25.0801983333333","6501500","五股區"
"248004","677-BX","2019/07/23 19:39:38","新北市五股區成泰路一段222號","121.436541666667","25.080085","6501500","五股區"
"248002","678-BX","2019/07/23 19:39:31","新北市五股區成泰路三段577巷77號","121.449678333333","25.1037166666667","6501500","五股區"
"248010","682-TV","2019/07/23 19:39:35","新北市五股區自強路161號","121.4313","25.0693283333333","6501500","五股區"
"234023","9380-KE","2019/07/23 19:39:32","新北市永和區保生路55-1號","121.5045","25.0108983333333","6500400","永和區"
"234077","969-R7","2019/07/23 19:39:43","新北市永和區民權路1巷8號","121.52064","24.998455","6500400","永和區"
"234074","AAC-211","2019/07/23 19:39:44","新北市永和區竹林路225巷9號","121.5214","25.008595","6500400","永和區"
"234067","AAC-212","2019/07/23 19:39:42","新北市永和區中山路一段191巷7弄2號","121.509523333333","25.00825","6500400","永和區"
"234003","AAC-295","2019/07/23 19:39:44","新北市永和區自由街67號","121.513583333333","25.005415","6500400","永和區"
"244023","483-VK","2019/07/23 19:39:31","新北市林口區民富街93號","121.370138333333","25.0749766666667","6501700","林口區"
"243010","297-R6","2019/07/23 19:39:37","新北市泰山區中港西路498巷36號","121.43174","25.0529033333333","6501600","泰山區"
"243014","KEA-2801","2019/07/23 19:39:37","新北市泰山區泰林路二段33-7號","121.435315","25.0565183333333","6501600","泰山區"
"243016","421-VK","2019/07/23 19:39:36","新北市新莊區新北大道七段36號","121.419626666667","25.03227","6501600","泰山區"
"243012","539-UM","2019/07/23 19:39:28","新北市泰山區仁愛路132號","121.434331666667","25.0558216666667","6501600","泰山區"
"243009","KEA-2215","2019/07/23 19:39:30","新北市泰山區美寧街60號","121.430981666667","25.06468","6501600","泰山區"
"243011","KEA-2216","2019/07/23 19:39:42","新北市泰山區台麗街24-3號","121.42581","25.0375416666667","6501600","泰山區"
"243015","680-BX","2019/07/23 19:39:29","新北市泰山區民權街26號","121.428595","25.0507133333333","6501600","泰山區"
"222003","436-BY","2019/07/23 19:34:32","新北市深坑區深南路51-1號","121.621173333333","25.0098216666667","6501800","深坑區"
"222002","659-BX","2019/07/23 19:39:35","新北市深坑區北深路一段177號","121.632545","25.01083","6501800","深坑區"
"231061","002-UM","2019/07/23 19:39:33","新北市新店區安民街50號","121.516123333333","24.96581","6500600","新店區"
"231058","0293-UT","2019/07/23 19:39:41","新北市新店區中正路76巷11弄19號","121.543706666667","24.9716833333333","6500600","新店區"
"231044","046-UY","2019/07/23 19:39:43","新北市新店區北新路三段109號","121.541346666667","24.9821983333333","6500600","新店區"
"231060","106-UY","2019/07/23 19:39:31","新北市新店區安康路二段149-1號","121.510813333333","24.9597233333333","6500600","新店區"
"231051","107-UY","2019/07/23 19:39:35","新北市新店區中央四街29號","121.528726666667","24.97437","6500600","新店區"
"231049","108-UY","2019/07/23 19:39:39","新北市新店區大豐路37號","121.54061","24.97996","6500600","新店區"
"231065","110-UY","2019/07/23 19:39:31","新北市新店區安祥路109巷85弄25號","121.478385","24.96004","6500600","新店區"
"231050","KEA-2219","2019/07/23 19:39:39","新北市新店區北宜路二段277號","121.555078333333","24.9536583333333","6500600","新店區"
"231062","256-BX","2019/07/23 19:39:44","新北市新店區合作路11號","121.533338333333","24.95761","6500600","新店區"
"231054","260-TV","2019/07/23 19:39:41","新北市新店區文中路35巷12號","121.539736666667","24.9567266666667","6500600","新店區"
"231042","268-BY","2019/07/23 19:39:25","新北市新店區中興路一段203號","121.543531666667","24.9655883333333","6500600","新店區"
"231064","278-BY","2019/07/23 19:39:40","新北市新店區安和路一段52巷2-1號","121.517753333333","24.9664033333333","6500600","新店區"
"231045","355-BY","2019/07/23 19:39:30","新北市新店區北宜路二段209號","121.55318","24.9533566666667","6500600","新店區"
"231056","4715-K9","2019/07/23 19:39:47","新北市新店區中正路491號","121.533715","24.9825183333333","6500600","新店區"
"231053","513-UM","2019/07/23 19:39:28","新北市新店區新烏路二段301號","121.549503333333","24.911385","6500600","新店區"
"231041","619-UM","2019/07/23 19:39:40","新北市新店區中正路485號","121.533953333333","24.9820366666667","6500600","新店區"
"231063","641-BX","2019/07/23 19:39:29","新北市新店區達觀路16號","121.502943333333","24.9403233333333","6500600","新店區"
"231048","KED-0819","2019/07/23 19:39:34","新北市新店區五峰路63巷8弄72號","121.548021666667","24.968555","6500600","新店區"
"231046","719-UM","2019/07/23 19:39:39","新北市新店區中正路336號","121.536761666667","24.974925","6500600","新店區"
"231057","720-UM","2019/07/23 19:39:40","新北市新店區橘園一路11號","121.547963333333","24.9340333333333","6500600","新店區"
"231059","897-TW","2019/07/23 19:39:47","新北市新店區安和路三段83號","121.517843333333","24.9838033333333","6500600","新店區"
"231040","898-TW","2019/07/23 19:39:37","新北市新店區北新路一段96巷23號","121.54301","24.9687083333333","6500600","新店區"
"231043","899-TW","2019/07/23 19:39:44","新北市新店區中正路141號","121.541633333333","24.9715416666667","6500600","新店區"
"231066","AKT-0513","2019/07/23 19:39:30","新北市新店區安康路三段355巷14號","121.484831666667","24.95012","6500600","新店區"
"241011","013-R5","2019/07/23 19:39:45","新北市三重區秀江街201號","121.497753333333","25.0716666666667","6500200","三重區"
"241028","022-UY","2019/07/23 19:39:39","新北市三重區中正南路131號","121.494038333333","25.0571366666667","6500200","三重區"
"241031","061-VK","2019/07/23 19:39:35","新北市三重區重新路四段244巷27號","121.486958333333","25.053525","6500200","三重區"
"241015","062-VK","2019/07/23 19:39:35","新北市三重區福德北路75號","121.502048333333","25.0658333333333","6500200","三重區"
"241017","063-VK","2019/07/23 19:39:30","新北市三重區大同北路184巷10號","121.491396666667","25.06557","6500200","三重區"
"241009","267-UM","2019/07/23 19:39:34","新北市三重區三和路四段400巷19號","121.48039","25.0792866666667","6500200","三重區"
"241032","269-UM","2019/07/23 19:39:29","新北市三重區重陽路一段60巷65號","121.484433333333","25.05831","6500200","三重區"
"241013","270-UM","2019/07/23 19:39:33","新北市三重區仁賢街7號","121.49589","25.074555","6500200","三重區"
"241025","271-UM","2019/07/23 19:39:34","新北市三重區忠孝路三段84巷5號","121.480235","25.06436","6500200","三重區"
"241007","398-BY","2019/07/23 19:39:35","新北市三重區三和路四段125巷42號","121.48624","25.0783116666667","6500200","三重區"
"241030","KED-0822","2019/07/23 19:39:36","新北市三重區昌隆街68號","121.491036666667","25.050925","6500200","三重區"
"241035","462-BY","2019/07/23 19:39:41","新北市三重區信義西街28號","121.498481666667","25.0648083333333","6500200","三重區"
"241026","480-VK","2019/07/23 19:39:44","新北市三重區文化南路65巷2-1號","121.500116666667","25.0608316666667","6500200","三重區"
"241014","543-UM","2019/07/23 19:39:48","新北市三重區河邊北街80號","121.504333333333","25.068715","6500200","三重區"
"241023","545-UM","2019/07/23 19:39:28","新北市三重區忠孝路三段99巷4號","121.480145","25.0641866666667","6500200","三重區"
"241001","547-UM","2019/07/23 19:39:34","新北市三重區五華街26號","121.49472","25.0805166666667","6500200","三重區"
"241019","KEA-2593","2019/07/23 19:39:26","新北市三重區六張街248巷2-6號","121.48742","25.0681083333333","6500200","三重區"
"241006","AAD-863","2019/07/23 19:39:34","新北市三重區永福街301號","121.483863333333","25.0745716666667","6500200","三重區"
"241022","KED-0820","2019/07/23 19:39:45","新北市三重區中正北路60號","121.486881666667","25.0644183333333","6500200","三重區"
"241008","887-TS","2019/07/23 19:39:41","新北市三重區永福街74號","121.478876666667","25.07671","6500200","三重區"
"241012","941-UM","2019/07/23 19:39:35","新北市三重區仁興街30號","121.49912","25.0754466666667","6500200","三重區"
"241029","942-UM","2019/07/23 19:39:40","新北市三重區重安街96號","121.492488333333","25.0563483333333","6500200","三重區"
"235066","003-UY","2019/07/23 19:39:41","新北市中和區中和路196巷9弄1號","121.505173333333","24.9991766666667","6500300","中和區"
"235063","006-UY","2019/07/23 19:39:46","新北市中和區連城路203巷10弄9號","121.494876666667","24.9968866666667","6500300","中和區"
"235056","096-UM","2019/07/23 19:39:47","新北市中和區中山路三段114巷26弄1號","121.475846666667","25.0070416666667","6500300","中和區"
"235039","097-UM","2019/07/23 19:39:35","新北市中和區景平路160號","121.517405","24.992375","6500300","中和區"
"235065","098-UM","2019/07/23 19:39:37","新北市中和區福祥路90巷7弄5號","121.499476666667","25.0060916666667","6500300","中和區"
"235040","150-BY","2019/07/23 19:39:37","新北市中和區保健路67巷7號","121.509885","24.9976083333333","6500300","中和區"
"235058","151-BY","2019/07/23 19:39:43","新北市中和區連城路332號","121.483146666667","24.9959033333333","6500300","中和區"
"235055","183-VK","2019/07/23 19:39:29","新北市中和區中山路三段181巷10號","121.47292","25.0057083333333","6500300","中和區"
"235038","185-VK","2019/07/23 19:39:33","新北市中和區自立路141巷3號","121.522378333333","24.9935716666667","6500300","中和區"
"235049","186-VK","2019/07/23 19:39:43","新北市中和區中正路2號","121.503208333333","24.9938416666667","6500300","中和區"
"235067","255-BX","2019/07/23 19:39:33","新北市中和區新生街186巷1弄31號","121.483438333333","24.9985216666667","6500300","中和區"
"235044","293-VK","2019/07/23 19:39:33","新北市中和區南山路423號","121.5075","24.98945","6500300","中和區"
"235072","301-VK","2019/07/23 19:39:37","新北市中和區連城路265巷6弄6號","121.491023333333","24.9958933333333","6500300","中和區"
"235043","352-BY","2019/07/23 19:39:42","新北市中和區興南路一段63-6號","121.510291666667","24.98958","6500300","中和區"
"235042","KEA-2878","2019/07/23 19:39:40","新北市中和區景安路79巷37弄20號","121.50786","24.99629","6500300","中和區"
"235070","558-UM","2019/07/23 19:39:37","新北市中和區連勝街33號","121.498281666667","24.9978483333333","6500300","中和區"
"235045","565-BX","2019/07/23 19:39:37","新北市中和區興南路一段4號","121.511576666667","24.9915166666667","6500300","中和區"
"235060","KED-0823","2019/07/23 19:39:44","新北市中和區新生街45號","121.483361666667","25.0028483333333","6500300","中和區"
"235054","640-BX","2019/07/23 19:39:46","新北市中和區莒光路179號","121.472655","24.999295","6500300","中和區"
"235047","732-UM","2019/07/23 19:39:34","新北市中和區和平街196號","121.504803333333","24.9926483333333","6500300","中和區"
"235071","783-BX","2019/07/23 19:39:36","新北市中和區新生街114巷1號","121.483495","25.0022533333333","6500300","中和區"
"235057","801-TS","2019/07/23 19:39:37","新北市中和區員山路146號","121.481291666667","24.9968833333333","6500300","中和區"
"235041","802-TS","2019/07/23 19:39:32","新北市永和區安樂路250-2號","121.514603333333","25.0037733333333","6500300","中和區"
"235052","805-TS","2019/07/23 19:39:42","新北市中和區華新街192巷2-1號","121.506785","24.9823016666667","6500300","中和區"
"235048","896-TW","2019/07/23 19:39:43","新北市中和區華新街46號","121.507935","24.9841666666667","6500300","中和區"
"235053","900-TW","2019/07/23 19:39:38","新北市中和區國光街215巷8弄2號","121.466668333333","25.001035","6500300","中和區"
"235051","157-BY","2019/07/23 19:39:39","新北市中和區南山路269號","121.503966666667","24.9925216666667","6500300","中和區"
"235037","AAC-213","2019/07/23 19:39:40","新北市中和區秀朗路三段128巷1弄1號","121.52471","24.99213","6500300","中和區"
"235059","AAC-215","2019/07/23 19:39:38","新北市中和區錦和路350號","121.490728333333","24.9925416666667","6500300","中和區"
"220068","015-TV","2019/07/23 19:39:43","新北市板橋區中山路二段412巷15號","121.483363333333","25.0203616666667","6500100","板橋區"
"220065","072-UY","2019/07/23 19:39:43","新北市板橋區國泰街109-1號","121.466216666667","25.0061616666667","6500100","板橋區"
"220086","073-UY","2019/07/23 19:39:40","新北市板橋區中正路216巷10號","121.456391666667","25.018365","6500100","板橋區"
"220106","075-UY","2019/07/23 19:39:28","新北市板橋區民治街57巷24弄1號","121.480288333333","25.0338333333333","6500100","板橋區"
"220069","AAD-861","2019/07/23 19:39:40","新北市板橋區貴興路119巷7號","121.456078333333","25.0019116666667","6500100","板橋區"
"247004","893-R6","2019/07/23 19:39:40","新北市蘆洲區長安街102巷65號","121.462736666667","25.08219","6501400","蘆洲區"
"226004","312-R5","2019/07/23 19:38:57","新北市平溪區十分里十分街83號","121.776428333333","25.0424933333333","6502400","平溪區"
"228001","212-TW","2019/07/23 19:39:41","新北市貢寮區真理里延平街67巷1號","121.924348333333","25.0556533333333","6502600","貢寮區"
"228003","828-UM","2019/07/23 19:39:37","新北市貢寮區真理里美艷山街19-1號","121.92346","25.068425","6502600","貢寮區"
"224010","AGQ-8101","2019/07/23 19:39:49","新北市瑞芳區輕便路342號","121.8397","25.1087","6501200","瑞芳區"
"227001","642-TC","2019/07/23 19:39:41","新北市雙溪區新基里新基北街22號","121.86722","25.0389233333333","6502500","雙溪區"
"227002","400-TW","2019/07/23 19:39:35","新北市雙溪區雙溪里光復街5號","121.865495","25.035715","6502500","雙溪區"
"222001","KEA-2212","2019/07/23 19:39:41","新北市深坑區北深路三段5號","121.610893333333","25.001005","6501800","深坑區"
"208002","KEA-2872","2019/07/23 19:39:42","新北市金山區三民街34號","121.634935","25.2235833333333","6502700","金山區"
"208003","665-BX","2019/07/23 19:39:43","新北市金山區仁愛路1巷1號","121.638598333333","25.2200333333333","6502700","金山區"
"251009","008-UM","2019/07/23 19:39:36","新北市淡水區中山北路一段184巷9號","121.445358333333","25.17861","6501000","淡水區"
"251004","009-UM","2019/07/23 19:39:38","新北市淡水區民生路47-4號","121.461986666667","25.13805","6501000","淡水區"
"251001","011-UM","2019/07/23 19:39:34","新北市淡水區民權路49號","121.459785","25.1392716666667","6501000","淡水區"
"251002","012-UM","2019/07/23 19:39:37","新北市淡水區下圭柔山90-8號","121.431208333333","25.2102366666667","6501000","淡水區"
"251015","KEA-2871","2019/07/23 19:39:37","新北市淡水區山子頂24-1號","121.491376666667","25.187175","6501000","淡水區"
"251016","179-VK","2019/07/23 19:39:42","新北市淡水區淡金路3段350巷18-1號","121.450878333333","25.2082433333333","6501000","淡水區"
"251007","180-VK","2019/07/23 19:39:32","新北市淡水區中正東路一段111巷28號","121.455518333333","25.1609033333333","6501000","淡水區"
"251008","181-VK","2019/07/23 19:39:46","新北市淡水區中正路一段8巷1弄11號","121.428161666667","25.1757","6501000","淡水區"
"251013","182-VK","2019/07/23 19:39:36","新北市淡水區店子後10號","121.460273333333","25.2190183333333","6501000","淡水區"
"251010","413-VK","2019/07/23 19:39:47","新北市淡水區新市二路三段152號","121.435365","25.1947083333333","6501000","淡水區"
"251005","443-VK","2019/07/23 19:39:44","新北市淡水區原德路98號","121.443181666667","25.1733166666667","6501000","淡水區"
"251006","561-UM","2019/07/23 19:39:38","新北市淡水區中山北路一段207巷68號","121.441723333333","25.1792683333333","6501000","淡水區"
"251014","577-R6","2019/07/23 19:39:26","新北市淡水區中和里12-1號","121.4792","25.2316616666667","6501000","淡水區"
"207003","550-UM","2019/07/23 19:39:40","新北市萬里區大鵬里萬里加投288-33號","121.645433333333","25.2192766666667","6502800","萬里區"
"207004","225-TW","2019/07/23 19:39:38","新北市萬里區萬里里瑪鋉路33-2號","121.687543333333","25.17571","6502800","萬里區"
"252002","178-VK","2019/07/23 19:39:47","新北市三芝區中正路一段18巷52號","121.504183333333","25.25887","6502100","三芝區"
"208001","170-UY","2019/07/23 19:39:46","新北市金山區六股里下六股65號","121.6145","25.22342","6502700","金山區"
"237004","KEA-2597","2019/07/23 19:39:42","新北市三峽區插角233號","121.413331666667","24.868555","6500900","三峽區"
"237007","153-BY","2019/07/23 19:39:27","新北市三峽區二鬮路136巷24弄41號","121.356801666667","24.9106383333333","6500900","三峽區"
"237009","210-TH","2019/07/23 19:39:28","新北市三峽區中園街73號","121.368086666667","24.9255033333333","6500900","三峽區"
"237013","252-BX","2019/07/23 19:39:39","新北市三峽區橫溪路5號","121.396123333333","24.9361066666667","6500900","三峽區"
"237012","275-BY","2019/07/23 19:39:40","新北市三峽區民生街1巷1-7號","121.376921666667","24.9371783333333","6500900","三峽區"
"237008","302-VK","2019/07/23 19:39:40","新北市三峽區大同路154號","121.373148333333","24.9269683333333","6500900","三峽區"
"237014","433-BY","2019/07/23 19:39:38","新北市三峽區大利路18號","121.366818333333","24.91169","6500900","三峽區"
"237006","5529-G3","2019/07/23 19:39:45","新北市三峽區中正路一段336巷15弄2號","121.369966666667","24.9249383333333","6500900","三峽區"
"237011","KEA-2596","2019/07/23 19:39:36","新北市三峽區大同路137號","121.371841666667","24.9268416666667","6500900","三峽區"
"237015","649-BX","2019/07/23 19:39:43","新北市三峽區成福路197號","121.421736666667","24.930045","6500900","三峽區"
"237010","706-TV","2019/07/23 19:39:40","新北市三峽區復興路1號","121.374381666667","24.9357783333333","6500900","三峽區"
"237005","AKY-6261","2019/07/23 19:39:30","新北市三峽區中山路167號","121.364523333333","24.9364783333333","6500900","三峽區"
"236042","KED-0685","2019/07/23 19:39:43","新北市土城區裕民路256巷4弄2號","121.453983333333","24.9825283333333","6501300","土城區"
"236079","166-UM","2019/07/23 19:39:46","新北市土城區溪頭路7巷2號","121.412816666667","24.95544","6501300","土城區"
"236030","253-BX","2019/07/23 19:39:30","新北市土城區福祥街22號","121.440981666667","24.9800566666667","6501300","土城區"
"236038","271-VK","2019/07/23 19:39:43","新北市土城區清水路98巷3弄34號","121.458546666667","24.9808266666667","6501300","土城區"
"236070","KEA-2877","2019/07/23 19:39:47","新北市土城區學府路二段43號","121.450155","24.9796433333333","6501300","土城區"
"252001","KED-0821","2019/07/23 19:39:32","新北市三芝區公正街66號","121.499803333333","25.2574416666667","6502100","三芝區"
"236021","401-BY","2019/07/23 19:39:43","新北市土城區金城路三段198號","121.468493333333","24.988005","6501300","土城區"
"236059","912-UM","2019/07/23 19:39:44","新北市土城區中央路二段49號","121.44269","24.9797266666667","6501300","土城區"
"236049","913-UM","2019/07/23 19:39:33","新北市土城區明德路一段55號","121.46529","24.9846216666667","6501300","土城區"
"236063","915-UM","2019/07/23 19:39:43","新北市土城區延平街33巷1號","121.467886666667","24.9917483333333","6501300","土城區"
"236055","AAC-216","2019/07/23 19:39:30","新北市土城區學府路一段64號","121.45707","24.988355","6501300","土城區"
"242002","751-BX","2019/07/23 19:39:44","新北市新莊區中正路400號","121.441951666667","25.0341416666667","6500500","新莊區"
"242005","440-UM","2019/07/23 19:39:43","新北市新莊區化成路29巷38號","121.463643333333","25.043895","6500500","新莊區"
"242013","132-UY","2019/07/23 19:39:42","新北市新莊區中泰街101號","121.44879","25.0464233333333","6500500","新莊區"
"242037","135-UY","2019/07/23 19:39:33","新北市新莊區民安路207巷17號","121.426846666667","25.0231183333333","6500500","新莊區"
"242015","173-VK","2019/07/23 19:39:30","新北市新莊區三和路12-21號","121.44201","25.0386516666667","6500500","新莊區"
"242034","348-TH","2019/07/23 19:39:36","新北市新莊區仁愛街4號","121.444285","25.034805","6500500","新莊區"
"242032","350-TH","2019/07/23 19:39:47","新北市新莊區新泰路213巷27號","121.44502","25.03841","6500500","新莊區"
"238015","755-BX","2019/07/23 19:39:45","新北市樹林區樹德街8號","121.422981666667","24.9914133333333","6500700","樹林區"
"238023","601-UM","2019/07/23 19:39:46","新北市樹林區三福街83號","121.407275","25.0160166666667","6500700","樹林區"
"238019","599-UM","2019/07/23 19:39:33","新北市樹林區大同街15號","121.41843","24.9826216666667","6500700","樹林區"
"238024","5061-A6","2019/07/23 19:39:27","新北市樹林區中山路三段22號","121.395565","24.9728533333333","6500700","樹林區"
"238022","KEA-2213","2019/07/23 19:39:45","新北市樹林區國凱街50巷32號","121.42082","24.9780166666667","6500700","樹林區"
"238021","KEA-2539","2019/07/23 19:39:46","新北市樹林區佳園路三段145巷26-2號","121.387625","24.9490533333333","6500700","樹林區"
"238025","303-VK","2019/07/23 19:39:36","新北市樹林區中山路一段362號","121.41908","24.9858183333333","6500700","樹林區"
"238017","283-BY","2019/07/23 19:39:34","新北市樹林區保安街二段197巷5號","121.41406","25.0032833333333","6500700","樹林區"
"238014","282-BY","2019/07/23 19:39:35","新北市樹林區千歲街30巷21號","121.426375","24.99619","6500700","樹林區"
"238020","268-VK","2019/07/23 19:39:31","新北市樹林區樹新路120巷12號","121.43023","24.997185","6500700","樹林區"
"238026","172-UY","2019/07/23 19:39:33","新北市樹林區佳園路三段77號","121.387703333333","24.9526266666667","6500700","樹林區"
"238016","169-UY","2019/07/23 19:39:44","新北市樹林區中山路二段214巷2-1號","121.41087","24.9822466666667","6500700","樹林區"
"239006","891-R6","2019/07/23 19:39:35","新北市鶯歌區文化路145巷4號","121.356705","24.95396","6500800","鶯歌區"
"239002","359-BY","2019/07/23 19:39:46","新北市鶯歌區大湖路141-1號","121.343123333333","24.9654616666667","6500800","鶯歌區"
"239004","193-VK","2019/07/23 19:39:30","新北市鶯歌區二甲路61號","121.335213333333","24.9332483333333","6500800","鶯歌區"
"221008","489-VK","2019/07/23 19:39:47","新北市汐止區康寧街145號","121.621831666667","25.0666783333333","6501100","汐止區"
"221010","269-BY","2019/07/23 19:39:46","新北市汐止區連峰街7號","121.646355","25.0772766666667","6501100","汐止區"
"221027","281-BY","2019/07/23 19:39:32","新北市汐止區忠孝東路9號","121.658273333333","25.0659266666667","6501100","汐止區"
"221033","297-VK","2019/07/23 19:39:35","新北市汐止區南勢街1巷1號","121.627038333333","25.0374566666667","6501100","汐止區"
"221021","299-VK","2019/07/23 19:39:32","新北市汐止區連興街143號","121.654068333333","25.0615233333333","6501100","汐止區"
"221031","353-TW","2019/07/23 19:39:36","新北市汐止區康寧街901號","121.650761666667","25.075275","6501100","汐止區"
"221025","623-UM","2019/07/23 19:39:38","新北市汐止區福安街17號","121.662511666667","25.0653083333333","6501100","汐止區"
"221038","646-BX","2019/07/23 19:39:47","新北市汐止區忠孝東路225號","121.662343333333","25.0669233333333","6501100","汐止區"
"221002","707-TV","2019/07/23 19:39:35","新北市汐止區樟樹二路338號","121.641525","25.0705266666667","6501100","汐止區"
"220079","145-BY","2019/07/23 19:39:39","新北市板橋區民權路260巷33號","121.458973333333","25.0153066666667","6500100","板橋區"
"220080","200-UY","2019/07/23 19:39:28","新北市板橋區大觀路二段37巷156號","121.449171666667","25.00124","6500100","板橋區"
"220082","610-BX","2019/07/23 19:39:42","新北市板橋區篤行路一段30號","121.431865","24.9940566666667","6500100","板橋區"
"224002","257-TC","2019/07/23 19:39:37","新北市瑞芳區三爪子坑路13巷281-6號","121.81457","25.1064033333333","6501200","瑞芳區"
"220088","267-BY","2019/07/23 19:39:34","新北市板橋區文聖街62號","121.476745","25.03099","6500100","板橋區"
"220056","276-BY","2019/07/23 19:39:44","新北市板橋區國慶路49巷17號","121.459593333333","24.9962583333333","6500100","板橋區"
"220072","277-BY","2019/07/23 19:39:37","新北市板橋區金門街253巷10弄5號","121.43297","24.9882366666667","6500100","板橋區"
"220101","280-UM","2019/07/23 19:39:33","新北市板橋區縣民大道三段93巷8號","121.475526666667","25.0221616666667","6500100","板橋區"
"220071","283-VK","2019/07/23 19:39:46","新北市板橋區四川路一段325巷3弄3號","121.459478333333","25.0004166666667","6500100","板橋區"
"220094","285-UM","2019/07/23 19:39:39","新北市板橋區長江路二段163號","121.466251666667","25.032","6500100","板橋區"
"220053","285-VK","2019/07/23 19:39:48","新北市板橋區民享街55號","121.476043333333","25.015225","6500100","板橋區"
"220083","286-VK","2019/07/23 19:39:28","新北市板橋區龍興街71巷27號","121.442643333333","25.00232","6500100","板橋區"
"220081","287-VK","2019/07/23 19:39:35","新北市板橋區大觀路一段75巷43號","121.449136666667","25.0041066666667","6500100","板橋區"
"220090","288-VK","2019/07/23 19:39:39","新北市板橋區龍泉街54巷7弄7號","121.456541666667","25.0263966666667","6500100","板橋區"
"220061","295-UM","2019/07/23 19:39:34","新北市板橋區中山路一段265巷11號","121.468608333333","25.0146583333333","6500100","板橋區"
"220084","296-UM","2019/07/23 19:39:29","新北市板橋區滿平二街10巷2弄16號","121.425491666667","24.9874166666667","6500100","板橋區"
"220075","303-R5","2019/07/23 19:39:40","新北市板橋區中正路253巷5號","121.455353333333","25.0181566666667","6500100","板橋區"
"220062","305-R5","2019/07/23 19:39:45","新北市板橋區三民路二段29巷16號","121.481955","25.0180616666667","6500100","板橋區"
"220092","307-R5","2019/07/23 19:39:34","新北市板橋區四維路259巷74號","121.460091666667","25.026645","6500100","板橋區"
"220089","487-VK","2019/07/23 19:39:26","新北市板橋區新海路401號","121.458556666667","25.02672","6500100","板橋區"
"220035","560-BX","2019/07/23 19:39:40","新北市板橋區中正路330號","121.454501666667","25.021625","6500100","板橋區"
"220103","561-BX","2019/07/23 19:39:39","新北市板橋區自由路40號","121.465641666667","25.0232233333333","6500100","板橋區"
"220063","609-BX","2019/07/23 19:39:39","新北市板橋區中山路二段497號","121.48265","25.0209266666667","6500100","板橋區"
"220091","637-BX","2019/07/23 19:39:31","新北市板橋區懷德街181巷22號","121.480323333333","25.030225","6500100","板橋區"
"220057","686-BX","2019/07/23 19:39:25","新北市板橋區廣和街85號","121.462746666667","24.9918616666667","6500100","板橋區"
"220077","687-BX","2019/07/23 19:39:41","新北市板橋區僑中二街82號","121.446565","25.0098216666667","6500100","板橋區"
"220093","689-BX","2019/07/23 19:39:28","新北市板橋區長江路二段157號","121.466178333333","25.03184","6500100","板橋區"
"220054","741-BX","2019/07/23 19:34:37","新北市板橋區重慶路198-1號","121.46235","25.002815","6500100","板橋區"
"220102","KEA-2699","2019/07/23 19:39:39","新北市板橋區文化路二段410巷2號","121.473988333333","25.03144","6500100","板橋區"
"220055","827-TW","2019/07/23 19:39:37","新北市板橋區國慶路149巷7-4號","121.461118333333","24.99702","6500100","板橋區"
"220067","829-TW","2019/07/23 19:39:42","新北市板橋區長安街251巷8號","121.472405","25.010435","6500100","板橋區"
"220098","831-TW","2019/07/23 19:39:33","新北市板橋區民生路三段299巷8號","121.463153333333","25.0304066666667","6500100","板橋區"
"220074","895-R6","2019/07/23 19:39:40","新北市板橋區館前西路150-4號","121.455665","25.00863","6500100","板橋區"
"220073","985-R7","2019/07/23 19:39:41","新北市板橋區國光路57號","121.458461666667","25.01795","6500100","板橋區"
"220097","AAC-210","2019/07/23 19:39:26","新北市板橋區漢生西路56號","121.463106666667","25.0188366666667","6500100","板橋區"
"220064","AAC-253","2019/07/23 19:39:43","新北市板橋區實踐路108號","121.464145","25.0045616666667","6500100","板橋區"
"235068","KEA-2873","2019/07/23 19:39:49","新北市中和區中和路53號","121.500578333333","25.0014216666667","6500300","中和區"
"235061","KEA-2875","2019/07/23 19:39:41","新北市中和區員山路226巷13弄2號","121.482168333333","24.9999433333333","6500300","中和區"
"235046","KEA-2876","2019/07/23 19:39:45","新北市中和區景新街496巷29號","121.51344","24.9863066666667","6500300","中和區"
