"lineid","car","time","location","longitude","latitude","cityid","cityname"
"234046","148-BY","2019/07/23 20:09:45","新北市永和區得和路376號","121.524591666667","24.9993133333333","6500400","永和區"
"234081","298-R6","2019/07/23 20:09:35","新北市永和區永亨路112號","121.523666666667","25.0044383333333","6500400","永和區"
"234038","336-UY","2019/07/23 20:09:38","新北市永和區成功路一段70號","121.526805","25.0036033333333","6500400","永和區"
"234064","337-UY","2019/07/23 20:09:45","新北市永和區永利路92號","121.520746666667","25.0036616666667","6500400","永和區"
"234086","338-UY","2019/07/23 20:09:41","新北市永和區福和路233號","121.518466666667","25.0074566666667","6500400","永和區"
"234017","745-BX","2019/07/23 20:09:33","新北市永和區文化路70號","121.514246666667","25.015125","6500400","永和區"
"234030","746-BX","2019/07/23 20:09:33","新北市永和區民權路49巷5弄37號","121.521863333333","24.997885","6500400","永和區"
"234054","KEA-2590","2019/07/23 20:09:39","新北市永和區博愛街18巷2號","121.517413333333","25.0158183333333","6500400","永和區"
"234007","KED-0605","2019/07/23 20:09:26","新北市永和區環河西路二段217巷3號","121.501558333333","25.0099483333333","6500400","永和區"
"234013","KEA-2591","2019/07/23 20:09:31","新北市永和區仁愛路275號","121.505906666667","25.0097733333333","6500400","永和區"
"234061","AAD-866","2019/07/23 20:09:46","新北市永和區中正路151巷8弄2號","121.516038333333","24.9986383333333","6500400","永和區"
"234070","748-BX","2019/07/23 20:09:18","新北市永和區永貞路10巷7號","121.520168333333","25.00721","6500400","永和區"
"234042","862-TW","2019/07/23 20:09:37","新北市永和區雙和街16巷18號","121.509946666667","25.002655","6500400","永和區"
"234050","863-TW","2019/07/23 20:09:33","新北市永和區新生路263號","121.505568333333","25.0131266666667","6500400","永和區"
"234011","9373-KE","2019/07/23 20:09:33","新北市永和區仁愛路352巷122弄11號","121.500601666667","25.0088333333333","6500400","永和區"
"249005","172-UM","2019/07/23 20:09:46","新北市八里區下罟子54-12號","121.387981666667","25.1400366666667","6502300","八里區"
"249001","173-UM","2019/07/23 20:09:46","新北市八里區中華路二段326號","121.403281666667","25.14797","6502300","八里區"
"249004","303-UY","2019/07/23 20:09:42","新北市八里區中山路一段189巷18號","121.412158333333","25.1579183333333","6502300","八里區"
"249002","305-UY","2019/07/23 20:09:45","新北市五股區成泰路四段24-8號","121.453725","25.10709","6502300","八里區"
"249003","759-BX","2019/07/23 20:09:31","新北市八里區中山路二段540巷9弄19號","121.396596666667","25.14672","6502300","八里區"
"248015","026-BX","2019/07/23 20:09:41","新北市五股區成泰路三段577巷80弄72號","121.44898","25.1047716666667","6501500","五股區"
"248007","KED-0815","2019/07/23 20:09:40","新北市五股區中興路一段1巷25號","121.469796666667","25.0705316666667","6501500","五股區"
"248020","KED-0813","2019/07/23 20:09:28","新北市五股區凌雲路二段25號","121.440933333333","25.1021933333333","6501500","五股區"
"248012","247-BX","2019/07/23 20:09:38","新北市五股區六合街70號","121.431896666667","25.09006","6501500","五股區"
"248004","677-BX","2019/07/23 20:09:38","新北市五股區成泰路一段194-1號","121.435613333333","25.0779066666667","6501500","五股區"
"248002","678-BX","2019/07/23 20:09:31","新北市五股區成泰路三段369-1號","121.448868333333","25.0960383333333","6501500","五股區"
"248010","682-TV","2019/07/23 20:09:35","新北市五股區成泰路一段7巷66號","121.432611666667","25.0678333333333","6501500","五股區"
"234023","9380-KE","2019/07/23 20:09:32","新北市永和區中正路662巷14號","121.517818333333","25.008795","6500400","永和區"
"234077","969-R7","2019/07/23 20:09:39","新北市永和區民光街22巷2號","121.51605","24.9957166666667","6500400","永和區"
"234074","AAC-211","2019/07/23 20:09:36","新北市永和區豫溪街159-1號","121.521415","25.0103866666667","6500400","永和區"
"234067","AAC-212","2019/07/23 20:09:42","新北市永和區保平路214巷3弄2號","121.50924","25.0064133333333","6500400","永和區"
"234003","AAC-295","2019/07/23 20:09:44","新北市永和區中正路618號","121.516973333333","25.00768","6500400","永和區"
"243010","297-R6","2019/07/23 20:09:37","新北市泰山區明志路二段136巷21弄6號","121.425971666667","25.0518016666667","6501600","泰山區"
"243014","KEA-2801","2019/07/23 20:09:37","新北市泰山區明志路一段50號","121.433501666667","25.0649566666667","6501600","泰山區"
"243016","421-VK","2019/07/23 20:09:29","新北市泰山區明志路三段409號","121.421235","25.0340233333333","6501600","泰山區"
"243012","539-UM","2019/07/23 20:09:28","新北市泰山區全興路2-2號","121.431983333333","25.059545","6501600","泰山區"
"243009","KEA-2215","2019/07/23 20:09:30","新北市泰山區泰林路二段144號","121.434348333333","25.059895","6501600","泰山區"
"243011","KEA-2216","2019/07/23 20:09:42","新北市新莊區丹鳳街40號","121.421616666667","25.0296466666667","6501600","泰山區"
"243015","680-BX","2019/07/23 20:09:31","新北市泰山區明志路二段70號","121.428765","25.0524666666667","6501600","泰山區"
"222003","436-BY","2019/07/23 20:09:48","新北市深坑區埔新街87號","121.6197","25.002415","6501800","深坑區"
"222002","659-BX","2019/07/23 20:09:35","新北市深坑區北深路三段192巷9號","121.601885","25.0041066666667","6501800","深坑區"
"231061","002-UM","2019/07/23 20:09:33","新北市新店區安民街332號","121.51737","24.9748866666667","6500600","新店區"
"231044","046-UY","2019/07/23 20:09:43","新北市新店區寶慶街58巷4號","121.542146666667","24.986925","6500600","新店區"
"231060","106-UY","2019/07/23 20:09:31","新北市新店區安康路三段226號","121.488226666667","24.9518033333333","6500600","新店區"
"231051","107-UY","2019/07/23 20:09:35","新北市新店區中央五街5號","121.53018","24.9742566666667","6500600","新店區"
"231049","108-UY","2019/07/23 20:09:43","新北市新店區北新路二段139巷12弄20號","121.542226666667","24.97624","6500600","新店區"
"231065","110-UY","2019/07/23 20:09:31","新北市新店區安祥路106巷155號","121.473561666667","24.959055","6500600","新店區"
"231068","187-VK","2019/07/23 20:09:32","新北市新店區中興路二段186-2號","121.548008333333","24.97253","6500600","新店區"
"231050","KEA-2219","2019/07/23 20:09:39","新北市新店區中華路1號","121.541315","24.9671533333333","6500600","新店區"
"231062","256-BX","2019/07/23 20:09:29","新北市新店區安康路一段214號","121.523983333333","24.96351","6500600","新店區"
"231054","260-TV","2019/07/23 20:09:44","新北市新店區檳榔路27號","121.541716666667","24.9637033333333","6500600","新店區"
"231042","268-BY","2019/07/23 20:09:45","新北市新店區中興路二段89號","121.547075","24.9714683333333","6500600","新店區"
"231064","278-BY","2019/07/23 20:09:40","新北市新店區安德街20號","121.512431666667","24.9629516666667","6500600","新店區"
"231045","355-BY","2019/07/23 20:09:30","新北市新店區北宜路二段80巷2弄14號","121.552078333333","24.9531516666667","6500600","新店區"
"231055","4716-K9","2019/07/23 20:09:43","新北市新店區中華路48巷34號","121.54103","24.9693616666667","6500600","新店區"
"231056","4715-K9","2019/07/23 20:09:47","新北市新店區中正路275巷27號","121.536968333333","24.97315","6500600","新店區"
"231053","513-UM","2019/07/23 20:09:28","新北市新店區新烏路三段寶島巷2弄3號","121.551978333333","24.8986333333333","6500600","新店區"
"231041","619-UM","2019/07/23 20:09:40","新北市新店區中正路460號","121.533951666667","24.97934","6500600","新店區"
"231063","641-BX","2019/07/23 20:09:29","新北市新店區黎明路56巷2號","121.502376666667","24.9479433333333","6500600","新店區"
"231048","KED-0819","2019/07/23 20:09:34","新北市新店區寶橋路59-1號","121.545103333333","24.97505","6500600","新店區"
"231057","720-UM","2019/07/23 20:09:40","新北市新店區百齡一路12號","121.552998333333","24.9324166666667","6500600","新店區"
"231059","897-TW","2019/07/23 20:09:27","新北市新店區安成街33號","121.509865","24.9607416666667","6500600","新店區"
"231040","898-TW","2019/07/23 20:09:45","新北市新店區中正路98號","121.543371666667","24.970395","6500600","新店區"
"231043","899-TW","2019/07/23 20:09:44","新北市新店區民族路176號","121.537126666667","24.9763266666667","6500600","新店區"
"241011","013-R5","2019/07/23 20:09:45","新北市三重區仁愛街30號","121.496301666667","25.0717083333333","6500200","三重區"
"241028","022-UY","2019/07/23 20:09:39","新北市三重區仁化街107號","121.494488333333","25.0580333333333","6500200","三重區"
"241018","060-VK","2019/07/23 20:09:30","新北市三重區正義北路256巷146號","121.493105","25.0676866666667","6500200","三重區"
"241031","061-VK","2019/07/23 20:09:35","新北市三重區過圳街19號","121.488706666667","25.0601916666667","6500200","三重區"
"241015","062-VK","2019/07/23 19:58:15","新北市三重區正義南路62號","121.498918333333","25.058595","6500200","三重區"
"241017","063-VK","2019/07/23 20:09:30","新北市三重區大智街47號","121.493321666667","25.0667","6500200","三重區"
"241024","065-VK","2019/07/23 20:09:33","新北市三重區中正北路165巷31號","121.479385","25.07014","6500200","三重區"
"241002","090-VK","2019/07/23 20:09:39","新北市三重區仁義街210號","121.496353333333","25.08227","6500200","三重區"
"241003","091-VK","2019/07/23 20:09:30","新北市三重區仁愛街453號","121.490121666667","25.0816716666667","6500200","三重區"
"241005","262-UM","2019/07/23 20:09:32","新北市三重區五華街180巷13號","121.488411666667","25.0859383333333","6500200","三重區"
"241016","266-UM","2019/07/23 20:09:31","新北市三重區重新路三段47巷5弄44號","121.493526666667","25.0624783333333","6500200","三重區"
"241009","267-UM","2019/07/23 20:09:34","新北市三重區三和路四段382巷153號","121.478921666667","25.0782333333333","6500200","三重區"
"241032","269-UM","2019/07/23 20:09:29","新北市三重區捷運路73號","121.482946666667","25.0554883333333","6500200","三重區"
"241013","270-UM","2019/07/23 20:09:42","新北市三重區三和路三段139巷40號","121.494288333333","25.07412","6500200","三重區"
"241025","271-UM","2019/07/23 20:09:34","新北市三重區中正北路334號","121.478588333333","25.0692366666667","6500200","三重區"
"241007","398-BY","2019/07/23 20:09:35","新北市三重區三和路四段111-10號","121.486611666667","25.077615","6500200","三重區"
"241030","KED-0822","2019/07/23 20:09:36","新北市三重區成功路145巷15號","121.487361666667","25.0528033333333","6500200","三重區"
"241035","462-BY","2019/07/23 20:09:41","新北市三重區文化北路8號","121.49933","25.06357","6500200","三重區"
"241004","475-VK","2019/07/23 20:09:35","新北市三重區自強路四段100號","121.491318333333","25.0796966666667","6500200","三重區"
"241020","478-VK","2019/07/23 20:09:44","新北市三重區三和路三段186-1號","121.492031666667","25.07347","6500200","三重區"
"241026","480-VK","2019/07/23 20:09:47","新北市三重區福德南路65巷2號","121.502311666667","25.0604483333333","6500200","三重區"
"241014","543-UM","2019/07/23 20:09:47","新北市三重區龍濱路80號","121.502335","25.0696066666667","6500200","三重區"
"241023","545-UM","2019/07/23 20:09:28","新北市三重區頂崁街233號","121.477051666667","25.0684466666667","6500200","三重區"
"241001","547-UM","2019/07/23 20:09:34","新北市三重區三和路四段91號","121.489016666667","25.0755916666667","6500200","三重區"
"241019","KEA-2593","2019/07/23 20:09:46","新北市三重區自強路二段33巷15號","121.490121666667","25.0696283333333","6500200","三重區"
"241006","AAD-863","2019/07/23 20:09:34","新北市三重區車路頭街139巷14號","121.484273333333","25.0761966666667","6500200","三重區"
"241022","KED-0820","2019/07/23 20:09:45","新北市三重區重陽路二段14號","121.486836666667","25.0621966666667","6500200","三重區"
"241008","887-TS","2019/07/23 20:09:41","新北市三重區永福街197巷55號","121.477161666667","25.0741983333333","6500200","三重區"
"241012","941-UM","2019/07/23 20:09:35","新北市三重區仁愛街125巷109號","121.498983333333","25.076425","6500200","三重區"
"241029","942-UM","2019/07/23 20:09:40","新北市三重區光明路32巷14號","121.491731666667","25.0586316666667","6500200","三重區"
"241033","AAC-255","2019/07/23 20:09:33","新北市三重區光復路一段61巷27號","121.473578333333","25.0491566666667","6500200","三重區"
"235066","003-UY","2019/07/23 20:09:41","新北市中和區水源路127巷2弄2號","121.50811","25.0040983333333","6500300","中和區"
"235039","097-UM","2019/07/23 20:09:35","新北市中和區立人街24-5號","121.518935","24.9941633333333","6500300","中和區"
"235065","098-UM","2019/07/23 20:09:37","新北市中和區永和路128巷47號","121.497691666667","25.00685","6500300","中和區"
"235040","150-BY","2019/07/23 20:09:37","新北市中和區保健路61巷5弄4號","121.509513333333","24.9976783333333","6500300","中和區"
"235058","151-BY","2019/07/23 20:09:43","新北市中和區員山路148巷19號","121.482178333333","24.9971666666667","6500300","中和區"
"235055","183-VK","2019/07/23 20:09:29","新北市三重區重新路5段221巷6弄11-1號","121.479296666667","25.0502533333333","6500300","中和區"
"247014","KEA-2869","2019/07/23 20:09:43","新北市蘆洲區中山二路265巷32號","121.470983333333","25.0794783333333","6501400","蘆洲區"
"247008","KED-0682","2019/07/23 20:09:47","新北市蘆洲區中山一路166號","121.474568333333","25.08136","6501400","蘆洲區"
"235050","4979-A6","2019/07/23 20:09:26","新北市中和區景平路334號","121.51189","24.992845","6500300","中和區"
"235069","4980-A6","2019/07/23 20:09:46","新北市中和區景新街64巷11弄12號","121.504516666667","24.9981583333333","6500300","中和區"
"235070","558-UM","2019/07/23 20:09:37","新北市中和區中山路二段437號","121.484785","25.004765","6500300","中和區"
"235051","157-BY","2019/07/23 20:09:39","新北市中和區景安路220巷20號","121.502705","24.9913883333333","6500300","中和區"
"235059","AAC-215","2019/07/23 20:09:38","新北市中和區圓通路335巷37弄4號","121.49383","24.9892","6500300","中和區"
"220065","072-UY","2019/07/23 20:09:43","新北市板橋區民族路83-1號","121.465801666667","25.00851","6500100","板橋區"
"247004","893-R6","2019/07/23 20:09:40","新北市蘆洲區永安南路二段328巷17弄1號","121.456686666667","25.0839483333333","6501400","蘆洲區"
"247018","546-UM","2019/07/23 20:09:35","新北市蘆洲區民族路314巷21號","121.478078333333","25.0906116666667","6501400","蘆洲區"
"247002","500-BY","2019/07/23 20:09:37","新北市蘆洲區永康街54號","121.459081666667","25.0861516666667","6501400","蘆洲區"
"247024","337-TH","2019/07/23 20:09:32","新北市蘆洲區光榮路120巷8弄37號","121.464793333333","25.08781","6501400","蘆洲區"
"247022","057-VK","2019/07/23 20:09:40","新北市蘆洲區三民路171巷15號","121.470626666667","25.0869916666667","6501400","蘆洲區"
"247012","056-VK","2019/07/23 20:09:44","新北市蘆洲區民族路250巷6號","121.47947","25.0888316666667","6501400","蘆洲區"
"247016","053-VK","2019/07/23 20:09:43","新北市蘆洲區光華路176巷8號","121.464848333333","25.0825116666667","6501400","蘆洲區"
"247020","007-UY","2019/07/23 20:09:42","新北市蘆洲區民義街68巷10號","121.473271666667","25.0896466666667","6501400","蘆洲區"
"247006","002-UY","2019/07/23 20:09:34","新北市蘆洲區中山二路300巷2號","121.468586666667","25.0769483333333","6501400","蘆洲區"
"226004","312-R5","2019/07/23 20:09:38","新北市平溪區嶺腳里嶺腳寮9-1號","121.747765","25.029785","6502400","平溪區"
"222001","KEA-2212","2019/07/23 20:09:41","新北市深坑區北深路三段208號","121.601293333333","25.0038333333333","6501800","深坑區"
"251009","008-UM","2019/07/23 20:09:36","新北市淡水區博愛街14號","121.446126666667","25.16991","6501000","淡水區"
"251004","009-UM","2019/07/23 20:09:38","新北市淡水區民族路31巷36號","121.462461666667","25.1365566666667","6501000","淡水區"
"251001","011-UM","2019/07/23 20:09:25","新北市淡水區淡金路二段15號","121.44635","25.189125","6501000","淡水區"
"251002","012-UM","2019/07/23 20:09:37","新北市淡水區中正路334號","121.435805","25.1731633333333","6501000","淡水區"
"251015","KEA-2871","2019/07/23 20:09:38","新北市淡水區泉洲厝8-1號","121.485008333333","25.1888533333333","6501000","淡水區"
"251016","179-VK","2019/07/23 20:09:42","新北市淡水區番子田25-7號","121.456081666667","25.2308333333333","6501000","淡水區"
"251008","181-VK","2019/07/23 20:09:26","新北市淡水區淡海路72巷30弄1號","121.42439","25.18264","6501000","淡水區"
"251013","182-VK","2019/07/23 20:09:37","新北市淡水區奎柔山路578號","121.468565","25.2050983333333","6501000","淡水區"
"251010","413-VK","2019/07/23 20:09:47","新北市淡水區新市五路二段75號","121.43171","25.1992583333333","6501000","淡水區"
"251012","441-VK","2019/07/23 20:09:38","新北市淡水區淡金路三段224號","121.448951666667","25.2048166666667","6501000","淡水區"
"251005","443-VK","2019/07/23 20:09:44","新北市淡水區學府路116號","121.45021","25.17236","6501000","淡水區"
"251006","561-UM","2019/07/23 20:09:41","新北市淡水區北新路141巷38號","121.448821666667","25.1795016666667","6501000","淡水區"
"251014","577-R6","2019/07/23 20:08:46","新北市淡水區石頭厝2-1號","121.45814","25.235725","6501000","淡水區"
"251011","650-BX","2019/07/23 20:09:46","新北市淡水區崁頂57-12號","121.443946666667","25.1971433333333","6501000","淡水區"
"251003","673-BX","2019/07/23 20:09:42","新北市淡水區新市一路二段257號","121.443975","25.183025","6501000","淡水區"
"207003","550-UM","2019/07/23 20:09:47","新北市萬里區大鵬里萬里加投166號","121.64341","25.215535","6502800","萬里區"
"207004","225-TW","2019/07/23 20:09:37","新北市萬里區北基里愛二街2號","121.682475","25.17673","6502800","萬里區"
"252002","178-VK","2019/07/23 20:09:27","新北市三芝區中正路一段72號","121.504008333333","25.2576683333333","6502100","三芝區"
"237012","275-BY","2019/07/23 20:09:40","新北市三峽區中正路一段216巷1弄9號","121.37171","24.9276666666667","6500900","三峽區"
"237006","5529-G3","2019/07/23 20:09:45","新北市三峽區嘉添227-17號","121.370456666667","24.9113416666667","6500900","三峽區"
"237015","649-BX","2019/07/23 20:09:43","新北市三峽區介壽路二段138巷1弄152-2號","121.400003333333","24.9295483333333","6500900","三峽區"
"237005","AKY-6261","2019/07/23 20:08:30","新北市三峽區三樹路98巷74弄28號","121.384801666667","24.9384966666667","6500900","三峽區"
"236042","KED-0685","2019/07/23 20:09:43","新北市土城區學享街36號","121.451795","24.9869183333333","6501300","土城區"
"236079","166-UM","2019/07/23 20:09:46","新北市土城區金安街63號","121.420551666667","24.9650566666667","6501300","土城區"
"236030","253-BX","2019/07/23 20:09:30","新北市土城區中央路一段118巷1弄19號","121.445595","24.9875616666667","6501300","土城區"
"236026","269-VK","2019/07/23 20:09:31","新北市土城區中央路一段267巷11號","121.445485","24.9850616666667","6501300","土城區"
"236014","270-VK","2019/07/23 20:09:44","新北市土城區德興街137號","121.455103333333","24.991675","6501300","土城區"
"236038","271-VK","2019/07/23 20:09:40","新北市土城區延吉街296巷1弄1號","121.464455","24.9843316666667","6501300","土城區"
"247010","KED-0683","2019/07/23 20:09:35","新北市蘆洲區鷺江街1號","121.479521666667","25.0826983333333","6501400","蘆洲區"
"236070","KEA-2877","2019/07/23 20:09:27","新北市土城區中央路三段140號","121.433216666667","24.9655","6501300","土城區"
"252001","KED-0821","2019/07/23 20:09:32","新北市三芝區公正街9號","121.499753333333","25.2575733333333","6502100","三芝區"
"236021","401-BY","2019/07/23 20:09:44","新北市土城區延吉街57巷7號","121.472653333333","24.9873683333333","6501300","土城區"
"236059","912-UM","2019/07/23 20:09:43","新北市土城區中央路二段263號","121.439755","24.970935","6501300","土城區"
"236049","913-UM","2019/07/23 20:09:46","新北市土城區清水路249號","121.462635","24.98407","6501300","土城區"
"236055","AAC-216","2019/07/23 20:09:30","新北市土城區中華路一段166號","121.441461666667","24.9831466666667","6501300","土城區"
"242039","AAC-296","2019/07/23 20:09:44","新北市新莊區民安西路109號","121.42678","25.0184083333333","6500500","新莊區"
"242061","986-R7","2019/07/23 20:09:33","新北市新莊區瓊林北路55號","121.438708333333","25.02075","6500500","新莊區"
"242002","751-BX","2019/07/23 20:09:44","新北市新莊區中正路121-1號","121.459943333333","25.0385566666667","6500500","新莊區"
"242029","615-BX","2019/07/23 20:09:42","新北市新莊區中原路301號","121.447433333333","25.05431","6500500","新莊區"
"242027","613-BX","2019/07/23 20:09:32","新北市新莊區中平路377巷17弄23號","121.444001666667","25.0519283333333","6500500","新莊區"
"242058","612-BX","2019/07/23 20:09:33","新北市新莊區八德街127號","121.423965","25.0205633333333","6500500","新莊區"
"242046","566-BX","2019/07/23 20:09:36","新北市新莊區裕民街55巷14號","121.41909","25.02365","6500500","新莊區"
"242051","497-BY","2019/07/23 20:09:36","新北市新莊區民安西路175號","121.426163333333","25.0159633333333","6500500","新莊區"
"242011","442-UM","2019/07/23 20:09:47","新北市新莊區中信街52號","121.449375","25.0508383333333","6500500","新莊區"
"242056","441-UM","2019/07/23 20:09:43","新北市新莊區豐年街52號","121.446336666667","25.031825","6500500","新莊區"
"242005","440-UM","2019/07/23 20:09:48","新北市新莊區頭興街5巷1號","121.46314","25.0535433333333","6500500","新莊區"
"242042","415-TV","2019/07/23 20:09:46","新北市新莊區青山路一段181-1號","121.39966","25.0306283333333","6500500","新莊區"
"242048","400-BY","2019/07/23 20:09:37","新北市新莊區四維路152巷32號","121.42198","25.0224633333333","6500500","新莊區"
"242025","362-BY","2019/07/23 20:09:46","新北市新莊區五工三路78巷6號","121.459126666667","25.0651933333333","6500500","新莊區"
"242023","353-BY","2019/07/23 20:09:42","新北市新莊區化成路548號","121.46635","25.0536933333333","6500500","新莊區"
"242013","132-UY","2019/07/23 20:09:42","新北市新莊區幸福路670巷2弄11號","121.451561666667","25.0494583333333","6500500","新莊區"
"242037","135-UY","2019/07/23 20:09:33","新北市新莊區建安街9巷5號","121.42913","25.0266433333333","6500500","新莊區"
"242054","172-VK","2019/07/23 20:09:42","新北市新莊區西盛街387巷15號","121.428585","25.0130016666667","6500500","新莊區"
"242015","173-VK","2019/07/23 20:09:30","新北市新莊區中平路26巷28號","121.445943333333","25.0432366666667","6500500","新莊區"
"242021","175-VK","2019/07/23 20:09:43","新北市新莊區中興街9號","121.449233333333","25.03608","6500500","新莊區"
"242019","KED-0687","2019/07/23 20:09:32","新北市新莊區思源路139號","121.459896666667","25.0438083333333","6500500","新莊區"
"242034","348-TH","2019/07/23 20:09:40","新北市新莊區建中街97號","121.446693333333","25.0360516666667","6500500","新莊區"
"242007","349-TH","2019/07/23 20:09:37","新北市新莊區福壽街202巷39號","121.459281666667","25.0534316666667","6500500","新莊區"
"242032","350-TH","2019/07/23 20:09:47","新北市新莊區中正路443號","121.443318333333","25.03402","6500500","新莊區"
"242017","351-TH","2019/07/23 20:09:34","新北市新莊區中安街38號","121.452836666667","25.046475","6500500","新莊區"
"221008","489-VK","2019/07/23 20:09:27","台北市內湖區康樂街138號","121.619285","25.07199","6501100","汐止區"
"221036","130-UY","2019/07/23 20:09:35","新北市汐止區新台五路二段37號","121.663055","25.0664066666667","6501100","汐止區"
"221015","131-UY","2019/07/23 20:09:33","新北市汐止區建成路13號","121.664571666667","25.072575","6501100","汐止區"
"221010","269-BY","2019/07/23 20:09:46","新北市汐止區連峰街270號","121.644378333333","25.0814216666667","6501100","汐止區"
"221012","278-VK","2019/07/23 20:09:36","新北市汐止區大同路三段457號","121.679011666667","25.0712516666667","6501100","汐止區"
"221023","279-VK","2019/07/23 20:09:46","新北市汐止區明峰街201-1號","121.627241666667","25.0688583333333","6501100","汐止區"
"221032","280-BY","2019/07/23 20:09:44","新北市汐止區橫科路18巷33弄6號","121.617345","25.0496016666667","6501100","汐止區"
"221027","281-BY","2019/07/23 20:09:32","新北市汐止區民生街1-1號","121.660126666667","25.068785","6501100","汐止區"
"221033","297-VK","2019/07/23 20:09:35","新北市汐止區東勢街201巷104號","121.633626666667","25.042955","6501100","汐止區"
"221029","298-VK","2019/07/23 20:09:35","新北市汐止區樟樹一路123巷17號","121.641313333333","25.0646316666667","6501100","汐止區"
"221021","299-VK","2019/07/23 20:09:47","新北市汐止區連興街121號","121.653735","25.0622666666667","6501100","汐止區"
"221031","353-TW","2019/07/23 20:09:36","新北市汐止區福德一路260號","121.63319","25.0644466666667","6501100","汐止區"
"221035","622-UM","2019/07/23 20:09:42","新北市汐止區長江街39巷21號","121.655278333333","25.072095","6501100","汐止區"
"221025","623-UM","2019/07/23 20:09:38","新北市汐止區秀峰路64號","121.659865","25.064635","6501100","汐止區"
"221038","646-BX","2019/07/23 20:09:27","新北市汐止區大同路三段66-3號","121.668033333333","25.077205","6501100","汐止區"
"221002","707-TV","2019/07/23 20:09:35","新北市汐止區汐萬路一段333巷19號","121.64904","25.07602","6501100","汐止區"
"221018","753-BX","2019/07/23 20:09:40","新北市汐止區茄苳路322號","121.673586666667","25.0664766666667","6501100","汐止區"
"220079","145-BY","2019/07/23 20:09:39","新北市板橋區建國街96號","121.459776666667","25.0173166666667","6500100","板橋區"
"220080","200-UY","2019/07/23 20:09:48","新北市板橋區大觀路二段153巷10號","121.44613","25.0006233333333","6500100","板橋區"
"220082","610-BX","2019/07/23 20:09:42","新北市板橋區篤行路二段116-3號","121.431306666667","24.9909783333333","6500100","板橋區"
"224002","257-TC","2019/07/23 20:09:37","新北市瑞芳區蛇子形路5號","121.825506666667","25.1046016666667","6501200","瑞芳區"
"220072","277-BY","2019/07/23 20:09:36","新北市板橋區金門街111-3號","121.433125","24.992025","6500100","板橋區"
"220101","280-UM","2019/07/23 20:09:29","新北市板橋區莊敬路77號","121.472973333333","25.0267483333333","6500100","板橋區"
"220071","283-VK","2019/07/23 20:09:46","新北市板橋區信義路71號","121.457366666667","24.9951766666667","6500100","板橋區"
"220083","286-VK","2019/07/23 20:09:28","新北市板橋區大觀路一段38巷156弄210號","121.445115","25.010495","6500100","板橋區"
"220081","287-VK","2019/07/23 20:09:46","新北市板橋區僑中一街80巷14弄2號","121.448203333333","25.0133216666667","6500100","板橋區"
"220061","295-UM","2019/07/23 20:09:34","新北市板橋區中山路一段279號","121.469655","25.01378","6500100","板橋區"
"220084","296-UM","2019/07/23 20:09:36","新北市板橋區溪崑二街112巷4號","121.426228333333","24.988715","6500100","板橋區"
"242044","281-VK","2019/07/23 20:09:49","新北市新莊區中正路895-46號","121.412226666667","25.02141","6500500","新莊區"
"220075","303-R5","2019/07/23 20:09:40","新北市板橋區金華街10巷126號","121.45959","25.020575","6500100","板橋區"
"220062","305-R5","2019/07/23 20:09:44","新北市板橋區萬安街85巷1弄11號","121.484445","25.0249716666667","6500100","板橋區"
"242009","280-VK","2019/07/23 20:09:43","新北市新莊區昌盛街35巷4弄1號","121.454145","25.0506033333333","6500500","新莊區"
"220035","560-BX","2019/07/23 20:09:40","新北市板橋區新生街53巷1弄10號","121.457023333333","25.0214816666667","6500100","板橋區"
"220103","561-BX","2019/07/23 20:09:39","新北市板橋區漢生東路43巷2號","121.46582","25.016875","6500100","板橋區"
"220077","687-BX","2019/07/23 20:09:41","新北市板橋區僑中一街102巷3弄20號","121.445986666667","25.01255","6500100","板橋區"
"220054","741-BX","2019/07/23 20:09:17","新北市板橋區實踐路105號","121.464238333333","25.0054133333333","6500100","板橋區"
"220055","827-TW","2019/07/23 20:09:44","新北市板橋區仁愛路76巷1弄2號","121.460566666667","24.99931","6500100","板橋區"
"220067","829-TW","2019/07/23 20:09:42","新北市板橋區中山路一段206巷2弄2號","121.4701","25.0132916666667","6500100","板橋區"
"220074","895-R6","2019/07/23 20:09:40","新北市板橋區縣民大道一段287號","121.460716666667","25.0102166666667","6500100","板橋區"
"220073","985-R7","2019/07/23 20:09:41","新北市板橋區南雅東路89號","121.453268333333","25.0086583333333","6500100","板橋區"
"220097","AAC-210","2019/07/23 20:09:46","新北市板橋區民權路202巷18弄9號","121.461243333333","25.0166133333333","6500100","板橋區"
"220064","AAC-253","2019/07/23 20:09:43","新北市板橋區長安街331巷50-3號","121.473453333333","25.0130516666667","6500100","板橋區"
"235068","KEA-2873","2019/07/23 20:09:19","新北市中和區福祥路85巷2弄8號","121.498695","25.00605","6500300","中和區"
