"lineid","car","time","location","longitude","latitude","cityid","cityname"
"234081","298-R6","2019/07/23 20:29:35","新北市永和區國中路132巷5號","121.523686666667","25.0071266666667","6500400","永和區"
"234038","336-UY","2019/07/23 20:29:38","新北市永和區民樂街31巷10弄11號","121.528956666667","25.0009916666667","6500400","永和區"
"234064","337-UY","2019/07/23 20:29:45","新北市永和區中正路526號","121.517233333333","25.0049733333333","6500400","永和區"
"234086","338-UY","2019/07/23 20:29:41","新北市永和區光復街13號","121.516513333333","25.0173216666667","6500400","永和區"
"234030","746-BX","2019/07/23 20:29:33","新北市永和區民族街81巷60號","121.520096666667","24.9964466666667","6500400","永和區"
"234054","KEA-2590","2019/07/23 20:29:33","新北市永和區環河東路一段80號","121.519595","25.01645","6500400","永和區"
"234013","KEA-2591","2019/07/23 20:29:31","新北市永和區仁愛路278號","121.503881666667","25.00826","6500400","永和區"
"234061","AAD-866","2019/07/23 20:29:46","新北市永和區安樂路194巷39弄2號","121.5165","25.0012933333333","6500400","永和區"
"234070","748-BX","2019/07/23 20:29:34","新北市永和區永利路72-1號","121.52014","25.0044233333333","6500400","永和區"
"234042","862-TW","2019/07/23 20:29:28","新北市永和區安樂路248號","121.514611666667","25.0032666666667","6500400","永和區"
"234050","863-TW","2019/07/23 20:29:33","新北市永和區新生路93號","121.508033333333","25.0155333333333","6500400","永和區"
"249001","173-UM","2019/07/23 20:29:46","新北市八里區中山路三段106號","121.391076666667","25.1422216666667","6502300","八里區"
"249004","303-UY","2019/07/23 20:29:42","新北市八里區中山路一段129巷45號","121.413906666667","25.1585883333333","6502300","八里區"
"249002","305-UY","2019/07/23 20:29:45","新北市八里區龍米路二段79號","121.4479","25.1414466666667","6502300","八里區"
"249003","759-BX","2019/07/23 20:29:31","新北市八里區華峰一街27-1號","121.399375","25.14654","6502300","八里區"
"248002","678-BX","2019/07/23 20:29:31","新北市五股區成泰路三段6-1號","121.44139","25.0877233333333","6501500","五股區"
"234023","9380-KE","2019/07/23 20:29:32","新北市永和區光復街2巷16弄40號","121.518283333333","25.01626","6500400","永和區"
"234074","AAC-211","2019/07/23 20:29:36","新北市永和區豫溪街191巷7弄21號","121.523195","25.0108716666667","6500400","永和區"
"234067","AAC-212","2019/07/23 20:29:42","新北市永和區保平路292巷42號","121.507728333333","25.005265","6500400","永和區"
"234003","AAC-295","2019/07/23 20:29:44","新北市永和區中正路614號","121.516966666667","25.0075516666667","6500400","永和區"
"243010","297-R6","2019/07/23 20:29:37","新北市泰山區新生路33-11號","121.42771","25.0459016666667","6501600","泰山區"
"243014","KEA-2801","2019/07/23 20:29:37","新北市泰山區泰林路二段491號","121.424798333333","25.0639366666667","6501600","泰山區"
"243016","421-VK","2019/07/23 20:29:29","新北市泰山區明志路二段226號","121.427221666667","25.0484516666667","6501600","泰山區"
"243012","539-UM","2019/07/23 20:29:44","新北市泰山區和平街27巷1號","121.43482","25.06454","6501600","泰山區"
"243009","KEA-2215","2019/07/23 20:29:30","新北市泰山區忠孝街42巷2號","121.428628333333","25.0654033333333","6501600","泰山區"
"243011","KEA-2216","2019/07/23 20:29:42","新北市泰山區漢口街23號","121.42464","25.0360816666667","6501600","泰山區"
"243013","646-TV","2019/07/23 20:29:44","新北市泰山區中央路5巷31號","121.427643333333","25.0431716666667","6501600","泰山區"
"243015","680-BX","2019/07/23 20:29:49","新北市泰山區仁德路125號","121.43264","25.056185","6501600","泰山區"
"222003","436-BY","2019/07/23 20:29:47","新北市深坑區深坑街55號","121.615208333333","25.0017416666667","6501800","深坑區"
"222002","659-BX","2019/07/23 20:29:42","新北市深坑區萬福路45號","121.599423333333","25.0068666666667","6501800","深坑區"
"231061","002-UM","2019/07/23 20:29:33","新北市新店區安興路32號","121.51579","24.9702666666667","6500600","新店區"
"231058","0293-UT","2019/07/23 20:29:41","新北市新店區中央路151號","121.529211666667","24.9721316666667","6500600","新店區"
"231044","046-UY","2019/07/23 20:29:43","新北市新店區建國路134號","121.539005","24.9788616666667","6500600","新店區"
"231060","106-UY","2019/07/23 20:29:31","新北市新店區錦秀路11巷88號","121.480458333333","24.9433","6500600","新店區"
"231051","107-UY","2019/07/23 20:29:35","新北市新店區中央七街43號","121.52887","24.97583","6500600","新店區"
"231049","108-UY","2019/07/23 20:29:39","新北市新店區永業路96號","121.530696666667","24.9508766666667","6500600","新店區"
"231065","110-UY","2019/07/23 20:29:31","新北市新店區安祥路102巷46弄68號","121.486883333333","24.9632333333333","6500600","新店區"
"231068","187-VK","2019/07/23 20:29:32","新北市新店區民權路9號","121.542433333333","24.982835","6500600","新店區"
"231050","KEA-2219","2019/07/23 20:29:39","新北市新店區建興街7號","121.539906666667","24.9763983333333","6500600","新店區"
"231062","256-BX","2019/07/23 20:29:30","新北市新店區安泰路60巷21號","121.483563333333","24.9465","6500600","新店區"
"231054","260-TV","2019/07/23 20:29:41","新北市新店區檳榔路150號","121.544235","24.9615033333333","6500600","新店區"
"231042","268-BY","2019/07/23 20:29:45","新北市新店區寶橋路230號","121.551395","24.9787566666667","6500600","新店區"
"231064","278-BY","2019/07/23 20:29:39","新北市新店區新和街59巷17號","121.519331666667","24.98596","6500600","新店區"
"231045","355-BY","2019/07/23 20:29:30","新北市新店區新坡一街72號","121.548911666667","24.9645416666667","6500600","新店區"
"231055","4716-K9","2019/07/23 20:29:43","新北市新店區環河路113-1號","121.530798333333","24.9713016666667","6500600","新店區"
"231056","4715-K9","2019/07/23 20:29:27","新北市新店區中正路457號","121.53377","24.9799766666667","6500600","新店區"
"231053","513-UM","2019/07/23 20:29:48","新北市新店區松林路38號","121.546331666667","24.91022","6500600","新店區"
"231041","619-UM","2019/07/23 20:29:44","新北市新店區民權路131號","121.53518","24.9826933333333","6500600","新店區"
"231063","641-BX","2019/07/23 20:29:29","新北市新店區安康路二段311號","121.50022","24.95689","6500600","新店區"
"231048","KED-0819","2019/07/23 20:29:34","新北市新店區寶慶街58巷12號","121.542058333333","24.9873016666667","6500600","新店區"
"231057","720-UM","2019/07/23 20:29:40","新北市新店區花園六路二段7號","121.555525","24.9332983333333","6500600","新店區"
"231059","897-TW","2019/07/23 20:29:27","新北市新店區安德街148巷1號","121.508231666667","24.95973","6500600","新店區"
"231040","898-TW","2019/07/23 20:29:41","新北市新店區三民路112號","121.534303333333","24.974155","6500600","新店區"
"231043","899-TW","2019/07/23 20:29:44","新北市新店區建國路95號","121.540506666667","24.9768183333333","6500600","新店區"
"231066","AKT-0513","2019/07/23 20:29:30","新北市新店區安德街60巷21號","121.51041","24.9633683333333","6500600","新店區"
"241011","013-R5","2019/07/23 20:29:45","新北市三重區龍門路60號","121.496663333333","25.072535","6500200","三重區"
"241028","022-UY","2019/07/23 20:29:39","新北市三重區光興街93號","121.497348333333","25.0599","6500200","三重區"
"241018","060-VK","2019/07/23 20:29:27","新北市三重區正義北路220號","121.496268333333","25.0675516666667","6500200","三重區"
"241031","061-VK","2019/07/23 20:29:35","新北市三重區三寧街28號","121.48969","25.060155","6500200","三重區"
"241017","063-VK","2019/07/23 20:29:30","新北市三重區自強路一段288號","121.491626666667","25.0682833333333","6500200","三重區"
"241024","065-VK","2019/07/23 20:29:33","新北市三重區三民街224號","121.479901666667","25.067415","6500200","三重區"
"241002","090-VK","2019/07/23 20:29:39","新北市三重區仁義街167巷38弄4號","121.498828333333","25.08294","6500200","三重區"
"241003","091-VK","2019/07/23 20:29:30","新北市三重區富華街113號","121.492338333333","25.0843533333333","6500200","三重區"
"241005","262-UM","2019/07/23 20:29:38","新北市三重區溪尾街269號","121.487628333333","25.082425","6500200","三重區"
"241016","266-UM","2019/07/23 20:29:31","新北市三重區正義北路92號","121.497005","25.0647666666667","6500200","三重區"
"241009","267-UM","2019/07/23 20:29:34","新北市三重區三和路四段382巷92弄1號","121.47949","25.0780533333333","6500200","三重區"
"241032","269-UM","2019/07/23 20:29:29","新北市三重區興華街73號","121.48492","25.060145","6500200","三重區"
"241013","270-UM","2019/07/23 20:29:33","新北市三重區溪尾街5巷12號","121.492281666667","25.0745333333333","6500200","三重區"
"241025","271-UM","2019/07/23 20:29:34","新北市三重區頂崁街210巷23弄1號","121.475815","25.068155","6500200","三重區"
"241007","398-BY","2019/07/23 20:29:35","新北市三重區自強路四段32-2號","121.489036666667","25.0769916666667","6500200","三重區"
"241030","KED-0822","2019/07/23 20:29:36","新北市三重區成功路62號","121.48857","25.05087","6500200","三重區"
"241035","462-BY","2019/07/23 20:29:41","新北市三重區正義北路127號","121.496773333333","25.066165","6500200","三重區"
"241004","475-VK","2019/07/23 20:29:30","新北市三重區溪尾街214號","121.488006666667","25.0813616666667","6500200","三重區"
"241020","478-VK","2019/07/23 20:29:49","新北市三重區明德街48號","121.492053333333","25.0720033333333","6500200","三重區"
"241026","480-VK","2019/07/23 20:29:43","新北市三重區福德南路24巷6號","121.503525","25.0632116666667","6500200","三重區"
"241014","543-UM","2019/07/23 20:29:47","新北市三重區長壽街120巷10-1號","121.502026666667","25.0692133333333","6500200","三重區"
"241023","545-UM","2019/07/23 20:29:34","新北市三重區自由街17巷3號","121.47998","25.0667666666667","6500200","三重區"
"241001","547-UM","2019/07/23 20:29:34","新北市三重區聯華街126號","121.485008333333","25.0747633333333","6500200","三重區"
"241019","KEA-2593","2019/07/23 20:29:46","新北市三重區大智街137號","121.49097","25.0706416666667","6500200","三重區"
"241006","AAD-863","2019/07/23 20:29:34","新北市三重區車路頭街139巷12號","121.48425","25.0762","6500200","三重區"
"241022","KED-0820","2019/07/23 20:29:45","新北市三重區中正北路20巷12號","121.488046666667","25.0625133333333","6500200","三重區"
"241008","887-TS","2019/07/23 20:29:41","新北市三重區永福街245號","121.480921666667","25.0742766666667","6500200","三重區"
"241012","941-UM","2019/07/23 20:29:35","新北市三重區龍濱路172號","121.50138","25.0727716666667","6500200","三重區"
"241029","942-UM","2019/07/23 20:29:40","新北市三重區集美街225號","121.492086666667","25.0551383333333","6500200","三重區"
"241033","AAC-255","2019/07/23 20:29:13","新北市三重區五谷王北街80巷59號","121.474656666667","25.0528966666667","6500200","三重區"
"235066","003-UY","2019/07/23 20:29:41","新北市中和區中山路二段3巷22弄38號","121.505805","25.0041416666667","6500300","中和區"
"235055","183-VK","2019/07/23 20:29:29","新北市林口區太平里180號","121.366703333333","25.1339333333333","6500300","中和區"
"247014","KEA-2869","2019/07/23 20:29:43","新北市蘆洲區中山二路141號","121.471721666667","25.08156","6501400","蘆洲區"
"247008","KED-0682","2019/07/23 20:29:43","新北市蘆洲區重陽二街21號","121.482603333333","25.0846316666667","6501400","蘆洲區"
"235050","4979-A6","2019/07/23 20:29:46","新北市中和區景安路82巷8弄3號","121.50489","24.9965333333333","6500300","中和區"
"235069","4980-A6","2019/07/23 20:29:46","新北市中和區中正路434號","121.491238333333","24.9941683333333","6500300","中和區"
"235059","AAC-215","2019/07/23 20:29:38","新北市中和區員山路36巷13號","121.484173333333","24.9913783333333","6500300","中和區"
"247004","893-R6","2019/07/23 20:29:40","新北市蘆洲區長安街297號","121.45815","25.0848466666667","6501400","蘆洲區"
"247018","546-UM","2019/07/23 20:29:35","新北市蘆洲區民族路314巷3弄13號","121.47693","25.0906216666667","6501400","蘆洲區"
"247002","500-BY","2019/07/23 20:29:37","新北市蘆洲區長安街361巷26號","121.456001666667","25.08758","6501400","蘆洲區"
"247024","337-TH","2019/07/23 20:29:12","新北市蘆洲區光復路70巷19號","121.46471","25.08513","6501400","蘆洲區"
"247022","057-VK","2019/07/23 20:29:41","新北市蘆洲區中正路279號","121.466973333333","25.0878166666667","6501400","蘆洲區"
"247012","056-VK","2019/07/23 20:29:36","新北市蘆洲區復興路292號","121.480853333333","25.0899466666667","6501400","蘆洲區"
"247016","053-VK","2019/07/23 20:29:43","新北市蘆洲區光華路38號","121.469033333333","25.0833583333333","6501400","蘆洲區"
"247020","007-UY","2019/07/23 20:29:42","新北市蘆洲區仁愛街132號","121.469183333333","25.0944416666667","6501400","蘆洲區"
"247006","002-UY","2019/07/23 20:29:34","新北市蘆洲區光華路173號","121.464738333333","25.0818516666667","6501400","蘆洲區"
"222001","KEA-2212","2019/07/23 20:29:41","新北市深坑區北深路三段329號","121.597276666667","25.0050083333333","6501800","深坑區"
"251004","009-UM","2019/07/23 20:29:38","新北市淡水區中正東路二段143巷2弄1號","121.460761666667","25.1473716666667","6501000","淡水區"
"251001","011-UM","2019/07/23 20:29:25","新北市淡水區中山北路二段3號","121.44445","25.1832483333333","6501000","淡水區"
"251002","012-UM","2019/07/23 20:29:37","新北市淡水區中正路84號","121.442538333333","25.1697016666667","6501000","淡水區"
"251015","KEA-2871","2019/07/23 20:29:37","新北市淡水區淡金路二段600號","121.446743333333","25.1922566666667","6501000","淡水區"
"251016","179-VK","2019/07/23 20:29:42","新北市淡水區新埔子15-1號","121.448761666667","25.228275","6501000","淡水區"
"251008","181-VK","2019/07/23 20:29:26","新北市淡水區淡海路206巷21號","121.421431666667","25.1856316666667","6501000","淡水區"
"251013","182-VK","2019/07/23 20:29:36","新北市淡水區奎柔山路417號","121.463805","25.2051316666667","6501000","淡水區"
"251010","413-VK","2019/07/23 20:29:46","新北市淡水區沙崙路181巷15號","121.424001666667","25.1843766666667","6501000","淡水區"
"251012","441-VK","2019/07/23 20:29:38","新北市淡水區頂田寮路58號","121.455196666667","25.2163933333333","6501000","淡水區"
"251005","443-VK","2019/07/23 20:29:44","新北市淡水區下圭柔山90-2號","121.43158","25.2117866666667","6501000","淡水區"
"251006","561-UM","2019/07/23 20:29:38","新北市淡水區商工路373號","121.470383333333","25.1850066666667","6501000","淡水區"
"251014","577-R6","2019/07/23 20:29:26","新北市淡水區石頭厝2-7號","121.460018333333","25.236405","6501000","淡水區"
"251003","673-BX","2019/07/23 20:29:42","新北市淡水區新生街108巷3號","121.440193333333","25.174595","6501000","淡水區"
"207004","225-TW","2019/07/23 20:29:37","新北市萬里區北基里忠三街18號","121.684741666667","25.1756966666667","6502800","萬里區"
"252002","178-VK","2019/07/23 20:29:47","新北市三芝區淡金路二段47-2號","121.503696666667","25.2605483333333","6502100","三芝區"
"247010","KED-0683","2019/07/23 20:29:35","新北市蘆洲區信義路283號","121.478791666667","25.0854","6501400","蘆洲區"
"252001","KED-0821","2019/07/23 20:29:32","新北市三芝區中山路一段35號","121.500636666667","25.2579083333333","6502100","三芝區"
"242039","AAC-296","2019/07/23 20:29:44","新北市新莊區民安路296號","121.428123333333","25.0217666666667","6500500","新莊區"
"242061","986-R7","2019/07/23 20:29:28","新北市新莊區新樹路258巷3-1號","121.432011666667","25.0156666666667","6500500","新莊區"
"242002","751-BX","2019/07/23 20:29:44","新北市新莊區中正路78-1號","121.458543333333","25.03782","6500500","新莊區"
"242029","615-BX","2019/07/23 20:29:42","新北市新莊區昌平街19號","121.454455","25.051355","6500500","新莊區"
"242027","613-BX","2019/07/23 20:29:37","新北市新莊區幸福路83號","121.456376666667","25.0492483333333","6500500","新莊區"
"242058","612-BX","2019/07/23 20:29:33","新北市新莊區四維路196號","121.42167","25.020565","6500500","新莊區"
"242046","566-BX","2019/07/23 20:29:35","新北市新莊區裕民街72巷15號","121.417936666667","25.0243133333333","6500500","新莊區"
"242051","497-BY","2019/07/23 20:27:36","新北市新莊區民安西路189巷13號","121.426648333333","25.015505","6500500","新莊區"
"242011","442-UM","2019/07/23 20:29:47","新北市新莊區中義街38號","121.449978333333","25.0511983333333","6500500","新莊區"
"242056","441-UM","2019/07/23 20:29:42","新北市新莊區新莊路751巷87號","121.442845","25.030715","6500500","新莊區"
"242005","440-UM","2019/07/23 20:29:43","新北市新莊區頭前路30號","121.467541666667","25.052545","6500500","新莊區"
"242042","415-TV","2019/07/23 20:29:46","新北市新莊區天祥街54巷2弄1號","121.41672","25.02923","6500500","新莊區"
"242048","400-BY","2019/07/23 20:29:37","新北市新莊區裕民街85巷22弄2號","121.419581666667","25.023065","6500500","新莊區"
"242025","362-BY","2019/07/23 20:29:31","新北市新莊區五工三路62巷25號","121.460276666667","25.065215","6500500","新莊區"
"242023","353-BY","2019/07/23 20:29:40","新北市新莊區化成路896號","121.464603333333","25.0615716666667","6500500","新莊區"
"242013","132-UY","2019/07/23 20:29:42","新北市新莊區中平路270巷7弄29號","121.446043333333","25.050985","6500500","新莊區"
"242037","135-UY","2019/07/23 20:29:42","新北市新莊區後港一路46巷6號","121.426235","25.025895","6500500","新莊區"
"242054","172-VK","2019/07/23 20:29:42","新北市新莊區民安西路229巷10號","121.426663333333","25.01409","6500500","新莊區"
"242015","173-VK","2019/07/23 20:29:30","新北市新莊區中平路26巷27號","121.446165","25.0435833333333","6500500","新莊區"
"242021","175-VK","2019/07/23 20:29:43","新北市新莊區公園路40號","121.4488","25.0393883333333","6500500","新莊區"
"242019","KED-0687","2019/07/23 20:29:40","新北市新莊區民樂街83號","121.458051666667","25.043155","6500500","新莊區"
"242034","348-TH","2019/07/23 20:29:40","新北市新莊區新泰路201號","121.447115","25.0381083333333","6500500","新莊區"
"242007","349-TH","2019/07/23 20:29:36","新北市新莊區福壽街124巷16號","121.458743333333","25.05119","6500500","新莊區"
"242032","350-TH","2019/07/23 20:29:47","新北市新莊區三泰路26號","121.439093333333","25.0346533333333","6500500","新莊區"
"242017","351-TH","2019/07/23 20:29:26","新北市新莊區中港二街101號","121.44918","25.04571","6500500","新莊區"
"221008","489-VK","2019/07/23 20:29:47","新北市汐止區康寧街241號","121.62453","25.0669","6501100","汐止區"
"221036","130-UY","2019/07/23 20:29:35","新北市汐止區仁愛路151巷42號","121.663476666667","25.06556","6501100","汐止區"
"221015","131-UY","2019/07/23 20:29:33","新北市汐止區建成路142巷19弄3號","121.66219","25.0738966666667","6501100","汐止區"
"221010","269-BY","2019/07/23 20:29:46","新北市汐止區八連路二段36巷12號","121.637843333333","25.093875","6501100","汐止區"
"221012","278-VK","2019/07/23 20:29:36","新北市汐止區汐平路二段66號","121.698311666667","25.06104","6501100","汐止區"
"221023","279-VK","2019/07/23 20:29:26","新北市汐止區明峰街108號","121.630636666667","25.0711366666667","6501100","汐止區"
"221032","280-BY","2019/07/23 20:29:44","新北市汐止區弘道街53巷12號","121.618731666667","25.0488866666667","6501100","汐止區"
"221027","281-BY","2019/07/23 20:29:32","新北市汐止區中正路214號","121.658168333333","25.0689","6501100","汐止區"
"221033","297-VK","2019/07/23 20:29:35","新北市汐止區林森街73巷5號","121.623508333333","25.04098","6501100","汐止區"
"221029","298-VK","2019/07/23 20:29:35","新北市汐止區樟樹一路129巷32號","121.640583333333","25.065095","6501100","汐止區"
"221021","299-VK","2019/07/23 20:29:32","新北市汐止區水源路一段282巷3號","121.653966666667","25.0580383333333","6501100","汐止區"
"221031","353-TW","2019/07/23 20:29:36","新北市汐止區原興路55號","121.632701666667","25.0650966666667","6501100","汐止區"
"221035","622-UM","2019/07/23 20:29:42","新北市汐止區長江街97號","121.658166666667","25.07263","6501100","汐止區"
"221025","623-UM","2019/07/23 20:29:38","新北市汐止區水源路二段88巷1弄2號","121.656313333333","25.0557883333333","6501100","汐止區"
"221038","646-BX","2019/07/23 20:29:47","新北市汐止區水源路一段56號","121.657481666667","25.0653516666667","6501100","汐止區"
"221002","707-TV","2019/07/23 20:29:35","新北市汐止區福德二路47號","121.634386666667","25.067275","6501100","汐止區"
"221018","753-BX","2019/07/23 20:25:40","新北市汐止區茄苳路225巷6號","121.671238333333","25.0690283333333","6501100","汐止區"
"220083","286-VK","2019/07/23 20:29:28","新北市板橋區大觀路一段38巷156弄147號","121.443841666667","25.009","6500100","板橋區"
"220081","287-VK","2019/07/23 20:29:35","新北市板橋區僑中二街90巷1號","121.446408333333","25.0090466666667","6500100","板橋區"
"242044","281-VK","2019/07/23 20:29:42","新北市新莊區中正路新建巷22弄2號","121.414041666667","25.0220733333333","6500500","新莊區"
"242009","280-VK","2019/07/23 20:29:43","新北市新莊區昌隆街92號","121.456153333333","25.0507866666667","6500500","新莊區"
"220055","827-TW","2019/07/23 20:29:37","新北市板橋區四川路一段371號","121.458308333333","24.9995466666667","6500100","板橋區"
