"lineid","car","time","location","longitude","latitude","cityid","cityname"
"244006","080-UY","2019/08/29 08:59:34","新北市林口區林口路113巷47號","121.38806","25.0800266666667","6501700","林口區"
"244018","402-UM","2019/08/29 08:59:33","新北市林口區文化一路一段124號","121.374826666667","25.0721733333333","6501700","林口區"
"244012","KEA-2802","2019/08/29 08:59:35","新北市林口區中山路262-1號","121.384608333333","25.0798916666667","6501700","林口區"
"244022","483-VK","2019/08/29 08:59:39","新北市林口區東湖路41巷12號","121.386245","25.073435","6501700","林口區"
"244016","485-VK","2019/08/29 08:59:34","新北市林口區公園路37號","121.367048333333","25.0681133333333","6501700","林口區"
"244008","656-BX","2019/08/29 08:59:29","新北市林口區文化三路二段277號","121.378348333333","25.0857216666667","6501700","林口區"
"244010","701-TV","2019/08/29 08:59:41","新北市林口區中山路168-1號","121.389656666667","25.0788983333333","6501700","林口區"
"244024","837-TS","2019/08/29 08:59:26","新北市林口區南勢里41-1號","121.355485","25.0749166666667","6501700","林口區"
"244020","838-TS","2019/08/29 08:59:26","新北市林口區工六路46號","121.399158333333","25.07833","6501700","林口區"
"222006","289-BY","2019/08/29 08:59:10","新北市深坑區土庫尖路75-1號","121.631123333333","25.0183383333333","6501800","深坑區"
"231069","189-VK","2019/08/29 08:58:24","新北市新店區平廣路二段201巷3號","121.490971666667","24.895955","6500600","新店區"
"231008","515-UM","2019/08/29 08:59:42","新北市新店區廣興路60巷12-1號","121.540393333333","24.9146683333333","6500600","新店區"
"226007","8452-VL","2019/08/29 08:59:28","新北市平溪區東勢里芊蓁坑30號","121.727493333333","24.9792166666667","6502400","平溪區"
"226003","AGD-0702","2019/08/29 08:59:28","新北市平溪區十分里十分街236號","121.778128333333","25.0440316666667","6502400","平溪區"
"223003","205-TH","2019/08/29 08:59:33","新北市石碇區北宜路六段水底寮巷23號","121.664161666667","24.9420866666667","6501900","石碇區"
"223008","406-TH","2019/08/29 08:59:43","新北市石碇區光明路13號","121.679906666667","25.0332683333333","6501900","石碇區"
"223001","592-UM","2019/08/29 08:59:36","新北市石碇區北宜路六段水底寮巷12號","121.664721666667","24.9420683333333","6501900","石碇區"
"223004","660-BX","2019/08/29 08:59:25","新北市石碇區崩山53號","121.68237","24.9688883333333","6501900","石碇區"
"223007","661-BX","2019/08/29 08:59:37","新北市石碇區碇南路二段鹿窟巷2號","121.671851666667","25.0313533333333","6501900","石碇區"
"223005","677-TV","2019/08/29 08:56:30","新北市石碇區崩山53號","121.682385","24.9689016666667","6501900","石碇區"
"252004","249-BX","2019/08/29 08:59:43","新北市三芝區興華里田心子31號","121.48879","25.200465","6502100","三芝區"
"252007","AAC-283","2019/08/29 08:59:44","新北市三芝區樂全街2號","121.487673333333","25.2596516666667","6502100","三芝區"
"237014","760-BX","2019/08/29 08:59:38","新北市三峽區金敏2號","121.399711666667","24.8822166666667","6500900","三峽區"
"242038","AAC-296","2019/08/29 08:59:32","新北市新莊區民安西路105號","121.426886666667","25.0186","6500500","新莊區"
"242059","986-R7","2019/08/29 08:59:35","新北市新莊區瓊林路59-72號","121.444356666667","25.0274883333333","6500500","新莊區"
"242001","751-BX","2019/08/29 08:59:25","新北市新莊區中正路130號","121.452813333333","25.0362566666667","6500500","新莊區"
"242028","615-BX","2019/08/29 08:59:26","新北市新莊區中華路二段151號","121.452885","25.051455","6500500","新莊區"
"242026","613-BX","2019/08/29 08:59:26","新北市新莊區中平路301號","121.444561666667","25.0512916666667","6500500","新莊區"
"242057","612-BX","2019/08/29 08:59:39","新北市新莊區富國路154號","121.42321","25.024845","6500500","新莊區"
"242045","566-BX","2019/08/29 08:59:37","新北市新莊區民安路34號","121.423001666667","25.02787","6500500","新莊區"
"242049","497-BY","2019/08/29 08:59:39","新北市新莊區民安西路189巷16號","121.426801666667","25.015175","6500500","新莊區"
"242033","442-UM","2019/08/29 08:59:41","新北市新莊區新泰路157號","121.447705","25.0369266666667","6500500","新莊區"
"242055","441-UM","2019/08/29 08:59:30","新北市新莊區瓊泰路92號","121.443165","25.029335","6500500","新莊區"
"242003","440-UM","2019/08/29 08:59:30","新北市新莊區化成路63巷24弄14號","121.462191666667","25.0460483333333","6500500","新莊區"
"242040","415-TV","2019/08/29 08:59:29","新北市新莊區青山路一段24號","121.411086666667","25.0277","6500500","新莊區"
"242010","413-TV","2019/08/29 08:59:45","新北市新莊區中信街37巷2弄12號","121.44977","25.0505066666667","6500500","新莊區"
"242047","400-BY","2019/08/29 08:59:36","新北市新莊區後港二路2巷2號","121.423145","25.0245533333333","6500500","新莊區"
"242024","362-BY","2019/08/29 08:59:36","新北市新莊區五工二路86巷35號","121.460548333333","25.0674","6500500","新莊區"
"242022","353-BY","2019/08/29 08:59:39","新北市新莊區化成路744號","121.465466666667","25.0575683333333","6500500","新莊區"
"242012","132-UY","2019/08/29 08:59:45","新北市新莊區中信街63巷4弄5號","121.448858333333","25.050175","6500500","新莊區"
"242035","135-UY","2019/08/29 08:59:33","新北市新莊區建安街35巷20號","121.429796666667","25.0259233333333","6500500","新莊區"
"242052","172-VK","2019/08/29 08:59:44","新北市新莊區西盛街395巷36號","121.42883","25.0121416666667","6500500","新莊區"
"242020","175-VK","2019/08/29 08:59:34","新北市新莊區中正路206號","121.44921","25.0356433333333","6500500","新莊區"
"242016","176-VK","2019/08/29 08:59:39","新北市新莊區中港三街11號","121.451031666667","25.0464666666667","6500500","新莊區"
"242018","346-TH","2019/08/29 08:59:42","新北市新莊區復興路二段198號","121.459403333333","25.04439","6500500","新莊區"
"242014","347-TH","2019/08/29 08:59:42","新北市新莊區中平路26巷68號","121.447945","25.0434616666667","6500500","新莊區"
"242030","348-TH","2019/08/29 08:59:44","新北市新莊區公園一路112號","121.444785","25.0377716666667","6500500","新莊區"
"242006","349-TH","2019/08/29 08:59:34","新北市新莊區福壽街94巷16號","121.458936666667","25.05005","6500500","新莊區"
"233001","KEA-2870","2019/08/29 08:59:31","新北市烏來區李茂岸7號","121.502603333333","24.7786483333333","6502900","烏來區"
"242043","281-VK","2019/08/29 08:59:40","新北市新莊區中正路新旺巷30弄6號","121.415893333333","25.02289","6500500","新莊區"
"242008","280-VK","2019/08/29 08:59:36","新北市新莊區幸福路64巷4弄5號","121.457398333333","25.0500766666667","6500500","新莊區"
