"lineid","car","time","location","longitude","latitude","cityid","cityname"
"234044","148-BY","2019/08/29 12:39:34","新北市永和區永元路68號","121.522563333333","25.0015783333333","6500400","永和區"
"234078","298-R6","2019/08/29 12:39:27","新北市永和區林森路81號","121.523896666667","25.0038516666667","6500400","永和區"
"234036","336-UY","2019/08/29 12:39:30","新北市永和區福和路1號","121.526536666667","25.01007","6500400","永和區"
"234062","337-UY","2019/08/29 12:39:32","新北市永和區福和路1號","121.526455","25.0099833333333","6500400","永和區"
"234084","338-UY","2019/08/29 12:39:31","新北市永和區中正路6號","121.51251","24.99374","6500400","永和區"
"234068","552-UM","2019/08/29 12:39:34","新北市永和區福和路1號","121.525473333333","25.009395","6500400","永和區"
"234015","745-BX","2019/08/29 12:39:28","新北市永和區福和路1號","121.526441666667","25.0095566666667","6500400","永和區"
"234028","746-BX","2019/08/29 12:37:12","新北市永和區成功路二段95號","121.526775","24.999125","6500400","永和區"
"234012","KEA-2591","2019/08/29 12:39:26","新北市永和區保福路二段88巷28號","121.511986666667","25.0135616666667","6500400","永和區"
"234060","AAD-866","2019/08/29 12:39:38","新北市永和區福和路1號","121.526098333333","25.0093483333333","6500400","永和區"
"234040","862-TW","2019/08/29 12:39:29","新北市永和區永和路一段38號","121.513043333333","25.0053216666667","6500400","永和區"
"234025","9371-KE","2019/08/29 12:39:29","新北市永和區中正路700號","121.516276666667","25.009845","6500400","永和區"
"234010","9373-KE","2019/08/29 12:39:27","新北市永和區保生路55號","121.504675","25.0106816666667","6500400","永和區"
"234022","9380-KE","2019/08/29 12:39:34","新北市永和區福和路1號","121.526455","25.0096733333333","6500400","永和區"
"234076","969-R7","2019/08/29 12:39:41","新北市中和區安樂路101-3號","121.513498333333","24.9950716666667","6500400","永和區"
"234001","AAC-295","2019/08/29 12:39:43","新北市永和區福和路1號","121.526585","25.0099416666667","6500400","永和區"
"231023","260-TV","2019/08/29 12:39:33","新北市新店區安一路一段1-1號","121.51931","24.9612266666667","6500600","新店區"
"231003","268-BY","2019/08/29 12:39:35","新北市新店區安一路一段1-1號","121.519721666667","24.9613","6500600","新店區"
"231017","AAD-862","2019/08/29 12:39:28","新北市新店區安華路28-1號","121.519863333333","24.9608333333333","6500600","新店區"
"231010","719-UM","2019/08/29 12:39:38","新北市新店區安華路28-1號","121.519433333333","24.96096","6500600","新店區"
"231026","720-UM","2019/08/29 12:39:29","新北市新店區安康路一段359-27號","121.518651666667","24.96133","6500600","新店區"
"235028","005-UY","2019/08/29 12:39:37","新北市中和區員山路36巷16-3號","121.485178333333","24.9912783333333","6500300","中和區"
"228005","097-TW","2019/08/29 12:39:43","新北市貢寮區福連里蓬萊街15號","121.993468333333","25.0007233333333","6502600","貢寮區"
"228004","212-TW","2019/08/29 12:39:37","新北市貢寮區吉林里枋腳街6-2號","121.887395","25.0072333333333","6502600","貢寮區"
"207002","749-BX","2019/08/29 12:39:32","新北市萬里區雙興里太和路8號","121.657953333333","25.1743416666667","6502800","萬里區"
"221029","298-VK","2019/08/29 12:39:26","新北市汐止區汐萬路一段312號","121.650395","25.075475","6501100","汐止區"
"233001","KEA-2870","2019/08/29 12:29:07","新北市烏來區啦卡路70-1號","121.565308333333","24.8558583333333","6502900","烏來區"
"235025","KEA-2875","2019/08/29 12:32:31","新北市中和區和城路一段271巷1號","121.485535","24.9917966666667","6500300","中和區"
