"lineid","car","time","location","longitude","latitude","cityid","cityname"
"234044","148-BY","2019/08/29 12:49:34","新北市永和區秀朗路二段126巷1號","121.52481","25.0012516666667","6500400","永和區"
"234078","298-R6","2019/08/29 12:49:42","新北市永和區永亨路100號","121.52321","25.0047583333333","6500400","永和區"
"234036","336-UY","2019/08/29 12:49:30","新北市永和區福和路1號","121.525101666667","25.0089933333333","6500400","永和區"
"234062","337-UY","2019/08/29 12:49:32","新北市永和區福和路1號","121.526548333333","25.0099916666667","6500400","永和區"
"234084","338-UY","2019/08/29 12:49:39","新北市永和區中正路63號","121.514766666667","24.9965283333333","6500400","永和區"
"234068","552-UM","2019/08/29 12:49:34","新北市永和區豫溪街217巷11號","121.525018333333","25.009995","6500400","永和區"
"234015","745-BX","2019/08/29 12:49:28","新北市永和區永和路二段299號","121.515998333333","25.0160816666667","6500400","永和區"
"234028","746-BX","2019/08/29 12:49:32","新北市永和區得和路321號","121.523306666667","24.9996066666667","6500400","永和區"
"234052","KEA-2590","2019/08/29 12:49:29","新北市永和區竹林路37號","121.517921666667","25.0142583333333","6500400","永和區"
"234005","KED-0605","2019/08/29 12:49:35","新北市永和區文化路5號","121.515513333333","25.01498","6500400","永和區"
"234012","KEA-2591","2019/08/29 12:49:30","新北市永和區仁愛路202巷38號","121.508813333333","25.0131666666667","6500400","永和區"
"234060","AAD-866","2019/08/29 12:49:38","新北市永和區福和路303號","121.516385","25.0071383333333","6500400","永和區"
"234040","862-TW","2019/08/29 12:49:29","新北市永和區永貞路306號","121.511916666667","25.0048766666667","6500400","永和區"
"234025","9371-KE","2019/08/29 12:49:29","新北市永和區永和路一段188號","121.514388333333","25.0091283333333","6500400","永和區"
"234010","9373-KE","2019/08/29 12:49:46","新北市永和區保福路二段156號","121.509156666667","25.0149983333333","6500400","永和區"
"248015","026-BX","2019/08/29 12:49:42","新北市五股區中興路二段37巷28號","121.460158333333","25.0750383333333","6501500","五股區"
"248005","077-UY","2019/08/29 12:49:44","新北市五股區中興路二段37巷28號","121.460181666667","25.0747516666667","6501500","五股區"
"248007","KED-0815","2019/08/29 12:49:27","新北市五股區中興路二段57-6號","121.460468333333","25.075325","6501500","五股區"
"248003","677-BX","2019/08/29 12:49:20","新北市五股區中興路二段83巷26-3號","121.460093333333","25.0754883333333","6501500","五股區"
"234022","9380-KE","2019/08/29 12:49:45","新北市永和區竹林路119巷47號","121.522018333333","25.0118633333333","6500400","永和區"
"234076","969-R7","2019/08/29 12:49:41","新北市永和區中正路2巷5號","121.512781666667","24.993475","6500400","永和區"
"234066","AAC-212","2019/08/29 12:49:37","新北市永和區永和路一段22號","121.513008333333","25.0048683333333","6500400","永和區"
"234001","AAC-295","2019/08/29 12:49:22","新北市永和區中正路736號","121.515236666667","25.0101883333333","6500400","永和區"
"231029","106-UY","2019/08/29 12:49:30","新北市新店區安華路28-1號","121.519713333333","24.9607133333333","6500600","新店區"
"231023","260-TV","2019/08/29 12:49:33","新北市新店區安一路一段1-1號","121.519143333333","24.96151","6500600","新店區"
"231003","268-BY","2019/08/29 12:49:34","新北市新店區安一路一段1-1號","121.519798333333","24.961305","6500600","新店區"
"231035","278-BY","2019/08/29 12:49:36","新北市新店區安一路一段1-1號","121.519805","24.961075","6500600","新店區"
"231017","AAD-862","2019/08/29 12:49:28","新北市新店區安華路28-1號","121.519918333333","24.9608433333333","6500600","新店區"
"231034","641-BX","2019/08/29 12:49:27","新北市新店區安華路1-1號","121.519525","24.9603883333333","6500600","新店區"
"231011","KED-0819","2019/08/29 12:49:25","新北市新店區安華路28-1號","121.520106666667","24.96101","6500600","新店區"
"231010","719-UM","2019/08/29 12:49:38","新北市新店區安一路一段1-1號","121.519416666667","24.961125","6500600","新店區"
"231026","720-UM","2019/08/29 12:49:29","新北市新店區安一路一段1-1號","121.51894","24.9613533333333","6500600","新店區"
"235028","005-UY","2019/08/29 12:49:37","新北市中和區員山路36巷16-3號","121.485051666667","24.9911483333333","6500300","中和區"
"235027","006-UY","2019/08/29 12:49:35","新北市中和區員山路36巷16-3號","121.48506","24.9911416666667","6500300","中和區"
"235029","098-UM","2019/08/29 12:49:42","新北市中和區連城路301號","121.48986","24.99614","6500300","中和區"
"235002","185-VK","2019/08/29 12:49:35","新北市中和區中正路501號","121.488725","24.9940266666667","6500300","中和區"
"235018","640-BX","2019/08/29 12:49:30","新北市中和區和城路一段271巷1號","121.485521666667","24.991855","6500300","中和區"
"235017","900-TW","2019/08/29 12:49:27","新北市中和區員山路36巷16-2號","121.48527","24.9915583333333","6500300","中和區"
"235001","AAC-213","2019/08/29 12:49:37","新北市中和區錦和路350-1號","121.4905","24.9935566666667","6500300","中和區"
"235023","AAC-215","2019/08/29 12:49:32","新北市中和區員山路36巷16-2號","121.485188333333","24.9914516666667","6500300","中和區"
"220013","072-UY","2019/08/29 12:49:35","新北市板橋區華東街1-10號","121.448703333333","24.9949433333333","6500100","板橋區"
"228005","097-TW","2019/08/29 12:49:43","新北市貢寮區福連里福連街34-1號","121.988708333333","25.0111316666667","6502600","貢寮區"
"228004","212-TW","2019/08/29 12:49:37","新北市貢寮區吉林里內寮街20-3號","121.88984","24.9955133333333","6502600","貢寮區"
"207002","749-BX","2019/08/29 12:49:32","新北市萬里區雙興里二坪路31-2號","121.650315","25.16956","6502800","萬里區"
"207001","662-BX","2019/08/29 12:49:35","新北市萬里區萬里里獅頭路23號","121.693598333333","25.1782316666667","6502800","萬里區"
"238012","303-VK","2019/08/29 12:49:29","新北市樹林區育德街78號","121.387491666667","24.9685616666667","6500700","樹林區"
"221029","298-VK","2019/08/29 12:49:46","新北市汐止區汐萬路一段312號","121.65046","25.075485","6501100","汐止區"
"221021","299-VK","2019/08/29 12:49:27","新北市汐止區汐萬路一段256巷1號","121.651786666667","25.07483","6501100","汐止區"
"233001","KEA-2870","2019/08/29 12:29:07","新北市烏來區啦卡路70-1號","121.565308333333","24.8558583333333","6502900","烏來區"
"220030","610-BX","2019/08/29 12:49:28","新北市板橋區華東街1-9號","121.448123333333","24.99502","6500100","板橋區"
"235025","KEA-2875","2019/08/29 12:49:30","新北市中和區員山路36巷16-2號","121.48516","24.9916966666667","6500300","中和區"
