"lineid","car","time","location","longitude","latitude","cityid","cityname"
"234044","148-BY","2019/08/29 13:49:34","新北市永和區秀朗路二段161巷24號","121.525133333333","25.0024883333333","6500400","永和區"
"234078","298-R6","2019/08/29 13:49:47","新北市永和區永亨路104號","121.523333333333","25.0045833333333","6500400","永和區"
"234036","336-UY","2019/08/29 13:49:37","新北市永和區民樂街57巷19號","121.528306666667","24.9986816666667","6500400","永和區"
"234062","337-UY","2019/08/29 13:49:32","新北市永和區中正路370號","121.517728333333","25.0009283333333","6500400","永和區"
"234084","338-UY","2019/08/29 13:49:41","新北市永和區中正路560號","121.517265","25.005845","6500400","永和區"
"234068","552-UM","2019/08/29 13:49:34","新北市永和區竹林路81號","121.519483333333","25.0125233333333","6500400","永和區"
"234015","745-BX","2019/08/29 13:49:28","新北市永和區文化路36號","121.514935","25.0150716666667","6500400","永和區"
"234028","746-BX","2019/08/29 13:49:32","新北市永和區四維街103巷4號","121.5239","24.9977766666667","6500400","永和區"
"234052","KEA-2590","2019/08/29 13:49:31","新北市永和區竹林路39巷28弄21號","121.519851666667","25.0144233333333","6500400","永和區"
"234005","KED-0605","2019/08/29 13:49:25","新北市永和區中和路625號","121.51299","25.0049216666667","6500400","永和區"
"234012","KEA-2591","2019/08/29 13:49:33","新北市永和區永平路296號","121.507428333333","25.0121883333333","6500400","永和區"
"234060","AAD-866","2019/08/29 13:49:38","新北市中和區安樂路139號","121.514523333333","24.9968416666667","6500400","永和區"
"234040","862-TW","2019/08/29 13:49:29","新北市永和區中和路389巷8號","121.508096666667","25.0009116666667","6500400","永和區"
"234048","863-TW","2019/08/29 13:49:40","新北市永和區保安路93號","121.508263333333","25.01449","6500400","永和區"
"234025","9371-KE","2019/08/29 13:49:29","新北市永和區保生路55-8號","121.504006666667","25.01045","6500400","永和區"
"234010","9373-KE","2019/08/29 13:49:27","新北市永和區保生路55-1號","121.504493333333","25.0109016666667","6500400","永和區"
"248015","026-BX","2019/08/29 13:49:41","新北市五股區成泰路三段543巷60號","121.449535","25.1031966666667","6501500","五股區"
"248007","KED-0815","2019/08/29 13:49:26","新北市五股區中興路一段151巷1弄1號","121.46507","25.073255","6501500","五股區"
"248017","KED-0813","2019/08/29 13:49:35","新北市五股區民義路二段22巷25號","121.42184","25.0978166666667","6501500","五股區"
"248011","247-BX","2019/08/29 13:49:33","新北市五股區成泰路二段195巷1號","121.440426666667","25.0874033333333","6501500","五股區"
"248013","261-SL","2019/08/29 13:49:24","新北市五股區民義路一段107巷32號","121.432533333333","25.0847266666667","6501500","五股區"
"248003","677-BX","2019/08/29 13:49:41","新北市五股區民義路二段41號","121.413921666667","25.1014666666667","6501500","五股區"
"248001","678-BX","2019/08/29 13:49:33","新北市五股區成泰路三段454號","121.45141","25.1003383333333","6501500","五股區"
"248009","682-TV","2019/08/29 13:49:41","新北市五股區水碓五路141號","121.430905","25.0728066666667","6501500","五股區"
"234022","9380-KE","2019/08/29 13:49:33","新北市永和區永和路二段85號","121.514848333333","25.01137","6500400","永和區"
"234076","969-R7","2019/08/29 13:49:41","新北市永和區民權路58巷2弄14號","121.519893333333","24.998875","6500400","永和區"
"234072","AAC-211","2019/08/29 13:49:43","新北市永和區豫溪街211號","121.524135","25.009585","6500400","永和區"
"234066","AAC-212","2019/08/29 13:49:36","新北市永和區永貞路416號","121.508878333333","25.0080133333333","6500400","永和區"
"234001","AAC-295","2019/08/29 13:49:42","新北市永和區永和路一段107號","121.513943333333","25.0079283333333","6500400","永和區"
"244003","248-BX","2019/08/29 13:49:28","新北市林口區瑞平里33-1號","121.348715","25.128105","6501700","林口區"
"243002","297-R6","2019/08/29 13:49:24","新北市泰山區辭修路48號","121.428621666667","25.0571233333333","6501600","泰山區"
"243006","KEA-2801","2019/08/29 13:49:39","新北市泰山區犁頭窠3-1號","121.42219","25.0605416666667","6501600","泰山區"
"243008","421-VK","2019/08/29 13:49:31","新北市泰山區明志路二段137號","121.42765","25.0506966666667","6501600","泰山區"
"243003","KEA-2216","2019/08/29 13:49:42","新北市泰山區明志路二段232巷2號","121.426888333333","25.0482583333333","6501600","泰山區"
"243007","680-BX","2019/08/29 13:49:41","新北市泰山區美寧街50號","121.430443333333","25.0644716666667","6501600","泰山區"
"231030","002-UM","2019/08/29 13:49:40","新北市新店區安康路一段46巷4號","121.530671666667","24.9610683333333","6500600","新店區"
"231024","0291-UT","2019/08/29 13:49:41","新北市新店區北新路一段271巷34號","121.539825","24.9671483333333","6500600","新店區"
"231005","046-UY","2019/08/29 13:49:28","新北市新店區寶中路137號","121.549983333333","24.9791","6500600","新店區"
"231029","106-UY","2019/08/29 13:49:30","新北市新店區安康路二段125-1號","121.512371666667","24.9609266666667","6500600","新店區"
"231018","107-UY","2019/08/29 13:49:34","新北市新店區中正路400巷6號","121.534913333333","24.9777033333333","6500600","新店區"
"231013","108-UY","2019/08/29 13:49:28","新北市新店區二十張路25巷16號","121.539251666667","24.9820616666667","6500600","新店區"
"231036","110-UY","2019/08/29 13:49:43","新北市新店區安祥路116號","121.474808333333","24.9565333333333","6500600","新店區"
"231031","256-BX","2019/08/29 13:49:41","新北市新店區莒光路44巷21弄11-3號","121.51846","24.952125","6500600","新店區"
"231023","260-TV","2019/08/29 13:49:40","新北市新店區國校路2巷1號","121.537996666667","24.9565333333333","6500600","新店區"
"231003","268-BY","2019/08/29 13:49:37","新北市新店區中興路一段191號","121.543291666667","24.9650183333333","6500600","新店區"
"231035","278-BY","2019/08/29 13:49:36","新北市新店區安忠路57巷9弄2號","121.51361","24.9582566666667","6500600","新店區"
"231017","AAD-862","2019/08/29 13:49:33","新北市新店區竹林路72巷15號","121.55412","24.95069","6500600","新店區"
"231006","355-BY","2019/08/29 13:49:31","新北市新店區北宜路一段152-2號","121.540246666667","24.9537833333333","6500600","新店區"
"231038","3712-VJ","2019/08/29 13:49:39","新北市新店區安華路30巷3號","121.519548333333","24.9592216666667","6500600","新店區"
"231027","3713-VJ","2019/08/29 13:49:36","新北市新店區北宜路一段105巷10弄3號","121.540576666667","24.95583","6500600","新店區"
"231025","4715-K9","2019/08/29 13:49:41","新北市新店區中正路336號","121.536753333333","24.9749333333333","6500600","新店區"
"231002","619-UM","2019/08/29 13:49:34","新北市新店區溪園路247號","121.525133333333","24.9831133333333","6500600","新店區"
"231034","641-BX","2019/08/29 13:49:27","新北市新店區達觀路14巷3號","121.503263333333","24.9418933333333","6500600","新店區"
"231011","KED-0819","2019/08/29 13:49:25","新北市新店區德正街27巷29弄123號","121.545708333333","24.9729683333333","6500600","新店區"
"231021","718-UY","2019/08/29 13:49:36","新北市新店區新烏路一段193號","121.54761","24.93146","6500600","新店區"
"231010","719-UM","2019/08/29 13:49:38","新北市新店區中正路309號","121.536738333333","24.9748833333333","6500600","新店區"
"231026","720-UM","2019/08/29 13:49:29","新北市新店區中正路281號","121.537571666667","24.974445","6500600","新店區"
"231028","897-TW","2019/08/29 13:49:33","新北市新店區安和路二段163號","121.518925","24.974315","6500600","新店區"
"231001","898-TW","2019/08/29 13:49:33","新北市新店區三民路118號","121.534461666667","24.9743","6500600","新店區"
"231004","899-TW","2019/08/29 13:49:28","新北市新店區寶橋路56號","121.546103333333","24.9754116666667","6500600","新店區"
"231037","AKT-0513","2019/08/29 13:49:42","新北市新店區安康路三段359巷12弄26號","121.48394","24.9493366666667","6500600","新店區"
"235030","003-UY","2019/08/29 13:49:31","新北市中和區廣福路56巷1弄1號","121.5036","25.0021483333333","6500300","中和區"
"235028","005-UY","2019/08/29 13:49:37","新北市中和區泰和街46巷2號","121.498713333333","25.000075","6500300","中和區"
"235027","006-UY","2019/08/29 13:49:35","新北市中和區連城路319巷3弄3號","121.489325","24.99572","6500300","中和區"
"235020","096-UM","2019/08/29 13:49:32","新北市中和區中正路1208號","121.48006","25.0106016666667","6500300","中和區"
"235003","097-UM","2019/08/29 13:49:33","新北市中和區自強路17號","121.520333333333","24.993325","6500300","中和區"
"235029","098-UM","2019/08/29 13:49:22","新北市中和區勝利路35巷3弄23號","121.499895","25.0074633333333","6500300","中和區"
"235004","150-BY","2019/08/29 13:49:28","新北市中和區宜安路119巷16號","121.509815","24.997655","6500300","中和區"
"235022","151-BY","2019/08/29 13:49:31","新北市中和區連城路532巷3-1號","121.475431666667","24.9918516666667","6500300","中和區"
"235019","183-VK","2019/08/29 13:49:35","新北市板橋區民族路276巷1弄20號","121.470313333333","25.0062683333333","6500300","中和區"
"235002","185-VK","2019/08/29 13:49:35","新北市中和區大勇街39號","121.517613333333","24.9943866666667","6500300","中和區"
"235013","186-VK","2019/08/29 13:49:23","新北市中和區景新街210巷2號","121.507053333333","24.9943166666667","6500300","中和區"
"235008","293-VK","2019/08/29 13:49:25","新北市中和區中興街143號","121.499988333333","24.99124","6500300","中和區"
"235036","301-VK","2019/08/29 13:49:40","新北市中和區中山路二段41號","121.504626666667","25.005115","6500300","中和區"
"235007","352-BY","2019/08/29 13:49:32","新北市中和區成功路17號","121.526276666667","24.993775","6500300","中和區"
"235006","KEA-2878","2019/08/29 13:49:46","新北市中和區秀朗路三段128巷36弄2號","121.524825","24.993665","6500300","中和區"
"247007","KED-0682","2019/08/29 13:49:29","新北市蘆洲區重陽街29號","121.48132","25.0831216666667","6501400","蘆洲區"
"235014","4979-A6","2019/08/29 13:49:41","新北市中和區忠孝街62巷7弄1號","121.51284","24.983565","6500300","中和區"
"235033","4980-A6","2019/08/29 13:49:31","新北市中和區南山路111巷3號","121.502591666667","24.9977633333333","6500300","中和區"
"235034","558-UM","2019/08/29 13:49:46","新北市中和區中和路271號","121.505576666667","24.9997733333333","6500300","中和區"
"235009","565-BX","2019/08/29 13:49:43","新北市中和區景新街467巷15弄1號","121.513916666667","24.988275","6500300","中和區"
"235024","KED-0823","2019/08/29 13:49:40","新北市中和區民治街27巷6號","121.475415","25.0011816666667","6500300","中和區"
"235018","640-BX","2019/08/29 13:49:30","新北市中和區民享街6-3號","121.474031666667","25.004685","6500300","中和區"
"235011","732-UM","2019/08/29 13:49:36","新北市中和區興南路二段34巷28弄2號","121.505051666667","24.9864966666667","6500300","中和區"
"235010","733-UM","2019/08/29 13:49:28","新北市中和區興南路一段93巷2號","121.509598333333","24.9885433333333","6500300","中和區"
"235035","783-BX","2019/08/29 13:49:33","新北市中和區中山路二段488號","121.487428333333","25.0054283333333","6500300","中和區"
"235026","800-TS","2019/08/29 13:49:22","新北市中和區中山路二段340巷62號","121.493113333333","25.0047116666667","6500300","中和區"
"235021","801-TS","2019/08/29 13:49:40","新北市中和區民利街60號","121.478955","24.9988383333333","6500300","中和區"
"235016","805-TS","2019/08/29 13:49:42","新北市中和區興南路二段399巷11號","121.498883333333","24.9792633333333","6500300","中和區"
"235012","896-TW","2019/08/29 13:49:28","新北市中和區南山路204號","121.50612","24.9904516666667","6500300","中和區"
"235017","900-TW","2019/08/29 13:49:27","新北市中和區民德路292號","121.467396666667","24.9957433333333","6500300","中和區"
"235031","911-UM","2019/08/29 13:49:38","新北市中和區新生街220巷1弄1號","121.483415","24.9985166666667","6500300","中和區"
"235015","157-BY","2019/08/29 13:49:41","新北市中和區忠孝街106巷23號","121.513033333333","24.9844566666667","6500300","中和區"
"235001","AAC-213","2019/08/29 13:49:37","新北市中和區自立路14號","121.522236666667","24.9960633333333","6500300","中和區"
"235023","AAC-215","2019/08/29 13:49:32","新北市中和區圓通路393巷9號","121.489866666667","24.9886916666667","6500300","中和區"
"220013","072-UY","2019/08/29 13:49:35","新北市板橋區館前東路80號","121.461726666667","25.0074583333333","6500100","板橋區"
"220034","073-UY","2019/08/29 13:49:30","新北市板橋區華東街298號","121.452818333333","25.0025883333333","6500100","板橋區"
"220105","075-UY","2019/08/29 13:49:41","新北市板橋區莒光路42號","121.47044","25.0244983333333","6500100","板橋區"
"220017","AAD-861","2019/08/29 13:49:39","新北市板橋區華興街49號","121.457715","25.0047916666667","6500100","板橋區"
"220016","120-SR","2019/08/29 13:49:39","新北市板橋區大同街35巷28號","121.477428333333","25.0278566666667","6500100","板橋區"
"247003","893-R6","2019/08/29 13:49:39","新北市蘆洲區長榮路52號","121.462636666667","25.0832016666667","6501400","蘆洲區"
"247011","337-TH","2019/08/29 13:49:41","新北市蘆洲區中正路520巷10號","121.463631666667","25.0998583333333","6501400","蘆洲區"
"247019","007-UY","2019/08/29 13:49:33","新北市蘆洲區民族路422巷48弄28號","121.474751666667","25.0929883333333","6501400","蘆洲區"
"247005","002-UY","2019/08/29 13:49:26","新北市蘆洲區中山二路256號","121.469275","25.078965","6501400","蘆洲區"
"247023","001-UY","2019/08/29 13:49:26","新北市蘆洲區中正路185巷78弄15號","121.465758333333","25.0846633333333","6501400","蘆洲區"
"235005","251-BX","2019/08/29 13:49:36","新北市中和區永貞路266號","121.513651666667","25.0037283333333","6500300","中和區"
"228005","097-TW","2019/08/29 13:49:43","新北市雙溪區三港里雙澳路100號","121.888766666667","25.0564","6502600","貢寮區"
"228004","212-TW","2019/08/29 13:49:37","新北市貢寮區龍崗里嵩陽街40號","121.905258333333","25.01496","6502600","貢寮區"
"253003","6232-TK","2019/08/29 13:49:42","新北市石門區尖子鹿7-1號","121.574766666667","25.2802666666667","6502200","石門區"
"253004","6251-TK","2019/08/29 13:49:34","新北市石門區草埔尾16號","121.602773333333","25.2634383333333","6502200","石門區"
"253002","637-UY","2019/08/29 13:49:45","新北市石門區尖山湖3-1號","121.564535","25.2413733333333","6502200","石門區"
"253001","KEC-0718","2019/08/29 13:49:36","新北市石門區八甲53-2號","121.52198","25.275255","6502200","石門區"
"207002","749-BX","2019/08/29 13:49:32","新北市萬里區崁腳里崁腳路166號","121.645121666667","25.1559616666667","6502800","萬里區"
"252005","073-UM","2019/08/29 13:49:25","新北市三芝區圓山里內柑宅25-2號","121.536998333333","25.2254966666667","6502100","三芝區"
"207001","662-BX","2019/08/29 13:49:38","新北市萬里區磺潭里公館崙42號","121.630075","25.20775","6502800","萬里區"
"236029","253-BX","2019/08/29 13:49:32","新北市土城區城林路6巷80號","121.438501666667","24.9797666666667","6501300","土城區"
"236024","269-VK","2019/08/29 13:49:40","新北市土城區城林路6巷80號","121.438606666667","24.97973","6501300","土城區"
"236012","270-VK","2019/08/29 13:49:32","新北市土城區城林路6巷80號","121.438545","24.9797166666667","6501300","土城區"
"236032","271-VK","2019/08/29 13:49:31","新北市土城區城林路6巷80號","121.438483333333","24.979795","6501300","土城區"
"247009","KED-0683","2019/08/29 13:49:32","新北市蘆洲區復興路355巷2-1號","121.487665","25.092825","6501400","蘆洲區"
"236068","KEA-2877","2019/08/29 13:49:30","新北市土城區城林路6巷80號","121.438218333333","24.9794683333333","6501300","土城區"
"236017","401-BY","2019/08/29 13:49:43","新北市土城區城林路6巷80號","121.43858","24.9797716666667","6501300","土城區"
"236040","752-BX","2019/08/29 13:49:40","新北市土城區城林路6巷80號","121.438511666667","24.9797216666667","6501300","土城區"
"236057","912-UM","2019/08/29 13:49:43","新北市土城區中央路三段134-1號","121.433586666667","24.965665","6501300","土城區"
"236045","913-UM","2019/08/29 13:49:42","新北市土城區城林路6巷80號","121.438478333333","24.9797516666667","6501300","土城區"
"236060","915-UM","2019/08/29 13:49:44","新北市土城區城林路6巷80號","121.438728333333","24.9797416666667","6501300","土城區"
"236054","AAC-216","2019/08/29 13:49:27","新北市土城區城林路6巷80號","121.438448333333","24.9797683333333","6501300","土城區"
"221029","298-VK","2019/08/29 13:49:25","新北市汐止區福德二路77-2號","121.633441666667","25.0658116666667","6501100","汐止區"
"221021","299-VK","2019/08/29 13:49:27","新北市汐止區中興路58號","121.635446666667","25.0613033333333","6501100","汐止區"
"220027","145-BY","2019/08/29 13:49:24","新北市板橋區南雅西路二段192巷3號","121.452063333333","25.014485","6500100","板橋區"
"220028","200-UY","2019/08/29 13:49:40","新北市板橋區大觀路二段265巷76弄35號","121.44117","24.9967616666667","6500100","板橋區"
"220030","610-BX","2019/08/29 13:49:28","新北市板橋區篤行路三段玉平巷68弄2號","121.42804","24.9861983333333","6500100","板橋區"
"220004","276-BY","2019/08/29 13:49:42","新北市板橋區四川路一段351號","121.458461666667","24.9999116666667","6500100","板橋區"
"220020","277-BY","2019/08/29 13:49:41","新北市板橋區大觀路三段79號","121.433413333333","24.9949916666667","6500100","板橋區"
"220050","280-UM","2019/08/29 13:46:28","新北市板橋區民生路二段161巷1號","121.470043333333","25.0198666666667","6500100","板橋區"
"220019","283-VK","2019/08/29 13:49:31","新北市板橋區四川路一段59號","121.459663333333","25.006135","6500100","板橋區"
"220043","285-UM","2019/08/29 13:49:41","新北市板橋區文化路二段39號","121.468958333333","25.0249933333333","6500100","板橋區"
"220001","285-VK","2019/08/29 13:49:35","新北市板橋區中山路二段153號","121.475436666667","25.0169833333333","6500100","板橋區"
"220031","286-VK","2019/08/29 13:49:33","新北市板橋區大觀路二段22巷33號","121.444935","25.0036066666667","6500100","板橋區"
"220029","287-VK","2019/08/29 13:49:38","新北市板橋區光華街13巷38號","121.452803333333","25.0112266666667","6500100","板橋區"
"220039","288-VK","2019/08/29 13:49:36","新北市板橋區四維路177巷4弄10號","121.463573333333","25.0263416666667","6500100","板橋區"
"220009","293-UM","2019/08/29 13:49:21","新北市板橋區永豐街121號","121.474483333333","25.0196633333333","6500100","板橋區"
"220010","295-UM","2019/08/29 13:49:32","新北市板橋區中山路二段40巷17號","121.47332","25.0148933333333","6500100","板橋區"
"220032","296-UM","2019/08/29 13:49:35","新北市板橋區大觀路二段156巷2號","121.441431666667","24.9991033333333","6500100","板橋區"
"220023","303-R5","2019/08/29 13:49:37","新北市板橋區大觀路一段11號","121.450433333333","25.0084516666667","6500100","板橋區"
"220041","307-R5","2019/08/29 13:49:35","新北市板橋區文化路一段104巷1弄3號","121.465248333333","25.017885","6500100","板橋區"
"220047","317-R6","2019/08/29 13:49:28","新北市板橋區民生路二段232-10號","121.468748333333","25.022625","6500100","板橋區"
"220038","487-VK","2019/08/29 13:49:33","新北市板橋區文化路二段520號","121.475876666667","25.0337683333333","6500100","板橋區"
"220037","491-VK","2019/08/29 13:49:41","新北市板橋區莒光路75號","121.471686666667","25.0242133333333","6500100","板橋區"
"220104","560-BX","2019/08/29 13:49:35","新北市板橋區中正路275巷77號","121.452368333333","25.018095","6500100","板橋區"
"220052","561-BX","2019/08/29 13:49:27","新北市板橋區文化路一段188巷11弄54號","121.46919","25.018905","6500100","板橋區"
"220011","609-BX","2019/08/29 13:49:42","新北市板橋區中山路二段87號","121.474096666667","25.0158766666667","6500100","板橋區"
"220040","637-BX","2019/08/29 13:49:34","新北市板橋區雙十路二段47巷26號","121.475641666667","25.0258583333333","6500100","板橋區"
"220005","686-BX","2019/08/29 13:49:37","新北市板橋區重慶路95號","121.462116666667","25.00573","6500100","板橋區"
"220025","687-BX","2019/08/29 13:49:41","新北市板橋區金門街51號","121.433293333333","24.993235","6500100","板橋區"
"220042","689-BX","2019/08/29 13:49:40","新北市板橋區民生路三段120-2號","121.466516666667","25.02669","6500100","板橋區"
"220002","741-BX","2019/08/29 13:49:23","新北市板橋區館前東路21號","121.460331666667","25.0072366666667","6500100","板橋區"
"220051","KEA-2699","2019/08/29 13:49:29","新北市板橋區縣民大道三段312號","121.478923333333","25.02394","6500100","板橋區"
"220003","827-TW","2019/08/29 13:49:24","新北市板橋區忠孝路169號","121.463951666667","25.0025466666667","6500100","板橋區"
"220014","831-TW","2019/08/29 13:49:33","新北市板橋區民生路二段89-2號","121.471855","25.017755","6500100","板橋區"
"220021","833-TW","2019/08/29 13:49:40","新北市板橋區府中路32號","121.458243333333","25.00959","6500100","板橋區"
"220022","895-R6","2019/08/29 13:49:43","新北市板橋區府中路57號","121.458296666667","25.009245","6500100","板橋區"
"220046","AAC-210","2019/08/29 13:49:46","新北市板橋區漢生西路181號","121.463298333333","25.023755","6500100","板橋區"
"220012","AAC-253","2019/08/29 13:49:36","新北市板橋區漢生東路178號","121.467321666667","25.014665","6500100","板橋區"
"235032","KEA-2873","2019/08/29 13:49:35","新北市中和區圓通路162巷29號","121.496698333333","24.99536","6500300","中和區"
"235025","KEA-2875","2019/08/29 13:49:25","新北市中和區民治街130巷9號","121.474776666667","25.00255","6500300","中和區"
