"lineid","car","time","location","longitude","latitude","cityid","cityname"
"234044","148-BY","2019/08/29 14:19:34","新北市永和區永利路156號","121.52266","25.002575","6500400","永和區"
"234078","298-R6","2019/08/29 14:19:27","新北市永和區國中路104巷11號","121.52466","25.0071333333333","6500400","永和區"
"234036","336-UY","2019/08/29 14:19:36","新北市永和區成功路一段93巷1號","121.52723","25.0027733333333","6500400","永和區"
"234062","337-UY","2019/08/29 14:19:32","新北市永和區得和路129號","121.518996666667","25.00022","6500400","永和區"
"234084","338-UY","2019/08/29 14:19:31","新北市永和區永和路二段85號","121.514831666667","25.011435","6500400","永和區"
"234068","552-UM","2019/08/29 14:19:34","新北市永和區永寧街115巷1號","121.518326666667","25.006245","6500400","永和區"
"234028","746-BX","2019/08/29 14:19:40","新北市永和區民權路49巷5弄25號","121.521203333333","24.9977583333333","6500400","永和區"
"234052","KEA-2590","2019/08/29 14:19:36","新北市永和區光復街2巷26弄1號","121.517658333333","25.0165533333333","6500400","永和區"
"234005","KED-0605","2019/08/29 14:19:45","新北市永和區保平路210號","121.510006666667","25.006045","6500400","永和區"
"234012","KEA-2591","2019/08/29 14:19:26","新北市永和區保生路40巷2號","121.506145","25.00817","6500400","永和區"
"234060","AAD-866","2019/08/29 14:19:38","新北市永和區安樂路188號","121.51491","25.0013316666667","6500400","永和區"
"234040","862-TW","2019/08/29 14:19:29","新北市中和區中安街226號","121.512273333333","24.998665","6500400","永和區"
"234048","863-TW","2019/08/29 14:19:37","新北市永和區保福路三段17號","121.508178333333","25.0157233333333","6500400","永和區"
"234025","9371-KE","2019/08/29 14:19:40","新北市永和區安樂路144巷21-1號","121.514786666667","25.0001066666667","6500400","永和區"
"248015","026-BX","2019/08/29 14:19:41","新北市五股區凌雲路一段36號","121.451958333333","25.1006716666667","6501500","五股區"
"248007","KED-0815","2019/08/29 14:19:26","新北市五股區中興路二段37巷26號","121.46046","25.07499","6501500","五股區"
"248017","KED-0813","2019/08/29 14:19:32","新北市五股區壟路7-3號","121.416085","25.089245","6501500","五股區"
"248011","247-BX","2019/08/29 14:19:33","新北市五股區成泰路二段55號","121.43788","25.0833716666667","6501500","五股區"
"248013","261-SL","2019/08/29 14:19:44","新北市五股區民義路一段181號","121.432276666667","25.08815","6501500","五股區"
"248003","677-BX","2019/08/29 14:19:41","新北市五股區五福路125-1號","121.431811666667","25.0911783333333","6501500","五股區"
"248001","678-BX","2019/08/29 14:19:33","新北市五股區成泰路四段6-1號","121.452988333333","25.1063333333333","6501500","五股區"
"234076","969-R7","2019/08/29 14:19:41","新北市永和區民權路53號","121.520213333333","24.9966266666667","6500400","永和區"
"234072","AAC-211","2019/08/29 14:19:26","新北市永和區竹林路119巷30弄7號","121.52242","25.0117066666667","6500400","永和區"
"234066","AAC-212","2019/08/29 14:19:36","新北市永和區保平路268巷51弄22號","121.506558333333","25.0059883333333","6500400","永和區"
"234001","AAC-295","2019/08/29 14:19:43","新北市永和區中正路618號","121.517036666667","25.0076766666667","6500400","永和區"
"243004","AAD-798","2019/08/29 14:19:27","新北市泰山區仁愛路68號","121.432456666667","25.0547916666667","6501600","泰山區"
"243002","297-R6","2019/08/29 14:19:44","新北市泰山區明志路二段7巷4號","121.430468333333","25.0534283333333","6501600","泰山區"
"243006","KEA-2801","2019/08/29 14:19:39","新北市泰山區泰林路二段204號","121.433311666667","25.0613983333333","6501600","泰山區"
"243008","421-VK","2019/08/29 14:19:31","新北市泰山區工專路18號","121.423783333333","25.0396816666667","6501600","泰山區"
"243001","KEA-2215","2019/08/29 14:19:33","新北市泰山區明志路一段19巷5弄16號","121.434271666667","25.066185","6501600","泰山區"
"243003","KEA-2216","2019/08/29 14:19:42","新北市泰山區貴子路17號","121.426286666667","25.0417666666667","6501600","泰山區"
"243005","646-TV","2019/08/29 14:19:27","新北市泰山區明志路三段145巷11弄1號","121.425665","25.039825","6501600","泰山區"
"243007","680-BX","2019/08/29 14:19:41","新北市泰山區公園路71號","121.42634","25.0554783333333","6501600","泰山區"
"231030","002-UM","2019/08/29 14:19:38","新北市新店區安民街65巷11號","121.515318333333","24.966505","6500600","新店區"
"231024","0291-UT","2019/08/29 14:19:41","新北市新店區薏仁坑路自強巷6號","121.496648333333","24.9585083333333","6500600","新店區"
"231005","046-UY","2019/08/29 14:19:28","新北市新店區中興路三段210號","121.543608333333","24.9822716666667","6500600","新店區"
"231029","106-UY","2019/08/29 14:19:30","新北市新店區安康路二段212-1號","121.509955","24.9594033333333","6500600","新店區"
"231018","107-UY","2019/08/29 14:19:34","新北市新店區中央四街25號","121.52901","24.9743216666667","6500600","新店區"
"231013","108-UY","2019/08/29 14:19:42","新北市新店區大豐路67號","121.539495","24.979525","6500600","新店區"
"231036","110-UY","2019/08/29 14:19:34","新北市新店區安祥路109巷90弄82號","121.475885","24.9583216666667","6500600","新店區"
"231031","256-BX","2019/08/29 14:19:41","新北市新店區碧潭路123號","121.534191666667","24.95911","6500600","新店區"
"231023","260-TV","2019/08/29 14:19:33","新北市新店區光明街5號","121.538361666667","24.9592233333333","6500600","新店區"
"231003","268-BY","2019/08/29 14:19:34","新北市新店區中興路一段202號","121.543585","24.9653733333333","6500600","新店區"
"231035","278-BY","2019/08/29 14:19:37","新北市新店區光華街5巷1號","121.517878333333","24.9687083333333","6500600","新店區"
"231017","AAD-862","2019/08/29 14:19:28","新北市新店區北宜路二段382號","121.56435","24.95322","6500600","新店區"
"231006","355-BY","2019/08/29 14:19:43","新北市新店區北宜路二段419-2號","121.560351666667","24.9545216666667","6500600","新店區"
"231038","3712-VJ","2019/08/29 14:19:39","新北市新店區溪洲路8巷13-1號","121.533425","24.9619783333333","6500600","新店區"
"231027","3713-VJ","2019/08/29 14:19:36","新北市新店區光明街286巷6-3號","121.540651666667","24.9636933333333","6500600","新店區"
"231002","619-UM","2019/08/29 14:19:43","新北市新店區中央路21號","121.533106666667","24.9782333333333","6500600","新店區"
"231034","641-BX","2019/08/29 14:19:27","新北市新店區車子路11號","121.503036666667","24.9520183333333","6500600","新店區"
"231011","KED-0819","2019/08/29 14:19:25","新北市新店區五峰路61巷9號","121.549155","24.969615","6500600","新店區"
"231021","718-UY","2019/08/29 14:19:35","新北市新店區屈尺路75號","121.545635","24.92268","6500600","新店區"
"231028","897-TW","2019/08/29 14:19:33","新北市新店區安業街1號","121.515833333333","24.9788566666667","6500600","新店區"
"231001","898-TW","2019/08/29 14:19:27","新北市新店區北新路一段40號","121.540935","24.96604","6500600","新店區"
"231004","899-TW","2019/08/29 14:19:29","新北市新店區北新路二段64號","121.542976666667","24.97205","6500600","新店區"
"231037","AKT-0513","2019/08/29 14:19:42","新北市新店區安康路二段341巷4號","121.496845","24.9550583333333","6500600","新店區"
"235030","003-UY","2019/08/29 14:19:31","新北市中和區中和路163號","121.502866666667","24.9999666666667","6500300","中和區"
"235028","005-UY","2019/08/29 14:19:37","新北市中和區南山路81巷53號","121.503975","24.9981866666667","6500300","中和區"
"235027","006-UY","2019/08/29 14:19:35","新北市中和區連城路237-1號","121.493825","24.9973016666667","6500300","中和區"
"235020","096-UM","2019/08/29 14:19:35","新北市中和區中山路三段6號","121.479641666667","25.00608","6500300","中和區"
"235003","097-UM","2019/08/29 14:19:33","新北市中和區秀峰街129號","121.517796666667","24.9897233333333","6500300","中和區"
"235029","098-UM","2019/08/29 14:19:42","新北市中和區永和路10號","121.499881666667","25.003055","6500300","中和區"
"235004","150-BY","2019/08/29 14:19:28","新北市中和區保健路106巷44號","121.511206666667","24.9945316666667","6500300","中和區"
"235022","151-BY","2019/08/29 14:19:31","新北市中和區員山路142巷26號","121.482521666667","24.9963066666667","6500300","中和區"
"235019","183-VK","2019/08/29 14:19:35","新北市中和區中山路三段181巷16號","121.47284","25.0054466666667","6500300","中和區"
"235002","185-VK","2019/08/29 14:19:34","新北市中和區大仁街108號","121.520528333333","24.9927183333333","6500300","中和區"
"235013","186-VK","2019/08/29 14:19:37","新北市中和區景新街277號","121.509441666667","24.9936366666667","6500300","中和區"
"235008","293-VK","2019/08/29 14:19:25","新北市中和區復興路304號","121.501316666667","24.990355","6500300","中和區"
"235036","301-VK","2019/08/29 14:19:40","新北市中和區永和路1號","121.499896666667","25.0027833333333","6500300","中和區"
"235007","352-BY","2019/08/29 14:19:32","新北市中和區景平路358號","121.511165","24.9929533333333","6500300","中和區"
"235006","KEA-2878","2019/08/29 14:19:26","新北市中和區安樂路217巷53號","121.51304","24.997565","6500300","中和區"
"247013","KEA-2869","2019/08/29 14:19:42","新北市蘆洲區中山一路165號","121.475261666667","25.0815966666667","6501400","蘆洲區"
"247007","KED-0682","2019/08/29 14:19:29","新北市蘆洲區信義路37巷7號","121.474271666667","25.0798066666667","6501400","蘆洲區"
"235014","4979-A6","2019/08/29 14:19:41","新北市中和區中興街162號","121.499876666667","24.9916533333333","6500300","中和區"
"235033","4980-A6","2019/08/29 14:19:31","新北市中和區景平路736巷3弄1號","121.497211666667","25.0037366666667","6500300","中和區"
"235034","558-UM","2019/08/29 14:19:46","新北市中和區中山路二段223號","121.498496666667","25.0025916666667","6500300","中和區"
"235009","565-BX","2019/08/29 14:19:43","新北市中和區景新街423巷3號","121.513106666667","24.9894016666667","6500300","中和區"
"235024","KED-0823","2019/08/29 14:19:40","新北市中和區員山路314巷7弄10號","121.482068333333","25.003325","6500300","中和區"
"235018","640-BX","2019/08/29 14:19:30","新北市中和區國光街102巷2號","121.470273333333","25.000385","6500300","中和區"
"235011","732-UM","2019/08/29 14:19:36","新北市中和區景平路239巷73號","121.508175","24.9921316666667","6500300","中和區"
"235010","733-UM","2019/08/29 14:19:47","新北市中和區忠孝街2巷7號","121.51027","24.9822366666667","6500300","中和區"
"235035","783-BX","2019/08/29 14:19:33","新北市中和區建二路157號","121.487696666667","25.0036983333333","6500300","中和區"
"235026","800-TS","2019/08/29 14:19:42","新北市中和區中山路二段532號","121.485546666667","25.0050233333333","6500300","中和區"
"235021","801-TS","2019/08/29 14:19:40","新北市中和區員山路437號","121.48076","25.0038783333333","6500300","中和區"
"235016","805-TS","2019/08/29 14:19:35","新北市中和區興南路二段142巷17弄32號","121.502778333333","24.9827716666667","6500300","中和區"
"235012","896-TW","2019/08/29 14:19:28","新北市中和區華新街109巷22號","121.50838","24.9804416666667","6500300","中和區"
"235017","900-TW","2019/08/29 14:19:27","新北市中和區華順街24號","121.466998333333","24.9986333333333","6500300","中和區"
"235031","911-UM","2019/08/29 14:19:41","新北市中和區新生街186巷5弄21號","121.482926666667","24.9989366666667","6500300","中和區"
"235015","157-BY","2019/08/29 14:19:40","新北市中和區景平路239巷53弄8號","121.508901666667","24.9918516666667","6500300","中和區"
"235001","AAC-213","2019/08/29 14:19:37","新北市中和區秀朗路三段10巷14弄18號","121.524906666667","24.996615","6500300","中和區"
"235023","AAC-215","2019/08/29 14:19:32","新北市中和區圓通路252巷5弄38號","121.49221","24.9915533333333","6500300","中和區"
"220013","072-UY","2019/08/29 14:19:35","新北市板橋區民族路129巷14號","121.467825","25.0084583333333","6500100","板橋區"
"220034","073-UY","2019/08/29 14:19:30","新北市板橋區中正路236巷77號","121.459123333333","25.0196533333333","6500100","板橋區"
"220105","075-UY","2019/08/29 14:19:41","新北市板橋區長江路三段76號","121.474016666667","25.0340416666667","6500100","板橋區"
"220017","AAD-861","2019/08/29 14:19:33","新北市板橋區大明街20巷29弄19號","121.457823333333","25.0034716666667","6500100","板橋區"
"220016","120-SR","2019/08/29 14:19:39","新北市板橋區翠華街6巷70號","121.4817","25.0250133333333","6500100","板橋區"
"247003","893-R6","2019/08/29 14:19:39","新北市蘆洲區中原路12巷24號","121.46079","25.0840183333333","6501400","蘆洲區"
"247017","546-UM","2019/08/29 14:19:29","新北市蘆洲區民權路77號","121.473373333333","25.088525","6501400","蘆洲區"
"247001","500-BY","2019/08/29 14:19:37","新北市蘆洲區永樂街78號","121.456905","25.0886016666667","6501400","蘆洲區"
"247011","337-TH","2019/08/29 14:19:40","新北市蘆洲區民權路38巷2號","121.476403333333","25.08649","6501400","蘆洲區"
"247021","057-VK","2019/08/29 14:19:41","新北市蘆洲區三民路224號","121.468746666667","25.0893183333333","6501400","蘆洲區"
"247015","053-VK","2019/08/29 14:19:46","新北市蘆洲區光華路57號","121.46843","25.0828416666667","6501400","蘆洲區"
"247019","007-UY","2019/08/29 14:19:33","新北市蘆洲區民族路446-2號","121.472868333333","25.09208","6501400","蘆洲區"
"247005","002-UY","2019/08/29 14:19:26","新北市蘆洲區長安街22巷42號","121.465063333333","25.080305","6501400","蘆洲區"
"247023","001-UY","2019/08/29 14:19:46","新北市蘆洲區三民路589號","121.461303333333","25.093155","6501400","蘆洲區"
"235005","251-BX","2019/08/29 14:19:36","新北市中和區宜安路100號","121.510483333333","24.99778","6500300","中和區"
"228005","097-TW","2019/08/29 14:19:23","新北市貢寮區美豐里土地公嶺55號","121.894576666667","25.0650716666667","6502600","貢寮區"
"228004","212-TW","2019/08/29 14:19:37","新北市貢寮區雙玉里田寮洋街39-3號","121.924905","25.0138016666667","6502600","貢寮區"
"253003","6232-TK","2019/08/29 14:19:42","新北市石門區內石門66號","121.577218333333","25.258935","6502200","石門區"
"253004","6251-TK","2019/08/29 14:19:34","新北市石門區內阿里磅28號","121.589596666667","25.2427","6502200","石門區"
"253002","637-UY","2019/08/29 14:19:26","新北市石門區大丘田51號","121.550161666667","25.2715883333333","6502200","石門區"
"253001","KEC-0718","2019/08/29 14:19:36","新北市石門區八甲16-1號","121.524708333333","25.280875","6502200","石門區"
"207002","749-BX","2019/08/29 14:19:32","新北市萬里區溪底里瑞泉路3號","121.610445","25.1437266666667","6502800","萬里區"
"252005","073-UM","2019/08/29 14:19:25","新北市三芝區橫山里橫山33號","121.542928333333","25.2588566666667","6502100","三芝區"
"207001","662-BX","2019/08/29 14:19:35","新北市萬里區磺潭里清水18號","121.637966666667","25.19764","6502800","萬里區"
"236074","166-UM","2019/08/29 14:19:39","新北市土城區中央路三段281巷19號","121.425881666667","24.9624083333333","6501300","土城區"
"236029","253-BX","2019/08/29 14:19:32","新北市土城區順風路46號","121.44015","24.977155","6501300","土城區"
"236024","269-VK","2019/08/29 14:19:40","新北市土城區承天路18號","121.439408333333","24.963575","6501300","土城區"
"236012","270-VK","2019/08/29 14:19:32","新北市土城區青雲路39巷7號","121.460323333333","24.9875633333333","6501300","土城區"
"236032","271-VK","2019/08/29 14:19:40","新北市土城區青雲路483巷5號","121.459468333333","24.9739733333333","6501300","土城區"
"247009","KED-0683","2019/08/29 14:19:32","新北市蘆洲區三民路26巷26弄1號","121.477645","25.0829783333333","6501400","蘆洲區"
"236068","KEA-2877","2019/08/29 14:19:30","新北市土城區明德路一段128巷8號","121.462965","24.9788183333333","6501300","土城區"
"236017","401-BY","2019/08/29 14:19:43","新北市土城區永豐路202巷3-1號","121.466575","24.9831433333333","6501300","土城區"
"236040","752-BX","2019/08/29 14:19:40","新北市土城區裕生路21巷6弄23號","121.44871","24.9868416666667","6501300","土城區"
"236057","912-UM","2019/08/29 14:19:23","新北市土城區中央路四段464號","121.409951666667","24.9505416666667","6501300","土城區"
"236045","913-UM","2019/08/29 14:19:42","新北市土城區明德路一段369號","121.455951666667","24.9778233333333","6501300","土城區"
"236060","915-UM","2019/08/29 14:19:43","新北市土城區金城路三段202-3號","121.469515","24.988565","6501300","土城區"
"236054","AAC-216","2019/08/29 14:19:27","新北市土城區中華路二段122號","121.437755","24.973775","6501300","土城區"
"238012","303-VK","2019/08/29 14:19:25","新北市樹林區中山路三段204號","121.387195","24.9684116666667","6500700","樹林區"
"221029","298-VK","2019/08/29 14:19:45","新北市汐止區連峰街1巷1號","121.646565","25.07595","6501100","汐止區"
"221021","299-VK","2019/08/29 14:19:27","新北市汐止區樟樹一路1巷11號","121.641826666667","25.0618866666667","6501100","汐止區"
"220027","145-BY","2019/08/29 14:19:24","新北市板橋區民權路202巷7弄48號","121.458246666667","25.0151016666667","6500100","板橋區"
"220028","200-UY","2019/08/29 14:19:40","新北市板橋區大觀路二段5-5號","121.447005","25.0036","6500100","板橋區"
"220030","610-BX","2019/08/29 14:19:34","新北市板橋區滿平街84巷94號","121.42643","24.986875","6500100","板橋區"
"220004","276-BY","2019/08/29 14:19:36","新北市板橋區信義路279巷19號","121.464733333333","24.9903683333333","6500100","板橋區"
"220020","277-BY","2019/08/29 14:19:38","新北市板橋區金門街280巷11號","121.429023333333","24.98632","6500100","板橋區"
"220050","280-UM","2019/08/29 14:19:28","新北市板橋區縣民大道三段133巷13號","121.477323333333","25.023675","6500100","板橋區"
"220019","283-VK","2019/08/29 14:19:31","新北市板橋區重慶路253號","121.46345","25.0001666666667","6500100","板橋區"
"220043","285-UM","2019/08/29 14:19:41","新北市板橋區吳鳳路50巷85弄1號","121.470183333333","25.03036","6500100","板橋區"
"220001","285-VK","2019/08/29 14:19:35","新北市板橋區富山街18巷28號","121.478493333333","25.0228983333333","6500100","板橋區"
"220031","286-VK","2019/08/29 14:19:33","新北市板橋區大觀路二段174巷166弄3號","121.442283333333","25.0031833333333","6500100","板橋區"
"220029","287-VK","2019/08/29 14:19:25","新北市板橋區南雅東路29巷11號","121.453561666667","25.005465","6500100","板橋區"
"220039","288-VK","2019/08/29 14:19:35","新北市板橋區裕民街56巷17-3號","121.460965","25.029195","6500100","板橋區"
"220009","293-UM","2019/08/29 14:19:41","新北市板橋區中山路一段265巷7-4號","121.468421666667","25.0145416666667","6500100","板橋區"
"220010","295-UM","2019/08/29 14:19:35","新北市板橋區三民路二段153巷30弄31號","121.481183333333","25.0148333333333","6500100","板橋區"
"220032","296-UM","2019/08/29 14:19:35","新北市板橋區滿平街136巷2弄24號","121.428001666667","24.9882516666667","6500100","板橋區"
"220023","303-R5","2019/08/29 14:19:37","新北市板橋區南雅南路一段5巷17號","121.45637","25.00555","6500100","板橋區"
"220041","307-R5","2019/08/29 14:19:35","新北市板橋區光武街2巷14號","121.468481666667","25.0251233333333","6500100","板橋區"
"220047","317-R6","2019/08/29 14:19:46","新北市板橋區四維路115-3號","121.46543","25.024825","6500100","板橋區"
"220038","487-VK","2019/08/29 14:19:33","新北市板橋區英士路76號","121.460191666667","25.0242016666667","6500100","板橋區"
"220037","491-VK","2019/08/29 14:19:41","新北市板橋區文化路二段182巷3弄63號","121.472625","25.0288733333333","6500100","板橋區"
"220104","560-BX","2019/08/29 14:19:35","新北市板橋區瑞安街31巷1號","121.455723333333","25.0228116666667","6500100","板橋區"
"220052","561-BX","2019/08/29 14:19:27","新北市板橋區文化路一段369-1號","121.466865","25.0211783333333","6500100","板橋區"
"220011","609-BX","2019/08/29 14:19:42","新北市板橋區三民路二段247號","121.47919","25.0124233333333","6500100","板橋區"
"220040","637-BX","2019/08/29 14:19:34","新北市板橋區文聖街210號","121.48041","25.0256183333333","6500100","板橋區"
"220005","686-BX","2019/08/29 14:19:28","新北市板橋區和平路174巷1弄7號","121.464341666667","24.9952866666667","6500100","板橋區"
"220025","687-BX","2019/08/29 14:19:41","新北市板橋區龍興街36號","121.443081666667","25.0005983333333","6500100","板橋區"
"220042","689-BX","2019/08/29 14:19:36","新北市板橋區雨農路50號","121.46106","25.0244166666667","6500100","板橋區"
"220002","741-BX","2019/08/29 14:19:43","新北市板橋區後埔街80號","121.460681666667","25.00501","6500100","板橋區"
"220051","KEA-2699","2019/08/29 14:19:29","新北市板橋區松柏街22巷43號","121.47509","25.0289116666667","6500100","板橋區"
"220003","827-TW","2019/08/29 14:19:24","新北市板橋區新民街37號","121.463833333333","25.0105433333333","6500100","板橋區"
"220014","831-TW","2019/08/29 14:14:33","新北市板橋區中山路二段90巷43弄5號","121.476568333333","25.0151083333333","6500100","板橋區"
"220021","833-TW","2019/08/29 14:19:40","新北市板橋區中正路166號","121.456501666667","25.0168966666667","6500100","板橋區"
"220022","895-R6","2019/08/29 14:19:43","新北市板橋區民權路101巷2號","121.45881","25.0133166666667","6500100","板橋區"
"220046","AAC-210","2019/08/29 14:19:46","新北市板橋區幸福路32巷4弄2號","121.460988333333","25.0212683333333","6500100","板橋區"
"220012","AAC-253","2019/08/29 14:19:36","新北市板橋區中山路一段85號","121.461501666667","25.0100266666667","6500100","板橋區"
"235032","KEA-2873","2019/08/29 14:19:29","新北市中和區枋寮街71號","121.501065","25.0011183333333","6500300","中和區"
"235025","KEA-2875","2019/08/29 14:19:25","新北市中和區民安街2巷10號","121.480301666667","25.0015333333333","6500300","中和區"
