"lineid","car","time","location","longitude","latitude","cityid","cityname"
"234078","298-R6","2019/08/29 14:39:27","新北市永和區永利路64號","121.519381666667","25.0050366666667","6500400","永和區"
"234062","337-UY","2019/08/29 14:39:32","新北市永和區保生路55-6號","121.50371","25.01249","6500400","永和區"
"234028","746-BX","2019/08/29 14:39:32","新北市永和區中正路83號","121.515148333333","24.9969766666667","6500400","永和區"
"234005","KED-0605","2019/08/29 14:39:25","新北市永和區秀朗路一段183號","121.517301666667","25.0035583333333","6500400","永和區"
"234040","862-TW","2019/08/29 14:39:29","新北市永和區光復街31號","121.516578333333","25.0177183333333","6500400","永和區"
"234025","9371-KE","2019/08/29 14:39:29","新北市永和區中和路501巷5號","121.510435","25.0026416666667","6500400","永和區"
"248015","026-BX","2019/08/29 14:39:41","新北市五股區成泰路三段577巷80弄7號","121.449501666667","25.104285","6501500","五股區"
"248007","KED-0815","2019/08/29 14:39:46","新北市五股區中興路一段201號","121.463643333333","25.074145","6501500","五股區"
"248017","KED-0813","2019/08/29 14:39:32","新北市五股區外寮路13-1號","121.424966666667","25.08128","6501500","五股區"
"248011","247-BX","2019/08/29 14:39:40","新北市五股區民義路一段45號","121.436291666667","25.0845433333333","6501500","五股區"
"248013","261-SL","2019/08/29 14:39:42","新北市五股區五福路32巷1號","121.434243333333","25.0892533333333","6501500","五股區"
"248003","677-BX","2019/08/29 14:39:41","新北市五股區成泰路一段170號","121.435278333333","25.076865","6501500","五股區"
"248001","678-BX","2019/08/29 14:39:33","新北市五股區成泰路三段369-1號","121.448846666667","25.096075","6501500","五股區"
"248009","682-TV","2019/08/29 14:39:40","新北市五股區登林路76號","121.429358333333","25.07009","6501500","五股區"
"234072","AAC-211","2019/08/29 14:39:41","新北市永和區環河東路二段10號","121.522243333333","25.0131633333333","6500400","永和區"
"234001","AAC-295","2019/08/29 14:39:43","新北市永和區福和路294號","121.517186666667","25.0075933333333","6500400","永和區"
"243004","AAD-798","2019/08/29 14:39:27","新北市泰山區仁愛路94號","121.433213333333","25.05532","6501600","泰山區"
"243002","297-R6","2019/08/29 14:39:24","新北市泰山區明志路二段136巷24號","121.42617","25.0519583333333","6501600","泰山區"
"243006","KEA-2801","2019/08/29 14:39:39","新北市泰山區泰林路二段33-1號","121.435708333333","25.0568533333333","6501600","泰山區"
"243008","421-VK","2019/08/29 14:39:31","新北市泰山區貴陽街88號","121.424066666667","25.031795","6501600","泰山區"
"243001","KEA-2215","2019/08/29 14:39:33","新北市泰山區泰林路二段164巷37號","121.434165","25.0613466666667","6501600","泰山區"
"243003","KEA-2216","2019/08/29 14:39:42","新北市泰山區明志路三段196巷9號","121.423416666667","25.0388716666667","6501600","泰山區"
"231030","002-UM","2019/08/29 14:39:38","新北市新店區安民街113號","121.516308333333","24.9684066666667","6500600","新店區"
"231005","046-UY","2019/08/29 14:39:38","新北市新店區復興路16號","121.539616666667","24.9867666666667","6500600","新店區"
"231029","106-UY","2019/08/29 14:39:30","新北市新店區安康路三段148號","121.490593333333","24.9517766666667","6500600","新店區"
"231018","107-UY","2019/08/29 14:39:34","新北市新店區中央路222號","121.529731666667","24.97292","6500600","新店區"
"231013","108-UY","2019/08/29 14:39:44","新北市新店區明德路71-2號","121.541411666667","24.977655","6500600","新店區"
"231036","110-UY","2019/08/29 14:39:46","新北市新店區安祥路106巷195號","121.47417","24.9600866666667","6500600","新店區"
"231031","256-BX","2019/08/29 14:39:41","新北市新店區安民街379巷28號","121.515306666667","24.9759133333333","6500600","新店區"
"231023","260-TV","2019/08/29 14:39:41","新北市新店區檳榔路45號","121.543175","24.9628783333333","6500600","新店區"
"231003","268-BY","2019/08/29 14:39:34","新北市新店區中正路5號","121.545756666667","24.969","6500600","新店區"
"231035","278-BY","2019/08/29 14:39:35","新北市新店區安德街2號","121.512258333333","24.9628066666667","6500600","新店區"
"231017","AAD-862","2019/08/29 14:39:28","新北市新店區北宜路三段144號","121.5851","24.95042","6500600","新店區"
"231006","355-BY","2019/08/29 14:39:31","新北市新店區北宜路二段273號","121.55485","24.9536016666667","6500600","新店區"
"231038","3712-VJ","2019/08/29 14:39:39","新北市新店區安華路28-1號","121.519663333333","24.9608966666667","6500600","新店區"
"231027","3713-VJ","2019/08/29 14:39:45","新北市新店區中正路76巷11弄24號","121.54378","24.97192","6500600","新店區"
"231002","619-UM","2019/08/29 14:39:34","新北市新店區中正路468-3號","121.533913333333","24.9803583333333","6500600","新店區"
"231034","641-BX","2019/08/29 14:39:27","新北市新店區黎明路53巷1號","121.502235","24.9487866666667","6500600","新店區"
"231011","KED-0819","2019/08/29 14:39:25","新北市新店區寶宏路3-6號","121.54924","24.9763","6500600","新店區"
"231021","718-UY","2019/08/29 14:39:35","新北市新店區桂山路73-1號","121.566121666667","24.9008933333333","6500600","新店區"
"231028","897-TW","2019/08/29 14:39:33","新北市新店區安德街88號","121.509865","24.961375","6500600","新店區"
"231001","898-TW","2019/08/29 14:39:27","新北市新店區中正路49號","121.544686666667","24.9699","6500600","新店區"
"231004","899-TW","2019/08/29 14:39:30","新北市新店區中正路293號","121.537233333333","24.9745983333333","6500600","新店區"
"231037","AKT-0513","2019/08/29 14:39:42","新北市新店區柴埕路52巷3號","121.51174","24.9644966666667","6500600","新店區"
"235030","003-UY","2019/08/29 14:39:31","新北市中和區景新街129號","121.505735","24.99727","6500300","中和區"
"235027","006-UY","2019/08/29 14:39:35","新北市中和區連城路263巷7弄2號","121.492271666667","24.9958066666667","6500300","中和區"
"235020","096-UM","2019/08/29 14:39:31","新北市中和區員山路581巷2-10號","121.477478333333","25.0090616666667","6500300","中和區"
"235003","097-UM","2019/08/29 14:39:33","新北市中和區安平路196號","121.51334","24.9993916666667","6500300","中和區"
"235029","098-UM","2019/08/29 14:39:42","新北市中和區永和路90巷2弄15號","121.497921666667","25.0055016666667","6500300","中和區"
"235004","150-BY","2019/08/29 14:39:28","新北市中和區宜安路13號","121.513218333333","24.99561","6500300","中和區"
"235022","151-BY","2019/08/29 14:39:31","新北市中和區員山路226巷3弄5號","121.48176","25.0011666666667","6500300","中和區"
"235019","183-VK","2019/08/29 14:39:35","新北市中和區德光路93號","121.468941666667","25.0035533333333","6500300","中和區"
"235002","185-VK","2019/08/29 14:39:34","新北市中和區自立路18號","121.522065","24.9934416666667","6500300","中和區"
"235013","186-VK","2019/08/29 14:39:43","新北市中和區中正路58-1號","121.501721666667","24.9935516666667","6500300","中和區"
"235008","293-VK","2019/08/29 14:39:25","新北市中和區南山路286號","121.507848333333","24.9875033333333","6500300","中和區"
"235036","301-VK","2019/08/29 14:39:40","新北市中和區光華街64號","121.505701666667","25.003675","6500300","中和區"
"235007","352-BY","2019/08/29 14:39:32","新北市中和區安和路9號","121.51149","24.9936283333333","6500300","中和區"
"235006","KEA-2878","2019/08/29 14:39:46","新北市中和區宜安路171號","121.508443333333","24.9990916666667","6500300","中和區"
"247013","KEA-2869","2019/08/29 14:39:32","新北市蘆洲區忠孝路22號","121.470986666667","25.0840716666667","6501400","蘆洲區"
"247007","KED-0682","2019/08/29 14:39:29","新北市蘆洲區中山一路263號","121.472841666667","25.0800316666667","6501400","蘆洲區"
"235034","558-UM","2019/08/29 14:39:26","新北市中和區連勝街10號","121.498861666667","24.998535","6500300","中和區"
"235018","640-BX","2019/08/29 14:39:29","新北市中和區莒光路106號","121.472395","25.0021983333333","6500300","中和區"
"235011","732-UM","2019/08/29 14:39:36","新北市中和區和平街28號","121.509635","24.990195","6500300","中和區"
"235010","733-UM","2019/08/29 14:39:28","新北市中和區景新街496巷22號","121.513346666667","24.9862066666667","6500300","中和區"
"235035","783-BX","2019/08/29 14:39:33","新北市中和區中正路637巷18弄20號","121.48434","24.9950433333333","6500300","中和區"
"235021","801-TS","2019/08/29 14:39:40","新北市中和區民樂路81號","121.484691666667","25.0013816666667","6500300","中和區"
"235016","805-TS","2019/08/29 14:39:35","新北市中和區華新街208號","121.506523333333","24.9820366666667","6500300","中和區"
"235012","896-TW","2019/08/29 14:39:28","新北市中和區仁愛街128號","121.511921666667","24.9866333333333","6500300","中和區"
"235017","900-TW","2019/08/29 14:39:27","新北市中和區國光街184巷21號","121.46735","25.0020983333333","6500300","中和區"
"235031","911-UM","2019/08/29 14:39:45","新北市中和區員山路148巷23弄30號","121.482275","24.9978966666667","6500300","中和區"
"235015","157-BY","2019/08/29 14:39:40","新北市中和區中興街180巷33號","121.498321666667","24.9891483333333","6500300","中和區"
"235001","AAC-213","2019/08/29 14:39:37","新北市中和區秀朗路三段130-2號","121.524528333333","24.9919483333333","6500300","中和區"
"235023","AAC-215","2019/08/29 14:39:45","新北市中和區圓通路335巷1弄27號","121.493341666667","24.9906483333333","6500300","中和區"
"220013","072-UY","2019/08/29 14:39:35","新北市板橋區實踐路93巷101號","121.4673","25.00588","6500100","板橋區"
"220034","073-UY","2019/08/29 14:39:30","新北市板橋區中正路250巷91號","121.459468333333","25.0200066666667","6500100","板橋區"
"220105","075-UY","2019/08/29 14:39:41","新北市板橋區文化路二段652號","121.478511666667","25.0357033333333","6500100","板橋區"
"220017","AAD-861","2019/08/29 14:39:42","新北市板橋區南雅南路二段11-29號","121.453723333333","25.001255","6500100","板橋區"
"220016","120-SR","2019/08/29 14:39:39","新北市板橋區中山路二段416巷48弄1號","121.48303","25.0197716666667","6500100","板橋區"
"247003","893-R6","2019/08/29 14:39:39","新北市蘆洲區長安街218號","121.45837","25.0844683333333","6501400","蘆洲區"
"247001","500-BY","2019/08/29 14:39:37","新北市蘆洲區永樂街38巷57弄10號","121.457868333333","25.0905516666667","6501400","蘆洲區"
"247011","337-TH","2019/08/29 14:39:40","新北市蘆洲區集賢路224巷46弄18號","121.481376666667","25.0881933333333","6501400","蘆洲區"
"247021","057-VK","2019/08/29 14:39:41","新北市蘆洲區仁愛街216號","121.464831666667","25.0927883333333","6501400","蘆洲區"
"247015","053-VK","2019/08/29 14:39:46","新北市蘆洲區正和街35號","121.469561666667","25.0818333333333","6501400","蘆洲區"
"247019","007-UY","2019/08/29 14:39:33","新北市蘆洲區民權路125號","121.472063333333","25.0901","6501400","蘆洲區"
"247005","002-UY","2019/08/29 14:39:26","新北市蘆洲區長安街68巷9號","121.463055","25.0804583333333","6501400","蘆洲區"
"247023","001-UY","2019/08/29 14:39:46","新北市蘆洲區正和街63巷24號","121.46933","25.0803616666667","6501400","蘆洲區"
"235005","251-BX","2019/08/29 14:39:36","新北市中和區宜安路140號","121.509686666667","24.998465","6500300","中和區"
"228005","097-TW","2019/08/29 14:39:43","新北市貢寮區美豐里雞母嶺街6-6號","121.902061666667","25.0642233333333","6502600","貢寮區"
"228004","212-TW","2019/08/29 14:39:37","新北市貢寮區福隆里龜壽谷街30號","121.946905","25.0131316666667","6502600","貢寮區"
"253003","6232-TK","2019/08/29 14:39:42","新北市石門區尖子鹿116-1號","121.574751666667","25.2970116666667","6502200","石門區"
"253004","6251-TK","2019/08/29 14:39:34","新北市石門區阿里磅90號","121.589603333333","25.2598133333333","6502200","石門區"
"253002","637-UY","2019/08/29 14:36:26","新北市三芝區橫山里橫山39-7號","121.545788333333","25.2545633333333","6502200","石門區"
"253001","KEC-0718","2019/08/29 14:39:36","新北市石門區崁子腳90-3號","121.535423333333","25.2716866666667","6502200","石門區"
"207002","749-BX","2019/08/29 14:39:32","新北市萬里區崁腳里崁腳路73號","121.647631666667","25.1596066666667","6502800","萬里區"
"252005","073-UM","2019/08/29 14:39:25","新北市三芝區埔坪里埔頭坑78號","121.509186666667","25.25441","6502100","三芝區"
"207001","662-BX","2019/08/29 14:39:35","新北市萬里區磺潭里員潭路54號","121.643456666667","25.1905933333333","6502800","萬里區"
"236074","166-UM","2019/08/29 14:39:39","新北市土城區頂埔街62號","121.418075","24.9598883333333","6501300","土城區"
"236029","253-BX","2019/08/29 14:39:32","新北市土城區中華路二段185號","121.438466666667","24.9746716666667","6501300","土城區"
"236024","269-VK","2019/08/29 14:39:40","新北市土城區忠義路47-1號","121.44081","24.96951","6501300","土城區"
"236012","270-VK","2019/08/29 14:39:41","新北市土城區清水路205號","121.460135","24.9817933333333","6501300","土城區"
"236032","271-VK","2019/08/29 14:39:32","新北市土城區明德路一段313巷3弄7號","121.459903333333","24.9764883333333","6501300","土城區"
"247009","KED-0683","2019/08/29 14:39:32","新北市蘆洲區信義路222巷9號","121.479331666667","25.0853516666667","6501400","蘆洲區"
"236068","KEA-2877","2019/08/29 14:39:30","新北市土城區永豐路342-1號","121.47429","24.97664","6501300","土城區"
"236017","401-BY","2019/08/29 14:39:23","新北市土城區延吉街268號","121.46591","24.9844633333333","6501300","土城區"
"236040","752-BX","2019/08/29 14:39:00","新北市土城區裕民路55巷15號","121.449533333333","24.9888066666667","6501300","土城區"
"236057","912-UM","2019/08/29 14:39:43","新北市土城區中央路四段27巷4號","121.42495","24.9626116666667","6501300","土城區"
"236045","913-UM","2019/08/29 14:39:42","新北市土城區明德路一段109號","121.465565","24.9820583333333","6501300","土城區"
"236060","915-UM","2019/08/29 14:39:43","新北市土城區延壽路13巷38號","121.469953333333","24.9913933333333","6501300","土城區"
"236054","AAC-216","2019/08/29 14:39:26","新北市土城區中華路一段55號","121.445516666667","24.98825","6501300","土城區"
"238012","303-VK","2019/08/29 14:39:25","新北市樹林區育德街78號","121.387766666667","24.9685433333333","6500700","樹林區"
"221029","298-VK","2019/08/29 14:39:45","新北市汐止區福德一路86巷83號","121.636386666667","25.06832","6501100","汐止區"
"221021","299-VK","2019/08/29 14:39:27","新北市汐止區宜興街142號","121.624686666667","25.0430633333333","6501100","汐止區"
"220027","145-BY","2019/08/29 14:39:24","新北市板橋區民權路308號","121.45726","25.0162666666667","6500100","板橋區"
"220028","200-UY","2019/08/29 14:39:42","新北市板橋區大觀路二段37巷138號","121.4493","25.0017433333333","6500100","板橋區"
"220030","610-BX","2019/08/29 14:39:45","新北市板橋區金門街241號","121.432021666667","24.9893233333333","6500100","板橋區"
"220004","276-BY","2019/08/29 14:39:36","新北市板橋區干城路160號","121.460516666667","24.9920583333333","6500100","板橋區"
"220020","277-BY","2019/08/29 14:39:38","新北市板橋區金門街253巷16弄2號","121.432773333333","24.9881633333333","6500100","板橋區"
"220050","280-UM","2019/08/29 14:39:28","新北市板橋區莊敬路262-1號","121.47422","25.0218133333333","6500100","板橋區"
"220019","283-VK","2019/08/29 14:39:31","新北市板橋區四川路一段327號","121.458733333333","25.0004566666667","6500100","板橋區"
"220043","285-UM","2019/08/29 14:39:41","新北市板橋區長江路二段165號","121.466523333333","25.0319816666667","6500100","板橋區"
"220001","285-VK","2019/08/29 14:39:35","新北市板橋區中山路二段148巷15號","121.476996666667","25.0165283333333","6500100","板橋區"
"220031","286-VK","2019/08/29 14:39:33","新北市板橋區龍興街65巷42號","121.442735","25.0017583333333","6500100","板橋區"
"220029","287-VK","2019/08/29 14:39:45","新北市板橋區大觀路一段29巷137弄1號","121.45021","25.0053883333333","6500100","板橋區"
"220039","288-VK","2019/08/29 14:39:35","新北市板橋區綠堤街33-4號","121.455666666667","25.0265233333333","6500100","板橋區"
"220009","293-UM","2019/08/29 14:39:41","新北市板橋區觀光街35號","121.4713","25.0161716666667","6500100","板橋區"
"220010","295-UM","2019/08/29 14:39:35","新北市板橋區三民路二段35巷2-1號","121.479798333333","25.0170533333333","6500100","板橋區"
"220032","296-UM","2019/08/29 14:39:35","新北市板橋區溪崑二街130巷5號","121.425176666667","24.9879883333333","6500100","板橋區"
"220023","303-R5","2019/08/29 14:39:37","新北市板橋區中正路275巷54號","121.453478333333","25.0181633333333","6500100","板橋區"
"220041","307-R5","2019/08/29 14:39:35","新北市板橋區四維路259巷67號","121.460736666667","25.02678","6500100","板橋區"
"220047","317-R6","2019/08/29 14:39:26","新北市板橋區四維路292號","121.462803333333","25.0292133333333","6500100","板橋區"
"220038","487-VK","2019/08/29 14:39:33","新北市板橋區龍泉街108巷104號","121.455431666667","25.0255283333333","6500100","板橋區"
"220037","491-VK","2019/08/29 14:39:41","新北市板橋區文化路二段389號","121.473555","25.0313933333333","6500100","板橋區"
"220104","560-BX","2019/08/29 14:39:35","新北市板橋區中正路431號","121.454191666667","25.023265","6500100","板橋區"
"220052","561-BX","2019/08/29 14:39:27","新北市板橋區文化路一段421巷38號","121.466306666667","25.023255","6500100","板橋區"
"220011","609-BX","2019/08/29 14:39:43","新北市板橋區三民路一段89號","121.479431666667","25.021575","6500100","板橋區"
"220040","637-BX","2019/08/29 14:39:35","新北市板橋區懷德街181巷25號","121.480165","25.030455","6500100","板橋區"
"220005","686-BX","2019/08/29 14:39:33","新北市板橋區和平路安樂巷25號","121.461666666667","24.9936133333333","6500100","板橋區"
"220025","687-BX","2019/08/29 14:39:41","新北市板橋區大觀路一段28巷20號","121.449975","25.00906","6500100","板橋區"
"220042","689-BX","2019/08/29 14:39:42","新北市板橋區長江路一段114號","121.459835","25.029695","6500100","板橋區"
"220002","741-BX","2019/08/29 14:39:43","新北市板橋區忠孝路196號","121.465646666667","25.0027233333333","6500100","板橋區"
"220051","KEA-2699","2019/08/29 14:39:29","新北市板橋區文化路二段410巷1弄3號","121.474381666667","25.03121","6500100","板橋區"
"220003","827-TW","2019/08/29 14:39:44","新北市板橋區重慶路290巷6號","121.462966666667","24.9989433333333","6500100","板橋區"
"220014","831-TW","2019/08/29 14:39:33","新北市板橋區漢生東路279巷10弄11號","121.472268333333","25.0087616666667","6500100","板橋區"
"220021","833-TW","2019/08/29 14:39:40","新北市板橋區新生街58號","121.457041666667","25.0210033333333","6500100","板橋區"
"220022","895-R6","2019/08/29 14:39:36","新北市板橋區館前西路150號","121.455595","25.00843","6500100","板橋區"
"220046","AAC-210","2019/08/29 14:39:26","新北市板橋區文化路一段123號","121.461875","25.0149333333333","6500100","板橋區"
"220012","AAC-253","2019/08/29 14:39:36","新北市板橋區中山路一段101號","121.461781666667","25.0101333333333","6500100","板橋區"
"235032","KEA-2873","2019/08/29 14:39:28","新北市中和區中山路二段250巷15號","121.49721","25.0033266666667","6500300","中和區"
