"lineid","car","time","location","longitude","latitude","cityid","cityname"
"234040","862-TW","2019/08/29 14:59:29","新北市八里區荖阡坑路22-4號","121.399173333333","25.13385","6500400","永和區"
"234025","9371-KE","2019/08/29 14:59:29","新北市永和區水源街21巷14弄4號","121.511338333333","25.0037816666667","6500400","永和區"
"248015","026-BX","2019/08/29 14:59:41","新北市五股區凌雲路一段158巷37號","121.447058333333","25.1038166666667","6501500","五股區"
"248007","KED-0815","2019/08/29 14:59:26","新北市五股區四維路118巷13號","121.469253333333","25.0742266666667","6501500","五股區"
"248017","KED-0813","2019/08/29 14:59:32","新北市五股區登林路106巷10號","121.42685","25.0710283333333","6501500","五股區"
"248011","247-BX","2019/08/29 14:59:34","新北市五股區民義路一段208號","121.430541666667","25.0892633333333","6501500","五股區"
"248003","677-BX","2019/08/29 14:59:41","新北市五股區成泰路一段149-7號","121.435315","25.073695","6501500","五股區"
"248001","678-BX","2019/08/29 14:59:33","新北市五股區成泰路三段74號","121.444143333333","25.0896266666667","6501500","五股區"
"248009","682-TV","2019/08/29 14:59:40","新北市五股區成泰路一段7巷48弄8號","121.432673333333","25.0678533333333","6501500","五股區"
"243004","AAD-798","2019/08/29 14:59:27","新北市泰山區楓江路113號","121.438431666667","25.0641033333333","6501600","泰山區"
"243006","KEA-2801","2019/08/29 14:59:39","新北市泰山區泰林路二段401號","121.426986666667","25.0641316666667","6501600","泰山區"
"243008","421-VK","2019/08/29 14:59:35","新北市泰山區新生路23號","121.42718","25.0455316666667","6501600","泰山區"
"243001","KEA-2215","2019/08/29 14:59:33","新北市泰山區泰林路二段306巷10號","121.431075","25.0634716666667","6501600","泰山區"
"243003","KEA-2216","2019/08/29 14:59:42","新北市泰山區德安街8號","121.418858333333","25.0320133333333","6501600","泰山區"
"243005","646-TV","2019/08/29 14:59:41","新北市泰山區中央路5巷31號","121.427553333333","25.0431366666667","6501600","泰山區"
"243007","680-BX","2019/08/29 14:59:41","新北市泰山區仁愛路92號","121.433083333333","25.0553583333333","6501600","泰山區"
"231030","002-UM","2019/08/29 14:59:38","新北市新店區安民街337號","121.517195","24.9748983333333","6500600","新店區"
"231024","0291-UT","2019/08/29 14:59:41","新北市新店區力行路12號","121.539333333333","24.9647066666667","6500600","新店區"
"231005","046-UY","2019/08/29 14:59:28","新北市新店區復興路27號","121.539058333333","24.986665","6500600","新店區"
"231029","106-UY","2019/08/29 14:59:30","新北市新店區錦秀路11巷90弄2號","121.480391666667","24.943155","6500600","新店區"
"231018","107-UY","2019/08/29 14:59:34","新北市新店區中央路192號","121.530805","24.9746733333333","6500600","新店區"
"231013","108-UY","2019/08/29 14:59:28","新北市新店區華城路2號","121.530456666667","24.9606466666667","6500600","新店區"
"231036","110-UY","2019/08/29 14:59:26","新北市新店區安祥路102巷46弄33號","121.485685","24.9636783333333","6500600","新店區"
"231039","187-VK","2019/08/29 14:59:30","新北市新店區中興路二段186號","121.54809","24.9727583333333","6500600","新店區"
"231031","256-BX","2019/08/29 14:59:41","新北市新店區安康路二段317號","121.499411666667","24.9565983333333","6500600","新店區"
"231023","260-TV","2019/08/29 14:59:33","新北市新店區檳榔路109號","121.544488333333","24.9615233333333","6500600","新店區"
"231003","268-BY","2019/08/29 14:59:42","新北市新店區五峰路57-1號","121.546936666667","24.9708383333333","6500600","新店區"
"231035","278-BY","2019/08/29 14:59:35","新北市新店區安和路二段240號","121.516641666667","24.9785633333333","6500600","新店區"
"231017","AAD-862","2019/08/29 14:59:28","新北市新店區北宜路三段140號","121.58447","24.949895","6500600","新店區"
"231006","355-BY","2019/08/29 14:59:31","新北市新店區北宜路一段98號","121.538905","24.9554183333333","6500600","新店區"
"231038","3712-VJ","2019/08/29 14:59:39","新北市新店區安華路28-1號","121.519776666667","24.96072","6500600","新店區"
"231025","4715-K9","2019/08/29 14:59:45","新北市新店區二十張路46巷37弄22號","121.536171666667","24.981675","6500600","新店區"
"231002","619-UM","2019/08/29 14:59:34","新北市新店區民權路119號","121.535865","24.98274","6500600","新店區"
"231034","641-BX","2019/08/29 14:59:27","新北市新店區玫瑰路4-1號","121.4936","24.9513733333333","6500600","新店區"
"231011","KED-0819","2019/08/29 14:59:45","新北市新店區中興路三段6號","121.546806666667","24.9767533333333","6500600","新店區"
"231021","718-UY","2019/08/29 14:59:35","新北市新店區桂山路37號","121.563153333333","24.90437","6500600","新店區"
"231028","897-TW","2019/08/29 14:59:33","新北市新店區安德街173號","121.508683333333","24.9589166666667","6500600","新店區"
"231001","898-TW","2019/08/29 14:59:27","新北市新店區中正路261號","121.538778333333","24.9735983333333","6500600","新店區"
"231004","899-TW","2019/08/29 14:59:28","新北市新店區民族路26號","121.540718333333","24.978805","6500600","新店區"
"231037","AKT-0513","2019/08/29 14:59:42","新北市新店區安興路56號","121.51651","24.97498","6500600","新店區"
"235030","003-UY","2019/08/29 14:59:31","新北市中和區中山路二段17號","121.505078333333","25.0055266666667","6500300","中和區"
"235020","096-UM","2019/08/29 14:59:37","新北市中和區中山路三段172號","121.472768333333","25.0063816666667","6500300","中和區"
"235003","097-UM","2019/08/29 14:59:33","新北市中和區安樂路217巷47號","121.513183333333","24.9977383333333","6500300","中和區"
"235029","098-UM","2019/08/29 14:59:42","新北市中和區福美路315號","121.496765","25.0047383333333","6500300","中和區"
"235004","150-BY","2019/08/29 14:59:28","新北市中和區保健路10巷21弄27號","121.508493333333","24.99765","6500300","中和區"
"235019","183-VK","2019/08/29 14:59:35","新北市新莊區化成路585-8號","121.463516666667","25.0667366666667","6500300","中和區"
"235036","301-VK","2019/08/29 14:59:40","新北市中和區保平路340巷18號","121.506048333333","25.0046083333333","6500300","中和區"
"235007","352-BY","2019/08/29 14:59:32","新北市中和區興南路二段159巷7號","121.505283333333","24.98312","6500300","中和區"
"235014","4979-A6","2019/08/29 14:59:41","新北市中和區景平路155號","121.513378333333","24.9919466666667","6500300","中和區"
"235034","558-UM","2019/08/29 14:59:26","新北市中和區圓通路118號","121.499151666667","24.9962583333333","6500300","中和區"
"235010","733-UM","2019/08/29 14:59:28","新北市中和區忠孝街31巷29號","121.510015","24.9843383333333","6500300","中和區"
"235035","783-BX","2019/08/29 14:59:33","新北市中和區中正路739號","121.485035","24.9993766666667","6500300","中和區"
"235012","896-TW","2019/08/29 14:59:28","新北市中和區忠孝街1巷2-1號","121.509131666667","24.9830233333333","6500300","中和區"
"235015","157-BY","2019/08/29 14:59:40","新北市中和區復興路12號","121.505818333333","24.9898516666667","6500300","中和區"
"235001","AAC-213","2019/08/29 14:59:37","新北市中和區自立路151號","121.522796666667","24.9931133333333","6500300","中和區"
"235023","AAC-215","2019/08/29 14:59:42","新北市中和區圓通路331-5號","121.492178333333","24.9906483333333","6500300","中和區"
"220013","072-UY","2019/08/29 14:59:38","新北市板橋區海山路45號","121.467005","25.0099583333333","6500100","板橋區"
"220034","073-UY","2019/08/29 14:59:30","新北市板橋區林園街56號","121.453906666667","25.0108016666667","6500100","板橋區"
"220105","075-UY","2019/08/29 14:59:41","新北市板橋區懷德街66巷34號","121.476468333333","25.0316733333333","6500100","板橋區"
"220017","AAD-861","2019/08/29 14:59:33","新北市板橋區大明街18-5號","121.458756666667","25.00297","6500100","板橋區"
"220016","120-SR","2019/08/29 14:59:39","新北市板橋區光復街234-1號","121.484683333333","25.0215066666667","6500100","板橋區"
"247001","500-BY","2019/08/29 14:59:37","新北市蘆洲區環堤大道98號","121.45525","25.0862083333333","6501400","蘆洲區"
"228005","097-TW","2019/08/29 14:59:43","新北市貢寮區仁理村研海街62-2號","121.925623333333","25.0439883333333","6502600","貢寮區"
"228004","212-TW","2019/08/29 14:59:37","新北市貢寮區雙玉里田寮洋街1號","121.927911666667","25.01834","6502600","貢寮區"
"253004","6251-TK","2019/08/29 14:59:34","新北市石門區坪林5號","121.591598333333","25.276665","6502200","石門區"
"253002","637-UY","2019/08/29 14:59:45","新北市石門區楓林42號","121.540233333333","25.2808316666667","6502200","石門區"
"253001","KEC-0718","2019/08/29 14:59:36","新北市石門區崁子腳18-4號","121.535571666667","25.2894683333333","6502200","石門區"
"207002","749-BX","2019/08/29 14:59:32","新北市萬里區崁腳里崁腳路73號","121.647553333333","25.15957","6502800","萬里區"
"207001","662-BX","2019/08/29 14:59:35","新北市萬里區雙興里豐稟路6-1號","121.648878333333","25.185165","6502800","萬里區"
"236074","166-UM","2019/08/29 14:59:38","新北市土城區大暖坑11-1號","121.418621666667","24.9538483333333","6501300","土城區"
"236029","253-BX","2019/08/29 14:59:32","新北市土城區中央路二段304號","121.44018","24.9735183333333","6501300","土城區"
"236024","269-VK","2019/08/29 14:59:40","新北市土城區中正路56巷2號","121.443831666667","24.975325","6501300","土城區"
"236012","270-VK","2019/08/29 14:59:32","新北市土城區延和路13巷10號","121.463861666667","24.9884083333333","6501300","土城區"
"236032","271-VK","2019/08/29 14:59:31","新北市土城區仁愛路6巷3號","121.459821666667","24.9809733333333","6501300","土城區"
"236068","KEA-2877","2019/08/29 14:59:30","新北市土城區明德路二段213號","121.446225","24.9838166666667","6501300","土城區"
"236017","401-BY","2019/08/29 14:59:43","新北市土城區延吉街168巷7號","121.468165","24.9856333333333","6501300","土城區"
"236040","752-BX","2019/08/29 14:59:40","新北市土城區裕民路177號","121.453348333333","24.98475","6501300","土城區"
"236057","912-UM","2019/08/29 14:59:43","新北市土城區明德路一段385-1號","121.452428333333","24.9798316666667","6501300","土城區"
"236045","913-UM","2019/08/29 14:59:31","新北市土城區青雲路319號","121.458941666667","24.9787216666667","6501300","土城區"
"236060","915-UM","2019/08/29 14:59:23","新北市土城區延和路88巷10弄1號","121.466765","24.98884","6501300","土城區"
"236054","AAC-216","2019/08/29 14:59:26","新北市土城區裕民路28號","121.44781","24.988555","6501300","土城區"
"238010","601-UM","2019/08/29 14:59:36","新北市樹林區大安路576號","121.411715","24.9836983333333","6500700","樹林區"
"238006","599-UM","2019/08/29 14:59:41","新北市樹林區育德街78號","121.387646666667","24.96862","6500700","樹林區"
"238009","KEA-2213","2019/08/29 14:59:39","新北市樹林區八德街668號","121.395665","24.9687733333333","6500700","樹林區"
"238008","KEA-2539","2019/08/29 14:59:35","新北市樹林區八德街828-2號","121.393965","24.9676183333333","6500700","樹林區"
"238012","303-VK","2019/08/29 14:59:25","新北市樹林區育德街78號","121.387756666667","24.9684933333333","6500700","樹林區"
"238004","283-BY","2019/08/29 14:59:31","新北市樹林區育德街78號","121.387551666667","24.9684983333333","6500700","樹林區"
"238001","282-BY","2019/08/29 14:59:34","新北市樹林區育德街121巷7號","121.388791666667","24.9680816666667","6500700","樹林區"
"221032","280-BY","2019/08/29 14:57:05","","121.611335","25.0299916666667","6501100","汐止區"
"221021","299-VK","2019/08/29 14:59:27","新北市新店區安豐路54-1號","121.49977","24.95415","6501100","汐止區"
"220027","145-BY","2019/08/29 14:59:35","新北市板橋區建國街7號","121.457448333333","25.0168983333333","6500100","板橋區"
"220028","200-UY","2019/08/29 14:59:40","新北市板橋區大觀路二段101巷27號","121.447273333333","25.001345","6500100","板橋區"
"220030","610-BX","2019/08/29 14:59:28","新北市板橋區大觀路三段191號","121.432008333333","24.99379","6500100","板橋區"
"220004","276-BY","2019/08/29 14:59:36","新北市板橋區德興街37巷10號","121.453836666667","24.99382","6500100","板橋區"
"220020","277-BY","2019/08/29 14:59:38","新北市板橋區篤行路二段77巷9弄1號","121.432276666667","24.9918183333333","6500100","板橋區"
"220050","280-UM","2019/08/29 14:59:28","新北市板橋區萬板路378號","121.478528333333","25.025335","6500100","板橋區"
"220019","283-VK","2019/08/29 14:59:36","新北市板橋區五權街30巷24弄2號","121.463903333333","24.993325","6500100","板橋區"
"220043","285-UM","2019/08/29 14:59:41","新北市板橋區文化路一段371號","121.467085","25.021395","6500100","板橋區"
"220001","285-VK","2019/08/29 14:59:35","新北市板橋區永豐街143號","121.475026666667","25.01999","6500100","板橋區"
"220031","286-VK","2019/08/29 14:59:40","新北市板橋區僑中二街48巷20號","121.445521666667","25.0103716666667","6500100","板橋區"
"220029","287-VK","2019/08/29 14:59:45","新北市板橋區大觀路一段28巷88號","121.44989","25.0110683333333","6500100","板橋區"
"220039","288-VK","2019/08/29 14:59:44","新北市板橋區新海路72巷5弄34號","121.461641666667","25.0230516666667","6500100","板橋區"
"220009","293-UM","2019/08/29 14:59:41","新北市板橋區四川路一段286巷26-1號","121.457828333333","25.0012116666667","6500100","板橋區"
"220010","295-UM","2019/08/29 14:59:39","新北市板橋區中山路二段412巷25號","121.483628333333","25.0199683333333","6500100","板橋區"
"220032","296-UM","2019/08/29 14:59:35","新北市樹林區水源街213號","121.424416666667","24.9872","6500100","板橋區"
"220023","303-R5","2019/08/29 14:59:37","新北市板橋區中正路301號","121.455251666667","25.0196","6500100","板橋區"
"220041","307-R5","2019/08/29 14:59:41","新北市板橋區文化路一段139號","121.461953333333","25.0155483333333","6500100","板橋區"
"220047","317-R6","2019/08/29 14:59:26","新北市板橋區裕民街133巷3號","121.459243333333","25.0270316666667","6500100","板橋區"
"220038","487-VK","2019/08/29 14:59:42","新北市板橋區互助街81號","121.459931666667","25.025985","6500100","板橋區"
"220037","491-VK","2019/08/29 14:59:41","新北市板橋區文聖街101號","121.477713333333","25.0294333333333","6500100","板橋區"
"220104","560-BX","2019/08/29 14:59:35","新北市板橋區中正路375巷27號","121.453756666667","25.0201533333333","6500100","板橋區"
"220052","561-BX","2019/08/29 14:59:38","新北市板橋區漢生東路23巷38號","121.465776666667","25.017865","6500100","板橋區"
"220011","609-BX","2019/08/29 14:59:42","新北市板橋區中山路二段422-8號","121.483523333333","25.021205","6500100","板橋區"
"220040","637-BX","2019/08/29 14:59:34","新北市板橋區文聖街101號","121.47784","25.029565","6500100","板橋區"
"220005","686-BX","2019/08/29 14:59:28","新北市板橋區德興街16號","121.453376666667","24.994415","6500100","板橋區"
"220025","687-BX","2019/08/29 14:59:41","新北市板橋區僑中二街126巷2號","121.445213333333","25.0050916666667","6500100","板橋區"
"220042","689-BX","2019/08/29 14:59:36","新北市板橋區文化路二段503號","121.476201666667","25.0344766666667","6500100","板橋區"
"220002","741-BX","2019/08/29 14:59:43","新北市板橋區實踐路93巷74號","121.466676666667","25.004765","6500100","板橋區"
"220051","KEA-2699","2019/08/29 14:59:29","新北市板橋區莒光路64號","121.471033333333","25.024105","6500100","板橋區"
"220003","827-TW","2019/08/29 14:59:44","新北市板橋區仁愛路47巷2號","121.459826666667","24.9994633333333","6500100","板橋區"
"220014","831-TW","2019/08/29 14:59:33","新北市板橋區漢生東路193巷48號","121.472691666667","25.0116383333333","6500100","板橋區"
"220021","833-TW","2019/08/29 14:59:40","新北市板橋區南雅西路二段267號","121.451843333333","25.014995","6500100","板橋區"
"220022","895-R6","2019/08/29 14:59:43","新北市板橋區文化路一段46巷19號","121.460296666667","25.01155","6500100","板橋區"
"220046","AAC-210","2019/08/29 14:59:26","新北市板橋區國光路190號","121.461151666667","25.01823","6500100","板橋區"
"220012","AAC-253","2019/08/29 14:59:36","新北市板橋區實踐路116號","121.464161666667","25.00409","6500100","板橋區"
