"lineid","car","time","location","longitude","latitude","cityid","cityname"
"249005","172-UM","2019/08/29 16:59:35","新北市八里區渡船頭3-16號","121.434315","25.1527666666667","6502300","八里區"
"249001","173-UM","2019/08/29 16:59:34","新北市八里區中山路三段106號","121.391046666667","25.1422183333333","6502300","八里區"
"249004","303-UY","2019/08/29 16:59:33","新北市八里區忠孝路488-1號","121.41431","25.1615166666667","6502300","八里區"
"249002","305-UY","2019/08/29 16:59:28","新北市八里區牛寮埔13號","121.431855","25.1429183333333","6502300","八里區"
"249003","593-UM","2019/08/29 16:59:33","新北市八里區中山路二段283號","121.401561666667","25.1486883333333","6502300","八里區"
"244007","080-UY","2019/08/29 16:59:31","新北市林口區中湖50號","121.377093333333","25.0917266666667","6501700","林口區"
"244019","402-UM","2019/08/29 16:59:44","新北市林口區竹林路2號","121.386578333333","25.077085","6501700","林口區"
"244023","483-VK","2019/08/29 16:59:44","新北市林口區粉寮路二段1-1號","121.400535","25.08378","6501700","林口區"
"244017","485-VK","2019/08/29 16:59:33","新北市林口區粉寮69號","121.405053333333","25.09079","6501700","林口區"
"244009","656-BX","2019/08/29 16:59:37","新北市林口區竹林路328巷1號","121.3911","25.0828516666667","6501700","林口區"
"244025","837-TS","2019/08/29 16:59:41","新北市林口區粉寮32號","121.403305","25.086645","6501700","林口區"
"244021","838-TS","2019/08/29 16:59:42","新北市林口區粉寮路二段30號","121.403078333333","25.0864766666667","6501700","林口區"
"231046","719-UM","2019/08/29 16:59:35","新北市新店區灣潭路29-3號","121.540331666667","24.9387116666667","6500600","新店區"
"241011","013-R5","2019/08/29 16:59:39","新北市三重區仁愛街55巷126號","121.49892","25.0727933333333","6500200","三重區"
"241028","022-UY","2019/08/29 16:59:29","新北市三重區中正南路46號","121.493865","25.05997","6500200","三重區"
"241008","059-VK","2019/08/29 16:59:29","新北市三重區永福街179巷42號","121.477433333333","25.0746483333333","6500200","三重區"
"241029","060-VK","2019/08/29 16:59:35","新北市三重區中正南路187號","121.493691666667","25.055185","6500200","三重區"
"241031","061-VK","2019/08/29 16:59:32","新北市三重區三寧街50號","121.490141666667","25.0604233333333","6500200","三重區"
"241015","062-VK","2019/08/29 16:59:41","新北市三重區三和路二段1-4號","121.50166","25.0664833333333","6500200","三重區"
"241017","063-VK","2019/08/29 16:59:42","新北市三重區國隆路12巷7號","121.492631666667","25.06372","6500200","三重區"
"241024","065-VK","2019/08/29 16:59:37","新北市三重區大勇街82巷15弄30號","121.481193333333","25.0719033333333","6500200","三重區"
"241002","090-VK","2019/08/29 16:59:43","新北市三重區仁義街225巷44號","121.497858333333","25.083045","6500200","三重區"
"241003","091-VK","2019/08/29 16:59:32","新北市三重區碧華街442號","121.492955","25.08582","6500200","三重區"
"241004","742-BX","2019/08/29 16:59:25","新北市三重區五華街106號","121.492541666667","25.0825716666667","6500200","三重區"
"241006","262-UM","2019/08/29 16:59:41","新北市三重區車路頭街131巷28號","121.48551","25.0759866666667","6500200","三重區"
"241016","266-UM","2019/08/29 16:59:43","新北市三重區大同北路91號","121.494768333333","25.063725","6500200","三重區"
"241009","267-UM","2019/08/29 16:59:37","新北市三重區仁美街108巷26號","121.484728333333","25.0803833333333","6500200","三重區"
"241018","268-UM","2019/08/29 16:59:30","新北市三重區民生東街2號","121.492648333333","25.06831","6500200","三重區"
"241032","269-UM","2019/08/29 16:59:35","新北市三重區三光街29號","121.484578333333","25.060925","6500200","三重區"
"241013","270-UM","2019/08/29 16:59:41","新北市三重區仁愛街89號","121.495778333333","25.0733833333333","6500200","三重區"
"241025","271-UM","2019/08/29 16:59:42","新北市三重區中正北路508巷5號","121.472615","25.071405","6500200","三重區"
"241007","398-BY","2019/08/29 16:59:40","新北市三重區溪尾街173號","121.488883333333","25.080245","6500200","三重區"
"241030","KED-0822","2019/08/29 16:59:39","新北市三重區昌隆街64號","121.491095","25.05108","6500200","三重區"
"241020","478-VK","2019/08/29 16:59:41","新北市三重區後竹圍街175巷28號","121.48548","25.0729033333333","6500200","三重區"
"241026","480-VK","2019/08/29 16:59:40","新北市三重區光興街37號","121.499571666667","25.06027","6500200","三重區"
"241014","543-UM","2019/08/29 16:59:32","新北市三重區三和路二段173巷143號","121.501001666667","25.0706266666667","6500200","三重區"
"241001","547-UM","2019/08/29 16:59:30","新北市三重區仁政街11號","121.493393333333","25.0764266666667","6500200","三重區"
"241019","KEA-2593","2019/08/29 16:59:26","新北市三重區自強路二段74巷19號","121.48796","25.0699116666667","6500200","三重區"
"241005","AAD-863","2019/08/29 16:59:23","新北市三重區碧華街54號","121.483775","25.081375","6500200","三重區"
"241023","743-BX","2019/08/29 16:59:41","新北市三重區忠孝路三段126號","121.479863333333","25.0620166666667","6500200","三重區"
"241022","KED-0820","2019/08/29 16:59:27","新北市三重區中華路125號","121.483635","25.0640016666667","6500200","三重區"
"241012","941-UM","2019/08/29 16:59:42","新北市三重區仁和街96號","121.499525","25.07468","6500200","三重區"
"241033","AAC-255","2019/08/29 16:59:37","新北市三重區中興北街271號","121.469045","25.0605783333333","6500200","三重區"
"247014","KEA-2869","2019/08/29 16:59:36","新北市蘆洲區中山二路21號","121.474778333333","25.0819383333333","6501400","蘆洲區"
"247008","KED-0682","2019/08/29 16:59:37","新北市蘆洲區信義路50號","121.475098333333","25.079655","6501400","蘆洲區"
"235054","640-BX","2019/08/29 16:56:47","新北市中和區員山路36巷16-2號","121.485353333333","24.99157","6500300","中和區"
"247004","893-R6","2019/08/29 16:59:40","新北市蘆洲區長安街108巷5弄1號","121.461175","25.08162","6501400","蘆洲區"
"247018","546-UM","2019/08/29 16:59:42","新北市蘆洲區民族路227巷14號","121.477081666667","25.0892866666667","6501400","蘆洲區"
"247012","337-TH","2019/08/29 16:59:45","新北市蘆洲區復興路226號","121.479108333333","25.08925","6501400","蘆洲區"
"247022","057-VK","2019/08/29 16:59:42","新北市蘆洲區三民路128巷85號","121.46838","25.09249","6501400","蘆洲區"
"247016","053-VK","2019/08/29 16:59:26","新北市蘆洲區中正路71號","121.470385","25.0828733333333","6501400","蘆洲區"
"247020","007-UY","2019/08/29 16:59:30","新北市蘆洲區民族路422巷82弄14號","121.473935","25.0938366666667","6501400","蘆洲區"
"247006","002-UY","2019/08/29 16:59:36","新北市蘆洲區長安街99巷13號","121.461191666667","25.080255","6501400","蘆洲區"
"247024","001-UY","2019/08/29 16:59:35","新北市蘆洲區長興路211號","121.461166666667","25.086235","6501400","蘆洲區"
"228003","097-TW","2019/08/29 16:59:44","新北市貢寮區福隆里興隆街13-5號","121.944151666667","25.0165516666667","6502600","貢寮區"
"228001","212-TW","2019/08/29 16:59:42","新北市貢寮區貢寮里朝陽街1-2號","121.912353333333","25.0211816666667","6502600","貢寮區"
"228002","663-BX","2019/08/29 16:59:32","新北市貢寮區貢寮里長潭街7號","121.893971666667","25.024115","6502600","貢寮區"
"224006","676-BX","2019/08/29 16:59:35","新北市瑞芳區大寮路356-1號","121.784846666667","25.103175","6501200","瑞芳區"
"224007","285-BY","2019/08/29 16:59:44","新北市瑞芳區瑞竹路22號","121.764938333333","25.1033666666667","6501200","瑞芳區"
"224009","275-VK","2019/08/29 16:59:28","新北市瑞芳區明燈路一段1號","121.82657","25.1093616666667","6501200","瑞芳區"
"224008","273-VK","2019/08/29 16:59:40","新北市瑞芳區明燈路二段66號","121.809406666667","25.1072383333333","6501200","瑞芳區"
"224005","271-BY","2019/08/29 16:59:09","新北市瑞芳區南雅路1號","121.89326","25.1194716666667","6501200","瑞芳區"
"227002","642-TC","2019/08/29 16:59:35","新北市雙溪區上林里內平林82-1號","121.828821666667","25.02803","6502500","雙溪區"
"227001","400-TW","2019/08/29 16:59:36","新北市雙溪區三貂里政光路6-5號","121.851371666667","25.0720566666667","6502500","雙溪區"
"251009","008-UM","2019/08/29 16:59:30","新北市淡水區中正路二段31號","121.41948","25.181605","6501000","淡水區"
"251004","009-UM","2019/08/29 16:59:43","新北市淡水區中山路50號","121.444","25.1702833333333","6501000","淡水區"
"251005","010-UM","2019/08/29 16:59:32","新北市淡水區原德路6號","121.442268333333","25.1713116666667","6501000","淡水區"
"251015","KEA-2871","2019/08/29 16:59:26","新北市淡水區忠愛街5-2號","121.460663333333","25.1716","6501000","淡水區"
"251016","179-VK","2019/08/29 16:59:31","新北市淡水區瓦坑3號","121.4776","25.1806616666667","6501000","淡水區"
"251013","180-VK","2019/08/29 16:59:29","新北市淡水區泉洲厝32號","121.489298333333","25.1926133333333","6501000","淡水區"
"251008","181-VK","2019/08/29 16:59:40","新北市淡水區樹梅坑9號","121.472785","25.1426716666667","6501000","淡水區"
"251012","441-VK","2019/08/29 16:59:42","新北市淡水區中正路二段31號","121.41919","25.1818083333333","6501000","淡水區"
"251007","442-VK","2019/08/29 16:59:31","新北市淡水區中正東路一段3巷2號","121.450498333333","25.1646966666667","6501000","淡水區"
"251006","561-UM","2019/08/29 16:59:37","新北市淡水區中正路257號","121.433073333333","25.174515","6501000","淡水區"
"251014","577-R6","2019/08/29 16:59:37","新北市淡水區淡金路四段472巷24號","121.452941666667","25.2239833333333","6501000","淡水區"
"251011","650-BX","2019/08/29 16:59:45","新北市淡水區中正東路一段3巷14弄1號","121.450808333333","25.1641016666667","6501000","淡水區"
"252002","178-VK","2019/08/29 16:59:36","新北市三芝區忠孝街162號","121.506216666667","25.2588333333333","6502100","三芝區"
"233002","762-BX","2019/08/29 16:59:34","新北市烏來區環山路48-3號","121.548338333333","24.8646166666667","6502900","烏來區"
"247010","KED-0683","2019/08/29 16:59:37","新北市蘆洲區信義路178號","121.479175","25.0840416666667","6501400","蘆洲區"
"252001","KED-0821","2019/08/29 16:59:32","新北市三芝區淡金路二段89號","121.503916666667","25.26083","6502100","三芝區"
"242039","AAC-296","2019/08/29 16:59:39","新北市新莊區新泰路357巷3弄57號","121.442193333333","25.039445","6500500","新莊區"
"242029","615-BX","2019/08/29 16:59:28","新北市新莊區新泰路357巷3弄57號","121.441913333333","25.039295","6500500","新莊區"
"242058","612-BX","2019/08/29 16:59:30","新北市新莊區新泰路255巷83號","121.442135","25.0390533333333","6500500","新莊區"
"242011","413-TV","2019/08/29 16:59:39","新北市新莊區新泰路357巷3弄57號","121.44188","25.0394216666667","6500500","新莊區"
"242048","400-BY","2019/08/29 16:59:36","新北市新莊區新泰路357巷3弄57號","121.442215","25.0395183333333","6500500","新莊區"
"242025","362-BY","2019/08/29 16:59:32","新北市新莊區新泰路357巷3弄57號","121.441961666667","25.03902","6500500","新莊區"
"242021","175-VK","2019/08/29 16:59:30","新北市新莊區三和路12-21號","121.442025","25.038665","6500500","新莊區"
"242017","176-VK","2019/08/29 16:59:24","新北市新莊區三和路12-21號","121.442085","25.0387466666667","6500500","新莊區"
"242019","346-TH","2019/08/29 16:59:35","新北市新莊區三和路12-21號","121.442311666667","25.03823","6500500","新莊區"
"242031","348-TH","2019/08/29 16:59:32","新北市新莊區三和路12-21號","121.441943333333","25.03885","6500500","新莊區"
"238018","KEA-2217","2019/08/29 16:59:34","新北市樹林區育德街78-1號","121.38815","24.96784","6500700","樹林區"
"238025","303-VK","2019/08/29 16:59:25","新北市樹林區中正路22-1號","121.427816666667","24.999415","6500700","樹林區"
"238004","283-BY","2019/08/29 16:59:31","新北市樹林區中正路433-2號","121.415041666667","25.0081183333333","6500700","樹林區"
"238001","282-BY","2019/08/29 16:59:34","新北市樹林區中正路22-1號","121.427856666667","24.9996733333333","6500700","樹林區"
"238026","172-UY","2019/08/29 16:59:31","新北市樹林區育德街78-1號","121.387745","24.9681466666667","6500700","樹林區"
"239007","AAC-297","2019/08/29 16:59:45","新北市鶯歌區二甲路12-2號","121.345828333333","24.9350716666667","6500800","鶯歌區"
"239008","527-UM","2019/08/29 16:59:27","新北市鶯歌區二甲路13-16號","121.345165","24.9352166666667","6500800","鶯歌區"
"239001","417-VK","2019/08/29 16:59:35","新北市鶯歌區環河路177-3號","121.346001666667","24.935355","6500800","鶯歌區"
"233001","KEA-2870","2019/08/29 16:59:45","新北市烏來區環山路48-3號","121.548306666667","24.8646566666667","6502900","烏來區"
"242009","280-VK","2019/08/29 16:59:44","新北市新莊區三和路12-21號","121.441931666667","25.0381866666667","6500500","新莊區"
