"lineid","car","time","location","longitude","latitude","cityid","cityname"
"234046","148-BY","2019/08/29 18:39:37","新北市永和區永元路94號","121.52249","25.0017066666667","6500400","永和區"
"234081","298-R6","2019/08/29 18:39:38","新北市永和區林森路75號","121.523971666667","25.00399","6500400","永和區"
"234038","336-UY","2019/08/29 18:39:28","新北市永和區福和路1號","121.526668333333","25.0100183333333","6500400","永和區"
"234086","338-UY","2019/08/29 18:39:41","新北市永和區中正路6號","121.512511666667","24.993715","6500400","永和區"
"234017","745-BX","2019/08/29 18:39:34","新北市永和區福和路1號","121.526263333333","25.0096166666667","6500400","永和區"
"234030","746-BX","2019/08/29 18:39:31","新北市永和區成功路一段74號","121.5269","25.003385","6500400","永和區"
"234007","KED-0605","2019/08/29 18:39:30","新北市永和區新生路24巷11號","121.50867","25.0166833333333","6500400","永和區"
"234042","862-TW","2019/08/29 18:39:29","新北市永和區福和路139號","121.52106","25.0077266666667","6500400","永和區"
"234026","9371-KE","2019/08/29 18:39:40","新北市永和區永貞路417巷4號","121.5069","25.0091916666667","6500400","永和區"
"234011","9373-KE","2019/08/29 18:39:26","新北市永和區文化路9巷18號","121.515276666667","25.0146566666667","6500400","永和區"
"249005","172-UM","2019/08/29 18:39:35","新北市八里區中華路三段208號","121.388401666667","25.1259483333333","6502300","八里區"
"249001","173-UM","2019/08/29 18:39:33","新北市八里區龍米路一段360號","121.451615","25.1313366666667","6502300","八里區"
"249004","303-UY","2019/08/29 18:39:33","新北市八里區觀海大道111號","121.42545","25.1619733333333","6502300","八里區"
"249002","305-UY","2019/08/29 18:39:28","新北市八里區龍形一街12巷20號","121.449803333333","25.13107","6502300","八里區"
"248016","026-BX","2019/08/29 18:39:40","新北市五股區凌雲路一段149巷5-1號","121.448976666667","25.101725","6501500","五股區"
"248008","KED-0815","2019/08/29 18:39:25","新北市五股區中興路一段150巷8號","121.464635","25.074285","6501500","五股區"
"248020","KED-0813","2019/08/29 18:38:30","新北市五股區孝義路108號","121.442778333333","25.1197566666667","6501500","五股區"
"248012","247-BX","2019/08/29 18:39:42","新北市五股區成泰路三段2巷1-20號","121.441025","25.086605","6501500","五股區"
"248014","261-SL","2019/08/29 18:39:27","新北市五股區成泰路一段237-12號","121.436698333333","25.080425","6501500","五股區"
"248004","677-BX","2019/08/29 18:39:41","新北市五股區民義路一段293號","121.425073333333","25.0933366666667","6501500","五股區"
"248002","678-BX","2019/08/29 18:39:46","新北市五股區西雲路221號","121.448833333333","25.0969616666667","6501500","五股區"
"248010","682-TV","2019/08/29 18:39:23","新北市五股區水碓三路120號","121.43177","25.0735716666667","6501500","五股區"
"234022","9380-KE","2019/08/29 18:39:38","新北市永和區福和路76巷5弄7號","121.522358333333","25.0083033333333","6500400","永和區"
"234077","969-R7","2019/08/29 18:39:29","新北市永和區中正路279號","121.517575","25.0009966666667","6500400","永和區"
"234003","AAC-295","2019/08/29 18:39:40","新北市永和區福和路1號","121.52665","25.0097883333333","6500400","永和區"
"232011","375-UM","2019/08/29 18:39:36","新北市坪林區坪雙路一段41號","121.711715","24.9424116666667","6502000","坪林區"
"244007","080-UY","2019/08/29 18:39:31","新北市林口區太平里2鄰10號","121.37888","25.11444","6501700","林口區"
"244019","402-UM","2019/08/29 18:39:24","新北市林口區麗園二街47巷51號","121.382798333333","25.069495","6501700","林口區"
"244013","KEA-2802","2019/08/29 18:39:24","新北市林口區麗園路2巷29號","121.375101666667","25.0706766666667","6501700","林口區"
"244023","483-VK","2019/08/29 18:39:43","新北市林口區文化二路二段72號","121.37869","25.08033","6501700","林口區"
"244017","485-VK","2019/08/29 18:39:33","新北市林口區文化二路一段68巷2號","121.366156666667","25.0687666666667","6501700","林口區"
"244009","656-BX","2019/08/29 18:39:37","新北市林口區竹林路330巷9號","121.392196666667","25.082935","6501700","林口區"
"244011","701-TV","2019/08/29 18:39:40","新北市林口區仁愛路一段266號","121.393836666667","25.0759166666667","6501700","林口區"
"244025","837-TS","2019/08/29 18:39:41","新北市林口區南勢街280號","121.357566666667","25.07639","6501700","林口區"
"244021","838-TS","2019/08/29 18:39:42","新北市林口區粉寮路一段64號","121.396925","25.07863","6501700","林口區"
"243010","297-R6","2019/08/29 18:39:36","新北市泰山區泰林路二段262號","121.431718333333","25.0623383333333","6501600","泰山區"
"243014","KEA-2801","2019/08/29 18:39:40","新北市泰山區犁頭窠3-1號","121.42222","25.060295","6501600","泰山區"
"243015","680-BX","2019/08/29 18:39:42","新北市泰山區美寧街50號","121.430498333333","25.0644716666667","6501600","泰山區"
"222003","436-BY","2019/08/29 18:39:32","新北市深坑區翠谷街27號","121.626703333333","25.0089083333333","6501800","深坑區"
"222002","659-BX","2019/08/29 18:39:43","新北市深坑區文山路一段62巷3號","121.622803333333","25.0008616666667","6501800","深坑區"
"231061","002-UM","2019/08/29 18:39:24","新北市新店區安華路28-1號","121.519703333333","24.9608233333333","6500600","新店區"
"231055","0291-UT","2019/08/29 18:39:41","新北市新店區華興街38巷3號","121.537218333333","24.9692433333333","6500600","新店區"
"231044","046-UY","2019/08/29 18:39:30","新北市新店區安一路一段1-1號","121.519753333333","24.9617233333333","6500600","新店區"
"231060","106-UY","2019/08/29 18:39:38","新北市新店區安華路28-1號","121.519505","24.9608066666667","6500600","新店區"
"231051","107-UY","2019/08/29 18:39:42","新北市新店區環河路29巷1號","121.536788333333","24.9612666666667","6500600","新店區"
"231065","110-UY","2019/08/29 18:39:27","新北市新店區安華路28-1號","121.51924","24.9609783333333","6500600","新店區"
"221031","KEA-2785","2019/08/29 18:39:46","新北市汐止區新台五路一段35號","121.636613333333","25.0558133333333","6501100","汐止區"
"231062","256-BX","2019/08/29 18:39:33","新北市新店區安一路一段1-1號","121.51971","24.9611766666667","6500600","新店區"
"231054","260-TV","2019/08/29 18:39:33","新北市新店區安一路一段1-1號","121.51926","24.9610083333333","6500600","新店區"
"231042","268-BY","2019/08/29 18:39:30","新北市新店區北新路一段72號","121.541373333333","24.96715","6500600","新店區"
"231064","278-BY","2019/08/29 18:39:34","新北市新店區安一路一段1-1號","121.519655","24.9611166666667","6500600","新店區"
"231050","AAD-862","2019/08/29 18:39:33","新北市新店區安一路一段1-1號","121.519841666667","24.9611366666667","6500600","新店區"
"231045","355-BY","2019/08/29 18:39:30","新北市新店區安華路28-1號","121.519231666667","24.9608133333333","6500600","新店區"
"231056","4715-K9","2019/08/29 18:39:43","新北市新店區建國路211號","121.53768","24.9803866666667","6500600","新店區"
"231063","616-UM","2019/08/29 18:39:43","新北市新店區安華路1-1號","121.519431666667","24.960515","6500600","新店區"
"231047","KED-0819","2019/08/29 18:39:38","新北市新店區安一路一段1-1號","121.519773333333","24.9611283333333","6500600","新店區"
"231052","718-UY","2019/08/29 18:39:30","新北市新店區永興路10號","121.545598333333","24.9402433333333","6500600","新店區"
"231046","719-UM","2019/08/29 18:39:35","新北市新店區直潭二街1號","121.535425","24.943145","6500600","新店區"
"231057","720-UM","2019/08/29 18:39:27","新北市新店區北宜路一段108號","121.539048333333","24.9552733333333","6500600","新店區"
"231059","897-TW","2019/08/29 18:39:33","新北市新店區安華路28-1號","121.51974","24.9607733333333","6500600","新店區"
"231040","898-TW","2019/08/29 18:39:33","新北市新店區安華路28-1號","121.519418333333","24.9608133333333","6500600","新店區"
"231043","899-TW","2019/08/29 18:39:38","新北市新店區安華路28-1號","121.519366666667","24.9608266666667","6500600","新店區"
"231066","AKT-0513","2019/08/29 18:39:29","新北市新店區安華路28-1號","121.519468333333","24.9606316666667","6500600","新店區"
"241019","KEA-2593","2019/08/29 18:39:46","新北市五股區國道路三段1號","121.469946666667","25.0750916666667","6500200","三重區"
"235066","003-UY","2019/08/29 18:39:30","新北市中和區水源路36巷2號","121.505208333333","25.0035283333333","6500300","中和區"
"235064","005-UY","2019/08/29 18:39:25","新北市中和區景平路517號","121.499173333333","24.9987383333333","6500300","中和區"
"235063","006-UY","2019/08/29 18:39:33","新北市中和區錦和路101號","121.490108333333","24.9953866666667","6500300","中和區"
"235056","096-UM","2019/08/29 18:39:32","新北市中和區員山路611巷1號","121.477818333333","25.0113333333333","6500300","中和區"
"235039","097-UM","2019/08/29 18:39:35","新北市中和區宜安路18巷14號","121.513695","24.99637","6500300","中和區"
"235065","098-UM","2019/08/29 18:39:16","新北市中和區莊敬路33巷36弄14號","121.50062","25.0063666666667","6500300","中和區"
"235040","150-BY","2019/08/29 18:39:29","新北市中和區安平路59號","121.509515","24.99508","6500300","中和區"
"235058","151-BY","2019/08/29 18:39:41","新北市中和區員山路120號","121.481066666667","24.9958933333333","6500300","中和區"
"235055","183-VK","2019/08/29 18:39:34","新北市中和區民生街15號","121.47124","25.0058366666667","6500300","中和區"
"235038","185-VK","2019/08/29 18:39:25","新北市中和區大勇街45巷1號","121.518091666667","24.9948983333333","6500300","中和區"
"235049","186-VK","2019/08/29 18:39:32","新北市中和區明義街38號","121.503748333333","24.9952333333333","6500300","中和區"
"235044","293-VK","2019/08/29 18:39:37","新北市中和區復興路280巷15號","121.50229","24.9913866666667","6500300","中和區"
"235072","301-VK","2019/08/29 18:39:44","新北市中和區中山路二段8號","121.50509","25.0056483333333","6500300","中和區"
"235043","352-BY","2019/08/29 18:39:34","新北市中和區景平路148號","121.518335","24.991845","6500300","中和區"
"235042","KEA-2878","2019/08/29 18:39:27","新北市中和區成功路97巷5弄13號","121.526518333333","24.99212","6500300","中和區"
"235050","4979-A6","2019/08/29 18:39:36","新北市中和區景新街496巷28弄10號","121.513056666667","24.9860033333333","6500300","中和區"
"235069","4980-A6","2019/08/29 18:39:29","新北市中和區連城路65巷10號","121.497908333333","25.00073","6500300","中和區"
"235070","558-UM","2019/08/29 18:39:24","新北市中和區圓通路29號","121.50117","24.9977233333333","6500300","中和區"
"235045","565-BX","2019/08/29 18:39:31","新北市中和區南山路208巷1弄1號","121.506175","24.99023","6500300","中和區"
"235060","KED-0823","2019/08/29 18:39:36","新北市中和區中山路三段167號","121.473191666667","25.0060933333333","6500300","中和區"
"235054","640-BX","2019/08/29 18:39:33","新北市中和區民享街35巷8弄15號","121.474718333333","25.0034316666667","6500300","中和區"
"235047","732-UM","2019/08/29 18:39:23","新北市中和區南山路541號","121.507953333333","24.9868183333333","6500300","中和區"
"235046","733-UM","2019/08/29 18:39:27","新北市中和區忠孝街126號","121.51207","24.9863116666667","6500300","中和區"
"235062","800-TS","2019/08/29 18:39:40","新北市中和區景平路707號","121.496373333333","25.0036166666667","6500300","中和區"
"235057","801-TS","2019/08/29 18:39:29","新北市中和區民安街23號","121.480405","25.000515","6500300","中和區"
"235052","805-TS","2019/08/29 18:39:25","新北市中和區興南路三段91巷2號","121.49087","24.9737133333333","6500300","中和區"
"235048","896-TW","2019/08/29 18:39:44","新北市中和區南山路240號","121.506891666667","24.9897366666667","6500300","中和區"
"235053","900-TW","2019/08/29 18:39:24","新北市中和區民德路266號","121.468026666667","24.9966183333333","6500300","中和區"
"235067","911-UM","2019/08/29 18:39:35","新北市中和區中正路839巷9號","121.484253333333","25.002395","6500300","中和區"
"235051","157-BY","2019/08/29 18:39:35","新北市中和區華新街143巷106弄33號","121.506905","24.97836","6500300","中和區"
"235037","AAC-213","2019/08/29 18:39:28","新北市中和區秀朗路三段128巷2號","121.524681666667","24.9923783333333","6500300","中和區"
"235059","AAC-215","2019/08/29 18:39:39","新北市中和區錦和路354巷15號","121.489761666667","24.9915483333333","6500300","中和區"
"220065","072-UY","2019/08/29 18:39:32","新北市板橋區實踐路91號","121.463983333333","25.005415","6500100","板橋區"
"220086","073-UY","2019/08/29 18:39:28","新北市板橋區板城路407號","121.447448333333","24.9951883333333","6500100","板橋區"
"220106","075-UY","2019/08/29 18:39:36","新北市板橋區民生路二段161巷9號","121.470146666667","25.0195683333333","6500100","板橋區"
"220017","AAD-861","2019/08/29 18:39:45","新北市板橋區南雅南路一段1巷42號","121.457493333333","25.00633","6500100","板橋區"
"220068","120-SR","2019/08/29 18:39:31","新北市板橋區民生路二段120號","121.470595","25.0195383333333","6500100","板橋區"
"226004","312-R5","2019/08/29 18:39:34","新北市平溪區石底里公園街18-3號","121.733658333333","25.0254866666667","6502400","平溪區"
"235041","251-BX","2019/08/29 18:39:37","新北市中和區中安街178巷13弄2號","121.510135","24.9986483333333","6500300","中和區"
"228003","097-TW","2019/08/29 18:39:44","新北市貢寮區和美里龍洞街34號","121.9163","25.11166","6502600","貢寮區"
"228001","212-TW","2019/08/29 18:39:38","新北市貢寮區仁理村仁和路106巷14號","121.923986666667","25.0515433333333","6502600","貢寮區"
"228002","663-BX","2019/08/29 18:39:32","新北市貢寮區福隆里桂安街18號","121.956756666667","25.01974","6502600","貢寮區"
"224010","AGQ-8101","2019/08/29 18:39:27","新北市瑞芳區基山街27號","121.845395","25.1092966666667","6501200","瑞芳區"
"224006","676-BX","2019/08/29 18:39:35","新北市瑞芳區明燈路三段143號","121.803255","25.1093133333333","6501200","瑞芳區"
"224002","639-TC","2019/08/29 18:39:42","新北市瑞芳區三爪子坑路25號","121.813508333333","25.10775","6501200","瑞芳區"
"224007","285-BY","2019/08/29 18:39:42","新北市瑞芳區大埔路85號","121.76381","25.1015066666667","6501200","瑞芳區"
"224009","275-VK","2019/08/29 18:39:40","新北市瑞芳區祈堂路86號","121.859125","25.1096983333333","6501200","瑞芳區"
"224008","273-VK","2019/08/29 18:39:39","新北市瑞芳區岳王路162號","121.80799","25.111365","6501200","瑞芳區"
"224005","271-BY","2019/08/29 18:39:29","新北市瑞芳區建基路一段5-1號","121.819553333333","25.1211166666667","6501200","瑞芳區"
"227002","642-TC","2019/08/29 18:39:30","新北市雙溪區魚行里坤溪3-4號","121.876366666667","25.02082","6502500","雙溪區"
"227001","400-TW","2019/08/29 18:39:28","新北市雙溪區牡丹里牡丹132號","121.8506","25.0595033333333","6502500","雙溪區"
"253006","032-BX","2019/08/29 18:39:25","新北市石門區崁子腳18-4號","121.535448333333","25.2895916666667","6502200","石門區"
"253005","295-VK","2019/08/29 18:39:31","新北市石門區石門街3號","121.565865","25.2910066666667","6502200","石門區"
"222001","KEA-2212","2019/08/29 18:39:31","新北市深坑區北深路一段84號","121.636253333333","25.010645","6501800","深坑區"
"208002","KEA-2872","2019/08/29 18:39:26","新北市金山區環金路58號","121.638738333333","25.2174","6502700","金山區"
"208003","665-BX","2019/08/29 18:39:34","新北市金山區中山路324號","121.63391","25.2248866666667","6502700","金山區"
"251004","009-UM","2019/08/29 18:39:38","新北市淡水區大同路7號","121.461553333333","25.1408416666667","6501000","淡水區"
"251001","011-UM","2019/08/29 18:39:37","新北市淡水區自強路166號","121.465511666667","25.1340733333333","6501000","淡水區"
"251015","KEA-2871","2019/08/29 18:39:46","新北市淡水區興福寮66巷271號","121.486596666667","25.1620283333333","6501000","淡水區"
"251016","179-VK","2019/08/29 18:39:31","新北市淡水區下圭柔山84號","121.4377","25.205845","6501000","淡水區"
"251013","180-VK","2019/08/29 18:39:29","新北市淡水區奎柔山路1262號","121.482766666667","25.2066","6501000","淡水區"
"251008","181-VK","2019/08/29 18:39:39","新北市淡水區北投子19-8號","121.453923333333","25.1838866666667","6501000","淡水區"
"251010","413-VK","2019/08/29 18:39:30","新北市淡水區沙崙路126號","121.423566666667","25.18286","6501000","淡水區"
"251012","441-VK","2019/08/29 18:39:42","新北市淡水區北新路121號","121.449031666667","25.1786166666667","6501000","淡水區"
"251006","561-UM","2019/08/29 18:39:37","新北市淡水區崁頂36號","121.438973333333","25.1946766666667","6501000","淡水區"
"251014","577-R6","2019/08/29 18:39:36","新北市淡水區崙頂12-8號","121.495596666667","25.2172233333333","6501000","淡水區"
"251011","650-BX","2019/08/29 18:39:45","新北市淡水區學府路9號","121.447478333333","25.1681216666667","6501000","淡水區"
"251002","672-BX","2019/08/29 18:39:40","新北市淡水區中正東路一段17號","121.451603333333","25.1635733333333","6501000","淡水區"
"251003","673-BX","2019/08/29 18:39:37","新北市淡水區北新路69巷52號","121.446755","25.1802516666667","6501000","淡水區"
"207003","550-UM","2019/08/29 18:39:37","新北市萬里區野柳里港東路162-15號","121.690596666667","25.2041783333333","6502800","萬里區"
"207004","291-VK","2019/08/29 18:39:44","新北市萬里區萬里里獅頭路7號","121.691996666667","25.1782533333333","6502800","萬里區"
"252002","178-VK","2019/08/29 18:39:36","新北市三芝區民生街64巷1號","121.50342","25.25538","6502100","三芝區"
"208001","170-UY","2019/08/29 18:39:34","新北市金山區文化三路7號","121.63517","25.2249416666667","6502700","金山區"
"237004","KEA-2597","2019/08/29 18:39:38","新北市三峽區金敏189號","121.394266666667","24.8738933333333","6500900","三峽區"
"237007","153-BY","2019/08/29 18:39:29","新北市三峽區柑樹路2巷96號","121.361543333333","24.9043283333333","6500900","三峽區"
"237009","210-TH","2019/08/29 18:39:28","新北市三峽區大同路280號","121.364875","24.9252716666667","6500900","三峽區"
"237013","252-BX","2019/08/29 18:39:26","新北市三峽區光明路69巷24號","121.376443333333","24.9290933333333","6500900","三峽區"
"237012","275-BY","2019/08/29 18:39:34","新北市三峽區三樹路332-6號","121.382415","24.9439966666667","6500900","三峽區"
"237008","302-VK","2019/08/29 18:39:43","新北市三峽區白雞67號","121.396526666667","24.9110433333333","6500900","三峽區"
"237014","433-BY","2019/08/29 18:39:39","新北市三峽區隆恩街247號","121.357236666667","24.94037","6500900","三峽區"
"237006","5529-G3","2019/08/29 18:39:37","新北市三峽區溪東路235號","121.406636666667","24.93262","6500900","三峽區"
"237011","KEA-2596","2019/08/29 18:39:33","新北市三峽區溪東路329號","121.410661666667","24.9301133333333","6500900","三峽區"
"237015","649-BX","2019/08/29 18:39:43","新北市三峽區成福路315巷2號","121.4296","24.9236166666667","6500900","三峽區"
"237010","706-TV","2019/08/29 18:39:30","新北市三峽區中山路222-1號","121.362823333333","24.93719","6500900","三峽區"
"237005","AKY-6261","2019/08/29 18:39:28","新北市三峽區新興街25號","121.372811666667","24.935355","6500900","三峽區"
"236078","166-UM","2019/08/29 18:39:40","新北市土城區中央路四段52巷60號","121.418176666667","24.95999","6501300","土城區"
"236030","253-BX","2019/08/29 18:39:37","新北市土城區中央路二段278巷7-2號","121.440113333333","24.9747233333333","6501300","土城區"
"236026","269-VK","2019/08/29 18:39:41","新北市土城區忠義路49號","121.440478333333","24.9690933333333","6501300","土城區"
"236014","270-VK","2019/08/29 18:39:28","新北市土城區清水路207巷25號","121.459785","24.9825616666667","6501300","土城區"
"236038","271-VK","2019/08/29 18:39:26","新北市土城區明德路一段291巷11弄21號","121.461178333333","24.9760983333333","6501300","土城區"
"236070","KEA-2877","2019/08/29 18:39:44","新北市土城區永豐路157巷29弄6-1號","121.46839","24.9814983333333","6501300","土城區"
"252001","KED-0821","2019/08/29 18:39:32","新北市三芝區中興街二段260號","121.501848333333","25.2528683333333","6502100","三芝區"
"236021","401-BY","2019/08/29 18:39:27","新北市土城區延吉街309巷6號","121.466038333333","24.9844283333333","6501300","土城區"
"236042","752-BX","2019/08/29 18:39:37","新北市土城區學成路124號","121.449358333333","24.9893283333333","6501300","土城區"
"236059","912-UM","2019/08/29 18:39:33","新北市土城區永寧路1號","121.430386666667","24.9647983333333","6501300","土城區"
"236049","913-UM","2019/08/29 18:39:36","新北市土城區明德路一段51號","121.46521","24.9846883333333","6501300","土城區"
"236063","915-UM","2019/08/29 18:39:41","新北市土城區延壽路13巷22號","121.470431666667","24.990995","6501300","土城區"
"236055","AAC-216","2019/08/29 18:39:34","新北市土城區裕民路38號","121.448046666667","24.988375","6501300","土城區"
"242061","986-R7","2019/08/29 18:39:37","新北市新莊區民安路186號","121.425286666667","25.0235933333333","6500500","新莊區"
"242058","612-BX","2019/08/29 18:39:29","新北市新莊區中正路702-3號","121.41767","25.0263","6500500","新莊區"
"242046","566-BX","2019/08/29 18:39:33","新北市新莊區富國路77巷17號","121.420386666667","25.0264333333333","6500500","新莊區"
"242051","497-BY","2019/08/29 18:39:35","新北市樹林區八德街676號","121.395905","24.968925","6500500","新莊區"
"242056","441-UM","2019/08/29 18:39:43","新北市新莊區環漢路三段525號","121.43552","25.0024666666667","6500500","新莊區"
"242007","349-TH","2019/08/29 18:39:34","新北市新莊區利濟街18號","121.45327","25.0335383333333","6500500","新莊區"
"238023","601-UM","2019/08/29 18:39:28","新北市樹林區三寶街2號","121.406416666667","25.0161383333333","6500700","樹林區"
"238019","599-UM","2019/08/29 18:39:41","新北市樹林區中華路190-16號","121.41174","24.98067","6500700","樹林區"
"238024","5061-A6","2019/08/29 18:39:39","新北市樹林區中山路一段149-2號","121.422121666667","24.9892233333333","6500700","樹林區"
"238018","KEA-2217","2019/08/29 18:39:33","新北市樹林區四德街25號","121.42574","24.9921366666667","6500700","樹林區"
"238025","303-VK","2019/08/29 18:39:25","新北市樹林區八德街640號","121.396803333333","24.9693683333333","6500700","樹林區"
"238020","268-VK","2019/08/29 18:39:26","新北市樹林區俊安街42-1號","121.419343333333","25.01323","6500700","樹林區"
"238026","172-UY","2019/08/29 18:39:30","新北市樹林區育德街78-1號","121.387381666667","24.9681233333333","6500700","樹林區"
"238016","169-UY","2019/08/29 18:39:41","新北市樹林區中山路一段412號","121.41741","24.98515","6500700","樹林區"
"239007","AAC-297","2019/08/29 18:39:45","新北市鶯歌區中正一路478號","121.366516666667","24.95682","6500800","鶯歌區"
"239006","891-R6","2019/08/29 18:39:44","新北市鶯歌區鶯桃路242巷10號","121.336571666667","24.9599383333333","6500800","鶯歌區"
"239008","527-UM","2019/08/29 18:39:27","新北市鶯歌區朝陽街1號","121.336303333333","24.9765766666667","6500800","鶯歌區"
"239001","417-VK","2019/08/29 18:39:35","新北市鶯歌區高職東街21號","121.340418333333","24.94138","6500800","鶯歌區"
"239003","360-BY","2019/08/29 18:39:37","新北市鶯歌區福安街58號","121.335606666667","24.9652116666667","6500800","鶯歌區"
"239002","359-BY","2019/08/29 18:39:32","新北市鶯歌區中正一路71號","121.352236666667","24.9544866666667","6500800","鶯歌區"
"239004","193-VK","2019/08/29 18:39:38","新北市鶯歌區尖山路240巷30號","121.342401666667","24.9473933333333","6500800","鶯歌區"
"221036","130-UY","2019/08/29 18:39:46","新北市汐止區長興街一段6號","121.669676666667","25.0785733333333","6501100","汐止區"
"221015","131-UY","2019/08/29 18:39:38","新北市汐止區鄉長路二段23巷1號","121.667201666667","25.082505","6501100","汐止區"
"221010","269-BY","2019/08/29 18:39:42","新北市汐止區瑞松街49巷6號","121.645286666667","25.1068216666667","6501100","汐止區"
"221012","278-VK","2019/08/29 18:39:40","新北市汐止區保長路53號","121.673538333333","25.0788116666667","6501100","汐止區"
"221023","279-VK","2019/08/29 18:39:32","新北市汐止區湖前街27號","121.632361666667","25.0692166666667","6501100","汐止區"
"221032","280-BY","2019/08/29 18:39:29","新北市汐止區民權街二段129號","121.618133333333","25.0456333333333","6501100","汐止區"
"221029","298-VK","2019/08/29 18:39:26","新北市汐止區樟樹一路144號","121.642276666667","25.0650383333333","6501100","汐止區"
"221021","299-VK","2019/08/29 18:39:40","新北市汐止區新台五路一段165號","121.654323333333","25.0626233333333","6501100","汐止區"
"221035","622-UM","2019/08/29 18:39:29","新北市汐止區大同路二段167號","121.651136666667","25.0648783333333","6501100","汐止區"
"221025","623-UM","2019/08/29 18:39:37","新北市汐止區仁愛路121巷7號","121.662723333333","25.0641733333333","6501100","汐止區"
"221033","647-BX","2019/08/29 18:39:36","新北市汐止區宜興街1號","121.620881666667","25.04121","6501100","汐止區"
"221002","707-TV","2019/08/29 18:39:31","新北市汐止區中興路23號","121.636873333333","25.0595283333333","6501100","汐止區"
"221018","753-BX","2019/08/29 18:36:39","新北市汐止區茄苳路226號","121.670945","25.0686166666667","6501100","汐止區"
"220079","145-BY","2019/08/29 18:39:42","新北市板橋區大觀路一段31號","121.449795","25.0084333333333","6500100","板橋區"
"220080","200-UY","2019/08/29 18:39:26","新北市板橋區板城路421號","121.44792","24.9960333333333","6500100","板橋區"
"220082","610-BX","2019/08/29 18:39:34","新北市板橋區篤行路一段10號","121.432135","24.99546","6500100","板橋區"
"220056","276-BY","2019/08/29 18:39:39","新北市板橋區四川路一段47號","121.459758333333","25.006425","6500100","板橋區"
"220072","277-BY","2019/08/29 18:39:27","新北市板橋區大觀路二段443-2號","121.44016","24.99504","6500100","板橋區"
"220071","283-VK","2019/08/29 18:39:28","新北市板橋區四川路二段237號","121.450958333333","24.993995","6500100","板橋區"
"220094","285-UM","2019/08/29 18:39:29","新北市板橋區民生路二段161巷1號","121.470016666667","25.019845","6500100","板橋區"
"220083","286-VK","2019/08/29 18:39:30","新北市板橋區大觀路二段153巷46弄1號","121.44871","24.9985533333333","6500100","板橋區"
"220081","287-VK","2019/08/29 18:39:44","新北市板橋區合安一路77-6號","121.448351666667","24.9987566666667","6500100","板橋區"
"220090","288-VK","2019/08/29 18:37:57","新北市板橋區新海路150號","121.460373333333","25.0236733333333","6500100","板橋區"
"220061","293-UM","2019/08/29 18:39:39","新北市板橋區民生路二段161巷9號","121.470308333333","25.0196783333333","6500100","板橋區"
"220062","295-UM","2019/08/29 18:38:13","新北市板橋區民生路二段161巷11號","121.469905","25.01932","6500100","板橋區"
"220084","296-UM","2019/08/29 18:39:26","新北市板橋區大觀路二段118號","121.443756666667","24.9993333333333","6500100","板橋區"
"220075","303-R5","2019/08/29 18:39:41","新北市板橋區板城路421號","121.448038333333","24.99562","6500100","板橋區"
"220092","307-R5","2019/08/29 18:39:41","新北市板橋區民生路二段89-4號","121.471561666667","25.01836","6500100","板橋區"
"220088","491-VK","2019/08/29 18:39:35","新北市板橋區民生路二段120號","121.470523333333","25.0197966666667","6500100","板橋區"
"220035","560-BX","2019/08/29 18:39:38","新北市板橋區南雅西路二段145巷10號","121.451588333333","25.0119283333333","6500100","板橋區"
"220103","561-BX","2019/08/29 18:39:35","新北市板橋區民生路二段103號","121.471513333333","25.017925","6500100","板橋區"
"220063","609-BX","2019/08/29 18:39:41","新北市板橋區民生路二段161巷1號","121.469746666667","25.0198566666667","6500100","板橋區"
"220077","687-BX","2019/08/29 18:39:33","新北市板橋區板城路421號","121.448128333333","24.9962066666667","6500100","板橋區"
"220054","741-BX","2019/08/29 18:39:39","新北市板橋區板城路421號","121.448086666667","24.9956666666667","6500100","板橋區"
"220102","KEA-2699","2019/08/29 18:39:25","新北市板橋區民生路二段161巷1號","121.470228333333","25.0199633333333","6500100","板橋區"
"220055","827-TW","2019/08/29 18:39:24","新北市板橋區忠孝路31-1號","121.46069","25.0019983333333","6500100","板橋區"
"220074","895-R6","2019/08/29 18:39:25","新北市板橋區南雅南路二段138號","121.451968333333","24.996405","6500100","板橋區"
"220073","985-R7","2019/08/29 18:39:33","新北市土城區四川路22號","121.454926666667","24.9959316666667","6500100","板橋區"
"220097","AAC-210","2019/08/29 18:39:44","新北市板橋區民生路二段161巷9號","121.470316666667","25.0195616666667","6500100","板橋區"
"220064","AAC-253","2019/08/29 18:39:44","新北市板橋區中山路二段50-1號","121.473035","25.0153966666667","6500100","板橋區"
"235068","KEA-2873","2019/08/29 18:39:22","新北市中和區中正路215號","121.49668","24.9936116666667","6500300","中和區"
"235061","KEA-2875","2019/08/29 18:39:38","新北市中和區民享街54巷5號","121.473701666667","25.0023433333333","6500300","中和區"
