"lineid","car","time","location","longitude","latitude","cityid","cityname"
"234046","148-BY","2019/08/29 19:39:37","新北市永和區永元路96號","121.522513333333","25.00187","6500400","永和區"
"234081","298-R6","2019/08/29 19:39:38","新北市永和區林森路20巷22號","121.525678333333","25.00597","6500400","永和區"
"234038","336-UY","2019/08/29 19:39:28","新北市永和區民樂街15號","121.527631666667","25.0020716666667","6500400","永和區"
"234064","337-UY","2019/08/29 19:39:30","新北市永和區秀朗路一段192巷6弄14號","121.519171666667","25.002315","6500400","永和區"
"234086","338-UY","2019/08/29 19:39:41","新北市永和區永亨路119號","121.523745","25.0045083333333","6500400","永和區"
"234070","552-UM","2019/08/29 19:39:32","新北市永和區永和路二段237-1號","121.515695","25.0144116666667","6500400","永和區"
"234017","745-BX","2019/08/29 19:39:34","新北市永和區永和路二段425巷57弄7號","121.513593333333","25.0171133333333","6500400","永和區"
"234030","746-BX","2019/08/29 19:39:31","新北市永和區四維街113號","121.523506666667","24.998065","6500400","永和區"
"234054","KEA-2590","2019/08/29 19:39:42","新北市永和區竹林路41號","121.518008333333","25.0142366666667","6500400","永和區"
"234007","KED-0605","2019/08/29 19:39:30","新北市中和區中和路322號","121.509613333333","25.0008383333333","6500400","永和區"
"234013","KEA-2591","2019/08/29 19:39:34","新北市永和區仁愛路191號","121.51018","25.01266","6500400","永和區"
"234061","AAD-866","2019/08/29 19:39:41","新北市永和區中正路446號","121.517573333333","25.0027816666667","6500400","永和區"
"234042","862-TW","2019/08/29 19:39:29","新北市永和區永貞路302號","121.512085","25.004715","6500400","永和區"
"234050","863-TW","2019/08/29 19:39:27","新北市永和區環河西路一段109號","121.510986666667","25.01737","6500400","永和區"
"234026","9371-KE","2019/08/29 19:39:40","新北市中和區中和路390號","121.5112","25.00261","6500400","永和區"
"234011","9373-KE","2019/08/29 19:39:46","新北市永和區仁愛路295號","121.504868333333","25.00913","6500400","永和區"
"249002","305-UY","2019/08/29 19:39:28","新北市八里區頂寮二街83號","121.450066666667","25.125585","6502300","八里區"
"249003","593-UM","2019/08/29 19:39:37","新北市八里區華峰三街29號","121.399368333333","25.1459083333333","6502300","八里區"
"248016","026-BX","2019/08/29 19:39:40","新北市五股區凌雲路一段41號","121.451761666667","25.100715","6501500","五股區"
"248008","KED-0815","2019/08/29 19:39:30","新北市五股區四維路155巷2號","121.467676666667","25.0745966666667","6501500","五股區"
"248020","KED-0813","2019/08/29 19:39:30","新北市五股區中直路3-2號","121.428581666667","25.1115216666667","6501500","五股區"
"248012","247-BX","2019/08/29 19:39:37","新北市五股區成泰路一段241巷12號","121.436081666667","25.0810416666667","6501500","五股區"
"248014","261-SL","2019/08/29 19:39:27","新北市五股區五福路32巷23號","121.434905","25.089955","6501500","五股區"
"248004","677-BX","2019/08/29 19:39:41","新北市五股區成泰路二段38號","121.437093333333","25.0813633333333","6501500","五股區"
"248002","678-BX","2019/08/29 19:39:26","新北市五股區成泰路三段577巷84號","121.449571666667","25.1038516666667","6501500","五股區"
"248010","682-TV","2019/08/29 19:39:43","新北市五股區自強路109號","121.432288333333","25.0706216666667","6501500","五股區"
"234023","9380-KE","2019/08/29 19:39:38","新北市永和區保生路55-1號","121.504535","25.0108733333333","6500400","永和區"
"234077","969-R7","2019/08/29 19:39:37","新北市永和區民權路1巷16號","121.521096666667","24.9983183333333","6500400","永和區"
"234074","AAC-211","2019/08/29 19:39:33","新北市永和區竹林路222號","121.520778333333","25.0080916666667","6500400","永和區"
"234067","AAC-212","2019/08/29 19:39:27","新北市永和區中山路一段203號","121.508918333333","25.0086533333333","6500400","永和區"
"234003","AAC-295","2019/08/29 19:39:41","新北市永和區自由街70-8號","121.513415","25.0053733333333","6500400","永和區"
"244023","483-VK","2019/08/29 19:39:43","新北市林口區文化北路二段8號","121.369443333333","25.081245","6501700","林口區"
"243012","AAD-798","2019/08/29 19:39:27","新北市泰山區全興路298號","121.436833333333","25.0514383333333","6501600","泰山區"
"243010","297-R6","2019/08/29 19:39:36","新北市泰山區民生路66號","121.432101666667","25.0517283333333","6501600","泰山區"
"243016","421-VK","2019/08/29 19:38:26","新北市泰山區新北大道七段2號","121.420685","25.0321316666667","6501600","泰山區"
"243009","KEA-2215","2019/08/29 19:39:25","新北市泰山區美寧街69號","121.430965","25.0647433333333","6501600","泰山區"
"243011","KEA-2216","2019/08/29 19:39:41","新北市泰山區中山路二段678號","121.427021666667","25.03713","6501600","泰山區"
"243015","680-BX","2019/08/29 19:39:42","新北市泰山區民權街79號","121.428643333333","25.04981","6501600","泰山區"
"222003","436-BY","2019/08/29 19:39:32","新北市深坑區深南路51-1號","121.621271666667","25.0098483333333","6501800","深坑區"
"222002","659-BX","2019/08/29 19:39:34","新北市深坑區北深路一段177號","121.632511666667","25.0108716666667","6501800","深坑區"
"231061","002-UM","2019/08/29 19:39:44","新北市新店區安民街82號","121.5166","24.9670733333333","6500600","新店區"
"231044","046-UY","2019/08/29 19:39:30","新北市新店區北新路三段179號","121.541083333333","24.9842483333333","6500600","新店區"
"231060","106-UY","2019/08/29 19:39:38","新北市新店區安康路二段196-2號","121.51086","24.9598","6500600","新店區"
"231051","107-UY","2019/08/29 19:39:42","新北市新店區中央路210號","121.530108333333","24.97371","6500600","新店區"
"231049","108-UY","2019/08/29 19:39:32","新北市新店區大豐路55號","121.539911666667","24.9797433333333","6500600","新店區"
"231065","110-UY","2019/08/29 19:39:27","新北市新店區安祥路109巷90弄92號","121.475881666667","24.9580866666667","6500600","新店區"
"221031","KEA-2785","2019/08/29 19:39:26","新北市汐止區康寧街901號","121.650808333333","25.0753216666667","6501100","汐止區"
"231062","256-BX","2019/08/29 19:39:41","新北市新店區太平路6號","121.534326666667","24.9577783333333","6500600","新店區"
"231054","260-TV","2019/08/29 19:39:33","新北市新店區文中路51號","121.539773333333","24.9565983333333","6500600","新店區"
"231042","268-BY","2019/08/29 19:39:29","新北市新店區中興路一段202號","121.543636666667","24.96544","6500600","新店區"
"231064","278-BY","2019/08/29 19:39:34","新北市新店區安和路一段52巷2-1號","121.517681666667","24.9662466666667","6500600","新店區"
"231050","AAD-862","2019/08/29 19:39:33","新北市新店區北宜路二段275號","121.554963333333","24.9537216666667","6500600","新店區"
"231045","355-BY","2019/08/29 19:39:30","新北市新店區北宜路二段207號","121.553146666667","24.9532516666667","6500600","新店區"
"231058","3713-VJ","2019/08/29 19:39:35","新北市新店區德正街21巷1號","121.543903333333","24.9722","6500600","新店區"
"231056","4715-K9","2019/08/29 19:39:30","新北市新店區中正路508號","121.533895","24.9829466666667","6500600","新店區"
"231067","4772-VM","2019/08/29 19:39:45","新北市新店區安康路一段355-10號","121.520361666667","24.963855","6500600","新店區"
"231063","616-UM","2019/08/29 19:39:43","新北市新店區達觀路32號","121.502218333333","24.9401316666667","6500600","新店區"
"231041","619-UM","2019/08/29 19:39:36","新北市新店區中正路485號","121.5339","24.9820566666667","6500600","新店區"
"231047","KED-0819","2019/08/29 19:39:38","新北市新店區五峰路63巷14號","121.546725","24.9686816666667","6500600","新店區"
"231052","718-UY","2019/08/29 19:39:30","新北市新店區新烏路二段495號","121.552451666667","24.9085433333333","6500600","新店區"
"231046","719-UM","2019/08/29 19:39:35","新北市新店區中正路292號","121.53779","24.9743583333333","6500600","新店區"
"231057","720-UM","2019/08/29 19:39:27","新北市新店區橘園一路11號","121.548005","24.934075","6500600","新店區"
"231059","897-TW","2019/08/29 19:39:33","新北市新店區安和路三段141號","121.51695","24.9854216666667","6500600","新店區"
"231040","898-TW","2019/08/29 19:39:33","新北市新店區北新路一段98號","121.542371666667","24.9688816666667","6500600","新店區"
"231043","899-TW","2019/08/29 19:39:37","新北市新店區北新路二段12號","121.542908333333","24.97122","6500600","新店區"
"231066","AKT-0513","2019/08/29 19:39:29","新北市新店區安康路三段355巷11號","121.484776666667","24.95056","6500600","新店區"
"241011","013-R5","2019/08/29 19:39:43","新北市三重區秀江街124號","121.49903","25.071885","6500200","三重區"
"241028","022-UY","2019/08/29 19:39:41","新北市三重區中正南路133號","121.494058333333","25.0569216666667","6500200","三重區"
"241008","059-VK","2019/08/29 19:39:28","新北市三重區永福街74號","121.478856666667","25.0767266666667","6500200","三重區"
"241029","060-VK","2019/08/29 19:39:31","新北市三重區重安街102號","121.493038333333","25.05599","6500200","三重區"
"241031","061-VK","2019/08/29 19:39:32","新北市三重區重新路四段244巷36號","121.48738","25.053665","6500200","三重區"
"241015","062-VK","2019/08/29 19:39:26","新北市三重區福德北路34號","121.502021666667","25.06528","6500200","三重區"
"241006","262-UM","2019/08/29 19:39:41","新北市三重區車路頭街100巷5號","121.4843","25.0746266666667","6500200","三重區"
"241009","267-UM","2019/08/29 19:39:37","新北市三重區三和路四段406巷20號","121.480416666667","25.0793616666667","6500200","三重區"
"241032","269-UM","2019/08/29 19:39:44","新北市三重區三陽路133號","121.483116666667","25.058895","6500200","三重區"
"241013","270-UM","2019/08/29 19:39:41","新北市三重區仁賢街14號","121.495951666667","25.0746816666667","6500200","三重區"
"241025","271-UM","2019/08/29 19:39:40","新北市三重區頂崁街188號","121.477495","25.0663616666667","6500200","三重區"
"241007","398-BY","2019/08/29 19:39:38","新北市三重區仁美街62號","121.486488333333","25.078245","6500200","三重區"
"241035","KEA-2210","2019/08/29 19:39:31","新北市三重區正義北路63號","121.49748","25.0645483333333","6500200","三重區"
"241030","KED-0822","2019/08/29 19:39:38","新北市三重區新興路27號","121.492396666667","25.0533733333333","6500200","三重區"
"241020","478-VK","2019/08/29 19:39:20","新北市三重區自強路三段72號","121.486858333333","25.0734733333333","6500200","三重區"
"241026","480-VK","2019/08/29 19:39:40","新北市三重區文化南路65巷5號","121.49988","25.0608666666667","6500200","三重區"
"241014","543-UM","2019/08/29 19:39:32","新北市三重區河邊北街84號","121.504101666667","25.0691966666667","6500200","三重區"
"241001","547-UM","2019/08/29 19:39:43","新北市三重區五華街33-1號","121.494625","25.0808533333333","6500200","三重區"
"241019","KEA-2593","2019/08/29 19:39:34","新北市三重區六張街255巷5弄1號","121.487343333333","25.068435","6500200","三重區"
"241005","AAD-863","2019/08/29 19:39:43","新北市三重區溪尾街305號","121.487641666667","25.0838933333333","6500200","三重區"
"241023","743-BX","2019/08/29 19:39:45","新北市三重區忠孝路三段99巷11號","121.479821666667","25.0643","6500200","三重區"
"241012","941-UM","2019/08/29 19:39:41","新北市三重區仁興街28巷14號","121.498863333333","25.0753216666667","6500200","三重區"
"235066","003-UY","2019/08/29 19:39:30","新北市中和區景新街129號","121.5058","24.9972566666667","6500300","中和區"
"235063","006-UY","2019/08/29 19:39:46","新北市中和區連城路263巷9弄2號","121.492401666667","24.9954583333333","6500300","中和區"
"235056","096-UM","2019/08/29 19:39:32","新北市中和區中山路三段114巷26弄1號","121.475898333333","25.006985","6500300","中和區"
"235039","097-UM","2019/08/29 19:39:35","新北市中和區景平路131號","121.514818333333","24.9920816666667","6500300","中和區"
"235065","098-UM","2019/08/29 19:39:36","新北市中和區福祥路90巷5號","121.499548333333","25.005885","6500300","中和區"
"235040","150-BY","2019/08/29 19:39:29","新北市中和區安平路82號","121.511133333333","24.9967366666667","6500300","中和區"
"235058","151-BY","2019/08/29 19:39:41","新北市中和區員山路146巷19號","121.48252","24.99682","6500300","中和區"
"235055","183-VK","2019/08/29 19:39:33","新北市中和區中山路三段181巷18弄5號","121.472573333333","25.0052416666667","6500300","中和區"
"235038","185-VK","2019/08/29 19:39:45","新北市中和區自立路141巷3號","121.52242","24.9936033333333","6500300","中和區"
"235049","186-VK","2019/08/29 19:39:32","新北市中和區景平路522號","121.503195","24.99403","6500300","中和區"
"235044","293-VK","2019/08/29 19:39:29","新北市中和區南山路421巷1弄1號","121.507381666667","24.9895416666667","6500300","中和區"
"235072","301-VK","2019/08/29 19:39:24","新北市中和區錦和路95號","121.490168333333","24.9957016666667","6500300","中和區"
"235043","352-BY","2019/08/29 19:39:35","新北市中和區興南路一段63-6號","121.510361666667","24.9896083333333","6500300","中和區"
"235042","KEA-2878","2019/08/29 19:39:27","新北市中和區景安路79巷7號","121.506763333333","24.997085","6500300","中和區"
"235070","558-UM","2019/08/29 19:39:24","新北市中和區連勝街14號","121.498788333333","24.9983716666667","6500300","中和區"
"235045","565-BX","2019/08/29 19:39:31","新北市中和區景新街406號","121.512611666667","24.9893716666667","6500300","中和區"
"235060","KED-0823","2019/08/29 19:39:43","新北市中和區中山路二段523巷12號","121.481438333333","25.004555","6500300","中和區"
"235054","640-BX","2019/08/29 19:39:32","新北市中和區莒光路11號","121.471926666667","25.00577","6500300","中和區"
"235047","732-UM","2019/08/29 19:39:43","新北市中和區景平路363號","121.504461666667","24.9933433333333","6500300","中和區"
"235046","733-UM","2019/08/29 19:39:26","新北市中和區景新街496巷29號","121.513438333333","24.9862483333333","6500300","中和區"
"235071","783-BX","2019/08/29 19:39:29","新北市中和區中正路809號","121.484838333333","25.00162","6500300","中和區"
"235057","801-TS","2019/08/29 19:39:29","新北市中和區新生街122號","121.483348333333","25.0013333333333","6500300","中和區"
"235052","805-TS","2019/08/29 19:39:45","新北市中和區華新街202號","121.506698333333","24.9819316666667","6500300","中和區"
"235048","896-TW","2019/08/29 19:39:28","新北市中和區華新街34號","121.5078","24.9843633333333","6500300","中和區"
"235053","900-TW","2019/08/29 19:39:44","新北市中和區國光街215巷8弄6號","121.46663","25.0009866666667","6500300","中和區"
"235067","911-UM","2019/08/29 19:39:34","新北市中和區中正路751巷3弄1號","121.484388333333","24.9996366666667","6500300","中和區"
"235051","157-BY","2019/08/29 19:39:35","新北市中和區南山路267號","121.503926666667","24.992585","6500300","中和區"
"235037","AAC-213","2019/08/29 19:39:28","新北市中和區秀朗路三段138號","121.524458333333","24.991655","6500300","中和區"
"235059","AAC-215","2019/08/29 19:39:39","新北市中和區錦和路350號","121.490743333333","24.9926116666667","6500300","中和區"
"220065","072-UY","2019/08/29 19:39:32","新北市板橋區國泰街111巷17號","121.466068333333","25.005955","6500100","板橋區"
"220086","073-UY","2019/08/29 19:39:28","新北市板橋區中正路216巷11號","121.456388333333","25.0184733333333","6500100","板橋區"
"220106","075-UY","2019/08/29 19:39:36","新北市板橋區文化路二段608巷64號","121.480143333333","25.0340733333333","6500100","板橋區"
"220069","AAD-861","2019/08/29 19:39:39","新北市板橋區南雅南路二段88號","121.453606666667","25.0015066666667","6500100","板橋區"
"220068","120-SR","2019/08/29 19:39:37","新北市板橋區中山路二段424號","121.483586666667","25.0214333333333","6500100","板橋區"
"247004","893-R6","2019/08/29 19:39:27","新北市蘆洲區中華街6巷30號","121.462805","25.0822366666667","6501400","蘆洲區"
"226004","312-R5","2019/08/29 19:39:34","新北市平溪區十分里十分街110號","121.77685","25.0429416666667","6502400","平溪區"
"235041","251-BX","2019/08/29 19:39:37","新北市中和區永貞路227號","121.513425","25.00365","6500300","中和區"
"228003","097-TW","2019/08/29 19:39:44","新北市貢寮區真理里美艷山街15-3號","121.923733333333","25.0679933333333","6502600","貢寮區"
"228001","212-TW","2019/08/29 19:39:38","新北市貢寮區真理里延平街65號","121.924438333333","25.05567","6502600","貢寮區"
"224010","AGQ-8101","2019/08/29 19:39:27","新北市瑞芳區輕便路131號","121.84354","25.1087316666667","6501200","瑞芳區"
"224002","639-TC","2019/08/29 19:39:42","新北市瑞芳區三爪子坑路11號","121.814015","25.10752","6501200","瑞芳區"
"227002","642-TC","2019/08/29 19:39:30","新北市雙溪區雙溪里和平街3號","121.865395","25.0358","6502500","雙溪區"
"227001","400-TW","2019/08/29 19:39:42","新北市雙溪區新基里新基北街23號","121.867306666667","25.0393033333333","6502500","雙溪區"
"222001","KEA-2212","2019/08/29 19:39:31","新北市深坑區北深路二段204號","121.612931666667","25.0014916666667","6501800","深坑區"
"208002","KEA-2872","2019/08/29 19:39:36","新北市金山區三民街11號","121.634698333333","25.2226583333333","6502700","金山區"
"208003","665-BX","2019/08/29 19:39:34","新北市金山區中山路145號","121.638753333333","25.2201616666667","6502700","金山區"
"251009","008-UM","2019/08/29 19:39:30","新北市淡水區中山北路一段184巷9號","121.445318333333","25.1786166666667","6501000","淡水區"
"251001","011-UM","2019/08/29 19:39:37","新北市淡水區民權路51號","121.459798333333","25.1391183333333","6501000","淡水區"
"251015","KEA-2871","2019/08/29 19:39:46","新北市淡水區山子頂24-1號","121.491396666667","25.1871966666667","6501000","淡水區"
"251016","179-VK","2019/08/29 19:39:31","新北市淡水區淡金路三段350巷18號","121.450801666667","25.20828","6501000","淡水區"
"251013","180-VK","2019/08/29 19:39:29","新北市淡水區店子後10號","121.460426666667","25.2188833333333","6501000","淡水區"
"251008","181-VK","2019/08/29 19:39:39","新北市淡水區中正路一段8巷1弄7號","121.428356666667","25.1765983333333","6501000","淡水區"
"251010","413-VK","2019/08/29 19:39:30","新北市淡水區崁頂三路115號","121.431473333333","25.200995","6501000","淡水區"
"251007","442-VK","2019/08/29 19:39:31","新北市淡水區中正東路一段111巷21號","121.4552","25.1611033333333","6501000","淡水區"
"251005","443-VK","2019/08/29 19:39:37","新北市淡水區原德路108巷2號","121.44343","25.1734883333333","6501000","淡水區"
"251006","561-UM","2019/08/29 19:39:37","新北市淡水區中山北路一段207巷52號","121.442361666667","25.1790983333333","6501000","淡水區"
"251014","577-R6","2019/08/29 19:39:36","新北市淡水區桂竹圍4-3號","121.475271666667","25.2321916666667","6501000","淡水區"
"251011","650-BX","2019/08/29 19:39:40","新北市淡水區中正東路二段143巷2弄1號","121.460728333333","25.1470533333333","6501000","淡水區"
"251002","672-BX","2019/08/29 19:39:40","新北市淡水區下圭柔山91-3號","121.430958333333","25.20962","6501000","淡水區"
"207003","550-UM","2019/08/29 19:39:37","新北市萬里區大鵬里萬里加投300號","121.645403333333","25.2196383333333","6502800","萬里區"
"207004","291-VK","2019/08/29 19:39:46","新北市萬里區萬里里瑪鋉路12-4號","121.687613333333","25.1755883333333","6502800","萬里區"
"252002","178-VK","2019/08/29 19:39:36","新北市三芝區中正路一段18巷50號","121.504135","25.2589233333333","6502100","三芝區"
"208001","170-UY","2019/08/29 19:39:38","新北市金山區六股里頂六股6號","121.6119","25.2221416666667","6502700","金山區"
"237004","KEA-2597","2019/08/29 19:39:38","新北市三峽區插角233號","121.413398333333","24.8686316666667","6500900","三峽區"
"237007","153-BY","2019/08/29 19:39:29","新北市三峽區二鬮路136巷149號","121.357201666667","24.910705","6500900","三峽區"
"237009","210-TH","2019/08/29 19:39:28","新北市三峽區中園街20-1號","121.368218333333","24.9267416666667","6500900","三峽區"
"237013","252-BX","2019/08/29 19:39:46","新北市三峽區介壽路二段6巷2-1號","121.389373333333","24.934545","6500900","三峽區"
"237012","275-BY","2019/08/29 19:39:34","新北市三峽區民生街3號","121.37461","24.935395","6500900","三峽區"
"237008","302-VK","2019/08/29 19:39:23","新北市三峽區永安街95巷11號","121.374806666667","24.92854","6500900","三峽區"
"237014","433-BY","2019/08/29 19:39:39","新北市三峽區民族街6號","121.368936666667","24.9314633333333","6500900","三峽區"
"237006","5529-G3","2019/08/29 19:39:37","新北市三峽區溪東路45巷9號","121.400786666667","24.9352066666667","6500900","三峽區"
"237011","KEA-2596","2019/08/29 19:39:33","新北市三峽區中正路一段160號","121.37304","24.9286683333333","6500900","三峽區"
"237015","649-BX","2019/08/29 19:39:23","新北市三峽區成福路184號","121.424191666667","24.9281866666667","6500900","三峽區"
"237010","706-TV","2019/08/29 19:39:45","新北市三峽區復興路46號","121.37359","24.9370816666667","6500900","三峽區"
"237005","AKY-6261","2019/08/29 19:39:46","新北市三峽區文化路144號","121.370558333333","24.9361833333333","6500900","三峽區"
"236078","166-UM","2019/08/29 19:39:35","新北市土城區中州路52巷2弄22號","121.412588333333","24.9579483333333","6501300","土城區"
"236030","253-BX","2019/08/29 19:39:37","新北市土城區福祥街61號","121.440995","24.980325","6501300","土城區"
"236070","KEA-2877","2019/08/29 19:39:43","新北市土城區金城路二段2巷5號","121.447326666667","24.9760016666667","6501300","土城區"
"252001","KED-0821","2019/08/29 19:39:32","新北市三芝區公正街66號","121.499836666667","25.2574666666667","6502100","三芝區"
"236021","401-BY","2019/08/29 19:39:27","新北市土城區峰廷街3號","121.469093333333","24.9873333333333","6501300","土城區"
"236042","752-BX","2019/08/29 19:39:37","新北市土城區裕民路256巷1弄2號","121.454161666667","24.9825916666667","6501300","土城區"
"236059","912-UM","2019/08/29 19:39:25","新北市土城區中央路二段63號","121.442491666667","24.978995","6501300","土城區"
"236049","913-UM","2019/08/29 19:39:30","新北市土城區明德路一段109號","121.465585","24.982195","6501300","土城區"
"236055","AAC-216","2019/08/29 19:39:34","新北市土城區學府路一段66號","121.457025","24.9883233333333","6501300","土城區"
"242051","497-BY","2019/08/29 19:39:35","新北市新莊區民安東路122號","121.430576666667","25.02066","6500500","新莊區"
"242004","440-UM","2019/08/29 19:39:43","新北市新莊區化成路38號","121.465066666667","25.0433533333333","6500500","新莊區"
"242013","132-UY","2019/08/29 19:39:42","新北市新莊區中港三街94號","121.448881666667","25.0463066666667","6500500","新莊區"
"242036","135-UY","2019/08/29 19:39:31","新北市新莊區民安路207巷8號","121.426595","25.0226716666667","6500500","新莊區"
"242031","348-TH","2019/08/29 19:39:45","新北市新莊區新泰路225巷43弄11號","121.444196666667","25.0386166666667","6500500","新莊區"
"238015","755-BX","2019/08/29 19:39:26","新北市樹林區日新街83號","121.421726666667","24.9903616666667","6500700","樹林區"
"238023","601-UM","2019/08/29 19:39:44","新北市樹林區三福街121巷17號","121.406088333333","25.0155316666667","6500700","樹林區"
"238019","599-UM","2019/08/29 19:39:41","新北市樹林區東榮街8號","121.418181666667","24.983815","6500700","樹林區"
"238024","5061-A6","2019/08/29 19:39:39","新北市樹林區中山路三段155巷12號","121.396068333333","24.972595","6500700","樹林區"
"238022","KEA-2213","2019/08/29 19:39:38","新北市樹林區名園街11號","121.419215","24.9795883333333","6500700","樹林區"
"238021","KEA-2539","2019/08/29 19:39:33","新北市樹林區佳園路三段145巷26號","121.388128333333","24.9490833333333","6500700","樹林區"
"238025","303-VK","2019/08/29 19:39:45","新北市樹林區保安二街27號","121.424658333333","24.9935533333333","6500700","樹林區"
"238017","283-BY","2019/08/29 19:39:41","新北市樹林區光興街63巷1號","121.410865","25.0025483333333","6500700","樹林區"
"238014","282-BY","2019/08/29 19:39:33","新北市樹林區千歲街4號","121.425081666667","24.995685","6500700","樹林區"
"238020","268-VK","2019/08/29 19:39:46","新北市樹林區樹新路233號","121.430036666667","24.99838","6500700","樹林區"
"238026","172-UY","2019/08/29 19:39:30","新北市樹林區佳園路三段43號","121.38794","24.9536216666667","6500700","樹林區"
"238016","169-UY","2019/08/29 19:39:41","新北市樹林區東和街40-2號","121.40095","24.98303","6500700","樹林區"
"239007","AAC-297","2019/08/29 19:39:24","新北市鶯歌區大湖路146號","121.342721666667","24.9643283333333","6500800","鶯歌區"
"239006","891-R6","2019/08/29 19:39:33","新北市鶯歌區鶯桃路91巷19號","121.337863333333","24.9525483333333","6500800","鶯歌區"
"239008","527-UM","2019/08/29 19:39:48","新北市鶯歌區大湖路460巷2弄2號","121.339941666667","24.9724816666667","6500800","鶯歌區"
"239001","417-VK","2019/08/29 19:39:35","新北市鶯歌區永智街106號","121.336923333333","24.953225","6500800","鶯歌區"
"239003","360-BY","2019/08/29 19:39:37","新北市鶯歌區中正二路155-3號","121.345353333333","24.9497833333333","6500800","鶯歌區"
"239004","193-VK","2019/08/29 19:39:37","新北市鶯歌區鶯華新村7號","121.330103333333","24.9347866666667","6500800","鶯歌區"
"221008","489-VK","2019/08/29 19:39:39","新北市汐止區康寧街145號","121.621753333333","25.06644","6501100","汐止區"
"221010","269-BY","2019/08/29 19:39:42","新北市汐止區連峰街1巷1號","121.646475","25.0760283333333","6501100","汐止區"
"221027","281-BY","2019/08/29 19:39:31","新北市汐止區忠孝東路9號","121.658278333333","25.0659066666667","6501100","汐止區"
"221021","299-VK","2019/08/29 19:39:40","新北市汐止區新興路108號","121.657306666667","25.0609433333333","6501100","汐止區"
"221025","623-UM","2019/08/29 19:39:43","新北市汐止區福安街21巷1號","121.662626666667","25.0652616666667","6501100","汐止區"
"221038","646-BX","2019/08/29 19:39:40","新北市汐止區忠孝東路245號","121.662871666667","25.06742","6501100","汐止區"
"221033","647-BX","2019/08/29 19:39:36","新北市汐止區南勢街3號","121.627101666667","25.0374166666667","6501100","汐止區"
"220079","145-BY","2019/08/29 19:39:42","新北市板橋區民權路225號","121.457626666667","25.015385","6500100","板橋區"
"220080","200-UY","2019/08/29 19:39:26","新北市板橋區大觀路二段37巷180號","121.449578333333","25.0021366666667","6500100","板橋區"
"220082","610-BX","2019/08/29 19:39:34","新北市板橋區大觀路三段235號","121.430568333333","24.992195","6500100","板橋區"
"220056","276-BY","2019/08/29 19:39:39","新北市板橋區國慶路31號","121.458856666667","24.9955383333333","6500100","板橋區"
"220072","277-BY","2019/08/29 19:39:27","新北市板橋區金門街215巷6號","121.43299","24.9897633333333","6500100","板橋區"
"220101","280-UM","2019/08/29 19:39:33","新北市板橋區縣民大道三段93巷23號","121.474676666667","25.0223533333333","6500100","板橋區"
"220071","283-VK","2019/08/29 19:39:28","新北市板橋區四川路一段283巷23號","121.459533333333","25.0005533333333","6500100","板橋區"
"220094","285-UM","2019/08/29 19:39:29","新北市板橋區長江路二段165號","121.466523333333","25.032085","6500100","板橋區"
"220053","285-VK","2019/08/29 19:39:37","新北市板橋區民享街17號","121.475108333333","25.0146466666667","6500100","板橋區"
"220083","286-VK","2019/08/29 19:39:31","新北市板橋區龍興街71巷22號","121.442906666667","25.002315","6500100","板橋區"
"220081","287-VK","2019/08/29 19:39:40","新北市板橋區大觀路一段75巷3號","121.447473333333","25.004495","6500100","板橋區"
"220090","288-VK","2019/08/29 19:39:40","新北市板橋區龍泉街54巷7弄5號","121.45663","25.0264133333333","6500100","板橋區"
"220061","293-UM","2019/08/29 19:39:39","新北市板橋區中山路一段265巷1-4號","121.468083333333","25.0142783333333","6500100","板橋區"
"220062","295-UM","2019/08/29 19:39:45","新北市板橋區三民路二段29巷12號","121.481835","25.018025","6500100","板橋區"
"220084","296-UM","2019/08/29 19:39:26","新北市板橋區滿平二街10巷2弄13號","121.425463333333","24.9874033333333","6500100","板橋區"
"220075","303-R5","2019/08/29 19:39:41","新北市板橋區中正路253巷42號","121.454086666667","25.01773","6500100","板橋區"
"220092","307-R5","2019/08/29 19:39:41","新北市板橋區四維路259巷69號","121.460616666667","25.0267533333333","6500100","板橋區"
"220098","317-R6","2019/08/29 19:39:31","新北市板橋區民生路三段299巷19號","121.46279","25.0301016666667","6500100","板橋區"
"220089","487-VK","2019/08/29 19:39:31","新北市板橋區新海路405號","121.45847","25.0268","6500100","板橋區"
"220088","491-VK","2019/08/29 19:39:40","新北市板橋區仁化街66號","121.475966666667","25.03181","6500100","板橋區"
"220035","560-BX","2019/08/29 19:39:39","新北市板橋區中正路328號","121.454433333333","25.0213783333333","6500100","板橋區"
"220103","561-BX","2019/08/29 19:39:37","新北市板橋區自由路40號","121.465676666667","25.0231833333333","6500100","板橋區"
"220063","609-BX","2019/08/29 19:39:41","新北市板橋區中山路二段326號","121.481061666667","25.0197383333333","6500100","板橋區"
"220091","637-BX","2019/08/29 19:39:41","新北市板橋區懷德街127巷30-2號","121.4799","25.0312933333333","6500100","板橋區"
"220057","686-BX","2019/08/29 19:39:36","新北市板橋區信義路18號","121.457025","24.9954166666667","6500100","板橋區"
"220077","687-BX","2019/08/29 19:39:33","新北市板橋區僑中二街52號","121.446648333333","25.010005","6500100","板橋區"
"220093","689-BX","2019/08/29 19:39:44","新北市板橋區長江路二段229號","121.468385","25.03264","6500100","板橋區"
"220054","741-BX","2019/08/29 19:39:39","新北市板橋區光明街3號","121.460186666667","25.0024483333333","6500100","板橋區"
"220102","KEA-2699","2019/08/29 19:39:45","新北市板橋區文化路二段410巷1弄2號","121.474425","25.0311766666667","6500100","板橋區"
"220055","827-TW","2019/08/29 19:39:43","新北市板橋區國慶路149巷1弄2號","121.461231666667","24.9966116666667","6500100","板橋區"
"220067","831-TW","2019/08/29 19:39:34","新北市板橋區長安街142號","121.472903333333","25.0101483333333","6500100","板橋區"
"220074","895-R6","2019/08/29 19:39:35","新北市板橋區福德街2-1號","121.4561","25.0091233333333","6500100","板橋區"
"220073","985-R7","2019/08/29 19:39:33","新北市板橋區國光路49巷17號","121.458905","25.0187883333333","6500100","板橋區"
"220097","AAC-210","2019/08/29 19:39:44","新北市板橋區文化路一段39號","121.460436666667","25.0131633333333","6500100","板橋區"
"220064","AAC-253","2019/08/29 19:39:24","新北市板橋區館前東路132號","121.46409","25.00776","6500100","板橋區"
"235068","KEA-2873","2019/08/29 19:39:22","新北市中和區廟美街7號","121.500871666667","25.0017316666667","6500300","中和區"
"235061","KEA-2875","2019/08/29 19:39:38","新北市中和區員山路174巷24號","121.481786666667","24.9996316666667","6500300","中和區"
