"lineid","car","time","location","longitude","latitude","cityid","cityname"
"234046","148-BY","2019/08/29 19:49:45","新北市永和區永利路133號","121.524185","25.0032","6500400","永和區"
"234081","298-R6","2019/08/29 19:49:38","新北市永和區永亨路98號","121.523083333333","25.0048916666667","6500400","永和區"
"234038","336-UY","2019/08/29 19:49:43","新北市永和區民樂街39巷18弄42號","121.52845","24.999045","6500400","永和區"
"234064","337-UY","2019/08/29 19:49:30","新北市永和區中正路368巷22號","121.518508333333","25.0007383333333","6500400","永和區"
"234086","338-UY","2019/08/29 19:49:42","新北市永和區永利路6-1號","121.517496666667","25.0059866666667","6500400","永和區"
"234070","552-UM","2019/08/29 19:49:32","新北市永和區竹林路81號","121.519491666667","25.0125416666667","6500400","永和區"
"234017","745-BX","2019/08/29 19:49:34","新北市永和區永和路二段297號","121.516031666667","25.0160666666667","6500400","永和區"
"234030","746-BX","2019/08/29 19:49:31","新北市永和區民生路67巷43號","121.524946666667","24.9974916666667","6500400","永和區"
"234054","KEA-2590","2019/08/29 19:49:43","新北市永和區竹林路75巷25弄8號","121.520146666667","25.0143916666667","6500400","永和區"
"234007","KED-0605","2019/08/29 19:49:30","新北市永和區永貞路375號","121.508336666667","25.008255","6500400","永和區"
"234013","KEA-2591","2019/08/29 19:49:34","新北市永和區保生路55號","121.504751666667","25.0105616666667","6500400","永和區"
"234061","AAD-866","2019/08/29 19:49:41","新北市永和區中正路220號","121.515888333333","24.9976016666667","6500400","永和區"
"234042","862-TW","2019/08/29 19:49:37","新北市永和區中和路389巷51-1號","121.507886666667","25.0021116666667","6500400","永和區"
"234050","863-TW","2019/08/29 19:49:27","新北市永和區保安路196號","121.507803333333","25.0142283333333","6500400","永和區"
"234026","9371-KE","2019/08/29 19:49:40","新北市永和區雙和街25巷4號","121.508891666667","25.0018683333333","6500400","永和區"
"234011","9373-KE","2019/08/29 19:49:26","新北市永和區仁愛路352巷112弄5號","121.50068","25.0084666666667","6500400","永和區"
"249005","172-UM","2019/08/29 19:49:35","新北市八里區長坑口38-8號","121.389625","25.128125","6502300","八里區"
"249001","173-UM","2019/08/29 19:49:46","新北市八里區中華路二段248號","121.405653333333","25.1498566666667","6502300","八里區"
"249004","303-UY","2019/08/29 19:49:27","新北市八里區仁愛路37號","121.413453333333","25.1606","6502300","八里區"
"249002","305-UY","2019/08/29 19:49:28","新北市八里區頂寮五街17號","121.451535","25.1259883333333","6502300","八里區"
"249003","593-UM","2019/08/29 19:49:37","新北市八里區中華路二段552號","121.398636666667","25.14538","6502300","八里區"
"248016","026-BX","2019/08/29 19:49:40","新北市五股區成泰路四段22巷29號","121.45547","25.1081516666667","6501500","五股區"
"248008","KED-0815","2019/08/29 19:49:30","新北市五股區四維路140號","121.468218333333","25.0753683333333","6501500","五股區"
"248020","KED-0813","2019/08/29 19:49:30","新北市五股區中直路55號","121.41917","25.11745","6501500","五股區"
"248012","247-BX","2019/08/29 19:49:37","新北市五股區蓬萊路2巷1號","121.43579","25.0794383333333","6501500","五股區"
"248014","261-SL","2019/08/29 19:49:27","新北市五股區五福路22巷6號","121.434666666667","25.08901","6501500","五股區"
"248004","677-BX","2019/08/29 19:49:41","新北市五股區成泰路一段135號","121.435516666667","25.072795","6501500","五股區"
"248002","678-BX","2019/08/29 19:49:26","新北市五股區成泰路三段625號","121.452935","25.10412","6501500","五股區"
"248010","682-TV","2019/08/29 19:49:43","新北市五股區登林路貿商巷1弄2號","121.429661666667","25.0697633333333","6501500","五股區"
"234023","9380-KE","2019/08/29 19:49:38","新北市永和區中山路一段277號","121.506911666667","25.0070883333333","6500400","永和區"
"234077","969-R7","2019/08/29 19:49:29","新北市永和區民治街79巷7號","121.517526666667","24.9976766666667","6500400","永和區"
"234074","AAC-211","2019/08/29 19:49:33","新北市永和區豫溪街136巷5號","121.521266666667","25.0099883333333","6500400","永和區"
"234067","AAC-212","2019/08/29 19:49:46","新北市永和區中山路一段203號","121.508911666667","25.0086816666667","6500400","永和區"
"234003","AAC-295","2019/08/29 19:49:40","新北市永和區福和路316-1號","121.516015","25.007335","6500400","永和區"
"243012","AAD-798","2019/08/29 19:49:27","新北市泰山區全興路103號","121.433616666667","25.0569666666667","6501600","泰山區"
"243016","421-VK","2019/08/29 19:45:27","新北市泰山區明志路三段492號","121.421048333333","25.031295","6501600","泰山區"
"243009","KEA-2215","2019/08/29 19:49:44","新北市泰山區美寧街60號","121.430963333333","25.0647066666667","6501600","泰山區"
"243011","KEA-2216","2019/08/29 19:49:41","新北市泰山區明志路三段204巷10弄15號","121.422868333333","25.0386433333333","6501600","泰山區"
"222003","436-BY","2019/08/29 19:49:32","新北市深坑區深南路51-1號","121.621255","25.0098416666667","6501800","深坑區"
"222002","659-BX","2019/08/29 19:49:34","新北市深坑區北深路一段300號","121.62499","25.0064666666667","6501800","深坑區"
"231061","002-UM","2019/08/29 19:49:37","新北市新店區安民街192號","121.517101666667","24.97139","6500600","新店區"
"231055","0291-UT","2019/08/29 19:49:32","新北市新店區中華路83巷67號","121.538243333333","24.9673983333333","6500600","新店區"
"231044","046-UY","2019/08/29 19:49:30","新北市新店區復興路67-1號","121.535296666667","24.9876916666667","6500600","新店區"
"231060","106-UY","2019/08/29 19:49:38","新北市新店區安康路二段159巷2號","121.510333333333","24.95923","6500600","新店區"
"231051","107-UY","2019/08/29 19:49:42","新北市新店區中央三街7號","121.529455","24.9734066666667","6500600","新店區"
"231049","108-UY","2019/08/29 19:49:32","新北市新店區二十張路46巷37弄21號","121.53584","24.9816183333333","6500600","新店區"
"231065","110-UY","2019/08/29 19:49:27","新北市新店區安祥路109巷121號","121.476546666667","24.9579","6500600","新店區"
"221031","KEA-2785","2019/08/29 19:49:46","新北市汐止區康寧街861巷1號","121.645436666667","25.075925","6501100","汐止區"
"231062","256-BX","2019/08/29 19:49:33","新北市新店區永業路68號","121.531651666667","24.9522716666667","6500600","新店區"
"231054","260-TV","2019/08/29 19:49:33","新北市新店區北宜路一段39巷21號","121.538958333333","24.9581733333333","6500600","新店區"
"231042","268-BY","2019/08/29 19:46:50","新北市新店區中興路一段268-3號","121.545161666667","24.9679383333333","6500600","新店區"
"231064","278-BY","2019/08/29 19:49:34","新北市新店區光華街5巷2號","121.5178","24.9688616666667","6500600","新店區"
"231050","AAD-862","2019/08/29 19:49:33","新北市新店區北宜路二段150號","121.557716666667","24.95298","6500600","新店區"
"231045","355-BY","2019/08/29 19:49:30","新北市新店區北宜路二段288號","121.561221666667","24.9541383333333","6500600","新店區"
"231056","4715-K9","2019/08/29 19:49:30","新北市新店區民權路42巷35號","121.539156666667","24.9836516666667","6500600","新店區"
"231067","4772-VM","2019/08/29 19:49:25","新北市新店區精忠路10-1號","121.53259","24.9590283333333","6500600","新店區"
"231063","616-UM","2019/08/29 19:49:43","新北市新店區車子路11號","121.503031666667","24.9519966666667","6500600","新店區"
"231041","619-UM","2019/08/29 19:49:36","新北市新店區中央路155號","121.529761666667","24.9727066666667","6500600","新店區"
"231047","KED-0819","2019/08/29 19:49:39","新北市新店區寶興路42巷29號","121.548011666667","24.9720533333333","6500600","新店區"
"231052","718-UY","2019/08/29 19:49:30","新北市新店區新烏路三段146號","121.552026666667","24.902775","6500600","新店區"
"231046","719-UM","2019/08/29 19:47:35","新北市新店區福園街10巷1號","121.532743333333","24.9728516666667","6500600","新店區"
"231057","720-UM","2019/08/29 19:49:27","新北市新店區梅崗三路1號","121.558113333333","24.9311566666667","6500600","新店區"
"231059","897-TW","2019/08/29 19:49:33","新北市新店區安和路二段238號","121.516548333333","24.978105","6500600","新店區"
"231040","898-TW","2019/08/29 19:49:33","新北市新店區中正路75巷71號","121.543065","24.96883","6500600","新店區"
"231043","899-TW","2019/08/29 19:49:37","新北市新店區中正路263-1號","121.538508333333","24.9737333333333","6500600","新店區"
"231066","AKT-0513","2019/08/29 19:49:29","新北市新店區安康路三段165巷2弄10號","121.489193333333","24.9513783333333","6500600","新店區"
"241011","013-R5","2019/08/29 19:49:43","新北市三重區三和路三段1號","121.497148333333","25.07047","6500200","三重區"
"241028","022-UY","2019/08/29 19:49:41","新北市三重區中正南路150號","121.494178333333","25.0573883333333","6500200","三重區"
"241008","059-VK","2019/08/29 19:49:28","新北市三重區永福街147-7號","121.478741666667","25.07627","6500200","三重區"
"241029","060-VK","2019/08/29 19:49:31","新北市三重區光明路25號","121.49118","25.0584883333333","6500200","三重區"
"241031","061-VK","2019/08/29 19:49:32","新北市三重區重新路四段101號","121.485751666667","25.0544566666667","6500200","三重區"
"241015","062-VK","2019/08/29 19:49:26","新北市三重區三和路一段2號","121.503923333333","25.064185","6500200","三重區"
"241003","091-VK","2019/08/29 19:49:32","新北市三重區五華街93巷56號","121.493801666667","25.0850233333333","6500200","三重區"
"241004","742-BX","2019/08/29 19:49:32","新北市三重區五福街4號","121.493188333333","25.0815933333333","6500200","三重區"
"241006","262-UM","2019/08/29 19:49:41","新北市三重區永福街289號","121.483286666667","25.074255","6500200","三重區"
"241016","266-UM","2019/08/29 19:49:43","新北市三重區正德街41巷5號","121.49613","25.0626933333333","6500200","三重區"
"241009","267-UM","2019/08/29 19:49:37","新北市三重區三和路四段396巷17號","121.480713333333","25.0790333333333","6500200","三重區"
"241018","268-UM","2019/08/29 19:49:30","新北市三重區雙園街106號","121.494885","25.06755","6500200","三重區"
"241032","269-UM","2019/08/29 19:49:33","新北市三重區重陽路一段68號","121.486418333333","25.0587716666667","6500200","三重區"
"241013","270-UM","2019/08/29 19:49:41","新北市三重區仁愛街112巷16號","121.49468","25.07388","6500200","三重區"
"241025","271-UM","2019/08/29 19:49:40","新北市三重區頂崁街210巷18號","121.476351666667","25.06778","6500200","三重區"
"241007","398-BY","2019/08/29 19:49:18","新北市三重區慈愛街8號","121.484508333333","25.0783983333333","6500200","三重區"
"241035","KEA-2210","2019/08/29 19:49:46","新北市三重區文化北路8號","121.499305","25.0635416666667","6500200","三重區"
"241030","KED-0822","2019/08/29 19:49:38","新北市三重區環河南路254巷22-1號","121.490308333333","25.05093","6500200","三重區"
"241020","478-VK","2019/08/29 19:49:40","新北市三重區三和路4段20巷26-1號","121.490238333333","25.0732833333333","6500200","三重區"
"241026","480-VK","2019/08/29 19:49:40","新北市三重區文化南路32號","121.500293333333","25.0615183333333","6500200","三重區"
"241014","543-UM","2019/08/29 19:49:32","新北市三重區三和路二段21巷20號","121.50175","25.067305","6500200","三重區"
"241001","547-UM","2019/08/29 19:49:25","新北市三重區仁愛街283巷4號","121.493168333333","25.07926","6500200","三重區"
"241019","KEA-2593","2019/08/29 19:49:34","新北市三重區自強路二段74巷23-1號","121.48779","25.06969","6500200","三重區"
"241005","AAD-863","2019/08/29 19:49:43","新北市三重區五華街251號","121.489016666667","25.0863033333333","6500200","三重區"
"241023","743-BX","2019/08/29 19:49:26","新北市三重區頂崁街172號","121.477611666667","25.0659516666667","6500200","三重區"
"241012","941-UM","2019/08/29 19:49:41","新北市三重區仁興街39巷2號","121.499213333333","25.075855","6500200","三重區"
"241033","AAC-255","2019/08/29 19:49:35","新北市三重區中興南街66號","121.470648333333","25.043965","6500200","三重區"
"235066","003-UY","2019/08/29 19:49:30","新北市中和區南工路58號","121.506085","25.0016433333333","6500300","中和區"
"235056","096-UM","2019/08/29 19:49:40","新北市中和區中山路三段174號","121.47274","25.0064166666667","6500300","中和區"
"235039","097-UM","2019/08/29 19:49:35","新北市中和區大勇街27巷19號","121.516563333333","24.9936816666667","6500300","中和區"
"235065","098-UM","2019/08/29 19:49:36","新北市中和區福美路230號","121.499175","25.0053383333333","6500300","中和區"
"235040","150-BY","2019/08/29 19:49:29","新北市中和區安和路39號","121.509653333333","24.9948666666667","6500300","中和區"
"235058","151-BY","2019/08/29 19:49:41","新北市中和區員山路150巷2弄35號","121.481698333333","24.99761","6500300","中和區"
"235055","183-VK","2019/08/29 19:49:33","新北市中和區德光路15巷12號","121.471291666667","25.00377","6500300","中和區"
"235038","185-VK","2019/08/29 19:49:25","新北市永和區民生路46巷56號","121.520876666667","24.9962966666667","6500300","中和區"
"235049","186-VK","2019/08/29 19:49:32","新北市中和區中興街41號","121.500775","24.9943066666667","6500300","中和區"
"235044","293-VK","2019/08/29 19:49:41","新北市中和區南山路146巷11號","121.503381666667","24.99234","6500300","中和區"
"235043","352-BY","2019/08/29 19:49:34","新北市中和區華新街232巷39號","121.505531666667","24.9825533333333","6500300","中和區"
"235042","KEA-2878","2019/08/29 19:49:27","新北市永和區中正路2巷1號","121.512653333333","24.993435","6500300","中和區"
"247014","KEA-2869","2019/08/29 19:49:38","新北市蘆洲區中央路155號","121.472666666667","25.0846683333333","6501400","蘆洲區"
"235050","4979-A6","2019/08/29 19:49:36","新北市中和區景平路241巷84弄57號","121.506078333333","24.9923016666667","6500300","中和區"
"235070","558-UM","2019/08/29 19:49:44","新北市中和區圓通路72號","121.500163333333","24.9973283333333","6500300","中和區"
"235045","565-BX","2019/08/29 19:49:31","新北市中和區景平路336號","121.511781666667","24.992775","6500300","中和區"
"235047","732-UM","2019/08/29 19:49:43","新北市中和區和平街74號","121.507696666667","24.9911216666667","6500300","中和區"
"235046","733-UM","2019/08/29 19:49:46","新北市中和區捷運路6號","121.510153333333","24.9895783333333","6500300","中和區"
"235052","805-TS","2019/08/29 19:49:25","新北市中和區華新街30巷8號","121.507251666667","24.98434","6500300","中和區"
"235048","896-TW","2019/08/29 19:49:28","新北市中和區興南路一段58號","121.510906666667","24.9904666666667","6500300","中和區"
"235053","900-TW","2019/08/29 19:49:24","新北市中和區民德路105號","121.468851666667","25.0008083333333","6500300","中和區"
"235067","911-UM","2019/08/29 19:49:34","新北市中和區新生街220巷19號","121.482826666667","24.9985783333333","6500300","中和區"
"235051","157-BY","2019/08/29 19:49:35","新北市中和區中興街123號","121.49993","24.9917633333333","6500300","中和區"
"235037","AAC-213","2019/08/29 19:49:28","新北市中和區自立路36-8號","121.522615","24.992735","6500300","中和區"
"235059","AAC-215","2019/08/29 19:49:39","新北市中和區圓通路305巷19號","121.494565","24.9892433333333","6500300","中和區"
"220065","072-UY","2019/08/29 19:49:32","新北市板橋區國泰街39巷3弄4號","121.468623333333","25.0062583333333","6500100","板橋區"
"220086","073-UY","2019/08/29 19:49:28","新北市板橋區中正路236巷79號","121.45914","25.01965","6500100","板橋區"
"220106","075-UY","2019/08/29 19:49:36","新北市板橋區民治街52巷11號","121.478868333333","25.0328066666667","6500100","板橋區"
"220069","AAD-861","2019/08/29 19:49:35","新北市板橋區貴興路51號","121.457546666667","25.0031583333333","6500100","板橋區"
"220068","120-SR","2019/08/29 19:49:31","新北市板橋區中山路二段412巷29弄19號","121.48462","25.020315","6500100","板橋區"
"247004","893-R6","2019/08/29 19:49:27","新北市蘆洲區中原路69號","121.45862","25.08189","6501400","蘆洲區"
"247002","336-TH","2019/08/29 19:49:30","新北市蘆洲區永樂街38巷69號","121.458661666667","25.09045","6501400","蘆洲區"
"247016","053-VK","2019/08/29 19:49:25","新北市蘆洲區中正路251號","121.46764","25.087065","6501400","蘆洲區"
"226004","312-R5","2019/08/29 19:49:34","新北市平溪區十分里十分街304號","121.775985","25.04403","6502400","平溪區"
"235041","251-BX","2019/08/29 19:49:37","新北市中和區中安街122號","121.511116666667","25.0005916666667","6500300","中和區"
"228003","097-TW","2019/08/29 19:49:24","新北市貢寮區真理里美艷山街3-1號","121.92569","25.0595966666667","6502600","貢寮區"
"228001","212-TW","2019/08/29 19:49:38","新北市貢寮區真理里新港街92號","121.927623333333","25.0565033333333","6502600","貢寮區"
"224010","AGQ-8101","2019/08/29 19:49:47","新北市瑞芳區輕便路39號","121.845456666667","25.1103783333333","6501200","瑞芳區"
"224002","639-TC","2019/08/29 19:49:42","新北市瑞芳區三爪子坑路13巷211號","121.815958333333","25.10598","6501200","瑞芳區"
"227002","642-TC","2019/08/29 19:49:30","新北市雙溪區雙溪里內挖路36號","121.86319","25.0367583333333","6502500","雙溪區"
"227001","400-TW","2019/08/29 19:49:28","新北市雙溪區新基里中華路53號","121.865815","25.0378033333333","6502500","雙溪區"
"222001","KEA-2212","2019/08/29 19:49:31","新北市深坑區北深路三段83號","121.606628333333","25.0015266666667","6501800","深坑區"
"208002","KEA-2872","2019/08/29 19:49:46","新北市金山區中華路366-1號","121.633228333333","25.2245816666667","6502700","金山區"
"208003","665-BX","2019/08/29 19:49:41","新北市金山區海興路186號","121.633136666667","25.240405","6502700","金山區"
"251009","008-UM","2019/08/29 19:49:30","新北市淡水區中正路38-1號","121.443648333333","25.1693583333333","6501000","淡水區"
"251004","009-UM","2019/08/29 19:49:34","新北市淡水區民權路185巷22號","121.460395","25.1337533333333","6501000","淡水區"
"251001","011-UM","2019/08/29 19:49:37","新北市淡水區中正東路二段37號","121.459296666667","25.156285","6501000","淡水區"
"251015","KEA-2871","2019/08/29 19:49:26","新北市淡水區山子頂24-1號","121.491395","25.18719","6501000","淡水區"
"251016","179-VK","2019/08/29 19:49:31","新北市淡水區三塊厝3-2號","121.455296666667","25.20934","6501000","淡水區"
"251013","180-VK","2019/08/29 19:49:29","新北市淡水區頂田寮路109號","121.45878","25.2161316666667","6501000","淡水區"
"251008","181-VK","2019/08/29 19:49:39","新北市淡水區中正路一段24巷2-4號","121.426815","25.177","6501000","淡水區"
"251012","441-VK","2019/08/29 19:49:42","新北市淡水區埤島28號","121.447555","25.198345","6501000","淡水區"
"251007","442-VK","2019/08/29 19:49:31","新北市淡水區中正東路一段3巷31號","121.451815","25.1654283333333","6501000","淡水區"
"251005","443-VK","2019/08/29 19:49:37","新北市淡水區中正東路6號","121.447121666667","25.1672216666667","6501000","淡水區"
"251006","561-UM","2019/08/29 19:49:37","新北市淡水區水碓街7號","121.44328","25.1769283333333","6501000","淡水區"
"251014","577-R6","2019/08/29 19:49:36","新北市淡水區番社前3-3號","121.471913333333","25.237235","6501000","淡水區"
"251011","650-BX","2019/08/29 19:49:40","新北市淡水區紅樹林路211號","121.460833333333","25.1560466666667","6501000","淡水區"
"251002","672-BX","2019/08/29 19:49:40","新北市淡水區下圭柔山90-8號","121.431221666667","25.2103266666667","6501000","淡水區"
"207003","550-UM","2019/08/29 19:49:37","新北市萬里區大鵬里下社3號","121.64784","25.21663","6502800","萬里區"
"207004","291-VK","2019/08/29 19:49:43","新北市萬里區萬里里瑪鋉路120號","121.690651666667","25.179045","6502800","萬里區"
"252002","178-VK","2019/08/29 19:49:35","新北市三芝區三民街33號","121.504691666667","25.2585166666667","6502100","三芝區"
"208001","170-UY","2019/08/29 19:49:34","新北市金山區重和里六股林口8號","121.599805","25.2113966666667","6502700","金山區"
"237004","KEA-2597","2019/08/29 19:49:38","新北市三峽區添福54-1號","121.376995","24.88992","6500900","三峽區"
"237007","153-BY","2019/08/29 19:49:29","新北市三峽區二鬮路136巷75號","121.357118333333","24.9095283333333","6500900","三峽區"
"237009","210-TH","2019/08/29 19:49:28","新北市三峽區中園街13號","121.368888333333","24.9271033333333","6500900","三峽區"
"237013","252-BX","2019/08/29 19:49:26","新北市三峽區溪北街95號","121.397903333333","24.935525","6500900","三峽區"
"237012","275-BY","2019/08/29 19:49:34","新北市三峽區中華路40號","121.372953333333","24.9315566666667","6500900","三峽區"
"237008","302-VK","2019/08/29 19:49:43","新北市三峽區永安街183號","121.37317","24.926935","6500900","三峽區"
"237014","433-BY","2019/08/29 19:49:39","新北市三峽區嘉添35-2號","121.368748333333","24.911215","6500900","三峽區"
"237006","5529-G3","2019/08/29 19:49:37","新北市三峽區介壽路一段554號","121.387543333333","24.93374","6500900","三峽區"
"237011","KEA-2596","2019/08/29 19:49:33","新北市三峽區中正路一段438號","121.370575","24.92196","6500900","三峽區"
"237015","649-BX","2019/08/29 19:49:23","新北市三峽區溪東路218巷2-1號","121.40759","24.9321333333333","6500900","三峽區"
"237010","706-TV","2019/08/29 19:49:30","新北市三峽區復興路77號","121.372678333333","24.937495","6500900","三峽區"
"237005","AKY-6261","2019/08/29 19:49:27","新北市三峽區民生街1巷5-2號","121.378711666667","24.9363116666667","6500900","三峽區"
"236078","166-UM","2019/08/29 19:49:35","新北市土城區溪頭路110號","121.408998333333","24.9505533333333","6501300","土城區"
"236030","253-BX","2019/08/29 19:49:31","新北市土城區中央路一段318巷4弄12號","121.443245","24.9824133333333","6501300","土城區"
"236026","269-VK","2019/08/29 19:49:40","新北市土城區中央路二段61巷40號","121.443751666667","24.9786016666667","6501300","土城區"
"236070","KEA-2877","2019/08/29 19:49:43","新北市土城區水源街5號","121.441436666667","24.97487","6501300","土城區"
"252001","KED-0821","2019/08/29 19:49:32","新北市三芝區公正街66號","121.49984","25.2574616666667","6502100","三芝區"
"236021","401-BY","2019/08/29 19:49:27","新北市土城區延吉街137巷6號","121.470881666667","24.985775","6501300","土城區"
"236042","752-BX","2019/08/29 19:49:37","新北市土城區裕民路259巷12號","121.455001666667","24.9835083333333","6501300","土城區"
"236059","912-UM","2019/08/29 19:49:45","新北市土城區中央路一段126號","121.446455","24.98787","6501300","土城區"
"236049","913-UM","2019/08/29 19:49:45","新北市土城區青雲路145號","121.458785","24.9841883333333","6501300","土城區"
"236055","AAC-216","2019/08/29 19:49:34","新北市土城區延平街1號","121.468245","24.9904333333333","6501300","土城區"
"242039","AAC-296","2019/08/29 19:49:41","新北市新莊區民安路299巷24號","121.42933","25.0232","6500500","新莊區"
"242002","751-BX","2019/08/29 19:49:42","新北市新莊區瓊林路1號","121.450515","25.032065","6500500","新莊區"
"242051","497-BY","2019/08/29 19:49:35","新北市新莊區民安東路122號","121.430536666667","25.020555","6500500","新莊區"
"242034","442-UM","2019/08/29 19:49:31","新北市新莊區仁愛街54巷1號","121.444701666667","25.0371216666667","6500500","新莊區"
"242004","440-UM","2019/08/29 19:49:43","新北市新莊區化成路63巷24弄3號","121.462973333333","25.0458683333333","6500500","新莊區"
"242048","400-BY","2019/08/29 19:49:36","新北市新莊區後港一路28巷14號","121.425641666667","25.0250466666667","6500500","新莊區"
"242025","362-BY","2019/08/29 19:49:33","新北市新莊區五權一路12巷21弄4號","121.457873333333","25.06444","6500500","新莊區"
"242023","353-BY","2019/08/29 19:49:30","新北市新莊區化成路182號","121.465606666667","25.0458316666667","6500500","新莊區"
"242013","132-UY","2019/08/29 19:49:42","新北市新莊區中泰街58號","121.450225","25.0469116666667","6500500","新莊區"
"242036","135-UY","2019/08/29 19:49:38","新北市新莊區民安路207巷30弄1-1號","121.427705","25.0237733333333","6500500","新莊區"
"242031","348-TH","2019/08/29 19:49:45","新北市新莊區公園一路126號","121.445738333333","25.038","6500500","新莊區"
"238023","601-UM","2019/08/29 19:49:28","新北市樹林區大安路82-2號","121.423303333333","24.998865","6500700","樹林區"
"238019","599-UM","2019/08/29 19:49:41","新北市樹林區中華路190號","121.412113333333","24.9805216666667","6500700","樹林區"
"238024","5061-A6","2019/08/29 19:49:39","新北市樹林區佳園路一段74號","121.393098333333","24.9700133333333","6500700","樹林區"
"238022","KEA-2213","2019/08/29 19:49:38","新北市樹林區國凱街50巷25號","121.420771666667","24.97812","6500700","樹林區"
"238021","KEA-2539","2019/08/29 19:49:33","新北市樹林區佳園路三段181巷99號","121.391383333333","24.9483583333333","6500700","樹林區"
"238025","303-VK","2019/08/29 19:49:25","新北市樹林區中山路二段62-4號","121.416061666667","24.9843433333333","6500700","樹林區"
"238017","283-BY","2019/08/29 19:49:31","新北市樹林區保安街二段167巷15號","121.414335","25.0027583333333","6500700","樹林區"
"238014","282-BY","2019/08/29 19:49:42","新北市樹林區千歲街70巷3弄2號","121.426901666667","24.9970866666667","6500700","樹林區"
"238026","172-UY","2019/08/29 19:49:30","新北市樹林區佳園路二段77號","121.390801666667","24.9597966666667","6500700","樹林區"
"239007","AAC-297","2019/08/29 19:49:45","新北市鶯歌區大湖路338巷15號","121.346765","24.9690383333333","6500800","鶯歌區"
"239006","891-R6","2019/08/29 19:49:13","新北市鶯歌區建國路512巷54號","121.339075","24.9514066666667","6500800","鶯歌區"
"239001","417-VK","2019/08/29 19:49:35","新北市鶯歌區建國路586-1號","121.33948","24.952155","6500800","鶯歌區"
"239004","193-VK","2019/08/29 19:49:37","新北市鶯歌區二甲路中心巷11弄36-2號","121.337585","24.9358183333333","6500800","鶯歌區"
"221008","489-VK","2019/08/29 19:49:39","新北市汐止區康寧街61巷22弄5號","121.619661666667","25.0670466666667","6501100","汐止區"
"221010","269-BY","2019/08/29 19:49:42","新北市汐止區汐萬路二段37巷1號","121.649465","25.08124","6501100","汐止區"
"221012","278-VK","2019/08/29 19:49:40","新北市汐止區大同路三段495號","121.680173333333","25.07109","6501100","汐止區"
"221023","279-VK","2019/08/29 19:49:28","新北市汐止區中興路284號","121.628405","25.0694233333333","6501100","汐止區"
"221021","299-VK","2019/08/29 19:49:40","新北市汐止區水源路一段143號","121.65598","25.06213","6501100","汐止區"
"221025","623-UM","2019/08/29 19:49:37","新北市汐止區秀峰路81巷15弄13號","121.660945","25.06476","6501100","汐止區"
"221038","646-BX","2019/08/29 19:49:40","新北市汐止區忠孝東路419號","121.66574","25.0714783333333","6501100","汐止區"
"220079","145-BY","2019/08/29 19:49:42","新北市板橋區光正街45巷2弄17號","121.460993333333","25.017245","6500100","板橋區"
"220080","200-UY","2019/08/29 19:49:35","新北市板橋區大觀路二段37巷282號","121.449821666667","25.00116","6500100","板橋區"
"220082","610-BX","2019/08/29 19:49:34","新北市板橋區溪北路102號","121.42861","24.9893","6500100","板橋區"
"220056","276-BY","2019/08/29 19:49:39","新北市板橋區四川路二段47巷2弄1號","121.454105","24.9949433333333","6500100","板橋區"
"220072","277-BY","2019/08/29 19:49:28","新北市板橋區金門街159號","121.432886666667","24.990485","6500100","板橋區"
"220101","280-UM","2019/08/29 19:49:33","新北市板橋區莒光路180巷23號","121.473138333333","25.0227516666667","6500100","板橋區"
"220071","283-VK","2019/08/29 19:49:28","新北市板橋區和平路174巷27號","121.4647","24.9945","6500100","板橋區"
"220094","285-UM","2019/08/29 19:49:29","新北市板橋區雨農路15號","121.462215","25.0246166666667","6500100","板橋區"
"220053","285-VK","2019/08/29 19:49:28","新北市板橋區永豐街24號","121.474673333333","25.0170883333333","6500100","板橋區"
"220083","286-VK","2019/08/29 19:49:31","新北市板橋區龍興街63巷19號","121.44243","25.0015683333333","6500100","板橋區"
"220081","287-VK","2019/08/29 19:49:24","新北市板橋區大觀路一段29巷131弄29號","121.4506","25.0046133333333","6500100","板橋區"
"220090","288-VK","2019/08/29 19:49:39","新北市板橋區漢生西路165巷1號","121.4628","25.0233766666667","6500100","板橋區"
"220061","293-UM","2019/08/29 19:49:39","新北市板橋區板新路131號","121.47071","25.0153183333333","6500100","板橋區"
"220062","295-UM","2019/08/29 19:49:33","新北市板橋區中山路二段416巷52號","121.483116666667","25.019345","6500100","板橋區"
"220084","296-UM","2019/08/29 19:49:47","新北市板橋區溪崑二街118巷3號","121.425561666667","24.988625","6500100","板橋區"
"220075","303-R5","2019/08/29 19:49:43","新北市板橋區大勇街18號","121.454325","25.0172366666667","6500100","板橋區"
"220092","307-R5","2019/08/29 19:49:41","新北市板橋區幸福路32巷45號","121.460565","25.021825","6500100","板橋區"
"220098","317-R6","2019/08/29 19:49:34","新北市板橋區四維路279巷79弄3號","121.459915","25.0271616666667","6500100","板橋區"
"220089","487-VK","2019/08/29 19:49:31","新北市板橋區四維路190號","121.464191666667","25.0269183333333","6500100","板橋區"
"220088","491-VK","2019/08/29 19:49:43","新北市板橋區懷德街139巷2號","121.479301666667","25.0302383333333","6500100","板橋區"
"220035","560-BX","2019/08/29 19:49:38","新北市板橋區金華街85巷31號","121.458706666667","25.0213033333333","6500100","板橋區"
"220103","561-BX","2019/08/29 19:49:35","新北市板橋區陽明街162號","121.463331666667","25.0242416666667","6500100","板橋區"
"220063","609-BX","2019/08/29 19:49:41","新北市板橋區三民路一段5巷1號","121.47906","25.0233916666667","6500100","板橋區"
"220091","637-BX","2019/08/29 19:49:43","新北市板橋區懷德街174巷18弄2-2號","121.478913333333","25.0297066666667","6500100","板橋區"
"220057","686-BX","2019/08/29 19:49:29","新北市板橋區四川路二段245巷54號","121.452063333333","24.9923733333333","6500100","板橋區"
"220077","687-BX","2019/08/29 19:49:33","新北市板橋區僑中二街116巷1號","121.4456","25.0062433333333","6500100","板橋區"
"220093","689-BX","2019/08/29 19:49:28","新北市板橋區文化路二段656號","121.480138333333","25.0356566666667","6500100","板橋區"
"220054","741-BX","2019/08/29 19:49:39","新北市板橋區忠孝路241號","121.46633","25.0028666666667","6500100","板橋區"
"220102","KEA-2699","2019/08/29 19:49:45","新北市板橋區松柏街2號","121.473825","25.0293016666667","6500100","板橋區"
"220055","827-TW","2019/08/29 19:49:43","新北市板橋區國慶路149巷29弄16號","121.46027","24.997655","6500100","板橋區"
"220067","831-TW","2019/08/29 19:49:34","新北市板橋區長安街138巷1弄85號","121.474785","25.0113033333333","6500100","板橋區"
"220074","895-R6","2019/08/29 19:49:45","新北市板橋區府中路29-2號","121.458453333333","25.0081166666667","6500100","板橋區"
"220073","985-R7","2019/08/29 19:49:32","新北市板橋區國光路51號","121.458091666667","25.017895","6500100","板橋區"
"220097","AAC-210","2019/08/29 19:49:23","新北市板橋區文化路一段221巷24號","121.462865","25.0178866666667","6500100","板橋區"
"220064","AAC-253","2019/08/29 19:49:24","新北市板橋區民族路83號","121.46571","25.0085783333333","6500100","板橋區"
"235068","KEA-2873","2019/08/29 19:49:22","新北市中和區莊敬路1號","121.499663333333","25.0043966666667","6500300","中和區"
