"lineid","car","time","location","longitude","latitude","cityid","cityname"
"234030","746-BX","2019/08/29 20:49:31","新北市新店區薏仁坑路自強巷1號","121.497585","24.9577733333333","6500400","永和區"
"249004","303-UY","2019/08/29 20:49:27","新北市八里區中山路一段63號","121.418443333333","25.1595666666667","6502300","八里區"
"249003","759-BX","2019/08/29 20:49:37","新北市八里區中山路二段341號","121.399631666667","25.147305","6502300","八里區"
"234074","AAC-211","2019/08/29 20:49:33","新北市永和區環河東路二段30號","121.522556666667","25.0126866666667","6500400","永和區"
"234067","AAC-212","2019/08/29 20:49:47","新北市新店區安興路112號","121.51513","24.977235","6500400","永和區"
"222003","436-BY","2019/08/29 20:49:32","新北市深坑區文山路三段48-1號","121.609946666667","24.9985183333333","6501800","深坑區"
"222002","659-BX","2019/08/29 20:49:34","新北市深坑區北深路三段93巷37號","121.604726666667","25.0003633333333","6501800","深坑區"
"231061","002-UM","2019/08/29 20:49:44","新北市新店區永安街93-6號","121.520776666667","24.9866433333333","6500600","新店區"
"231044","046-UY","2019/08/29 20:49:30","新北市新店區中正路423號","121.534236666667","24.9778966666667","6500600","新店區"
"231060","106-UY","2019/08/29 20:49:38","新北市新店區安康路三段740號","121.473833333333","24.9419666666667","6500600","新店區"
"231051","107-UY","2019/08/29 20:49:42","新北市新店區復興路131-2號","121.531406666667","24.988665","6500600","新店區"
"231049","108-UY","2019/08/29 20:49:32","新北市新店區安康路一段61號","121.530586666667","24.9608383333333","6500600","新店區"
"231065","110-UY","2019/08/29 20:49:27","新北市新店區安祥路69巷15號","121.481951666667","24.9614","6500600","新店區"
"231068","187-VK","2019/08/29 20:49:44","新北市新店區中興路三段228巷28號","121.544765","24.9834766666667","6500600","新店區"
"231062","256-BX","2019/08/29 20:49:41","新北市新店區和成街18巷18號","121.487626666667","24.9463366666667","6500600","新店區"
"231054","260-TV","2019/08/29 20:49:33","新北市新店區大新街3號","121.543655","24.9689033333333","6500600","新店區"
"231042","268-BY","2019/08/29 20:49:29","新北市新店區寶高路102巷20號","121.552475","24.9739916666667","6500600","新店區"
"231064","278-BY","2019/08/29 20:49:34","新北市新店區安民街322巷12號","121.518311666667","24.97417","6500600","新店區"
"231050","AAD-862","2019/08/29 20:49:33","新北市新店區三民路20巷32號","121.53803","24.9713666666667","6500600","新店區"
"231058","3713-VJ","2019/08/29 20:49:35","新北市新店區平等街42號","121.536451666667","24.9733633333333","6500600","新店區"
"231067","4772-VM","2019/08/29 20:49:25","新北市新店區安德街148巷12弄2號","121.507895","24.9601533333333","6500600","新店區"
"231063","616-UM","2019/08/29 20:49:43","新北市新店區如意街16號","121.494423333333","24.9484033333333","6500600","新店區"
"231041","619-UM","2019/08/29 20:49:36","新北市新店區中正路700巷3號","121.53358","24.991505","6500600","新店區"
"231047","KED-0819","2019/08/29 20:49:38","新北市新店區文化路71號","121.544705","24.98196","6500600","新店區"
"231052","718-UY","2019/08/29 20:49:30","新北市新店區屈尺路6號","121.549436666667","24.9233366666667","6500600","新店區"
"231057","720-UM","2019/08/29 20:49:46","新北市新店區新烏路一段73號","121.546478333333","24.94261","6500600","新店區"
"231059","897-TW","2019/08/29 20:49:33","新北市新店區僑愛五路32號","121.499078333333","24.9443816666667","6500600","新店區"
"231040","898-TW","2019/08/29 20:49:32","新北市新店區中正路270號","121.538933333333","24.9735783333333","6500600","新店區"
"231043","899-TW","2019/08/29 20:49:37","新北市新店區建國路95號","121.540443333333","24.976815","6500600","新店區"
"231066","AKT-0513","2019/08/29 20:49:29","新北市新店區安民街248號","121.517538333333","24.9730683333333","6500600","新店區"
"241011","013-R5","2019/08/29 20:49:43","新北市三重區龍濱路205巷13號","121.502733333333","25.0718666666667","6500200","三重區"
"241028","022-UY","2019/08/29 20:49:41","新北市三重區中正南路46號","121.493898333333","25.059955","6500200","三重區"
"241008","059-VK","2019/08/29 20:49:27","新北市三重區永福街72巷9號","121.479293333333","25.0767116666667","6500200","三重區"
"241029","060-VK","2019/08/29 20:49:31","新北市三重區重安街18號","121.490371666667","25.058135","6500200","三重區"
"241031","061-VK","2019/08/29 20:49:32","新北市三重區重陽路一段113巷3號","121.487535","25.0597783333333","6500200","三重區"
"241015","062-VK","2019/08/29 20:49:26","新北市三重區三和路二段164號","121.499141666667","25.068705","6500200","三重區"
"241024","065-VK","2019/08/29 20:49:29","新北市三重區國道路一段58巷20號","121.481308333333","25.07208","6500200","三重區"
"241002","090-VK","2019/08/29 20:47:09","新北市三重區仁義街157巷96號","121.499083333333","25.0821783333333","6500200","三重區"
"241003","091-VK","2019/08/29 20:49:32","新北市三重區集賢路87-1號","121.493631666667","25.0868383333333","6500200","三重區"
"241004","742-BX","2019/08/29 20:49:32","新北市三重區分子尾街25號","121.489458333333","25.081165","6500200","三重區"
"241006","262-UM","2019/08/29 20:49:41","新北市三重區車路頭街139巷14號","121.484268333333","25.0762066666667","6500200","三重區"
"241016","266-UM","2019/08/29 20:49:42","新北市三重區長壽西街49號","121.49613","25.067235","6500200","三重區"
"241009","267-UM","2019/08/29 20:49:37","新北市三重區三和路四段197號","121.482128333333","25.0792633333333","6500200","三重區"
"241018","268-UM","2019/08/29 20:49:30","新北市三重區正義北路331號","121.493806666667","25.0715133333333","6500200","三重區"
"241032","269-UM","2019/08/29 20:49:33","新北市三重區重陽路一段120巷35號","121.485121666667","25.0601833333333","6500200","三重區"
"241013","270-UM","2019/08/29 20:49:41","新北市三重區仁賢街12-1號","121.495666666667","25.0749333333333","6500200","三重區"
"241025","271-UM","2019/08/29 20:49:40","新北市三重區貴陽街18-1號","121.484223333333","25.0618866666667","6500200","三重區"
"241007","398-BY","2019/08/29 20:49:38","新北市三重區三和路四段113號","121.48559","25.0773433333333","6500200","三重區"
"241035","KEA-2210","2019/08/29 20:49:25","新北市三重區三和路三段18號","121.49669","25.0703783333333","6500200","三重區"
"241030","KED-0822","2019/08/29 20:49:38","新北市三重區昌隆街26號","121.492013333333","25.0522616666667","6500200","三重區"
"241020","478-VK","2019/08/29 20:49:40","新北市三重區忠孝路一段101號","121.489483333333","25.0721416666667","6500200","三重區"
"241026","480-VK","2019/08/29 20:49:40","新北市三重區和平街1號","121.500078333333","25.062345","6500200","三重區"
"241014","543-UM","2019/08/29 20:49:32","新北市三重區安和路107號","121.500818333333","25.070185","6500200","三重區"
"241001","547-UM","2019/08/29 20:49:43","新北市三重區三和路四段124號","121.489216666667","25.0751983333333","6500200","三重區"
"241019","KEA-2593","2019/08/29 20:49:34","新北市三重區大智街139號","121.49083","25.0709283333333","6500200","三重區"
"241005","AAD-863","2019/08/29 20:49:43","新北市三重區三信路182號","121.48805","25.08611","6500200","三重區"
"241023","743-BX","2019/08/29 20:49:25","新北市三重區忠孝路三段84巷1號","121.48034","25.064745","6500200","三重區"
"241022","KED-0820","2019/08/29 20:49:27","新北市三重區過圳街84號","121.486518333333","25.061925","6500200","三重區"
"241012","941-UM","2019/08/29 20:49:41","新北市三重區仁信街27號","121.501256666667","25.075585","6500200","三重區"
"241033","AAC-255","2019/08/29 20:49:34","新北市三重區光復路二段1號","121.472231666667","25.0533383333333","6500200","三重區"
"235055","183-VK","2019/08/29 20:49:33","新北市八里區荖阡坑路16-8號","121.398513333333","25.1392966666667","6500300","中和區"
"247014","KEA-2869","2019/08/29 20:49:41","新北市蘆洲區復興路30號","121.472248333333","25.0850983333333","6501400","蘆洲區"
"247008","KED-0682","2019/08/29 20:49:37","新北市蘆洲區永安北路二段10號","121.481128333333","25.0805916666667","6501400","蘆洲區"
"235069","4980-A6","2019/08/29 20:49:28","新北市中和區員山路359巷1弄1號","121.481021666667","25.0015566666667","6500300","中和區"
"247004","893-R6","2019/08/29 20:49:27","新北市蘆洲區長安街100號","121.461685","25.0808583333333","6501400","蘆洲區"
"247018","546-UM","2019/08/29 20:49:41","新北市蘆洲區民權路74號","121.474871666667","25.087375","6501400","蘆洲區"
"247012","337-TH","2019/08/29 20:49:30","新北市蘆洲區復興路340巷15-1號","121.482536666667","25.0899716666667","6501400","蘆洲區"
"247002","336-TH","2019/08/29 20:49:30","新北市蘆洲區永康街116號","121.458235","25.0853366666667","6501400","蘆洲區"
"247022","057-VK","2019/08/29 20:49:32","新北市蘆洲區民義街9巷2號","121.471301666667","25.0885666666667","6501400","蘆洲區"
"247016","053-VK","2019/08/29 20:49:45","新北市蘆洲區中正路71號","121.470446666667","25.0828016666667","6501400","蘆洲區"
"247006","002-UY","2019/08/29 20:49:41","新北市蘆洲區永安南路二段16巷8號","121.467751666667","25.0772083333333","6501400","蘆洲區"
"247024","001-UY","2019/08/29 20:49:34","新北市蘆洲區長樂路140號","121.462046666667","25.0902133333333","6501400","蘆洲區"
"222001","KEA-2212","2019/08/29 20:49:31","新北市深坑區北深路三段129號","121.604085","25.0025333333333","6501800","深坑區"
"251001","011-UM","2019/08/29 20:49:37","新北市淡水區淡金路57號","121.456123333333","25.1613283333333","6501000","淡水區"
"251015","KEA-2871","2019/08/29 20:49:26","新北市淡水區淡金路三段446號","121.450788333333","25.214305","6501000","淡水區"
"251016","179-VK","2019/08/29 20:49:30","新北市淡水區興仁路165號","121.451466666667","25.220135","6501000","淡水區"
"251013","180-VK","2019/08/29 20:49:09","新北市淡水區行忠路98號","121.452116666667","25.19866","6501000","淡水區"
"251010","413-VK","2019/08/29 20:49:30","新北市淡水區沙崙路141-1號","121.423311666667","25.1830633333333","6501000","淡水區"
"251012","441-VK","2019/08/29 20:49:42","新北市淡水區淡金路四段514號","121.452068333333","25.2257183333333","6501000","淡水區"
"251007","442-VK","2019/08/29 20:49:30","新北市淡水區鄧公路29巷26號","121.452745","25.1702916666667","6501000","淡水區"
"251014","577-R6","2019/08/29 20:49:36","新北市淡水區公埔子32-8號","121.461638333333","25.2323616666667","6501000","淡水區"
"251011","650-BX","2019/08/29 20:49:40","新北市淡水區新市一路一段281巷104號","121.43467","25.187305","6501000","淡水區"
"251002","672-BX","2019/08/29 20:49:40","新北市淡水區鼻頭街18-1號","121.44683","25.166675","6501000","淡水區"
"251003","673-BX","2019/08/29 20:49:37","新北市淡水區中山北路一段247巷92號","121.442285","25.1795016666667","6501000","淡水區"
"247010","KED-0683","2019/08/29 20:49:30","新北市蘆洲區鷺江街76號","121.47697","25.0837516666667","6501400","蘆洲區"
"242039","AAC-296","2019/08/29 20:49:41","新北市新莊區瓊林路59-38號","121.441215","25.0235466666667","6500500","新莊區"
"242002","751-BX","2019/08/29 20:49:42","新北市新莊區明中街39號","121.458006666667","25.0387966666667","6500500","新莊區"
"242029","615-BX","2019/08/29 20:49:27","新北市新莊區中華路三段88號","121.452215","25.057025","6500500","新莊區"
"242027","613-BX","2019/08/29 20:49:41","新北市新莊區環河路116-1號","121.460675","25.0378166666667","6500500","新莊區"
"242058","612-BX","2019/08/29 20:49:30","新北市新莊區建國一路93號","121.434948333333","25.02889","6500500","新莊區"
"242046","566-BX","2019/08/29 20:49:25","新北市新莊區中正路695號","121.425855","25.0298866666667","6500500","新莊區"
"242051","497-BY","2019/08/29 20:49:35","新北市新莊區民安東路126號","121.430726666667","25.0206933333333","6500500","新莊區"
"242034","442-UM","2019/08/29 20:49:38","新北市新莊區中正路316號","121.446385","25.035","6500500","新莊區"
"242056","441-UM","2019/08/29 20:49:43","新北市新莊區新莊路751巷94號","121.442416666667","25.0305316666667","6500500","新莊區"
"242004","440-UM","2019/08/29 20:49:43","新北市三重區新北大道二段69號","121.468878333333","25.0613383333333","6500500","新莊區"
"242042","415-TV","2019/08/29 20:49:39","新北市新莊區天祥街8號","121.417211666667","25.0270133333333","6500500","新莊區"
"242011","413-TV","2019/08/29 20:49:39","新北市五股區成泰路一段8巷24號","121.437903333333","25.066805","6500500","新莊區"
"242048","400-BY","2019/08/29 20:49:36","新北市新莊區中正路516-3號","121.43331","25.0323616666667","6500500","新莊區"
"242025","362-BY","2019/08/29 20:49:33","新北市新莊區五工一路91號","121.461245","25.0679466666667","6500500","新莊區"
"242023","353-BY","2019/08/29 20:49:30","新北市新莊區化成路362號","121.46588","25.049515","6500500","新莊區"
"242013","132-UY","2019/08/29 20:49:42","新北市新莊區中和街175巷13號","121.447183333333","25.05064","6500500","新莊區"
"242036","135-UY","2019/08/29 20:49:43","新北市新莊區中正路535-12號","121.437063333333","25.03293","6500500","新莊區"
"242021","175-VK","2019/08/29 20:49:30","新北市五股區新五路二段137號","121.439435","25.0804683333333","6500500","新莊區"
"242015","347-TH","2019/08/29 20:49:38","新北市新莊區新泰路121號","121.448221666667","25.03596","6500500","新莊區"
"242031","348-TH","2019/08/29 20:49:25","新北市新莊區三和路60-19號","121.43782","25.0418866666667","6500500","新莊區"
"242007","349-TH","2019/08/29 20:49:33","新北市新莊區思源路63號","121.460011666667","25.0403816666667","6500500","新莊區"
"221036","130-UY","2019/08/29 20:49:26","新北市汐止區新昌路62號","121.66338","25.0686183333333","6501100","汐止區"
"221015","131-UY","2019/08/29 20:49:38","新北市汐止區大同路二段613號","121.664171666667","25.0708433333333","6501100","汐止區"
"221012","278-VK","2019/08/29 20:49:40","新北市汐止區保新街25號","121.684343333333","25.0730966666667","6501100","汐止區"
"221023","279-VK","2019/08/29 20:49:28","新北市汐止區民族二街28號","121.635035","25.0718466666667","6501100","汐止區"
"221027","281-BY","2019/08/29 20:49:31","新北市汐止區大同路二段373號","121.657253333333","25.0672716666667","6501100","汐止區"
"221021","299-VK","2019/08/29 20:49:40","新北市汐止區莊敬街115號","121.655276666667","25.0610883333333","6501100","汐止區"
"221035","622-UM","2019/08/29 20:49:29","新北市汐止區長江街101-5號","121.658736666667","25.0731766666667","6501100","汐止區"
"221033","647-BX","2019/08/29 20:49:36","新北市汐止區合順街18巷8弄5號","121.620363333333","25.04194","6501100","汐止區"
"220081","287-VK","2019/08/29 20:49:24","新北市樹林區環河路10-1號","121.424153333333","24.9759633333333","6500100","板橋區"
"242044","281-VK","2019/08/29 20:49:32","新北市新莊區中正路新生巷85弄1號","121.417111666667","25.0217383333333","6500500","新莊區"
"242009","280-VK","2019/08/29 20:49:44","新北市新莊區幸福路530號","121.45579","25.0493766666667","6500500","新莊區"
