"lineid","car","time","location","longitude","latitude","cityid","cityname"
"234067","AAC-212","2019/08/29 21:19:27","新北市永和區環河東路三段50號","121.52684","25.00638","6500400","永和區"
"231051","107-UY","2019/08/29 21:19:42","新北市新店區復興路108號","121.53182","24.9901733333333","6500600","新店區"
"231050","AAD-862","2019/08/29 21:19:33","新北市新店區中正路282號","121.538518333333","24.9738633333333","6500600","新店區"
"231063","616-UM","2019/08/29 21:19:43","新北市新店區吉祥街9巷1號","121.497478333333","24.9470266666667","6500600","新店區"
"231040","898-TW","2019/08/29 21:19:32","新北市新店區安康路一段107-2號","121.528755","24.9616866666667","6500600","新店區"
"241011","013-R5","2019/08/29 21:19:43","新北市三重區龍濱路199號","121.501858333333","25.0715016666667","6500200","三重區"
"241028","022-UY","2019/08/29 21:19:43","新北市三重區中正南路157號","121.493698333333","25.05617","6500200","三重區"
"241008","059-VK","2019/08/29 21:19:27","新北市三重區自強路一段232號","121.493453333333","25.0669383333333","6500200","三重區"
"241031","061-VK","2019/08/29 21:19:32","新北市三重區五谷王南街46巷37號","121.475745","25.0455366666667","6500200","三重區"
"241015","062-VK","2019/08/29 21:19:26","新北市三重區河邊北街100巷35號","121.502338333333","25.0701833333333","6500200","三重區"
"241024","065-VK","2019/08/29 21:19:29","新北市三重區中正北路145巷14號","121.48413","25.0677716666667","6500200","三重區"
"241002","090-VK","2019/08/29 21:19:43","新北市三重區自強路五段91號","121.495271666667","25.0822666666667","6500200","三重區"
"241003","091-VK","2019/08/29 21:19:32","新北市三重區仁義街220巷1號","121.495298333333","25.0842433333333","6500200","三重區"
"241004","742-BX","2019/08/29 21:19:32","新北市三重區五華街141巷58號","121.493486666667","25.0866183333333","6500200","三重區"
"241006","262-UM","2019/08/29 21:19:41","新北市新莊區五工一路86號","121.461511666667","25.0677766666667","6500200","三重區"
"241016","266-UM","2019/08/29 21:19:42","新北市三重區自強路一段184號","121.494893333333","25.0663983333333","6500200","三重區"
"241009","267-UM","2019/08/29 21:19:37","新北市五股區中興路三段2巷10號","121.448536666667","25.081845","6500200","三重區"
"241018","268-UM","2019/08/29 21:19:30","新北市三重區忠孝路三段99巷4號","121.480126666667","25.0642416666667","6500200","三重區"
"241032","269-UM","2019/08/29 21:19:33","新北市五股區五工一路111號","121.456275","25.0711883333333","6500200","三重區"
"241013","270-UM","2019/08/29 21:19:41","新北市三重區仁愛街81-1號","121.495916666667","25.073155","6500200","三重區"
"241007","398-BY","2019/08/29 21:19:38","新北市三重區正義北路220-1號","121.496253333333","25.067745","6500200","三重區"
"241030","KED-0822","2019/08/29 21:19:38","新北市三重區光復路二段157號","121.472175","25.0601783333333","6500200","三重區"
"241026","480-VK","2019/08/29 21:19:40","新北市三重區大同南路155號","121.496571666667","25.05631","6500200","三重區"
"241014","543-UM","2019/08/29 21:19:32","新北市三重區萬全街16號","121.49929","25.0697616666667","6500200","三重區"
"241001","547-UM","2019/08/29 21:19:43","新北市三重區碧華街317號","121.490971666667","25.084285","6500200","三重區"
"241005","AAD-863","2019/08/29 21:19:43","新北市三重區仁華街85號","121.485691666667","25.08298","6500200","三重區"
"241023","743-BX","2019/08/29 21:19:25","新北市三重區中正北路176巷16號","121.48268","25.0659316666667","6500200","三重區"
"241033","AAC-255","2019/08/29 21:19:34","新北市三重區光復路二段88巷38號","121.470441666667","25.0573233333333","6500200","三重區"
"235055","183-VK","2019/08/29 21:19:33","新北市中和區員山路36巷13號","121.484253333333","24.99071","6500300","中和區"
"247014","KEA-2869","2019/08/29 21:19:38","新北市蘆洲區中正路185巷76號","121.466183333333","25.0843383333333","6501400","蘆洲區"
"247008","KED-0682","2019/08/29 21:19:37","新北市蘆洲區中山一路103巷25號","121.475876666667","25.0809383333333","6501400","蘆洲區"
"235018","640-BX","2019/08/29 20:57:57","新北市中和區員山路36巷16-2號","121.485255","24.9916066666667","6500300","中和區"
"247004","893-R6","2019/08/29 21:19:27","新北市五股區新五路二段372巷20號","121.448018333333","25.0848866666667","6501400","蘆洲區"
"247002","336-TH","2019/08/29 21:19:30","新北市蘆洲區永樂街80號","121.456791666667","25.08857","6501400","蘆洲區"
"247006","002-UY","2019/08/29 21:19:40","新北市蘆洲區長安街30號","121.463896666667","25.07936","6501400","蘆洲區"
"247024","001-UY","2019/08/29 21:19:34","新北市蘆洲區光明路96號","121.463068333333","25.087975","6501400","蘆洲區"
"251009","008-UM","2019/08/29 21:19:30","新北市淡水區民族路33巷16-12號","121.462645","25.1357616666667","6501000","淡水區"
"251004","009-UM","2019/08/29 21:19:34","新北市淡水區民族路33號","121.462233333333","25.135805","6501000","淡水區"
"251001","011-UM","2019/08/29 21:19:37","新北市淡水區濱海路一段306巷60弄30號","121.441658333333","25.1914833333333","6501000","淡水區"
"251015","KEA-2871","2019/08/29 21:19:26","新北市淡水區淡金路四段518號","121.45182","25.2262233333333","6501000","淡水區"
"251016","179-VK","2019/08/29 21:19:30","新北市淡水區前洲子11號","121.441133333333","25.2192966666667","6501000","淡水區"
"251013","180-VK","2019/08/29 21:19:29","新北市淡水區行忠路330號","121.460675","25.1999","6501000","淡水區"
"251008","181-VK","2019/08/29 21:19:39","新北市淡水區水源街二段228號","121.46027","25.1763883333333","6501000","淡水區"
"251010","413-VK","2019/08/29 21:19:29","新北市淡水區中正路一段156巷51號","121.421826666667","25.1808966666667","6501000","淡水區"
"251012","441-VK","2019/08/29 21:19:42","新北市淡水區淡金路五段35巷46號","121.452496666667","25.23475","6501000","淡水區"
"251005","443-VK","2019/08/29 21:19:37","新北市淡水區仁愛街18巷10號","121.447011666667","25.1703733333333","6501000","淡水區"
"251014","577-R6","2019/08/29 21:19:36","新北市淡水區六塊厝2-1號","121.450136666667","25.2404616666667","6501000","淡水區"
"251011","650-BX","2019/08/29 21:19:40","新北市淡水區新民街152巷6弄22號","121.438831666667","25.1787916666667","6501000","淡水區"
"251002","672-BX","2019/08/29 21:19:40","新北市淡水區學府路172巷21號","121.448271666667","25.1749533333333","6501000","淡水區"
"251003","673-BX","2019/08/29 21:19:37","新北市淡水區新春街85巷25弄39號","121.439076666667","25.1849216666667","6501000","淡水區"
