"lineid","car","time","location","longitude","latitude","cityid","cityname"
"222005","289-BY","2019/07/19 08:19:11","新北市深坑區萬福路69-1號","121.60147","25.0094316666667","6501800","深坑區"
"231007","189-VK","2019/07/19 08:19:05","新北市新店區新潭路一段160巷17號","121.529658333333","24.9318866666667","6500600","新店區"
"231009","192-VK","2019/07/19 08:19:22","新北市新店區新烏路二段388號","121.551315","24.9093166666667","6500600","新店區"
"226001","8452-VL","2019/07/19 08:19:19","新北市平溪區靜安路二段561號","121.750636666667","25.023835","6502400","平溪區"
"226006","AGD-0702","2019/07/19 08:19:10","新北市平溪區十分里十分街238號","121.778083333333","25.0440566666667","6502400","平溪區"
"223003","205-TH","2019/07/19 08:18:54","新北市石碇區北宜路六段十三股巷1-1號","121.646538333333","24.9443316666667","6501900","石碇區"
"223008","406-TH","2019/07/19 08:19:22","新北市石碇區靜安路一段186號","121.671363333333","25.0055216666667","6501900","石碇區"
"223001","592-UM","2019/07/19 08:19:19","新北市石碇區北宜路六段十三股巷1-1號","121.646186666667","24.9431083333333","6501900","石碇區"
"223004","660-BX","2019/07/19 08:19:07","新北市石碇區外按16-1號","121.65061","24.9975883333333","6501900","石碇區"
"223007","661-BX","2019/07/19 08:19:12","新北市石碇區靜安路一段139號","121.671198333333","25.00551","6501900","石碇區"
"223005","677-TV","2019/07/19 08:19:13","新北市石碇區外按16-1號","121.650653333333","24.9976066666667","6501900","石碇區"
"227003","282-VK","2019/07/19 08:19:13","新北市雙溪區上林里內平林140號","121.821968333333","25.0228416666667","6502500","雙溪區"
"237014","760-BX","2019/07/19 08:19:23","新北市三峽區建安19-1號","121.445301666667","24.925095","6500900","三峽區"
"226005","ANY-2373","2019/07/19 08:19:20","新北市平溪區南山里南山坪125號","121.785758333333","25.0448983333333","6502400","平溪區"
