"lineid","car","time","location","longitude","latitude","cityid","cityname"
"222005","289-BY","2019/07/19 09:29:11","新北市深坑區土庫尖路27-1號","121.636403333333","25.016705","6501800","深坑區"
"231009","192-VK","2019/07/19 09:26:52","新北市新店區平廣路一段256號","121.50789","24.8883733333333","6500600","新店區"
"223003","205-TH","2019/07/19 09:29:13","新北市石碇區北宜路五段12號","121.62954","24.953855","6501900","石碇區"
"223001","592-UM","2019/07/19 09:29:19","新北市石碇區北宜路五段12號","121.629485","24.95396","6501900","石碇區"
"223004","660-BX","2019/07/19 09:29:27","新北市石碇區碇坪路二段35號","121.68478","24.9767033333333","6501900","石碇區"
"227003","282-VK","2019/07/19 09:29:13","新北市雙溪區泰平里溪尾寮1-1號","121.817641666667","24.968995","6502500","雙溪區"
"237014","760-BX","2019/07/19 09:29:23","新北市三峽區安坑108號","121.444905","24.93539","6500900","三峽區"
