"lineid","car","time","location","longitude","latitude","cityid","cityname"
"234040","862-TW","2019/07/19 15:09:28","新北市八里區中山路三段132號","121.385191666667","25.1451616666667","6500400","永和區"
"248019","KED-0813","2019/07/19 15:09:08","新北市五股區凌雲路三段24巷16-4號","121.43513","25.1051833333333","6501500","五股區"
"231030","002-UM","2019/07/19 15:09:22","新北市新店區安民街341-1號","121.516836666667","24.9748383333333","6500600","新店區"
"231005","046-UY","2019/07/19 15:09:14","新北市新店區順安街6號","121.54116","24.98485","6500600","新店區"
"231029","106-UY","2019/07/19 15:09:18","新北市新店區錦秀路1號","121.478986666667","24.9457933333333","6500600","新店區"
"231018","107-UY","2019/07/19 15:09:18","新北市新店區溪園路429號","121.524683333333","24.9780683333333","6500600","新店區"
"231036","110-UY","2019/07/19 15:09:11","新北市新店區安祥路104巷11弄7號","121.481196666667","24.963585","6500600","新店區"
"231039","187-VK","2019/07/19 15:09:21","新北市新店區寶安街16巷2號","121.542151666667","24.9815","6500600","新店區"
"231032","256-BX","2019/07/19 15:09:15","新北市新店區安泰路45巷14號","121.48566","24.947145","6500600","新店區"
"231023","260-TV","2019/07/19 15:09:09","新北市新店區檳榔路109號","121.544563333333","24.961675","6500600","新店區"
"231003","268-BY","2019/07/19 15:09:22","新北市新店區中興路二段237號","121.54731","24.9752283333333","6500600","新店區"
"231035","278-BY","2019/07/19 15:09:11","新北市新店區安和路三段110巷9號","121.517521666667","24.9857616666667","6500600","新店區"
"231016","AAD-862","2019/07/19 15:09:21","新北市新店區銀河路68-1號","121.580326666667","24.9584966666667","6500600","新店區"
"231006","355-BY","2019/07/19 15:09:25","新北市新店區新坡一街18巷5弄23號","121.550763333333","24.96186","6500600","新店區"
"231038","3712-VJ","2019/07/19 15:09:11","新北市新店區安華路28-1號","121.51972","24.9609616666667","6500600","新店區"
"231024","4716-K9","2019/07/19 15:09:10","新北市新店區中華路48巷34號","121.540986666667","24.9693483333333","6500600","新店區"
"231025","4715-K9","2019/07/19 15:09:19","新北市新店區中央路200號","121.53051","24.9740983333333","6500600","新店區"
"231022","513-UM","2019/07/19 15:09:22","新北市新店區永福路30號","121.549286666667","24.92877","6500600","新店區"
"231001","617-UM","2019/07/19 15:09:14","新北市新店區中正路270號","121.539021666667","24.97364","6500600","新店區"
"231002","619-UM","2019/07/19 15:09:27","新北市新店區中正路543-2號","121.533553333333","24.9872116666667","6500600","新店區"
"231034","641-BX","2019/07/19 15:09:29","新北市新店區玫瑰路4-1號","121.493606666667","24.9514066666667","6500600","新店區"
"231012","KED-0819","2019/07/19 15:09:17","新北市新店區中興路三段307號","121.542075","24.985755","6500600","新店區"
"231026","720-UM","2019/07/19 15:09:18","新北市新店區建興街9巷2號","121.539821666667","24.97637","6500600","新店區"
"231028","897-TW","2019/07/19 15:09:27","新北市新店區安豐路54-1號","121.499736666667","24.9541716666667","6500600","新店區"
"231004","899-TW","2019/07/19 15:09:24","新北市新店區建國路8-1號","121.539996666667","24.9734866666667","6500600","新店區"
"231037","AKT-0513","2019/07/19 15:09:18","新北市新店區柴埕路60巷7-2號","121.508773333333","24.96489","6500600","新店區"
"241011","013-R5","2019/07/19 15:09:17","新北市三重區重新路四段121號","121.485093333333","25.0520316666667","6500200","三重區"
"241019","KEA-2593","2019/07/19 15:09:18","新北市三重區重新路四段121號","121.484981666667","25.0520833333333","6500200","三重區"
"235030","003-UY","2019/07/19 15:09:22","新北市中和區水源路120號","121.507085","25.003445","6500300","中和區"
"235003","097-UM","2019/07/19 15:09:18","新北市中和區景平路510-1號","121.503803333333","24.993955","6500300","中和區"
"235004","150-BY","2019/07/19 15:09:19","新北市中和區保健路19巷23號","121.508508333333","24.99867","6500300","中和區"
"235036","301-VK","2019/07/19 15:09:16","新北市中和區板南路399巷2號","121.493728333333","24.9988183333333","6500300","中和區"
"235014","4979-A6","2019/07/19 15:09:20","新北市中和區景新街323-1號","121.511356666667","24.9921533333333","6500300","中和區"
"235033","4980-A6","2019/07/19 15:09:25","新北市中和區景新街90號","121.50469","24.998565","6500300","中和區"
"235054","640-BX","2019/07/19 15:09:08","新北市中和區員山路36巷16-2號","121.485386666667","24.9916483333333","6500300","中和區"
"235010","733-UM","2019/07/19 15:09:22","新北市中和區復興路333號","121.500465","24.990195","6500300","中和區"
"235035","783-BX","2019/07/19 15:09:17","新北市中和區中正路928號","121.483091666667","25.0079566666667","6500300","中和區"
"235012","911-UM","2019/07/19 15:09:22","新北市中和區興南路一段71號","121.5101","24.9893333333333","6500300","中和區"
"235023","AAC-215","2019/07/19 15:09:25","新北市中和區圓通路290-1號","121.490533333333","24.9893933333333","6500300","中和區"
"220013","072-UY","2019/07/19 15:09:21","新北市板橋區區運路24號","121.465526666667","25.009385","6500100","板橋區"
"220017","AAD-861","2019/07/19 15:09:11","新北市板橋區大觀路二段435-10號","121.44543","24.9945316666667","6500100","板橋區"
"207002","749-BX","2019/07/19 15:09:09","新北市萬里區崁腳里內中福路87號","121.655325","25.1662266666667","6502800","萬里區"
"207001","662-BX","2019/07/19 15:09:19","新北市萬里區雙興里麗水路8號","121.64988","25.1872766666667","6502800","萬里區"
"236040","KED-0685","2019/07/19 15:09:20","新北市土城區裕民路195巷14號","121.454663333333","24.9838066666667","6501300","土城區"
"236077","166-UM","2019/07/19 15:09:12","新北市土城區中州路27巷68-1號","121.412726666667","24.9566216666667","6501300","土城區"
"236029","253-BX","2019/07/19 15:09:13","新北市土城區福祥街61號","121.440988333333","24.9803616666667","6501300","土城區"
"236024","269-VK","2019/07/19 15:09:08","新北市土城區中央路二段149巷21號","121.442728333333","24.9766466666667","6501300","土城區"
"236013","270-VK","2019/07/19 15:09:16","新北市土城區學府路一段23巷23號","121.457778333333","24.9870016666667","6501300","土城區"
"236067","KEA-2877","2019/07/19 15:09:17","新北市土城區中央路一段67-3號","121.447781666667","24.98967","6501300","土城區"
"236016","401-BY","2019/07/19 15:09:08","新北市土城區明峰街83號","121.468936666667","24.98732","6501300","土城區"
"236057","912-UM","2019/07/19 15:09:11","新北市土城區金城路一段53號","121.441243333333","24.9697733333333","6501300","土城區"
"236045","913-UM","2019/07/19 15:09:17","新北市土城區清水路186號","121.4602","24.98173","6501300","土城區"
"236060","915-UM","2019/07/19 15:09:24","新北市土城區延和路105巷8弄1號","121.467295","24.9913416666667","6501300","土城區"
"236054","AAC-216","2019/07/19 15:09:24","新北市土城區學府路一段276號","121.450125","24.983215","6501300","土城區"
"220027","145-BY","2019/07/19 15:09:21","新北市板橋區建國街54巷29號","121.460003333333","25.01709","6500100","板橋區"
"220028","200-UY","2019/07/19 15:09:15","新北市板橋區大觀路二段179巷31號","121.44621","24.99962","6500100","板橋區"
"220030","610-BX","2019/07/19 15:09:20","新北市板橋區金門街202-4號","121.432563333333","24.9902466666667","6500100","板橋區"
"220040","267-BY","2019/07/19 15:09:22","新北市板橋區民治街57巷32-1號","121.481558333333","25.0358633333333","6500100","板橋區"
"220031","286-VK","2019/07/19 15:09:24","新北市板橋區僑中二街92巷32號","121.444725","25.009235","6500100","板橋區"
"220029","287-VK","2019/07/19 15:09:18","新北市板橋區僑中一街80巷12弄2號","121.448043333333","25.0129783333333","6500100","板橋區"
"220009","295-UM","2019/07/19 15:09:24","新北市板橋區四川路一段274巷1弄2號","121.458185","25.0013483333333","6500100","板橋區"
"220023","303-R5","2019/07/19 15:09:15","新北市板橋區金華街10巷48弄78-4號","121.460088333333","25.020365","6500100","板橋區"
"220010","305-R5","2019/07/19 15:09:21","新北市板橋區民治街71巷60弄1號","121.481566666667","25.0340266666667","6500100","板橋區"
"220038","487-VK","2019/07/19 15:09:23","新北市板橋區四維路272號","121.463181666667","25.0285816666667","6500100","板橋區"
"220037","491-VK","2019/07/19 15:09:16","新北市板橋區民治街92號","121.479241666667","25.031775","6500100","板橋區"
"220011","609-BX","2019/07/19 15:09:17","新北市板橋區中山路二段56號","121.47384","25.015745","6500100","板橋區"
"220022","630-UY","2019/07/19 15:09:25","新北市板橋區明德街12號","121.459951666667","25.0104416666667","6500100","板橋區"
"220025","687-BX","2019/07/19 15:09:18","新北市板橋區僑中一街124巷22號","121.446223333333","25.0142383333333","6500100","板橋區"
"220002","741-BX","2019/07/19 15:09:16","新北市板橋區忠孝路忠義巷15弄61號","121.465453333333","25.0049683333333","6500100","板橋區"
"220051","KEA-2699","2019/07/19 15:09:21","新北市板橋區莒光路133巷11號","121.472155","25.0246533333333","6500100","板橋區"
"220003","827-TW","2019/07/19 15:09:13","新北市板橋區忠孝路48巷11弄8號","121.461706666667","24.9998116666667","6500100","板橋區"
"220012","AAC-253","2019/07/19 15:09:19","新北市板橋區區運路78號","121.466486666667","25.010355","6500100","板橋區"
"235026","KEA-2876","2019/07/19 15:08:57","新北市中和區中正路762號","121.485208333333","24.9993633333333","6500300","中和區"
