"lineid","car","time","location","longitude","latitude","cityid","cityname"
"249005","172-UM","2019/07/19 16:49:12","新北市八里區大堀湖2-3號","121.422598333333","25.1537333333333","6502300","八里區"
"249004","303-UY","2019/07/19 16:49:26","新北市八里區博物館路202巷60號","121.408026666667","25.162175","6502300","八里區"
"249002","305-UY","2019/07/19 16:49:06","新北市八里區牛寮埔31號","121.429885","25.145715","6502300","八里區"
"249003","593-UM","2019/07/19 16:49:10","新北市八里區中山路二段283號","121.401683333333","25.1487183333333","6502300","八里區"
"244007","080-UY","2019/07/19 16:49:14","新北市林口區竹林路280號","121.3902","25.08187","6501700","林口區"
"231046","719-UM","2019/07/19 16:45:36","新北市新店區灣潭路10-1號","121.539501666667","24.9475766666667","6500600","新店區"
"241011","013-R5","2019/07/19 16:49:17","新北市三重區仁愛街53巷198號","121.500716666667","25.0730266666667","6500200","三重區"
"241028","022-UY","2019/07/19 16:49:10","新北市三重區光興街109號","121.497025","25.059865","6500200","三重區"
"241008","059-VK","2019/07/19 16:49:22","新北市三重區永安北路一段11巷26號","121.477648333333","25.0748516666667","6500200","三重區"
"241018","060-VK","2019/07/19 16:49:06","新北市三重區安樂街67號","121.494946666667","25.0694083333333","6500200","三重區"
"241031","061-VK","2019/07/19 16:49:10","新北市三重區過圳街42-1號","121.488106666667","25.059645","6500200","三重區"
"241015","062-VK","2019/07/19 16:49:28","新北市三重區長元街28號","121.499553333333","25.0659383333333","6500200","三重區"
"241017","063-VK","2019/07/19 16:49:23","新北市三重區大同北路60巷12號","121.493901666667","25.0637116666667","6500200","三重區"
"241024","065-VK","2019/07/19 16:49:09","新北市三重區中正北路317巷30號","121.475838333333","25.0730833333333","6500200","三重區"
"241002","090-VK","2019/07/19 16:49:21","新北市三重區仁義街147號","121.49726","25.080865","6500200","三重區"
"241003","091-VK","2019/07/19 16:49:26","新北市三重區五華街87巷36號","121.493116666667","25.0840216666667","6500200","三重區"
"241030","742-BX","2019/07/19 16:49:07","新北市三重區中正南路263號","121.493028333333","25.0528633333333","6500200","三重區"
"241005","262-UM","2019/07/19 16:49:20","新北市三重區仁華街80巷27號","121.48445","25.0840316666667","6500200","三重區"
"241016","266-UM","2019/07/19 16:49:10","新北市三重區大智街17號","121.494546666667","25.06526","6500200","三重區"
"241009","267-UM","2019/07/19 16:49:18","新北市三重區溪尾街216號","121.487968333333","25.08146","6500200","三重區"
"241032","269-UM","2019/07/19 16:49:09","新北市三重區三光街30巷5號","121.484518333333","25.06041","6500200","三重區"
"241013","270-UM","2019/07/19 16:49:18","新北市三重區仁壽街28號","121.497028333333","25.07349","6500200","三重區"
"241025","271-UM","2019/07/19 16:49:26","新北市三重區中正北路510號","121.472661666667","25.0717033333333","6500200","三重區"
"241007","398-BY","2019/07/19 16:49:20","新北市三重區三和路四段181巷90號","121.484581666667","25.0795733333333","6500200","三重區"
"241020","478-VK","2019/07/19 16:49:29","新北市三重區忠孝路二段34號","121.48579","25.0709483333333","6500200","三重區"
"241026","480-VK","2019/07/19 16:49:22","新北市三重區中央南路27號","121.501181666667","25.06225","6500200","三重區"
"241014","543-UM","2019/07/19 16:49:23","新北市三重區長榮路75號","121.502588333333","25.0690283333333","6500200","三重區"
"241023","545-UM","2019/07/19 16:49:23","新北市三重區新北大道一段190號","121.48255","25.06191","6500200","三重區"
"241001","547-UM","2019/07/19 16:49:12","新北市三重區仁政街54巷8號","121.492698333333","25.076825","6500200","三重區"
"241019","KEA-2593","2019/07/19 16:49:18","新北市三重區三張街149巷12號","121.486671666667","25.070005","6500200","三重區"
"241006","AAD-863","2019/07/19 16:49:11","新北市三重區車路頭街118號","121.48422","25.0752283333333","6500200","三重區"
"241022","KED-0820","2019/07/19 16:49:25","新北市三重區貴陽街47巷19弄10號","121.48483","25.0622916666667","6500200","三重區"
"241012","941-UM","2019/07/19 16:49:14","新北市三重區河邊北街212號","121.50212","25.0748633333333","6500200","三重區"
"241029","942-UM","2019/07/19 16:49:16","新北市三重區新興路51號","121.491453333333","25.053745","6500200","三重區"
"241033","AAC-255","2019/07/19 16:49:20","新北市三重區中山路353號","121.467831666667","25.0616233333333","6500200","三重區"
"247014","KEA-2869","2019/07/19 16:49:10","新北市蘆洲區民族路86-2號","121.474373333333","25.0847833333333","6501400","蘆洲區"
"247008","KED-0682","2019/07/19 16:49:20","新北市蘆洲區中山一路176號","121.474221666667","25.0811816666667","6501400","蘆洲區"
"235054","640-BX","2019/07/19 16:49:08","新北市中和區員山路36巷16-2號","121.48536","24.9915866666667","6500300","中和區"
"247012","056-VK","2019/07/19 16:49:21","新北市蘆洲區中正路520巷9號","121.462218333333","25.0994166666667","6501400","蘆洲區"
"247006","002-UY","2019/07/19 16:49:18","新北市蘆洲區永安南路二段132-1號","121.462566666667","25.0785466666667","6501400","蘆洲區"
"228002","663-BX","2019/07/19 16:49:10","新北市貢寮區貢寮里朝陽街142號","121.905156666667","25.0234433333333","6502600","貢寮區"
"228003","828-UM","2019/07/19 16:49:20","新北市貢寮區貢寮里朝陽街1-2號","121.912371666667","25.02126","6502600","貢寮區"
"224006","676-BX","2019/07/19 16:49:26","新北市瑞芳區大寮路356-1號","121.78473","25.1031983333333","6501200","瑞芳區"
"224007","285-BY","2019/07/19 16:49:26","新北市瑞芳區瑞竹路122號","121.762003333333","25.1039116666667","6501200","瑞芳區"
"224009","275-VK","2019/07/19 16:49:21","新北市瑞芳區逢甲路17號","121.809453333333","25.1084866666667","6501200","瑞芳區"
"224005","271-BY","2019/07/19 16:49:21","新北市瑞芳區明里路82-1號","121.86569","25.1220083333333","6501200","瑞芳區"
"227002","642-TC","2019/07/19 16:49:20","新北市雙溪區長源里柑腳29號","121.804271666667","25.0139866666667","6502500","雙溪區"
"227001","400-TW","2019/07/19 16:49:20","新北市雙溪區三貂里子崙坑1-6號","121.849926666667","25.05744","6502500","雙溪區"
"251004","009-UM","2019/07/19 16:49:11","新北市淡水區中正路一段156巷1號","121.420878333333","25.1799716666667","6501000","淡水區"
"251007","180-VK","2019/07/19 16:49:13","新北市淡水區中正路二段31號","121.41921","25.181675","6501000","淡水區"
"251008","181-VK","2019/07/19 16:49:13","新北市淡水區樹梅坑9號","121.47286","25.1427283333333","6501000","淡水區"
"251012","441-VK","2019/07/19 16:49:18","新北市淡水區中正路二段31號","121.419426666667","25.1816033333333","6501000","淡水區"
"251005","443-VK","2019/07/19 16:49:21","新北市淡水區中正路二段31號","121.41919","25.1819783333333","6501000","淡水區"
"251011","650-BX","2019/07/19 16:49:21","新北市淡水區中正路二段31號","121.41931","25.1816216666667","6501000","淡水區"
"252002","178-VK","2019/07/19 16:49:19","新北市三芝區忠孝街37號","121.50611","25.2557733333333","6502100","三芝區"
"233002","762-BX","2019/07/19 16:49:16","新北市烏來區啦卡路15巷11-5號","121.557031666667","24.85989","6502900","烏來區"
"247010","KED-0683","2019/07/19 16:49:12","新北市蘆洲區中正路520巷9號","121.462291666667","25.0994783333333","6501400","蘆洲區"
"252001","KED-0821","2019/07/19 16:49:20","新北市三芝區淡金路二段76-1號","121.503893333333","25.260865","6502100","三芝區"
"242039","AAC-296","2019/07/19 16:49:26","新北市新莊區新泰路357巷3弄57號","121.442163333333","25.03951","6500500","新莊區"
"242002","751-BX","2019/07/19 16:49:12","新北市新莊區三和路12-21號","121.44224","25.03867","6500500","新莊區"
"238014","282-BY","2019/07/19 16:49:10","新北市樹林區中山路三段204號","121.386781666667","24.9681883333333","6500700","樹林區"
"239007","AAC-297","2019/07/19 16:49:10","新北市鶯歌區二甲路13-16號","121.344943333333","24.9351816666667","6500800","鶯歌區"
"239008","527-UM","2019/07/19 16:49:13","新北市鶯歌區二甲路13-16號","121.344995","24.93526","6500800","鶯歌區"
"239001","417-VK","2019/07/19 16:49:12","新北市鶯歌區二甲路13-16號","121.345491666667","24.9351766666667","6500800","鶯歌區"
"233001","KEA-2870","2019/07/19 16:49:28","新北市烏來區烏來街45-1號","121.551858333333","24.8649616666667","6502900","烏來區"
"242009","280-VK","2019/07/19 16:49:23","新北市新莊區三和路12-21號","121.442028333333","25.03826","6500500","新莊區"
