"lineid","car","time","location","longitude","latitude","cityid","cityname"
"249005","172-UM","2019/07/19 17:29:12","新北市八里區荖阡坑路28-1號","121.404133333333","25.1300216666667","6502300","八里區"
"249001","173-UM","2019/07/19 17:29:24","新北市八里區龍米路三段49號","121.423981666667","25.158905","6502300","八里區"
"249004","303-UY","2019/07/19 17:29:26","新北市八里區民治街32號","121.414673333333","25.1574783333333","6502300","八里區"
"249002","305-UY","2019/07/19 17:29:26","新北市八里區龍米路二段67號","121.448016666667","25.1407083333333","6502300","八里區"
"249003","593-UM","2019/07/19 17:28:10","新北市八里區中山路二段317號","121.400616666667","25.147695","6502300","八里區"
"232011","375-UM","2019/07/19 17:29:14","新北市坪林區鶯子瀨1-2號","121.708406666667","24.918455","6502000","坪林區"
"244007","080-UY","2019/07/19 17:29:25","新北市林口區菁埔39-1號","121.382911666667","25.0940983333333","6501700","林口區"
"244019","402-UM","2019/07/19 17:29:16","新北市林口區文化一路一段83巷14弄15號","121.372043333333","25.07144","6501700","林口區"
"244013","KEA-2802","2019/07/19 17:29:14","新北市林口區中山路156-1號","121.390835","25.0787516666667","6501700","林口區"
"244023","483-VK","2019/07/19 17:29:24","新北市林口區興林一街96巷2號","121.391571666667","25.0723866666667","6501700","林口區"
"244017","485-VK","2019/07/19 17:29:24","新北市林口區文化一路二段200號","121.383021666667","25.0808116666667","6501700","林口區"
"244009","656-BX","2019/07/19 17:29:07","新北市林口區文化一路二段285-1號","121.38486","25.0846316666667","6501700","林口區"
"244011","701-TV","2019/07/19 17:29:17","新北市林口區中正路419-1號","121.38628","25.0777316666667","6501700","林口區"
"244025","837-TS","2019/07/19 17:29:23","新北市林口區文化三路一段359號","121.364903333333","25.0728183333333","6501700","林口區"
"244021","838-TS","2019/07/19 17:29:22","新北市林口區醒吾新村1號","121.396333333333","25.079085","6501700","林口區"
"231046","719-UM","2019/07/19 17:12:36","新北市新店區直潭路85號","121.531765","24.94201","6500600","新店區"
"241008","059-VK","2019/07/19 17:29:22","新北市三重區永福街138巷2號","121.479876666667","25.0746933333333","6500200","三重區"
"241015","062-VK","2019/07/19 17:29:28","新北市三重區三和路一段39巷11號","121.504151666667","25.0653916666667","6500200","三重區"
"241017","063-VK","2019/07/19 17:29:12","新北市三重區中正北路25巷25弄2號","121.493238333333","25.06266","6500200","三重區"
"241024","065-VK","2019/07/19 17:29:09","新北市三重區中正北路191巷3弄18號","121.47849","25.069665","6500200","三重區"
"241030","742-BX","2019/07/19 17:29:27","新北市三重區中正南路252巷5號","121.493465","25.0526316666667","6500200","三重區"
"241005","262-UM","2019/07/19 17:29:20","新北市三重區永安北路二段5巷9號","121.481855","25.0809583333333","6500200","三重區"
"241016","266-UM","2019/07/19 17:29:10","新北市三重區正義北路64巷53號","121.495801666667","25.0639433333333","6500200","三重區"
"241032","269-UM","2019/07/19 17:29:09","新北市三重區名源街48號","121.482461666667","25.05936","6500200","三重區"
"241013","270-UM","2019/07/19 17:29:18","新北市三重區仁愛街139號","121.495115","25.0751083333333","6500200","三重區"
"241007","398-BY","2019/07/19 17:29:20","新北市三重區三和路四段145巷156號","121.488141666667","25.0794016666667","6500200","三重區"
"241020","478-VK","2019/07/19 17:29:08","新北市三重區忠孝路二段160號","121.482051666667","25.0678866666667","6500200","三重區"
"241014","543-UM","2019/07/19 17:29:23","新北市三重區長壽街65號","121.501746666667","25.06853","6500200","三重區"
"241023","545-UM","2019/07/19 17:29:23","新北市三重區忠孝路三段84巷32號","121.481573333333","25.06416","6500200","三重區"
"241019","KEA-2593","2019/07/19 17:29:18","新北市三重區六張街188號","121.488628333333","25.0685933333333","6500200","三重區"
"241012","941-UM","2019/07/19 17:29:14","新北市三重區仁興街33巷2號","121.499131666667","25.0755733333333","6500200","三重區"
"241033","AAC-255","2019/07/19 17:29:20","新北市三重區中興北街80號","121.468998333333","25.0532266666667","6500200","三重區"
"235064","005-UY","2019/07/19 17:27:12","新北市中和區員山路36巷16-3號","121.485021666667","24.9913566666667","6500300","中和區"
"247014","KEA-2869","2019/07/19 17:29:10","新北市蘆洲區三民路33號","121.475461666667","25.0829966666667","6501400","蘆洲區"
"247008","KED-0682","2019/07/19 17:29:20","新北市蘆洲區民生街91號","121.473728333333","25.0781216666667","6501400","蘆洲區"
"235054","640-BX","2019/07/19 17:29:08","新北市中和區員山路36巷16-2號","121.485288333333","24.9915666666667","6500300","中和區"
"247004","893-R6","2019/07/19 17:29:24","新北市蘆洲區長安街160號","121.459411666667","25.0829216666667","6501400","蘆洲區"
"247002","500-BY","2019/07/19 17:29:24","新北市蘆洲區永樂街38巷57弄16號","121.45757","25.09067","6501400","蘆洲區"
"247024","337-TH","2019/07/19 17:29:21","新北市蘆洲區長興路312號","121.461661666667","25.0922633333333","6501400","蘆洲區"
"247022","057-VK","2019/07/19 17:29:08","新北市蘆洲區三民路341-2號","121.464903333333","25.0909366666667","6501400","蘆洲區"
"247012","056-VK","2019/07/19 17:29:21","新北市蘆洲區民族路12號","121.475816666667","25.08399","6501400","蘆洲區"
"247016","053-VK","2019/07/19 17:29:25","新北市蘆洲區中正路185巷26號","121.468045","25.0851883333333","6501400","蘆洲區"
"247020","007-UY","2019/07/19 17:29:19","新北市蘆洲區水湳街150號","121.470021666667","25.093735","6501400","蘆洲區"
"247006","002-UY","2019/07/19 17:29:18","新北市蘆洲區長安街68巷33號","121.463845","25.0809933333333","6501400","蘆洲區"
"228002","663-BX","2019/07/19 17:29:30","新北市貢寮區福隆里興隆街21-1號","121.943386666667","25.0164883333333","6502600","貢寮區"
"228001","670-TC","2019/07/19 17:29:21","新北市貢寮區仁理村仁愛路44號","121.92519","25.0533116666667","6502600","貢寮區"
"228003","828-UM","2019/07/19 17:29:20","新北市貢寮區仁理村仁和路2-1號","121.923185","25.048645","6502600","貢寮區"
"224010","AGQ-8101","2019/07/19 17:29:12","新北市瑞芳區逢甲路34號","121.81137","25.108245","6501200","瑞芳區"
"224006","676-BX","2019/07/19 17:29:25","新北市瑞芳區靜安路四段92號","121.793221666667","25.1099883333333","6501200","瑞芳區"
"224009","275-VK","2019/07/19 17:29:21","新北市瑞芳區汽車路34號","121.845916666667","25.1102866666667","6501200","瑞芳區"
"224008","273-VK","2019/07/19 17:29:24","新北市瑞芳區九芎橋路14號","121.832036666667","25.091205","6501200","瑞芳區"
"224005","271-BY","2019/07/19 17:29:21","新北市瑞芳區海濱路8-6號","121.831246666667","25.1261","6501200","瑞芳區"
"227002","642-TC","2019/07/19 17:23:18","新北市雙溪區共和里東榮街52號","121.866335","25.0337183333333","6502500","雙溪區"
"227001","400-TW","2019/07/19 17:29:20","新北市雙溪區三貂里定福路1-2號","121.850643333333","25.0635216666667","6502500","雙溪區"
"251004","009-UM","2019/07/19 17:10:34","新北市淡水區中正東路二段88巷15號","121.459068333333","25.1505233333333","6501000","淡水區"
"251002","012-UM","2019/07/19 17:29:17","新北市淡水區中正路一段87巷1號","121.421293333333","25.1796166666667","6501000","淡水區"
"251007","180-VK","2019/07/19 17:29:13","新北市淡水區民生路47-4號","121.462076666667","25.1380516666667","6501000","淡水區"
"251008","181-VK","2019/07/19 17:29:13","新北市淡水區大同路104號","121.462048333333","25.1398533333333","6501000","淡水區"
"251010","413-VK","2019/07/19 17:29:10","新北市淡水區中正路二段206號","121.426236666667","25.1890583333333","6501000","淡水區"
"251012","441-VK","2019/07/19 17:29:18","新北市淡水區北新路111號","121.448173333333","25.178545","6501000","淡水區"
"251005","443-VK","2019/07/19 17:29:21","新北市淡水區鄧公路31巷1號","121.45127","25.1708766666667","6501000","淡水區"
"251006","561-UM","2019/07/19 17:29:27","新北市淡水區大仁街13號","121.442335","25.17498","6501000","淡水區"
"251009","575-R6","2019/07/19 17:29:13","新北市淡水區新生街15號","121.438821666667","25.1731416666667","6501000","淡水區"
"251011","650-BX","2019/07/19 17:29:21","新北市淡水區三空泉8-1號","121.475935","25.1612383333333","6501000","淡水區"
"251003","766-UM","2019/07/19 17:29:14","新北市淡水區中山路157號","121.440726666667","25.172785","6501000","淡水區"
"207003","550-UM","2019/07/19 17:29:17","新北市萬里區龜吼里美崙路95號","121.685218333333","25.1851683333333","6502800","萬里區"
"207004","225-TW","2019/07/19 17:29:23","新北市萬里區萬里里成功新村44號","121.687673333333","25.17461","6502800","萬里區"
"252002","178-VK","2019/07/19 17:29:19","新北市三芝區忠孝街1-14號","121.50549","25.2539383333333","6502100","三芝區"
"233002","762-BX","2019/07/19 17:29:16","新北市烏來區烏來街1號","121.55117","24.8655833333333","6502900","烏來區"
"247010","KED-0683","2019/07/19 17:29:12","新北市蘆洲區信義路132-1號","121.4795","25.0828666666667","6501400","蘆洲區"
"252001","KED-0821","2019/07/19 17:29:20","新北市三芝區長安街119號","121.49803","25.2596233333333","6502100","三芝區"
"242039","AAC-296","2019/07/19 17:29:26","新北市新莊區民安路270號","121.427546666667","25.021415","6500500","新莊區"
"242060","986-R7","2019/07/19 17:29:21","新北市新莊區瓊林路180號","121.440096666667","25.0217216666667","6500500","新莊區"
"242002","751-BX","2019/07/19 17:29:12","新北市新莊區碧江街11號","121.45581","25.0348833333333","6500500","新莊區"
"242029","615-BX","2019/07/19 17:29:21","新北市新莊區復興路二段198號","121.459376666667","25.04448","6500500","新莊區"
"242027","613-BX","2019/07/19 17:29:21","新北市新莊區思源路57號","121.460031666667","25.0402733333333","6500500","新莊區"
"242058","612-BX","2019/07/19 17:29:10","新北市新莊區中正路384號","121.441893333333","25.0346366666667","6500500","新莊區"
"242046","566-BX","2019/07/19 17:29:13","新北市新莊區新樹路65-7號","121.439335","25.030765","6500500","新莊區"
"242050","497-BY","2019/07/19 17:29:13","新北市新莊區新樹路445號","121.43304","25.01359","6500500","新莊區"
"242056","441-UM","2019/07/19 17:29:13","新北市新莊區新泰路51號","121.449473333333","25.033795","6500500","新莊區"
"242005","440-UM","2019/07/19 17:29:15","新北市新莊區中港路289號","121.452861666667","25.04408","6500500","新莊區"
"242041","415-TV","2019/07/19 17:29:24","新北市新莊區新樹路113巷33號","121.439536666667","25.0263966666667","6500500","新莊區"
"242048","400-BY","2019/07/19 17:29:25","新北市新莊區四維路215號","121.421748333333","25.01994","6500500","新莊區"
"242025","362-BY","2019/07/19 17:29:20","新北市新莊區中港路272號","121.453301666667","25.0441083333333","6500500","新莊區"
"242023","353-BY","2019/07/19 17:29:17","新北市新莊區公園路29號","121.452853333333","25.0401033333333","6500500","新莊區"
"242013","132-UY","2019/07/19 17:29:24","新北市新莊區中誠街18號","121.451921666667","25.0483033333333","6500500","新莊區"
"242037","135-UY","2019/07/19 17:29:26","新北市新莊區建國一路288巷57號","121.433918333333","25.0260816666667","6500500","新莊區"
"242015","173-VK","2019/07/19 17:29:20","新北市新莊區新泰路157號","121.447656666667","25.036885","6500500","新莊區"
"242021","175-VK","2019/07/19 17:29:20","新北市新莊區中正路98號","121.454805","25.03668","6500500","新莊區"
"242054","176-VK","2019/07/19 17:29:17","新北市新莊區瓊林南路301巷13號","121.435993333333","25.0057166666667","6500500","新莊區"
"242019","KED-0687","2019/07/19 17:29:09","新北市新莊區中港路59號","121.455091666667","25.03849","6500500","新莊區"
"242011","346-TH","2019/07/19 17:29:23","新北市新莊區中港路469號","121.452393333333","25.0490933333333","6500500","新莊區"
"242034","348-TH","2019/07/19 17:29:14","新北市新莊區瓊林路18號","121.449311666667","25.03156","6500500","新莊區"
"242007","349-TH","2019/07/19 17:29:13","新北市新莊區自強街19號","121.45465","25.0461583333333","6500500","新莊區"
"242032","350-TH","2019/07/19 17:29:18","新北市新莊區新泰路460巷1號","121.443453333333","25.0449566666667","6500500","新莊區"
"242017","351-TH","2019/07/19 17:29:16","新北市新莊區中華路一段103號","121.452766666667","25.0438533333333","6500500","新莊區"
"238015","755-BX","2019/07/19 17:29:28","新北市樹林區復興路48號","121.422098333333","24.993975","6500700","樹林區"
"238023","601-UM","2019/07/19 17:29:24","新北市樹林區三福街114號","121.406481666667","25.01636","6500700","樹林區"
"238019","599-UM","2019/07/19 17:29:11","新北市樹林區八德街89號","121.420086666667","24.9813716666667","6500700","樹林區"
"238024","5061-A6","2019/07/19 17:29:18","新北市樹林區博愛街205號","121.42422","24.98829","6500700","樹林區"
"238018","KEA-2217","2019/07/19 17:29:13","新北市樹林區鎮前街127號","121.424123333333","24.989665","6500700","樹林區"
"238021","KEA-2539","2019/07/19 17:29:15","新北市樹林區西圳街一段203巷7號","121.39305","24.96016","6500700","樹林區"
"238025","303-VK","2019/07/19 17:29:12","新北市樹林區保安街一段195號","121.421043333333","24.9960033333333","6500700","樹林區"
"238017","283-BY","2019/07/19 17:29:23","新北市樹林區中正路240號","121.418031666667","25.0071016666667","6500700","樹林區"
"238014","282-BY","2019/07/19 17:29:10","新北市樹林區保安街一段294巷41號","121.420226666667","24.9987116666667","6500700","樹林區"
"238020","268-VK","2019/07/19 17:29:14","新北市樹林區千歲街101號","121.428538333333","25.0008633333333","6500700","樹林區"
"238026","172-UY","2019/07/19 17:29:19","新北市樹林區味王街14號","121.40314","24.975905","6500700","樹林區"
"238016","169-UY","2019/07/19 17:29:23","新北市樹林區中山路一段91-1號","121.423275","24.9912083333333","6500700","樹林區"
"239007","AAC-297","2019/07/19 17:29:10","新北市鶯歌區仁愛路3號","121.353555","24.956565","6500800","鶯歌區"
"239006","891-R6","2019/07/19 17:29:16","新北市鶯歌區德昌街1號","121.333976666667","24.96093","6500800","鶯歌區"
"239008","527-UM","2019/07/19 17:29:13","新北市鶯歌區大湖路542號","121.33687","24.972995","6500800","鶯歌區"
"239005","526-UM","2019/07/19 17:28:42","新北市鶯歌區鶯桃路575號","121.329631666667","24.9686533333333","6500800","鶯歌區"
"239001","417-VK","2019/07/19 17:29:12","新北市鶯歌區高職西街14號","121.338158333333","24.94239","6500800","鶯歌區"
"239003","360-BY","2019/07/19 17:29:27","新北市鶯歌區德昌街50號","121.333115","24.9598533333333","6500800","鶯歌區"
"239002","359-BY","2019/07/19 17:29:25","新北市鶯歌區南雅路432號","121.347058333333","24.95402","6500800","鶯歌區"
"239004","193-VK","2019/07/19 17:29:14","新北市三峽區復興路553號","121.35665","24.9404216666667","6500800","鶯歌區"
"221033","297-VK","2019/07/19 17:29:17","新北市汐止區汐萬路一段180號","121.652388333333","25.0718133333333","6501100","汐止區"
"233001","KEA-2870","2019/07/19 17:29:08","新北市烏來區信福路169-1號","121.523643333333","24.83348","6502900","烏來區"
"242044","281-VK","2019/07/19 17:29:21","新北市新莊區富國路60號","121.419091666667","25.026185","6500500","新莊區"
"242009","280-VK","2019/07/19 17:29:23","新北市新莊區昌德街167號","121.453325","25.054685","6500500","新莊區"
"235061","KEA-2875","2019/07/19 17:13:47","新北市中和區員山路36巷16-2號","121.485335","24.991765","6500300","中和區"
