"lineid","car","time","location","longitude","latitude","cityid","cityname"
"234026","9371-KE","2019/07/19 17:39:24","新北市永和區永和路一段149-2號","121.514185","25.0091933333333","6500400","永和區"
"249005","172-UM","2019/07/19 17:39:12","新北市八里區荖阡坑路34-1號","121.402715","25.129755","6502300","八里區"
"249001","173-UM","2019/07/19 17:39:24","新北市八里區龍米路二段159-3號","121.439648333333","25.15378","6502300","八里區"
"249004","303-UY","2019/07/19 17:39:26","新北市八里區大崁一街2號","121.420463333333","25.1578666666667","6502300","八里區"
"249002","305-UY","2019/07/19 17:39:26","新北市八里區龍形一街33巷10號","121.449003333333","25.128215","6502300","八里區"
"249003","593-UM","2019/07/19 17:39:27","新北市八里區中山路二段135號","121.405313333333","25.1515116666667","6502300","八里區"
"232011","375-UM","2019/07/19 17:39:14","新北市坪林區北宜路八段103號","121.706095","24.9348583333333","6502000","坪林區"
"244007","080-UY","2019/07/19 17:39:14","新北市林口區佳林路1號","121.387278333333","25.0824916666667","6501700","林口區"
"244019","402-UM","2019/07/19 17:39:16","新北市林口區忠孝路512-1號","121.371686666667","25.0691583333333","6501700","林口區"
"244013","KEA-2802","2019/07/19 17:39:14","新北市林口區中正路525巷17號","121.38348","25.0769633333333","6501700","林口區"
"244023","483-VK","2019/07/19 17:39:23","新北市林口區東明一街117號","121.390465","25.070645","6501700","林口區"
"244017","485-VK","2019/07/19 17:39:24","新北市林口區忠孝路371-1號","121.36896","25.07199","6501700","林口區"
"244009","656-BX","2019/07/19 17:39:07","新北市林口區寶林路105號","121.383706666667","25.0851766666667","6501700","林口區"
"244011","701-TV","2019/07/19 17:39:17","新北市林口區佳林路253號","121.38298","25.0761666666667","6501700","林口區"
"244025","837-TS","2019/07/19 17:39:23","新北市林口區民族路12號","121.364061666667","25.073615","6501700","林口區"
"244021","838-TS","2019/07/19 17:39:25","新北市林口區自強三街21號","121.397711666667","25.0773516666667","6501700","林口區"
"222002","016-RS","2019/07/19 17:39:22","新北市深坑區深南路88巷1號","121.621118333333","25.01132","6501800","深坑區"
"221032","KEA-2785","2019/07/19 17:39:15","新北市汐止區汐萬路一段256巷1號","121.651765","25.074895","6501100","汐止區"
"231046","719-UM","2019/07/19 17:12:36","新北市新店區直潭路85號","121.531765","24.94201","6500600","新店區"
"241015","062-VK","2019/07/19 17:39:28","新北市三重區龍濱路285號","121.501148333333","25.0735566666667","6500200","三重區"
"241017","063-VK","2019/07/19 17:39:16","新北市三重區大同北路32號","121.495171666667","25.0625483333333","6500200","三重區"
"241024","065-VK","2019/07/19 17:39:28","新北市三重區力行路二段2號","121.481831666667","25.0718683333333","6500200","三重區"
"241005","262-UM","2019/07/19 17:39:19","新北市三重區碧華街157號","121.4868","25.0820233333333","6500200","三重區"
"241016","266-UM","2019/07/19 17:39:17","新北市三重區重新路二段27號","121.497883333333","25.06237","6500200","三重區"
"241007","398-BY","2019/07/19 17:39:20","新北市三重區福隆路15號","121.489821666667","25.077185","6500200","三重區"
"241014","543-UM","2019/07/19 17:39:23","新北市三重區長壽街120巷11號","121.502526666667","25.0691","6500200","三重區"
"241023","545-UM","2019/07/19 17:39:23","新北市三重區中華路103號","121.483521666667","25.063335","6500200","三重區"
"241012","941-UM","2019/07/19 17:39:14","新北市三重區龍門路300號","121.502541666667","25.0743933333333","6500200","三重區"
"241033","AAC-255","2019/07/19 17:39:20","新北市三重區興德路119號","121.471035","25.052895","6500200","三重區"
"235064","005-UY","2019/07/19 17:39:14","新北市中和區員山路36巷16-3號","121.485008333333","24.9913516666667","6500300","中和區"
"247014","KEA-2869","2019/07/19 17:39:10","新北市蘆洲區中山二路130號","121.471788333333","25.081675","6501400","蘆洲區"
"247008","KED-0682","2019/07/19 17:39:20","新北市蘆洲區中山一路281巷2號","121.472068333333","25.0792633333333","6501400","蘆洲區"
"235054","640-BX","2019/07/19 17:39:28","新北市中和區員山路36巷16-2號","121.485271666667","24.99155","6500300","中和區"
"247004","893-R6","2019/07/19 17:39:24","新北市蘆洲區長安街249巷19號","121.45814","25.08271","6501400","蘆洲區"
"247018","546-UM","2019/07/19 17:39:28","新北市蘆洲區民權路61巷4弄2號","121.473491666667","25.0879383333333","6501400","蘆洲區"
"247002","500-BY","2019/07/19 17:39:24","新北市蘆洲區永平街58號","121.457621666667","25.091565","6501400","蘆洲區"
"247024","337-TH","2019/07/19 17:39:21","新北市蘆洲區長樂路125-1號","121.462116666667","25.0879966666667","6501400","蘆洲區"
"247022","057-VK","2019/07/19 17:39:08","新北市蘆洲區民族路465號","121.467035","25.0883283333333","6501400","蘆洲區"
"247012","056-VK","2019/07/19 17:39:24","新北市蘆洲區民權路11號","121.476476666667","25.0860033333333","6501400","蘆洲區"
"247016","053-VK","2019/07/19 17:39:25","新北市蘆洲區中正路185巷31弄48號","121.467246666667","25.08297","6501400","蘆洲區"
"247020","007-UY","2019/07/19 17:39:19","新北市蘆洲區民族路446-1號","121.472881666667","25.0919833333333","6501400","蘆洲區"
"247006","002-UY","2019/07/19 17:39:19","新北市蘆洲區長安街63號","121.462855","25.0798783333333","6501400","蘆洲區"
"228002","663-BX","2019/07/19 17:39:10","新北市貢寮區福隆里龜壽谷街27號","121.952935","25.011615","6502600","貢寮區"
"228001","670-TC","2019/07/19 17:39:21","新北市貢寮區仁理村仁愛路95-1號","121.927661666667","25.05542","6502600","貢寮區"
"228003","828-UM","2019/07/19 17:39:19","新北市貢寮區仁理村仁和路23號","121.923856666667","25.05359","6502600","貢寮區"
"224010","AGQ-8101","2019/07/19 17:39:12","新北市瑞芳區岳王路31號","121.807686666667","25.11116","6501200","瑞芳區"
"224006","676-BX","2019/07/19 17:39:26","新北市瑞芳區中山路318號","121.796811666667","25.1100616666667","6501200","瑞芳區"
"224009","275-VK","2019/07/19 17:39:21","新北市瑞芳區山尖路172-1號","121.848008333333","25.1118416666667","6501200","瑞芳區"
"224008","273-VK","2019/07/19 17:39:04","新北市瑞芳區瑞柑新村21號","121.829418333333","25.1065983333333","6501200","瑞芳區"
"224005","271-BY","2019/07/19 17:39:21","新北市瑞芳區海濱路8-6號","121.831218333333","25.12611","6501200","瑞芳區"
"227002","642-TC","2019/07/19 17:23:18","新北市雙溪區共和里東榮街52號","121.866335","25.0337183333333","6502500","雙溪區"
"227001","400-TW","2019/07/19 17:39:20","新北市雙溪區三貂里定福路1-2號","121.850646666667","25.063525","6502500","雙溪區"
"251004","009-UM","2019/07/19 17:39:10","新北市淡水區中正東路二段88巷37號","121.459246666667","25.146385","6501000","淡水區"
"251002","012-UM","2019/07/19 17:39:17","新北市淡水區文化路65號","121.437903333333","25.1729","6501000","淡水區"
"251007","180-VK","2019/07/19 17:39:13","新北市淡水區民族路33巷1-18號","121.464223333333","25.13735","6501000","淡水區"
"251008","181-VK","2019/07/19 17:38:53","新北市淡水區中正東路二段143巷8弄2號","121.461395","25.1476433333333","6501000","淡水區"
"251010","413-VK","2019/07/19 17:39:10","新北市淡水區淡海路280巷97號","121.419588333333","25.1887233333333","6501000","淡水區"
"251012","441-VK","2019/07/19 17:39:18","新北市淡水區北新路200巷8號","121.45172","25.1796766666667","6501000","淡水區"
"251005","443-VK","2019/07/19 17:39:21","新北市淡水區鄧公路32巷1號","121.45148","25.1713016666667","6501000","淡水區"
"251006","561-UM","2019/07/19 17:39:25","新北市淡水區大信街32號","121.442101666667","25.177095","6501000","淡水區"
"251009","575-R6","2019/07/19 17:39:13","新北市淡水區中正路188號","121.440203333333","25.1699716666667","6501000","淡水區"
"251011","650-BX","2019/07/19 17:39:21","新北市淡水區坪頂路718號","121.482546666667","25.1585133333333","6501000","淡水區"
"251003","766-UM","2019/07/19 17:39:14","新北市淡水區中山北路一段33號","121.44155","25.1752466666667","6501000","淡水區"
"207003","550-UM","2019/07/19 17:39:17","新北市萬里區龜吼里漁澳路16號","121.68684","25.1948","6502800","萬里區"
"207004","225-TW","2019/07/19 17:39:25","新北市萬里區中幅里中福路27-1號","121.679896666667","25.167715","6502800","萬里區"
"252002","178-VK","2019/07/19 17:39:19","新北市三芝區中正路二段30號","121.504301666667","25.2550533333333","6502100","三芝區"
"237013","252-BX","2019/07/19 17:39:21","新北市三峽區愛國路33-9號","121.374928333333","24.9330016666667","6500900","三峽區"
"237014","433-BY","2019/07/19 17:39:25","新北市三峽區中山路459巷135號","121.348848333333","24.9331483333333","6500900","三峽區"
"237010","706-TV","2019/07/19 17:39:23","新北市三峽區中山路153號","121.364805","24.936315","6500900","三峽區"
"233002","762-BX","2019/07/19 17:36:13","新北市烏來區烏來街3-2號","121.551155","24.8655066666667","6502900","烏來區"
"236079","166-UM","2019/07/19 17:39:22","新北市土城區城林路6巷80號","121.438533333333","24.9796116666667","6501300","土城區"
"236014","270-VK","2019/07/19 17:39:10","新北市土城區城林路6巷80號","121.438546666667","24.979635","6501300","土城區"
"236039","271-VK","2019/07/19 17:39:13","新北市土城區城林路6巷80號","121.438525","24.9797366666667","6501300","土城區"
"247010","KED-0683","2019/07/19 17:39:12","新北市蘆洲區集賢路412號","121.479828333333","25.08139","6501400","蘆洲區"
"252001","KED-0821","2019/07/19 17:39:26","新北市三芝區淡金路一段83號","121.502038333333","25.2588416666667","6502100","三芝區"
"236020","401-BY","2019/07/19 17:39:20","新北市土城區城林路6巷80號","121.438385","24.9797616666667","6501300","土城區"
"236063","915-UM","2019/07/19 17:39:15","新北市土城區城林路6巷80號","121.438633333333","24.9796866666667","6501300","土城區"
"242039","AAC-296","2019/07/19 17:39:06","新北市新莊區民安路322號","121.428926666667","25.0220016666667","6500500","新莊區"
"242060","986-R7","2019/07/19 17:39:21","新北市新莊區瓊林南路71-9號","121.435323333333","25.0159766666667","6500500","新莊區"
"242002","751-BX","2019/07/19 17:39:24","新北市新莊區新莊路280號","121.451585","25.0338566666667","6500500","新莊區"
"242029","615-BX","2019/07/19 17:39:27","新北市新莊區復興路一段157號","121.45079","25.0432666666667","6500500","新莊區"
"242027","613-BX","2019/07/19 17:36:21","新北市新莊區福壽街92號","121.458331666667","25.0500566666667","6500500","新莊區"
"242058","612-BX","2019/07/19 17:39:30","新北市新莊區中正路606號","121.426668333333","25.030175","6500500","新莊區"
"242046","566-BX","2019/07/19 17:39:17","新北市新莊區福營路57號","121.435276666667","25.032435","6500500","新莊區"
"242050","497-BY","2019/07/19 17:39:12","新北市新莊區西盛街193號","121.428308333333","25.0173166666667","6500500","新莊區"
"242056","441-UM","2019/07/19 17:39:12","新北市新莊區泰豐街15號","121.44842","25.0315633333333","6500500","新莊區"
"242005","440-UM","2019/07/19 17:39:15","新北市新莊區自立街180號","121.45606","25.0454516666667","6500500","新莊區"
"242041","415-TV","2019/07/19 17:39:24","新北市新莊區中正路514巷19號","121.432991666667","25.0330116666667","6500500","新莊區"
"242048","400-BY","2019/07/19 17:39:25","新北市新莊區四維路212巷43號","121.420188333333","25.02054","6500500","新莊區"
"242025","362-BY","2019/07/19 17:39:20","新北市新莊區思源路90號","121.460195","25.0454533333333","6500500","新莊區"
"242023","353-BY","2019/07/19 17:39:17","新北市新莊區公園路222巷1號","121.456316666667","25.0405733333333","6500500","新莊區"
"242013","132-UY","2019/07/19 17:39:24","新北市新莊區中誠街96號","121.449988333333","25.0477766666667","6500500","新莊區"
"242037","135-UY","2019/07/19 17:39:26","新北市新莊區後港一路154號","121.430151666667","25.0275","6500500","新莊區"
"242015","173-VK","2019/07/19 17:39:20","新北市新莊區新泰路285號","121.445576666667","25.0405566666667","6500500","新莊區"
"242021","175-VK","2019/07/19 17:39:20","新北市新莊區中華路一段78號","121.452101666667","25.0391783333333","6500500","新莊區"
"242054","176-VK","2019/07/19 17:39:17","新北市新莊區新樹路701號","121.432246666667","25.0022033333333","6500500","新莊區"
"242019","KED-0687","2019/07/19 17:39:09","新北市新莊區中港路179號","121.454948333333","25.0414966666667","6500500","新莊區"
"242011","346-TH","2019/07/19 17:39:23","新北市新莊區中原路201-2號","121.451135","25.0539383333333","6500500","新莊區"
"242034","348-TH","2019/07/19 17:39:29","新北市新莊區新莊路480號","121.446783333333","25.0333116666667","6500500","新莊區"
"242007","349-TH","2019/07/19 17:39:13","新北市新莊區福樂街69號","121.457106666667","25.0477516666667","6500500","新莊區"
"242032","350-TH","2019/07/19 17:39:18","新北市新莊區新泰路361巷21號","121.44262","25.0429533333333","6500500","新莊區"
"242017","351-TH","2019/07/19 17:39:16","新北市新莊區復興路一段149巷21弄13號","121.4496","25.0440066666667","6500500","新莊區"
"238015","755-BX","2019/07/19 17:38:48","新北市樹林區樹德街136巷9號","121.419496666667","24.993325","6500700","樹林區"
"238023","601-UM","2019/07/19 17:39:24","新北市樹林區福興街3巷11號","121.404761666667","25.016835","6500700","樹林區"
"238019","599-UM","2019/07/19 17:39:23","新北市樹林區太平路99號","121.419111666667","24.981195","6500700","樹林區"
"238024","5061-A6","2019/07/19 17:39:18","新北市樹林區環河路600號","121.404343333333","24.9693316666667","6500700","樹林區"
"238018","KEA-2217","2019/07/19 17:39:13","新北市樹林區博愛街29巷10號","121.427321666667","24.9924466666667","6500700","樹林區"
"238021","KEA-2539","2019/07/19 17:39:15","新北市樹林區柑園街一段253巷35號","121.396736666667","24.9537133333333","6500700","樹林區"
"238025","303-VK","2019/07/19 17:39:22","新北市樹林區保安街二段219號","121.413256666667","25.004255","6500700","樹林區"
"238017","283-BY","2019/07/19 17:39:23","新北市樹林區三德街27-1號","121.41388","25.0130583333333","6500700","樹林區"
"238014","282-BY","2019/07/19 17:39:10","新北市樹林區保安街一段289巷1-2號","121.417946666667","24.9972483333333","6500700","樹林區"
"238020","268-VK","2019/07/19 17:39:14","新北市樹林區俊英街162號","121.426876666667","25.006635","6500700","樹林區"
"238026","172-UY","2019/07/19 17:39:19","新北市樹林區新興街16號","121.400145","24.9734016666667","6500700","樹林區"
"238016","169-UY","2019/07/19 17:39:23","新北市樹林區啟智街129-4號","121.417965","24.9891866666667","6500700","樹林區"
"239007","AAC-297","2019/07/19 17:39:10","新北市鶯歌區鶯桃路182巷96弄1號","121.339648333333","24.957665","6500800","鶯歌區"
"239006","891-R6","2019/07/19 17:39:16","新北市鶯歌區莒光街28號","121.332721666667","24.966425","6500800","鶯歌區"
"239008","527-UM","2019/07/19 17:39:13","桃園市龜山區宏德司法新村4號","121.33143","24.9794216666667","6500800","鶯歌區"
"239005","526-UM","2019/07/19 17:39:02","新北市鶯歌區鶯桃路二段29巷7號","121.325166666667","24.972135","6500800","鶯歌區"
"239001","417-VK","2019/07/19 17:39:12","新北市鶯歌區中正三路248號","121.32989","24.9365183333333","6500800","鶯歌區"
"239003","360-BY","2019/07/19 17:39:27","新北市鶯歌區鶯桃路188-1號","121.338005","24.9585283333333","6500800","鶯歌區"
"239002","359-BY","2019/07/19 17:39:25","新北市鶯歌區育英街21號","121.34684","24.9550416666667","6500800","鶯歌區"
"239004","193-VK","2019/07/19 17:39:14","新北市鶯歌區三鶯路94號","121.358721666667","24.9435583333333","6500800","鶯歌區"
"221033","297-VK","2019/07/19 17:39:17","新北市汐止區汐萬路一段39號","121.65562","25.06898","6501100","汐止區"
"221029","298-VK","2019/07/19 17:39:10","新北市汐止區汐萬路一段256巷1號","121.6517","25.07486","6501100","汐止區"
"233001","KEA-2870","2019/07/19 17:39:28","新北市烏來區娃娃谷41號","121.528681666667","24.8386916666667","6502900","烏來區"
"242044","281-VK","2019/07/19 17:39:21","新北市新莊區中正路871巷9弄29號","121.419398333333","25.0269616666667","6500500","新莊區"
"242009","280-VK","2019/07/19 17:39:23","新北市新莊區昌明街14巷5弄2號","121.457298333333","25.053305","6500500","新莊區"
"235061","KEA-2875","2019/07/19 17:13:47","新北市中和區員山路36巷16-2號","121.485335","24.991765","6500300","中和區"
