"lineid","car","time","location","longitude","latitude","cityid","cityname"
"234026","9371-KE","2019/07/19 17:59:24","新北市永和區永和路一段45-1號","121.512815","25.0062616666667","6500400","永和區"
"249005","172-UM","2019/07/19 17:59:12","新北市八里區荖阡坑路24-11號","121.398608333333","25.1383833333333","6502300","八里區"
"249001","173-UM","2019/07/19 17:59:24","新北市八里區龍米路二段67號","121.448043333333","25.140835","6502300","八里區"
"249004","303-UY","2019/07/19 17:59:26","新北市八里區龍米路三段15號","121.428076666667","25.158925","6502300","八里區"
"249002","305-UY","2019/07/19 17:59:26","新北市八里區龍形五街35巷3號","121.449428333333","25.13314","6502300","八里區"
"249003","593-UM","2019/07/19 17:59:10","新北市八里區中華路二段252號","121.405323333333","25.1497816666667","6502300","八里區"
"248008","KED-0815","2019/07/19 17:59:21","新北市五股區中興路二段150號","121.458601666667","25.07855","6501500","五股區"
"248018","KED-0813","2019/07/19 17:59:08","新北市五股區中興路二段57-6號","121.46045","25.0752783333333","6501500","五股區"
"248004","677-BX","2019/07/19 17:59:13","新北市五股區中興路二段161號","121.457878333333","25.0769883333333","6501500","五股區"
"232011","375-UM","2019/07/19 17:59:14","新北市坪林區北宜路八段207號","121.708435","24.93482","6502000","坪林區"
"244007","080-UY","2019/07/19 17:59:14","新北市林口區林口路124巷8號","121.388953333333","25.0818416666667","6501700","林口區"
"244019","402-UM","2019/07/19 17:59:16","新北市林口區文化一路一段86-1號","121.372926666667","25.0699966666667","6501700","林口區"
"244013","KEA-2802","2019/07/19 17:59:14","新北市林口區中山路68-1號","121.39329","25.0786","6501700","林口區"
"244023","483-VK","2019/07/19 17:59:24","新北市林口區隆林街95號","121.385431666667","25.075045","6501700","林口區"
"244017","485-VK","2019/07/19 17:59:24","新北市林口區忠孝路372號","121.369236666667","25.0713266666667","6501700","林口區"
"244009","656-BX","2019/07/19 17:59:07","新北市林口區佳林路56巷4號","121.385663333333","25.08177","6501700","林口區"
"244021","657-BX","2019/07/19 17:59:28","新北市林口區仁愛路一段61巷13號","121.398145","25.06958","6501700","林口區"
"244011","701-TV","2019/07/19 17:59:17","新北市林口區中正路30巷4號","121.395778333333","25.0775616666667","6501700","林口區"
"244025","837-TS","2019/07/19 17:59:23","新北市林口區文化三路一段39巷128號","121.35945","25.0684833333333","6501700","林口區"
"222002","016-RS","2019/07/19 17:59:22","新北市深坑區深坑街35號","121.615965","25.001815","6501800","深坑區"
"222003","436-BY","2019/07/19 17:59:17","新北市深坑區炮子崙23號","121.607103333333","24.9908716666667","6501800","深坑區"
"221032","KEA-2785","2019/07/19 17:59:15","新北市汐止區民權街一段16號","121.621213333333","25.0536233333333","6501100","汐止區"
"231055","4716-K9","2019/07/19 17:59:11","新北市新店區安華路1-1號","121.519685","24.9604433333333","6500600","新店區"
"231040","617-UM","2019/07/19 17:59:07","新北市新店區安一路一段1-1號","121.519363333333","24.9611716666667","6500600","新店區"
"241024","065-VK","2019/07/19 17:59:09","新北市三重區國道路一段39巷23號","121.483241666667","25.0729416666667","6500200","三重區"
"241016","266-UM","2019/07/19 17:59:10","新北市五股區天乙路102-18號","121.446648333333","25.1071383333333","6500200","三重區"
"241033","AAC-255","2019/07/19 17:59:20","新北市三重區光復路一段68巷18號","121.471185","25.04931","6500200","三重區"
"235064","005-UY","2019/07/19 17:59:14","新北市中和區中正路395號","121.489945","24.99355","6500300","中和區"
"235063","006-UY","2019/07/19 17:59:27","新北市中和區員山路36巷16-3號","121.48498","24.9912466666667","6500300","中和區"
"235065","098-UM","2019/07/19 17:59:25","新北市中和區中山路二段512號","121.486405","25.00488","6500300","中和區"
"235058","151-BY","2019/07/19 17:59:14","新北市中和區圓通路367巷4號","121.491371666667","24.9893783333333","6500300","中和區"
"235038","185-VK","2019/07/19 17:59:12","新北市中和區錦和路350-1號","121.490556666667","24.9935683333333","6500300","中和區"
"247014","KEA-2869","2019/07/19 17:59:30","新北市蘆洲區忠孝路53號","121.47133","25.08664","6501400","蘆洲區"
"235070","558-UM","2019/07/19 17:59:13","新北市中和區員山路36巷16-8號","121.48539","24.992375","6500300","中和區"
"235045","565-BX","2019/07/19 17:59:20","新北市中和區員山路36巷13號","121.484236666667","24.9907283333333","6500300","中和區"
"235060","KED-0823","2019/07/19 17:59:17","新北市中和區和城路一段271巷1號","121.485543333333","24.99191","6500300","中和區"
"235054","640-BX","2019/07/19 17:59:28","新北市中和區連城路469巷79弄24號","121.484066666667","24.9936933333333","6500300","中和區"
"235057","801-TS","2019/07/19 17:59:17","新北市中和區新生街288號","121.483615","24.9964766666667","6500300","中和區"
"235051","157-BY","2019/07/19 17:59:10","新北市中和區員山路36巷13號","121.484451666667","24.9912633333333","6500300","中和區"
"235037","AAC-213","2019/07/19 17:59:17","新北市中和區景平路149號","121.513835","24.9920616666667","6500300","中和區"
"247018","546-UM","2019/07/19 17:59:28","新北市蘆洲區復興路226號","121.479125","25.0892616666667","6501400","蘆洲區"
"247002","500-BY","2019/07/19 17:59:24","新北市蘆洲區永平街32巷57弄23號","121.458928333333","25.0932183333333","6501400","蘆洲區"
"247012","056-VK","2019/07/19 17:59:21","新北市蘆洲區民族路200號","121.47989","25.0873233333333","6501400","蘆洲區"
"228002","663-BX","2019/07/19 17:59:30","新北市貢寮區福連里香蘭街2-1號","121.969645","25.0236533333333","6502600","貢寮區"
"228001","670-TC","2019/07/19 17:59:21","新北市貢寮區真理里新港街26巷31號","121.928803333333","25.05492","6502600","貢寮區"
"228003","828-UM","2019/07/19 17:59:19","新北市貢寮區真理里美艷山街6-2號","121.928808333333","25.0607483333333","6502600","貢寮區"
"224006","676-BX","2019/07/19 17:59:25","新北市瑞芳區大寮路356-1號","121.784843333333","25.103285","6501200","瑞芳區"
"224007","285-BY","2019/07/19 17:59:26","新北市瑞芳區大寮路84號","121.780333333333","25.1012416666667","6501200","瑞芳區"
"224009","275-VK","2019/07/19 17:59:21","新北市瑞芳區山尖路191號","121.851628333333","25.111535","6501200","瑞芳區"
"224008","273-VK","2019/07/19 17:59:24","新北市瑞芳區明燈路一段201巷97-1號","121.818756666667","25.1066366666667","6501200","瑞芳區"
"224005","271-BY","2019/07/19 17:59:21","新北市瑞芳區深澳路209號","121.820323333333","25.1324233333333","6501200","瑞芳區"
"227001","400-TW","2019/07/19 17:59:20","新北市雙溪區三貂里定福路1-2號","121.850636666667","25.0635216666667","6502500","雙溪區"
"253006","032-BX","2019/07/19 17:59:24","新北市石門區大丘田45-2號","121.549841666667","25.2748566666667","6502200","石門區"
"222001","KEA-2212","2019/07/19 17:59:17","新北市深坑區北深路三段12號","121.609726666667","25.0009883333333","6501800","深坑區"
"208002","KEA-2872","2019/07/19 17:59:23","新北市金山區三界壇路44號","121.623281666667","25.2290866666667","6502700","金山區"
"208003","665-BX","2019/07/19 17:59:28","新北市金山區磺港里磺港路313號","121.644438333333","25.2278833333333","6502700","金山區"
"251004","009-UM","2019/07/19 17:59:10","新北市淡水區民權一街20-1號","121.458768333333","25.1369433333333","6501000","淡水區"
"251001","011-UM","2019/07/19 17:59:09","新北市淡水區民權路94巷1號","121.463098333333","25.1248733333333","6501000","淡水區"
"251002","012-UM","2019/07/19 17:59:17","新北市淡水區中山路5號","121.444273333333","25.1696483333333","6501000","淡水區"
"251007","180-VK","2019/07/19 17:59:13","新北市淡水區中正東路二段143巷1弄7號","121.460721666667","25.1481783333333","6501000","淡水區"
"251008","181-VK","2019/07/19 17:59:17","新北市淡水區八勢一街38號","121.461698333333","25.1552116666667","6501000","淡水區"
"251010","413-VK","2019/07/19 17:59:10","新北市淡水區中正路一段87巷1號","121.421726666667","25.1790833333333","6501000","淡水區"
"251012","441-VK","2019/07/19 17:59:18","新北市淡水區北新路三段38巷7號","121.484475","25.1869716666667","6501000","淡水區"
"251005","443-VK","2019/07/19 17:59:21","新北市淡水區英專路120號","121.445933333333","25.17251","6501000","淡水區"
"251006","561-UM","2019/07/19 17:59:25","新北市淡水區新生街18-5號","121.43894","25.1734533333333","6501000","淡水區"
"251009","575-R6","2019/07/19 17:59:13","新北市淡水區原德路11號","121.442145","25.1712333333333","6501000","淡水區"
"251011","650-BX","2019/07/19 17:55:01","新北市淡水區吳(仔)厝10-3號","121.481503333333","25.1483016666667","6501000","淡水區"
"251003","766-UM","2019/07/19 17:59:14","新北市淡水區大忠街66號","121.444466666667","25.1762333333333","6501000","淡水區"
"207003","550-UM","2019/07/19 17:59:17","新北市萬里區野柳里東澳路66號","121.692691666667","25.2008966666667","6502800","萬里區"
"207004","225-TW","2019/07/19 17:59:23","新北市萬里區萬里里瑪鋉路5號","121.68649","25.175035","6502800","萬里區"
"252002","178-VK","2019/07/19 17:59:19","新北市三芝區中山路二段39號","121.502903333333","25.255115","6502100","三芝區"
"208001","170-UY","2019/07/19 17:59:29","新北市金山區磺港里磺港路251號","121.644398333333","25.2255","6502700","金山區"
"237004","KEA-2597","2019/07/19 17:59:14","新北市三峽區中正路二段87-1號","121.366455","24.917625","6500900","三峽區"
"237007","153-BY","2019/07/19 17:59:13","新北市三峽區中園街108號","121.367105","24.922975","6500900","三峽區"
"237009","210-TH","2019/07/19 17:59:13","新北市三峽區中山路106巷15號","121.366076666667","24.9362866666667","6500900","三峽區"
"237013","252-BX","2019/07/19 17:59:21","新北市三峽區介壽路一段22號","121.375478333333","24.9329933333333","6500900","三峽區"
"237012","275-BY","2019/07/19 17:59:14","新北市三峽區民生街27巷30號","121.376043333333","24.9360433333333","6500900","三峽區"
"237008","302-VK","2019/07/19 17:59:19","新北市三峽區白雞38-19號","121.37356","24.9115816666667","6500900","三峽區"
"237014","433-BY","2019/07/19 17:59:25","新北市三峽區和平街36巷7弄4號","121.370875","24.9373366666667","6500900","三峽區"
"237006","5529-G3","2019/07/19 17:59:19","新北市三峽區介壽路二段138巷1弄92-6號","121.397726666667","24.9317783333333","6500900","三峽區"
"237011","KEA-2596","2019/07/19 17:59:18","新北市三峽區光明路67號","121.375596666667","24.928635","6500900","三峽區"
"237010","706-TV","2019/07/19 17:59:23","新北市三峽區民權街156號","121.36843","24.93143","6500900","三峽區"
"237005","AKY-6261","2019/07/19 17:59:10","新北市三峽區復興路239-1號","121.368175","24.93859","6500900","三峽區"
"236042","KED-0685","2019/07/19 17:59:27","新北市土城區城林路6巷80號","121.438443333333","24.979575","6501300","土城區"
"233002","762-BX","2019/07/19 17:59:14","新北市烏來區烏來街99號","121.551436666667","24.863745","6502900","烏來區"
"236079","166-UM","2019/07/19 17:59:22","新北市土城區永寧路32巷8號","121.429018333333","24.9606633333333","6501300","土城區"
"236030","253-BX","2019/07/19 17:59:14","新北市土城區城林路6巷80號","121.438771666667","24.9796516666667","6501300","土城區"
"236026","269-VK","2019/07/19 17:59:15","新北市土城區中央路二段280號","121.440718333333","24.97414","6501300","土城區"
"236014","270-VK","2019/07/19 17:59:10","新北市土城區城林路6巷80號","121.438576666667","24.979735","6501300","土城區"
"236039","271-VK","2019/07/19 17:59:13","新北市土城區員福街36號","121.441063333333","24.978815","6501300","土城區"
"236069","KEA-2877","2019/07/19 17:59:09","新北市土城區中華路一段255號","121.440508333333","24.9809566666667","6501300","土城區"
"252001","KED-0821","2019/07/19 17:59:20","新北市三芝區中興街二段2號","121.498361666667","25.256695","6502100","三芝區"
"236020","401-BY","2019/07/19 17:59:20","新北市土城區城林路6巷80號","121.43849","24.9798033333333","6501300","土城區"
"236059","912-UM","2019/07/19 17:59:16","新北市土城區中央路三段218號","121.429246666667","24.964535","6501300","土城區"
"236048","913-UM","2019/07/19 17:59:13","新北市土城區城林路6巷80號","121.438641666667","24.979685","6501300","土城區"
"236063","915-UM","2019/07/19 17:59:15","新北市土城區城林路6巷80號","121.43865","24.97966","6501300","土城區"
"236055","AAC-216","2019/07/19 17:59:27","新北市土城區城林路6巷80號","121.438458333333","24.9796016666667","6501300","土城區"
"242039","AAC-296","2019/07/19 17:59:06","新北市新莊區民安西路22號","121.426623333333","25.0213866666667","6500500","新莊區"
"242060","986-R7","2019/07/19 17:59:27","新北市新莊區新樹路493號","121.432646666667","25.01244","6500500","新莊區"
"242002","751-BX","2019/07/19 17:59:12","新北市新莊區中正路161號","121.455426666667","25.036625","6500500","新莊區"
"242029","615-BX","2019/07/19 17:59:21","新北市新莊區中平路110巷13號","121.445735","25.0460166666667","6500500","新莊區"
"242027","613-BX","2019/07/19 17:36:21","新北市新莊區福壽街92號","121.458331666667","25.0500566666667","6500500","新莊區"
"242058","612-BX","2019/07/19 17:59:10","新北市新莊區雙鳳路134巷5號","121.412668333333","25.028085","6500500","新莊區"
"242046","566-BX","2019/07/19 17:59:16","新北市新莊區福營路165巷33號","121.432495","25.03015","6500500","新莊區"
"242050","497-BY","2019/07/19 17:59:12","新北市新莊區龍安路531號","121.42759","25.0176233333333","6500500","新莊區"
"242056","441-UM","2019/07/19 17:59:12","新北市新莊區豐年街124巷26號","121.445375","25.0300183333333","6500500","新莊區"
"242005","440-UM","2019/07/19 17:59:14","新北市新莊區福樂街72巷9號","121.458586666667","25.0466633333333","6500500","新莊區"
"242041","415-TV","2019/07/19 17:59:24","新北市泰山區壽山路32號","121.420638333333","25.0289966666667","6500500","新莊區"
"242048","400-BY","2019/07/19 17:59:25","新北市新莊區萬安街146巷16號","121.419838333333","25.0217933333333","6500500","新莊區"
"242025","362-BY","2019/07/19 17:59:20","新北市新莊區五工路58號","121.458791666667","25.0628116666667","6500500","新莊區"
"242023","353-BY","2019/07/19 17:59:17","新北市新莊區福壽街33號","121.458085","25.0484266666667","6500500","新莊區"
"242013","132-UY","2019/07/19 17:59:24","新北市新莊區中和街125巷5號","121.447056666667","25.0485866666667","6500500","新莊區"
"242037","135-UY","2019/07/19 17:59:26","新北市新莊區建福路31號","121.426383333333","25.0286666666667","6500500","新莊區"
"242015","173-VK","2019/07/19 17:59:20","新北市新莊區中平路87巷8號","121.444306666667","25.0458133333333","6500500","新莊區"
"242021","175-VK","2019/07/19 17:59:20","新北市新莊區中正路219號","121.450893333333","25.035765","6500500","新莊區"
"242054","176-VK","2019/07/19 17:59:17","新北市新莊區民安西路393號","121.429121666667","25.0099566666667","6500500","新莊區"
"242019","KED-0687","2019/07/19 17:59:09","新北市新莊區明中街49巷17號","121.456676666667","25.0389966666667","6500500","新莊區"
"242011","346-TH","2019/07/19 17:59:23","新北市新莊區中港路629-1號","121.450618333333","25.053835","6500500","新莊區"
"242034","348-TH","2019/07/19 17:59:18","新北市新莊區中正路421巷16號","121.444613333333","25.0337183333333","6500500","新莊區"
"242007","349-TH","2019/07/19 17:59:13","新北市新莊區自信街65巷5號","121.45543","25.0486283333333","6500500","新莊區"
"242032","350-TH","2019/07/19 17:59:18","新北市新莊區新泰路351號","121.444631666667","25.0423733333333","6500500","新莊區"
"242017","351-TH","2019/07/19 17:59:16","新北市新莊區中和街60巷15號","121.44861","25.0448066666667","6500500","新莊區"
"238015","755-BX","2019/07/19 17:59:28","新北市樹林區大安路388號","121.415625","24.989505","6500700","樹林區"
"238023","601-UM","2019/07/19 17:59:24","新北市樹林區龍興街34號","121.402808333333","25.0158133333333","6500700","樹林區"
"238019","599-UM","2019/07/19 17:59:18","新北市樹林區太平路263號","121.418635","24.97422","6500700","樹林區"
"238018","KEA-2217","2019/07/19 17:59:13","新北市樹林區樹新路106巷7號","121.429923333333","24.998175","6500700","樹林區"
"238021","KEA-2539","2019/07/19 17:59:15","新北市樹林區柑園街一段271號","121.394168333333","24.9563816666667","6500700","樹林區"
"238025","303-VK","2019/07/19 17:59:12","新北市樹林區俊興街211巷7弄18號","121.416865","25.0138916666667","6500700","樹林區"
"238017","283-BY","2019/07/19 17:59:23","新北市樹林區中正路743號","121.411115","25.01461","6500700","樹林區"
"238014","282-BY","2019/07/19 17:59:10","新北市樹林區千歲街61巷40弄7號","121.42586","24.9989416666667","6500700","樹林區"
"238020","268-VK","2019/07/19 17:59:14","新北市樹林區三俊街199巷9號","121.42017","25.0166566666667","6500700","樹林區"
"238026","172-UY","2019/07/19 17:59:18","新北市樹林區中洲街51巷6號","121.396676666667","24.970995","6500700","樹林區"
"238016","169-UY","2019/07/19 17:59:23","新北市樹林區育英街135巷10號","121.419565","24.9890566666667","6500700","樹林區"
"239007","AAC-297","2019/07/19 17:59:30","新北市鶯歌區鶯桃路47號","121.342068333333","24.95185","6500800","鶯歌區"
"239006","891-R6","2019/07/19 17:59:16","新北市鶯歌區鶯桃路413巷70號","121.329988333333","24.9630233333333","6500800","鶯歌區"
"239008","527-UM","2019/07/19 17:59:13","新北市鶯歌區欣欣街4-3號","121.335665","24.97742","6500800","鶯歌區"
"239005","526-UM","2019/07/19 17:59:22","新北市鶯歌區鶯桃路658巷49-2號","121.331043333333","24.9704683333333","6500800","鶯歌區"
"239001","417-VK","2019/07/19 17:59:12","新北市鶯歌區中正三路135號","121.337366666667","24.940485","6500800","鶯歌區"
"239003","360-BY","2019/07/19 17:59:07","新北市鶯歌區永吉街18號","121.335935","24.957775","6500800","鶯歌區"
"239002","359-BY","2019/07/19 17:59:25","新北市鶯歌區光明街126號","121.34551","24.9558583333333","6500800","鶯歌區"
"239004","193-VK","2019/07/19 17:59:14","新北市鶯歌區尖山路137巷2號","121.346895","24.9486433333333","6500800","鶯歌區"
"221008","489-VK","2019/07/19 17:59:23","新北市汐止區康寧街753巷1-1號","121.639081666667","25.07376","6501100","汐止區"
"221010","269-BY","2019/07/19 17:59:28","新北市汐止區汐萬路二段122巷3號","121.648258333333","25.0857183333333","6501100","汐止區"
"221023","279-VK","2019/07/19 17:59:16","新北市汐止區明峰街29號","121.634188333333","25.0713933333333","6501100","汐止區"
"221033","297-VK","2019/07/19 17:59:17","新北市汐止區合順街39巷3號","121.62063","25.0433266666667","6501100","汐止區"
"221029","298-VK","2019/07/19 17:59:10","新北市汐止區樟樹二路332號","121.641646666667","25.070265","6501100","汐止區"
"221031","353-TW","2019/07/19 17:59:15","新北市汐止區中興路96巷1-3號","121.63521","25.0625083333333","6501100","汐止區"
"221032","622-UM","2019/07/19 17:59:09","新北市汐止區汐萬路一段266號","121.651","25.07399","6501100","汐止區"
"221025","623-UM","2019/07/19 17:59:16","新北市汐止區仁愛路17號","121.659228333333","25.0639616666667","6501100","汐止區"
"233001","KEA-2870","2019/07/19 17:59:08","新北市烏來區環山路171號","121.548933333333","24.8567316666667","6502900","烏來區"
"224002","257-TC","2019/07/19 17:59:29","新北市瑞芳區三爪子坑路2號","121.81014","25.1071316666667","6501200","瑞芳區"
"242044","281-VK","2019/07/19 17:59:21","新北市新莊區雙鳳路109號","121.413973333333","25.027955","6500500","新莊區"
"242009","280-VK","2019/07/19 17:59:23","新北市新莊區中華路二段250號","121.452628333333","25.0528933333333","6500500","新莊區"
"235068","KEA-2873","2019/07/19 17:59:00","新北市中和區員山路36巷16-3號","121.4851","24.9911733333333","6500300","中和區"
"235061","KEA-2875","2019/07/19 17:59:12","新北市中和區員山路86號","121.480886666667","24.9942416666667","6500300","中和區"
"235062","KEA-2876","2019/07/19 17:59:00","新北市中和區中正路480號","121.489548333333","24.994245","6500300","中和區"
