"lineid","car","time","location","longitude","latitude","cityid","cityname"
"234046","148-BY","2019/07/19 20:09:14","新北市永和區成功路二段95號","121.526696666667","24.99913","6500400","永和區"
"234081","298-R6","2019/07/19 20:09:19","新北市永和區國中路101號","121.52417","25.0060533333333","6500400","永和區"
"234064","337-UY","2019/07/19 20:09:08","新北市永和區永利路156號","121.522551666667","25.0027233333333","6500400","永和區"
"234086","338-UY","2019/07/19 20:09:25","新北市永和區福和路186號","121.520328333333","25.0077366666667","6500400","永和區"
"234038","553-UM","2019/07/19 20:09:25","新北市永和區成功路一段68號","121.526938333333","25.0036166666667","6500400","永和區"
"234017","745-BX","2019/07/19 20:09:20","新北市永和區文化路154號","121.512361666667","25.01533","6500400","永和區"
"234030","746-BX","2019/07/19 20:09:14","新北市永和區民權路49巷39號","121.52205","24.9976616666667","6500400","永和區"
"234054","KEA-2590","2019/07/19 20:09:16","新北市永和區博愛街15號","121.5172","25.0158066666667","6500400","永和區"
"234007","KED-0605","2019/07/19 20:09:13","新北市永和區仁愛路306巷28號","121.50208","25.008845","6500400","永和區"
"234013","KEA-2591","2019/07/19 20:09:17","新北市永和區永貞路391號","121.507898333333","25.0087533333333","6500400","永和區"
"234061","AAD-866","2019/07/19 20:09:10","新北市永和區安樂路58巷2號","121.515186666667","24.997945","6500400","永和區"
"234070","748-BX","2019/07/19 20:09:24","新北市永和區中正路638號","121.516981666667","25.008235","6500400","永和區"
"234042","862-TW","2019/07/19 20:09:09","新北市永和區雙和街4號","121.509846666667","25.0018466666667","6500400","永和區"
"234050","863-TW","2019/07/19 20:09:23","新北市永和區環河西路二段151號","121.505681666667","25.0139433333333","6500400","永和區"
"234011","9373-KE","2019/07/19 20:09:12","新北市永和區仁愛路352巷122弄10號","121.500751666667","25.0086766666667","6500400","永和區"
"249005","172-UM","2019/07/19 20:09:12","新北市八里區下罟子56-3號","121.389788333333","25.1387316666667","6502300","八里區"
"249001","173-UM","2019/07/19 20:09:18","新北市八里區中華路二段318號","121.403578333333","25.1481083333333","6502300","八里區"
"249004","303-UY","2019/07/19 20:09:16","新北市八里區中山路一段189巷18號","121.412111666667","25.157975","6502300","八里區"
"249002","305-UY","2019/07/19 20:09:26","新北市五股區成泰路四段22巷33-1號","121.455451666667","25.1089316666667","6502300","八里區"
"249003","593-UM","2019/07/19 19:44:47","新北市八里區華峰三街31號","121.39939","25.14582","6502300","八里區"
"248016","026-BX","2019/07/19 20:09:13","新北市五股區成泰路三段577巷80弄72號","121.448971666667","25.1047683333333","6501500","五股區"
"248008","KED-0815","2019/07/19 20:09:21","新北市五股區中興路一段1巷12弄1號","121.469405","25.07144","6501500","五股區"
"248018","KED-0813","2019/07/19 20:09:28","新北市五股區登林路81-42號","121.426203333333","25.0704133333333","6501500","五股區"
"248012","247-BX","2019/07/19 20:09:06","新北市五股區六合街70號","121.431875","25.0900433333333","6501500","五股區"
"248010","272-BY","2019/07/19 20:09:20","新北市五股區成泰路一段7巷66號","121.43259","25.067855","6501500","五股區"
"248004","677-BX","2019/07/19 20:09:13","新北市五股區成泰路一段219-5號","121.435406666667","25.0774666666667","6501500","五股區"
"248002","678-BX","2019/07/19 20:09:14","新北市五股區成泰路三段369-1號","121.448881666667","25.0960383333333","6501500","五股區"
"234023","9380-KE","2019/07/19 20:09:14","新北市永和區中正路654巷60號","121.518475","25.008485","6500400","永和區"
"234077","969-R7","2019/07/19 20:09:23","新北市永和區民光街7號","121.515381666667","24.9962766666667","6500400","永和區"
"234074","AAC-211","2019/07/19 20:09:24","新北市永和區豫溪街161-1號","121.521505","25.0104233333333","6500400","永和區"
"234067","AAC-212","2019/07/19 20:08:52","新北市永和區保平路214巷7號","121.509135","25.0065883333333","6500400","永和區"
"234003","AAC-295","2019/07/19 20:09:19","新北市永和區中正路527號","121.516836666667","25.00769","6500400","永和區"
"243010","297-R6","2019/07/19 20:09:22","新北市泰山區明志路二段136巷48號","121.426103333333","25.0519916666667","6501600","泰山區"
"243014","KEA-2801","2019/07/19 20:09:10","新北市泰山區明志路一段58號","121.43348","25.0648383333333","6501600","泰山區"
"243016","421-VK","2019/07/19 20:09:09","新北市泰山區明志路三段409號","121.421213333333","25.0340116666667","6501600","泰山區"
"243009","KEA-2215","2019/07/19 20:09:14","新北市泰山區泰林路二段115號","121.434456666667","25.0594","6501600","泰山區"
"243011","KEA-2216","2019/07/19 20:09:14","新北市泰山區明志路三段531巷2號","121.42136","25.0297283333333","6501600","泰山區"
"243015","680-BX","2019/07/19 20:09:12","新北市泰山區明志路二段71號","121.428956666667","25.0524516666667","6501600","泰山區"
"222002","016-RS","2019/07/19 20:09:22","新北市深坑區北深路三段192巷9號","121.601906666667","25.0041783333333","6501800","深坑區"
"222003","436-BY","2019/07/19 20:09:15","新北市深坑區埔新街63號","121.620323333333","25.00243","6501800","深坑區"
"231061","002-UM","2019/07/19 20:09:20","新北市新店區安興路32號","121.51575","24.970365","6500600","新店區"
"231044","046-UY","2019/07/19 20:09:14","新北市新店區寶慶街58巷2號","121.542178333333","24.98681","6500600","新店區"
"231060","106-UY","2019/07/19 20:09:19","新北市新店區安康路三段269號","121.486316666667","24.9518133333333","6500600","新店區"
"231051","107-UY","2019/07/19 20:09:27","新北市新店區中央六街5號","121.530305","24.97445","6500600","新店區"
"231049","108-UY","2019/07/19 20:09:20","新北市新店區北新路二段139巷12弄2號","121.542173333333","24.976","6500600","新店區"
"231065","110-UY","2019/07/19 20:09:12","新北市新店區安祥路106巷200弄8號","121.4744","24.9603433333333","6500600","新店區"
"231068","187-VK","2019/07/19 20:09:22","新北市新店區中興路三段88號","121.545328333333","24.978905","6500600","新店區"
"221032","KEA-2785","2019/07/19 20:09:17","新北市汐止區橫科路18巷32弄8號","121.617493333333","25.0498","6501100","汐止區"
"231062","256-BX","2019/07/19 20:09:27","新北市新店區安康路一段235號","121.525221666667","24.9631633333333","6500600","新店區"
"231054","260-TV","2019/07/19 20:09:23","新北市新店區檳榔路27號","121.541745","24.96366","6500600","新店區"
"231042","268-BY","2019/07/19 20:09:16","新北市新店區中興路二段55號","121.546476666667","24.9702133333333","6500600","新店區"
"231064","278-BY","2019/07/19 20:09:19","新北市新店區安德街20號","121.512286666667","24.9631733333333","6500600","新店區"
"231050","AAD-862","2019/07/19 20:09:23","新北市新店區北新路一段303號","121.541498333333","24.9674116666667","6500600","新店區"
"231045","355-BY","2019/07/19 20:09:11","新北市新店區北宜路二段83號","121.549843333333","24.9518116666667","6500600","新店區"
"231055","4716-K9","2019/07/19 20:09:11","新北市新店區中華路48巷40號","121.54128","24.9694366666667","6500600","新店區"
"231056","4715-K9","2019/07/19 20:09:22","新北市新店區中正路275巷35號","121.53673","24.9727416666667","6500600","新店區"
"231067","4772-VM","2019/07/19 20:09:25","新北市新店區溪洲路6巷88號","121.53312","24.9638833333333","6500600","新店區"
"231053","513-UM","2019/07/19 20:09:10","新北市新店區新烏路三段寶島巷4號","121.551471666667","24.8994533333333","6500600","新店區"
"231040","617-UM","2019/07/19 20:09:27","新北市新店區中正路28號","121.545258333333","24.9697666666667","6500600","新店區"
"231041","619-UM","2019/07/19 20:09:24","新北市新店區中央路2號","121.533876666667","24.979375","6500600","新店區"
"231063","641-BX","2019/07/19 20:09:14","新北市新店區黎明路53巷1號","121.502356666667","24.9487533333333","6500600","新店區"
"231048","KED-0819","2019/07/19 20:09:13","新北市新店區寶橋路69-1號","121.545466666667","24.9750083333333","6500600","新店區"
"231057","720-UM","2019/07/19 20:09:18","新北市新店區百齡一路12號","121.55304","24.9324666666667","6500600","新店區"
"231059","897-TW","2019/07/19 20:09:15","新北市新店區安成街38號","121.50997","24.961125","6500600","新店區"
"231043","899-TW","2019/07/19 20:09:25","新北市新店區民族路188號","121.5365","24.9759733333333","6500600","新店區"
"231066","AKT-0513","2019/07/19 20:09:23","新北市新店區薏仁坑路2-1號","121.500738333333","24.9580416666667","6500600","新店區"
"241011","013-R5","2019/07/19 20:09:17","新北市三重區秀江街247號","121.49611","25.0716333333333","6500200","三重區"
"241028","022-UY","2019/07/19 20:09:10","新北市三重區仁化街138號","121.4946","25.05784","6500200","三重區"
"241008","059-VK","2019/07/19 20:09:24","新北市三重區永福街197巷15-1號","121.479008333333","25.0743533333333","6500200","三重區"
"241018","060-VK","2019/07/19 20:09:21","新北市三重區大智街49號","121.492933333333","25.0676666666667","6500200","三重區"
"241031","061-VK","2019/07/19 20:09:30","新北市三重區過圳街9-1號","121.488825","25.0600566666667","6500200","三重區"
"241017","063-VK","2019/07/19 20:09:12","新北市三重區自強路一段232號","121.493268333333","25.066805","6500200","三重區"
"241024","065-VK","2019/07/19 20:09:09","新北市三重區力行路一段176號","121.481863333333","25.07145","6500200","三重區"
"241002","090-VK","2019/07/19 20:09:20","新北市三重區仁忠街89-1號","121.492678333333","25.0801033333333","6500200","三重區"
"241003","091-VK","2019/07/19 20:09:13","新北市三重區仁愛街467號","121.489358333333","25.082015","6500200","三重區"
"241030","742-BX","2019/07/19 20:09:07","新北市三重區成功路104巷12號","121.487526666667","25.0509216666667","6500200","三重區"
"241005","262-UM","2019/07/19 20:09:19","新北市三重區溪尾街332號","121.488215","25.0849683333333","6500200","三重區"
"241016","266-UM","2019/07/19 20:08:50","新北市三重區中正北路25巷2號","121.493071666667","25.0627533333333","6500200","三重區"
"241009","267-UM","2019/07/19 20:09:09","新北市三重區永福街11號","121.4823","25.0781733333333","6500200","三重區"
"241032","269-UM","2019/07/19 20:09:07","新北市三重區捷運路65號","121.48342","25.0554916666667","6500200","三重區"
"241013","270-UM","2019/07/19 20:09:18","新北市三重區三和路三段151巷25號","121.493113333333","25.0741","6500200","三重區"
"241025","271-UM","2019/07/19 20:09:15","新北市三重區中正北路430號","121.474558333333","25.07107","6500200","三重區"
"241007","398-BY","2019/07/19 20:09:21","新北市三重區三和路四段111-12號","121.486723333333","25.077605","6500200","三重區"
"241035","462-BY","2019/07/19 20:09:12","新北市三重區平安街5號","121.49885","25.064335","6500200","三重區"
"241004","475-VK","2019/07/19 20:09:16","新北市三重區仁愛街354號","121.491551666667","25.0802683333333","6500200","三重區"
"241020","478-VK","2019/07/19 20:09:19","新北市三重區大智街179巷38號","121.491005","25.0730066666667","6500200","三重區"
"241026","480-VK","2019/07/19 20:09:19","新北市三重區福德南路67號","121.502206666667","25.0603666666667","6500200","三重區"
"241014","543-UM","2019/07/19 20:09:23","新北市三重區長壽街120巷43號","121.502098333333","25.0696","6500200","三重區"
"241023","545-UM","2019/07/19 20:09:23","新北市三重區頂崁街218號","121.476995","25.0680383333333","6500200","三重區"
"241001","547-UM","2019/07/19 20:09:22","新北市三重區三和路四段89巷24號","121.490066666667","25.0760066666667","6500200","三重區"
"241019","KEA-2593","2019/07/19 20:09:12","新北市三重區自強路二段67巷47號","121.489943333333","25.0700283333333","6500200","三重區"
"241006","AAD-863","2019/07/19 20:09:13","新北市三重區車路頭街139巷14號","121.484303333333","25.0761766666667","6500200","三重區"
"241012","941-UM","2019/07/19 20:09:14","新北市三重區仁愛街125巷40號","121.498195","25.076105","6500200","三重區"
"241029","942-UM","2019/07/19 20:09:17","新北市三重區重新路三段192號","121.490335","25.058945","6500200","三重區"
"241033","AAC-255","2019/07/19 20:09:21","新北市三重區光復路一段61巷27號","121.473593333333","25.0492716666667","6500200","三重區"
"235066","003-UY","2019/07/19 20:09:21","新北市中和區水源路154巷4號","121.508108333333","25.0032666666667","6500300","中和區"
"235039","097-UM","2019/07/19 20:09:23","新北市中和區立人街24-4號","121.518985","24.9941716666667","6500300","中和區"
"235065","098-UM","2019/07/19 20:09:24","新北市中和區福美路312巷1號","121.496668333333","25.005015","6500300","中和區"
"235040","150-BY","2019/07/19 20:09:16","新北市中和區保健路31號","121.508598333333","24.9977783333333","6500300","中和區"
"235055","183-VK","2019/07/19 20:09:24","新北市三重區光復路二段175號","121.47306","25.0614883333333","6500300","中和區"
"247014","KEA-2869","2019/07/19 20:09:16","新北市蘆洲區中山一路270號","121.47162","25.0793766666667","6501400","蘆洲區"
"235050","4979-A6","2019/07/19 20:09:15","新北市中和區安樂路62號","121.512206666667","24.9932016666667","6500300","中和區"
"235069","4980-A6","2019/07/19 20:09:24","新北市中和區景新街34巷3-1號","121.503438333333","24.9989683333333","6500300","中和區"
"235046","733-UM","2019/07/19 20:09:15","新北市中和區景新街557號","121.515351666667","24.9864983333333","6500300","中和區"
"235059","AAC-215","2019/07/19 20:09:13","新北市中和區圓通路367巷13弄38號","121.493401666667","24.9879916666667","6500300","中和區"
"220065","072-UY","2019/07/19 20:09:17","新北市板橋區民族路87號","121.466165","25.00853","6500100","板橋區"
"247004","893-R6","2019/07/19 20:09:24","新北市蘆洲區長安街285巷26號","121.456921666667","25.083865","6501400","蘆洲區"
"247018","546-UM","2019/07/19 20:09:19","新北市蘆洲區民族路314巷23號","121.478038333333","25.0907116666667","6501400","蘆洲區"
"247002","500-BY","2019/07/19 20:09:18","新北市蘆洲區永康街58號","121.459186666667","25.086035","6501400","蘆洲區"
"247024","337-TH","2019/07/19 20:09:26","新北市蘆洲區光榮路120巷8弄39號","121.464741666667","25.0877933333333","6501400","蘆洲區"
"247022","057-VK","2019/07/19 20:09:17","新北市蘆洲區三民路171巷17號","121.470586666667","25.0869733333333","6501400","蘆洲區"
"247012","056-VK","2019/07/19 20:09:08","新北市蘆洲區民族路248號","121.479256666667","25.0887433333333","6501400","蘆洲區"
"247016","053-VK","2019/07/19 20:09:17","新北市蘆洲區光華路165號","121.465091666667","25.0820383333333","6501400","蘆洲區"
"247020","007-UY","2019/07/19 20:09:08","新北市蘆洲區民義街102號","121.473796666667","25.0907183333333","6501400","蘆洲區"
"247006","002-UY","2019/07/19 20:09:19","新北市蘆洲區中山二路288號","121.468728333333","25.0775","6501400","蘆洲區"
"222001","KEA-2212","2019/07/19 20:09:17","新北市深坑區北深路三段224號","121.600898333333","25.0039166666667","6501800","深坑區"
"251004","009-UM","2019/07/19 20:09:24","新北市淡水區民族路29巷54號","121.461823333333","25.1368233333333","6501000","淡水區"
"251001","011-UM","2019/07/19 20:09:09","新北市淡水區淡金路二段15號","121.446336666667","25.1892","6501000","淡水區"
"251002","012-UM","2019/07/19 20:09:17","新北市淡水區中正路334號","121.435763333333","25.1731","6501000","淡水區"
"251008","181-VK","2019/07/19 20:09:12","新北市淡水區淡海路72巷30弄2號","121.424365","25.18248","6501000","淡水區"
"251010","413-VK","2019/07/19 20:09:10","新北市淡水區新市三路一段306號","121.428878333333","25.1976483333333","6501000","淡水區"
"251012","441-VK","2019/07/19 20:09:18","新北市淡水區淡金路三段224號","121.448968333333","25.20485","6501000","淡水區"
"251005","443-VK","2019/07/19 20:09:21","新北市淡水區學府路116號","121.450128333333","25.1723416666667","6501000","淡水區"
"251006","561-UM","2019/07/19 20:09:25","新北市淡水區北新路139號","121.449305","25.17909","6501000","淡水區"
"251009","575-R6","2019/07/19 20:09:13","新北市淡水區學府路73巷8號","121.447518333333","25.1702433333333","6501000","淡水區"
"251011","650-BX","2019/07/19 20:09:28","新北市淡水區崁頂55-3號","121.442348333333","25.196635","6501000","淡水區"
"251003","766-UM","2019/07/19 20:09:27","新北市淡水區中山北路一段307號","121.444288333333","25.1829333333333","6501000","淡水區"
"207003","550-UM","2019/07/19 20:09:17","新北市萬里區大鵬里萬里加投180號","121.642988333333","25.2157966666667","6502800","萬里區"
"207004","225-TW","2019/07/19 20:09:23","新北市萬里區北基里愛二街2號","121.682415","25.1767383333333","6502800","萬里區"
"252002","178-VK","2019/07/19 20:09:19","新北市三芝區中正路一段72號","121.503933333333","25.2576533333333","6502100","三芝區"
"237012","275-BY","2019/07/19 20:09:14","新北市三峽區中正路一段216巷1弄7號","121.371756666667","24.92772","6500900","三峽區"
"237006","5529-G3","2019/07/19 20:09:19","新北市三峽區嘉添109-11號","121.369221666667","24.909705","6500900","三峽區"
"237015","649-BX","2019/07/19 20:09:27","新北市三峽區介壽路二段138巷1弄62-9號","121.397461666667","24.9330183333333","6500900","三峽區"
"237005","AKY-6261","2019/07/19 20:09:09","新北市三峽區三樹路98巷119號","121.382308333333","24.939075","6500900","三峽區"
"236042","KED-0685","2019/07/19 20:09:27","新北市土城區學享街12號","121.451378333333","24.9873766666667","6501300","土城區"
"236079","166-UM","2019/07/19 20:09:21","新北市土城區福安街2-1號","121.420186666667","24.965105","6501300","土城區"
"236030","253-BX","2019/07/19 20:09:14","新北市土城區中央路一段116號","121.446413333333","24.988095","6501300","土城區"
"236026","269-VK","2019/07/19 20:09:15","新北市土城區明德路二段96號","121.44564","24.9840066666667","6501300","土城區"
"236014","270-VK","2019/07/19 20:09:09","新北市土城區廣明街4號","121.456035","24.991775","6501300","土城區"
"236039","271-VK","2019/07/19 20:09:29","新北市土城區延吉街373巷12號","121.463996666667","24.9833683333333","6501300","土城區"
"247010","KED-0683","2019/07/19 20:09:25","新北市蘆洲區信義路148號","121.479416666667","25.08322","6501400","蘆洲區"
"236069","KEA-2877","2019/07/19 20:09:17","新北市土城區中央路三段147巷2弄14號","121.432015","24.964925","6501300","土城區"
"252001","KED-0821","2019/07/19 20:09:20","新北市三芝區公正街66號","121.49988","25.25743","6502100","三芝區"
"236020","401-BY","2019/07/19 20:09:19","新北市土城區金城路三段225號","121.470943333333","24.98947","6501300","土城區"
"236059","912-UM","2019/07/19 20:09:16","新北市土城區中央路二段392-1號","121.439705","24.9709033333333","6501300","土城區"
"236048","913-UM","2019/07/19 20:09:22","新北市土城區清水路261巷3弄1號","121.463058333333","24.9844983333333","6501300","土城區"
"236055","AAC-216","2019/07/19 20:09:27","新北市土城區中華路二段111號","121.439028333333","24.9770683333333","6501300","土城區"
"242039","AAC-296","2019/07/19 20:09:26","新北市新莊區民安西路109號","121.426773333333","25.0184333333333","6500500","新莊區"
"242060","986-R7","2019/07/19 20:09:27","新北市新莊區瓊林路206-6號","121.435406666667","25.0222333333333","6500500","新莊區"
"242002","751-BX","2019/07/19 20:09:20","新北市新莊區中正路145號","121.459696666667","25.03834","6500500","新莊區"
"242029","615-BX","2019/07/19 20:09:19","新北市新莊區中原路301號","121.447475","25.054435","6500500","新莊區"
"242058","612-BX","2019/07/19 20:09:23","新北市新莊區八德街145號","121.423635","25.0197566666667","6500500","新莊區"
"242046","566-BX","2019/07/19 20:09:16","新北市新莊區裕民街37巷5號","121.419545","25.02499","6500500","新莊區"
"242050","497-BY","2019/07/19 20:09:19","新北市新莊區民安西路172巷2弄1號","121.425663333333","25.0160016666667","6500500","新莊區"
"242056","441-UM","2019/07/19 20:09:28","新北市新莊區新莊路649巷13弄16號","121.44567","25.0318483333333","6500500","新莊區"
"242005","440-UM","2019/07/19 20:09:22","新北市新莊區頭興街3巷2號","121.463218333333","25.0534433333333","6500500","新莊區"
"242041","415-TV","2019/07/19 20:09:15","新北市新莊區新北大道七段312號","121.413486666667","25.0303033333333","6500500","新莊區"
"242048","400-BY","2019/07/19 20:09:25","新北市新莊區後港二路18-1號","121.42259","25.0235716666667","6500500","新莊區"
"242025","362-BY","2019/07/19 20:09:28","新北市新莊區五工路68巷5號","121.45818","25.0638883333333","6500500","新莊區"
"242023","353-BY","2019/07/19 20:09:07","新北市新莊區化成路558號","121.466243333333","25.053975","6500500","新莊區"
"242013","132-UY","2019/07/19 20:09:20","新北市新莊區中港路483巷10號","121.45162","25.04985","6500500","新莊區"
"242037","135-UY","2019/07/19 20:09:26","新北市新莊區建安街9巷6號","121.429008333333","25.0265966666667","6500500","新莊區"
"242015","173-VK","2019/07/19 20:09:09","新北市新莊區中平路26巷26號","121.445908333333","25.043305","6500500","新莊區"
"242021","175-VK","2019/07/19 20:09:26","新北市新莊區中興街23號","121.449176666667","25.0364366666667","6500500","新莊區"
"242054","176-VK","2019/07/19 20:09:16","新北市新莊區西盛街387巷34弄5號","121.428563333333","25.0129783333333","6500500","新莊區"
"242019","KED-0687","2019/07/19 20:09:09","新北市新莊區復興路二段196巷5號","121.459373333333","25.0437633333333","6500500","新莊區"
"242011","346-TH","2019/07/19 20:09:14","新北市新莊區中信街52號","121.449365","25.050885","6500500","新莊區"
"242034","348-TH","2019/07/19 20:09:20","新北市新莊區建中街105號","121.446595","25.0360283333333","6500500","新莊區"
"242007","349-TH","2019/07/19 20:09:12","新北市新莊區福壽街184巷19號","121.45928","25.0532716666667","6500500","新莊區"
"242032","350-TH","2019/07/19 20:09:21","新北市新莊區中正路471號","121.441993333333","25.0338833333333","6500500","新莊區"
"242017","351-TH","2019/07/19 20:09:30","新北市新莊區中港路370號","121.452298333333","25.0472283333333","6500500","新莊區"
"221008","489-VK","2019/07/19 20:09:23","台北市內湖區康樂街149號","121.619331666667","25.0719616666667","6501100","汐止區"
"221036","130-UY","2019/07/19 20:09:09","新北市汐止區新台五路二段41巷6號","121.66312","25.0666816666667","6501100","汐止區"
"221015","131-UY","2019/07/19 20:09:13","新北市汐止區建成路15號","121.664518333333","25.0725483333333","6501100","汐止區"
"221010","269-BY","2019/07/19 20:09:07","新北市汐止區連峰街233號","121.64543","25.0811133333333","6501100","汐止區"
"221012","278-VK","2019/07/19 20:09:11","新北市汐止區大同路三段324號","121.679203333333","25.0712566666667","6501100","汐止區"
"221023","279-VK","2019/07/19 20:09:25","新北市汐止區明峰街212號","121.627296666667","25.0691016666667","6501100","汐止區"
"221027","281-BY","2019/07/19 20:09:11","新北市汐止區民生街4巷2號","121.66017","25.068785","6501100","汐止區"
"221033","297-VK","2019/07/19 20:09:17","新北市汐止區東勢街201巷104號","121.633566666667","25.0429416666667","6501100","汐止區"
"221029","298-VK","2019/07/19 20:09:10","新北市汐止區樟樹一路123巷17號","121.64133","25.0645883333333","6501100","汐止區"
"221021","299-VK","2019/07/19 20:09:30","新北市汐止區連興街121號","121.653723333333","25.0622633333333","6501100","汐止區"
"221031","353-TW","2019/07/19 20:09:17","新北市汐止區福德一路256號","121.633446666667","25.064625","6501100","汐止區"
"221035","622-UM","2019/07/19 20:09:09","新北市汐止區長江街39巷20號","121.65536","25.0720533333333","6501100","汐止區"
"221025","623-UM","2019/07/19 20:09:16","新北市汐止區秀峰路66號","121.659836666667","25.0645566666667","6501100","汐止區"
"221038","646-BX","2019/07/19 20:09:13","新北市汐止區大同路三段41號","121.666821666667","25.07647","6501100","汐止區"
"221002","707-TV","2019/07/19 20:09:23","新北市汐止區康寧街777-1號","121.645245","25.0759116666667","6501100","汐止區"
"221018","753-BX","2019/07/19 20:09:23","新北市汐止區茄苳路322號","121.673643333333","25.066505","6501100","汐止區"
"220079","145-BY","2019/07/19 20:09:24","新北市板橋區建國街104號","121.459998333333","25.0173416666667","6500100","板橋區"
"220080","200-UY","2019/07/19 20:09:16","新北市板橋區大觀路二段171號","121.445175","25.0002966666667","6500100","板橋區"
"220082","610-BX","2019/07/19 20:09:24","新北市板橋區金門街173號","121.432621666667","24.990095","6500100","板橋區"
"224002","257-TC","2019/07/19 20:09:26","新北市瑞芳區蛇子形路7號","121.826001666667","25.104975","6501200","瑞芳區"
"220083","286-VK","2019/07/19 20:09:18","新北市板橋區僑中二街48巷24號","121.445366666667","25.010655","6500100","板橋區"
"220081","287-VK","2019/07/19 20:09:17","新北市板橋區僑中一街124巷18弄23號","121.447113333333","25.0136366666667","6500100","板橋區"
"220061","295-UM","2019/07/19 20:09:08","新北市板橋區中山路一段161號","121.46524","25.0120716666667","6500100","板橋區"
"220084","296-UM","2019/07/19 20:09:09","新北市樹林區博愛街179號","121.425025","24.98933","6500100","板橋區"
"242044","281-VK","2019/07/19 20:09:21","桃園市龜山區萬壽路一段21巷8號","121.410546666667","25.0203816666667","6500500","新莊區"
"220075","303-R5","2019/07/19 20:09:25","新北市板橋區金華街10巷122號","121.459483333333","25.020555","6500100","板橋區"
"220062","305-R5","2019/07/19 20:09:24","新北市板橋區萬安街20巷4弄16號","121.485231666667","25.0229383333333","6500100","板橋區"
"242009","280-VK","2019/07/19 20:09:25","新北市新莊區昌盛街35巷4弄2號","121.454123333333","25.0505216666667","6500500","新莊區"
"220035","560-BX","2019/07/19 20:09:12","新北市板橋區新生街37號","121.456751666667","25.0210966666667","6500100","板橋區"
"220103","561-BX","2019/07/19 20:09:25","新北市板橋區漢生東路83巷27號","121.467436666667","25.0168033333333","6500100","板橋區"
"220074","630-UY","2019/07/19 20:09:10","新北市板橋區明德街4號","121.459771666667","25.0101616666667","6500100","板橋區"
"220077","687-BX","2019/07/19 20:09:30","新北市板橋區僑中一街124巷15弄2-11號","121.44605","25.01321","6500100","板橋區"
"220093","689-BX","2019/07/19 20:09:22","新北市五股區五工一路105號","121.457755","25.069985","6500100","板橋區"
"220054","741-BX","2019/07/19 20:08:48","新北市板橋區國泰街75巷28弄90號","121.467333333333","25.0040566666667","6500100","板橋區"
"220055","827-TW","2019/07/19 20:09:09","新北市板橋區仁愛路86巷14號","121.461045","24.9989466666667","6500100","板橋區"
"220073","985-R7","2019/07/19 20:09:13","新北市板橋區大觀路一段21號","121.450263333333","25.0084816666667","6500100","板橋區"
"220064","AAC-253","2019/07/19 20:09:24","新北市板橋區長安街331巷86號","121.472316666667","25.0128983333333","6500100","板橋區"
"235068","KEA-2873","2019/07/19 20:09:00","新北市中和區勝利路35巷1弄6號","121.499226666667","25.0074283333333","6500300","中和區"
