"lineid","car","time","location","longitude","latitude","cityid","cityname"
"234030","746-BX","2019/07/19 20:39:08","新北市新店區安和路三段4巷3號","121.518466666667","24.98099","6500400","永和區"
"234061","AAD-866","2019/07/19 20:39:10","新北市永和區中正路381號","121.517221666667","25.003615","6500400","永和區"
"234042","862-TW","2019/07/19 20:39:09","新北市永和區安樂路348號","121.51443","25.0064583333333","6500400","永和區"
"234050","863-TW","2019/07/19 20:39:23","新北市永和區保安路35號","121.509836666667","25.0161883333333","6500400","永和區"
"249001","173-UM","2019/07/19 20:39:16","新北市八里區中山路三段382號","121.368656666667","25.1361716666667","6502300","八里區"
"249004","303-UY","2019/07/19 20:39:16","新北市八里區中山路一段135號","121.41326","25.1591883333333","6502300","八里區"
"234074","AAC-211","2019/07/19 20:39:17","新北市永和區竹林路119巷16號","121.520865","25.011415","6500400","永和區"
"222002","016-RS","2019/07/19 20:39:22","新北市深坑區萬福路11號","121.597523333333","25.00624","6501800","深坑區"
"222003","436-BY","2019/07/19 20:39:15","新北市深坑區文山路二段30巷31號","121.615275","24.99903","6501800","深坑區"
"231061","002-UM","2019/07/19 20:39:20","新北市新店區新和街38號","121.519313333333","24.9849483333333","6500600","新店區"
"231058","0293-UT","2019/07/19 20:39:20","新北市新店區平等街48巷17號","121.535338333333","24.9734233333333","6500600","新店區"
"231044","046-UY","2019/07/19 20:39:24","新北市新店區建國路297號","121.537106666667","24.9861716666667","6500600","新店區"
"231060","106-UY","2019/07/19 20:39:19","新北市新店區錦秀路29號","121.479388333333","24.9440866666667","6500600","新店區"
"231051","107-UY","2019/07/19 20:39:27","新北市新店區環河路170號","121.525586666667","24.9757916666667","6500600","新店區"
"231049","108-UY","2019/07/19 20:39:20","新北市新店區永業路81巷5弄12號","121.530645","24.949245","6500600","新店區"
"231065","110-UY","2019/07/19 20:39:12","新北市新店區安祥路102巷47號","121.4858","24.9639916666667","6500600","新店區"
"231068","187-VK","2019/07/19 20:39:21","新北市新店區寶慶街35巷6號","121.543063333333","24.9863283333333","6500600","新店區"
"221032","KEA-2785","2019/07/19 20:39:14","新北市汐止區弘道街53巷30弄6號","121.619263333333","25.0500033333333","6501100","汐止區"
"231062","256-BX","2019/07/19 20:39:27","新北市新店區安泰路12巷1號","121.485346666667","24.9501016666667","6500600","新店區"
"231054","260-TV","2019/07/19 20:39:23","新北市新店區行政街23號","121.543048333333","24.96638","6500600","新店區"
"231042","268-BY","2019/07/19 20:39:16","新北市新店區寶高路120巷1號","121.554573333333","24.9760833333333","6500600","新店區"
"231064","278-BY","2019/07/19 20:39:19","新北市新店區安和路三段111巷7弄1號","121.516775","24.984775","6500600","新店區"
"231050","AAD-862","2019/07/19 20:39:23","新北市新店區中正路265號","121.538161666667","24.9740583333333","6500600","新店區"
"231045","355-BY","2019/07/19 20:39:11","新北市新店區長春路128號","121.556611666667","24.9615433333333","6500600","新店區"
"231056","4715-K9","2019/07/19 20:39:22","新北市新店區安興路131巷2號","121.515901666667","24.9793183333333","6500600","新店區"
"231067","4772-VM","2019/07/19 20:21:25","新北市新店區安華路28-1號","121.519633333333","24.96084","6500600","新店區"
"231053","513-UM","2019/07/19 20:39:10","新北市新店區松林路53號","121.544411666667","24.91135","6500600","新店區"
"231040","617-UM","2019/07/19 20:39:27","新北市新店區中正路265巷8號","121.537795","24.9734666666667","6500600","新店區"
"231041","619-UM","2019/07/19 20:39:24","新北市新店區中正路556號","121.533563333333","24.9870183333333","6500600","新店區"
"231063","641-BX","2019/07/19 20:39:14","新北市新店區玫瑰路4-1號","121.493696666667","24.9513866666667","6500600","新店區"
"231048","KED-0819","2019/07/19 20:39:13","新北市新店區寶慶街2-1號","121.543901666667","24.9868166666667","6500600","新店區"
"231057","720-UM","2019/07/19 20:39:17","新北市新店區花園二路一段9-6號","121.556355","24.93284","6500600","新店區"
"231059","897-TW","2019/07/19 20:39:15","新北市新店區安豐路46號","121.500143333333","24.9549616666667","6500600","新店區"
"231043","899-TW","2019/07/19 20:39:25","新北市新店區建國路4號","121.539806666667","24.9732883333333","6500600","新店區"
"231066","AKT-0513","2019/07/19 20:39:23","新北市新店區安民街365巷7弄2號","121.515958333333","24.975355","6500600","新店區"
"241011","013-R5","2019/07/19 20:39:17","新北市三重區龍濱路221號","121.501801666667","25.07201","6500200","三重區"
"241028","022-UY","2019/07/19 20:39:10","新北市三重區光興街26號","121.497498333333","25.05987","6500200","三重區"
"241008","059-VK","2019/07/19 20:39:24","新北市三重區下竹圍街91號","121.481158333333","25.0748883333333","6500200","三重區"
"241018","060-VK","2019/07/19 20:39:21","新北市三重區重陽路三段113號","121.49077","25.0686283333333","6500200","三重區"
"241031","061-VK","2019/07/19 20:39:10","新北市三重區重陽路一段43巷24號","121.488088333333","25.0583","6500200","三重區"
"241017","063-VK","2019/07/19 20:39:12","新北市三重區大同北路218號","121.490776666667","25.0672266666667","6500200","三重區"
"241024","065-VK","2019/07/19 20:39:29","新北市三重區忠孝路三段38號","121.481185","25.0664983333333","6500200","三重區"
"241002","090-VK","2019/07/19 20:39:20","新北市三重區仁義街167巷32弄1號","121.49817","25.08222","6500200","三重區"
"241003","091-VK","2019/07/19 20:39:12","新北市三重區五華街141巷58號","121.493533333333","25.08675","6500200","三重區"
"241030","742-BX","2019/07/19 20:39:27","新北市三重區環河南路254巷48號","121.489536666667","25.0513633333333","6500200","三重區"
"241005","262-UM","2019/07/19 20:39:19","新北市三重區碧華街456號","121.49339","25.0861133333333","6500200","三重區"
"241016","266-UM","2019/07/19 20:39:10","新北市三重區雙園街132號","121.494003333333","25.067065","6500200","三重區"
"241009","267-UM","2019/07/19 20:39:09","新北市三重區碧華街57號","121.484763333333","25.08133","6500200","三重區"
"241032","269-UM","2019/07/19 20:39:27","新北市三重區重陽路一段120巷44號","121.485136666667","25.0601416666667","6500200","三重區"
"241013","270-UM","2019/07/19 20:39:18","新北市三重區自強路四段10號","121.488366666667","25.0762283333333","6500200","三重區"
"241025","271-UM","2019/07/19 20:39:15","新北市三重區頂崁街192巷23號","121.475803333333","25.0659416666667","6500200","三重區"
"241007","398-BY","2019/07/19 20:39:21","新北市三重區自強路四段34號","121.488753333333","25.077005","6500200","三重區"
"241035","462-BY","2019/07/19 20:39:11","新北市三重區正義北路332號","121.494481666667","25.07072","6500200","三重區"
"241004","475-VK","2019/07/19 20:39:16","新北市三重區仁愛街418號","121.490478333333","25.0813833333333","6500200","三重區"
"241020","478-VK","2019/07/19 20:39:19","新北市三重區忠孝路一段101號","121.489555","25.0721033333333","6500200","三重區"
"241026","480-VK","2019/07/19 20:39:19","新北市三重區文化南路7號","121.499978333333","25.0622966666667","6500200","三重區"
"241014","543-UM","2019/07/19 20:39:23","新北市三重區萬壽街1號","121.49917","25.0692833333333","6500200","三重區"
"241023","545-UM","2019/07/19 20:39:23","新北市三重區自由街39巷4號","121.478623333333","25.06697","6500200","三重區"
"241001","547-UM","2019/07/19 20:39:22","新北市三重區自強路三段110巷37號","121.485901666667","25.0745433333333","6500200","三重區"
"241019","KEA-2593","2019/07/19 20:39:20","新北市三重區重陽路四段130號","121.492463333333","25.0713233333333","6500200","三重區"
"241006","AAD-863","2019/07/19 20:39:13","新北市三重區車路頭街139巷14號","121.484268333333","25.0762066666667","6500200","三重區"
"241022","KED-0820","2019/07/19 20:39:11","新北市三重區新北大道一段7號","121.489678333333","25.0612566666667","6500200","三重區"
"241012","941-UM","2019/07/19 20:39:14","新北市三重區秀江街26號","121.502471666667","25.073045","6500200","三重區"
"241029","942-UM","2019/07/19 20:39:14","新北市三重區集美街126巷27號","121.490081666667","25.0538666666667","6500200","三重區"
"241033","AAC-255","2019/07/19 20:39:21","新北市三重區光復路二段87巷39弄13號","121.474118333333","25.0566983333333","6500200","三重區"
"235055","183-VK","2019/07/19 20:39:23","新北市八里區中華路三段7巷5號","121.397456666667","25.1438066666667","6500300","中和區"
"247014","KEA-2869","2019/07/19 20:39:16","新北市蘆洲區中山一路225號","121.473748333333","25.08078","6501400","蘆洲區"
"235069","4980-A6","2019/07/19 20:39:24","新北市中和區連城路347巷21號","121.48846","24.9952283333333","6500300","中和區"
"247004","893-R6","2019/07/19 20:39:24","新北市蘆洲區長安街222號","121.45819","25.0848933333333","6501400","蘆洲區"
"247002","500-BY","2019/07/19 20:39:18","新北市蘆洲區永樂街106號","121.455963333333","25.0888216666667","6501400","蘆洲區"
"247024","337-TH","2019/07/19 20:39:26","新北市蘆洲區長樂路65號","121.462808333333","25.0865833333333","6501400","蘆洲區"
"247022","057-VK","2019/07/19 20:39:18","新北市蘆洲區中正路241號","121.467573333333","25.0865866666667","6501400","蘆洲區"
"247012","056-VK","2019/07/19 20:39:28","新北市蘆洲區集賢路224巷35號","121.4811","25.08773","6501400","蘆洲區"
"247016","053-VK","2019/07/19 20:39:17","新北市蘆洲區中山二路309號","121.469123333333","25.07701","6501400","蘆洲區"
"247020","007-UY","2019/07/19 20:39:28","新北市蘆洲區民族路424-1號","121.473848333333","25.0918433333333","6501400","蘆洲區"
"247006","002-UY","2019/07/19 20:39:19","新北市五股區中興路二段82號","121.460958333333","25.07722","6501400","蘆洲區"
"222001","KEA-2212","2019/07/19 20:39:17","新北市深坑區北深路三段222號","121.60093","25.0039116666667","6501800","深坑區"
"251001","011-UM","2019/07/19 20:39:09","新北市淡水區水源街二段177巷32弄20號","121.455021666667","25.1782533333333","6501000","淡水區"
"251002","012-UM","2019/07/19 20:39:17","新北市淡水區中正路38-1號","121.443686666667","25.1693133333333","6501000","淡水區"
"251007","180-VK","2019/07/19 20:39:12","新北市淡水區忠愛街3-1號","121.458426666667","25.1714316666667","6501000","淡水區"
"251008","181-VK","2019/07/19 20:39:13","新北市淡水區崁頂92號","121.42943","25.2020266666667","6501000","淡水區"
"251010","413-VK","2019/07/19 20:39:10","新北市淡水區沙崙路181巷15號","121.423938333333","25.18439","6501000","淡水區"
"251012","441-VK","2019/07/19 20:39:18","新北市淡水區興仁路108號","121.451663333333","25.2181433333333","6501000","淡水區"
"251005","443-VK","2019/07/19 20:39:21","新北市淡水區淡金路二段600號","121.446546666667","25.1923583333333","6501000","淡水區"
"251006","561-UM","2019/07/19 20:39:25","新北市淡水區商工路196巷9號","121.451611666667","25.18658","6501000","淡水區"
"251003","766-UM","2019/07/19 20:39:14","新北市淡水區新民街152巷6弄20號","121.438671666667","25.178535","6501000","淡水區"
"252002","178-VK","2019/07/19 20:39:19","新北市三芝區淡金路二段47-2號","121.503703333333","25.2605633333333","6502100","三芝區"
"247010","KED-0683","2019/07/19 20:39:21","新北市蘆洲區中山一路138號","121.476301666667","25.0817466666667","6501400","蘆洲區"
"252001","KED-0821","2019/07/19 20:39:20","新北市三芝區育英街29-1號","121.501333333333","25.257405","6502100","三芝區"
"242039","AAC-296","2019/07/19 20:39:06","新北市新莊區民安路446號","121.434595","25.0224466666667","6500500","新莊區"
"242002","751-BX","2019/07/19 20:39:12","新北市新莊區中正路72號","121.45881","25.0381166666667","6500500","新莊區"
"242029","615-BX","2019/07/19 20:39:19","新北市新莊區中安街10號","121.45299","25.0454233333333","6500500","新莊區"
"242058","612-BX","2019/07/19 20:39:23","新北市新莊區四維路117號","121.423108333333","25.0231883333333","6500500","新莊區"
"242046","566-BX","2019/07/19 20:39:13","新北市新莊區富國路22巷17號","121.418418333333","25.025835","6500500","新莊區"
"242050","497-BY","2019/07/19 20:39:19","新北市新莊區民安西路173巷5號","121.426585","25.01595","6500500","新莊區"
"242011","442-UM","2019/07/19 20:39:25","新北市新莊區幸福路678巷3弄9號","121.450245","25.05004","6500500","新莊區"
"242056","441-UM","2019/07/19 20:39:28","新北市新莊區瓊泰路94巷61號","121.444986666667","25.0294983333333","6500500","新莊區"
"242005","440-UM","2019/07/19 20:39:22","新北市新莊區化成路389巷56號","121.463446666667","25.0582116666667","6500500","新莊區"
"242041","415-TV","2019/07/19 20:39:15","新北市新莊區天祥街47巷7號","121.416493333333","25.0284983333333","6500500","新莊區"
"242048","400-BY","2019/07/19 20:39:25","新北市新莊區中正路863號","121.418875","25.0276283333333","6500500","新莊區"
"242025","362-BY","2019/07/19 20:39:20","新北市三重區重化街7號","121.467633333333","25.0642166666667","6500500","新莊區"
"242023","353-BY","2019/07/19 20:39:07","新北市新莊區化成路624號","121.466116666667","25.054985","6500500","新莊區"
"242013","132-UY","2019/07/19 20:39:20","新北市新莊區中和街191巷59號","121.44689","25.0513416666667","6500500","新莊區"
"242037","135-UY","2019/07/19 20:39:26","新北市新莊區建安街16號","121.42861","25.02643","6500500","新莊區"
"242015","173-VK","2019/07/19 20:39:29","新北市新莊區中和街32號","121.44824","25.0438116666667","6500500","新莊區"
"242021","175-VK","2019/07/19 20:39:20","新北市新莊區中華路一段73號","121.452213333333","25.0401583333333","6500500","新莊區"
"242054","176-VK","2019/07/19 20:39:23","新北市新莊區西盛街324巷9號","121.42748","25.014715","6500500","新莊區"
"242019","KED-0687","2019/07/19 20:39:27","新北市新莊區銘德街112號","121.455403333333","25.0432583333333","6500500","新莊區"
"242034","348-TH","2019/07/19 20:39:20","新北市新莊區中正路334巷25弄8號","121.445425","25.0361933333333","6500500","新莊區"
"242007","349-TH","2019/07/19 20:39:12","新北市新莊區福壽街46巷13號","121.458896666667","25.0486633333333","6500500","新莊區"
"242017","351-TH","2019/07/19 20:39:30","新北市新莊區中平路82巷36-2號","121.446433333333","25.0449166666667","6500500","新莊區"
"221008","489-VK","2019/07/19 20:39:23","新北市汐止區康寧街504號","121.633076666667","25.0685416666667","6501100","汐止區"
"221036","130-UY","2019/07/19 20:39:09","新北市汐止區忠孝東路211巷6號","121.661961666667","25.0670583333333","6501100","汐止區"
"221015","131-UY","2019/07/19 20:39:13","新北市汐止區建成路37巷1號","121.663698333333","25.0728266666667","6501100","汐止區"
"221010","269-BY","2019/07/19 20:39:27","新北市汐止區八連路二段616號","121.625261666667","25.1097883333333","6501100","汐止區"
"221012","278-VK","2019/07/19 20:39:21","新北市汐止區保新街135號","121.68813","25.070265","6501100","汐止區"
"221023","279-VK","2019/07/19 20:39:25","新北市汐止區湖東街9號","121.63472","25.072285","6501100","汐止區"
"221033","297-VK","2019/07/19 20:39:17","新北市汐止區合順街18巷8弄5號","121.620316666667","25.0419266666667","6501100","汐止區"
"221029","298-VK","2019/07/19 20:39:16","新北市汐止區大同路一段515巷22號","121.645213333333","25.06256","6501100","汐止區"
"221021","299-VK","2019/07/19 20:39:10","新北市汐止區水源路一段282巷1號","121.654061666667","25.0581716666667","6501100","汐止區"
"221031","353-TW","2019/07/19 20:39:15","新北市汐止區福德一路231號","121.634271666667","25.0647966666667","6501100","汐止區"
"221035","622-UM","2019/07/19 20:39:29","新北市汐止區長江街101-5號","121.658686666667","25.0732033333333","6501100","汐止區"
"221025","623-UM","2019/07/19 20:39:16","新北市汐止區水源路二段185號","121.657751666667","25.05353","6501100","汐止區"
"221038","646-BX","2019/07/19 20:39:13","新北市汐止區龍安路28巷4號","121.654991666667","25.0646266666667","6501100","汐止區"
"221002","707-TV","2019/07/19 20:39:23","新北市汐止區福德二路132巷2號","121.63102","25.06531","6501100","汐止區"
"221018","753-BX","2019/07/19 20:39:23","新北市汐止區中華街15號","121.666741666667","25.0709666666667","6501100","汐止區"
"220083","286-VK","2019/07/19 20:39:17","新北市板橋區僑中二街104巷2號","121.445875","25.00795","6500100","板橋區"
"242044","281-VK","2019/07/19 20:39:26","新北市新莊區龍安路60號","121.41505","25.0217116666667","6500500","新莊區"
"242009","280-VK","2019/07/19 20:39:13","新北市新莊區幸福路64巷4弄8號","121.457408333333","25.0499583333333","6500500","新莊區"
