"lineid","car","time","location","longitude","latitude","cityid","cityname"
"249004","303-UY","2019/07/19 20:49:16","新北市八里區中山路一段79號","121.417388333333","25.1594533333333","6502300","八里區"
"234074","AAC-211","2019/07/19 20:49:14","新北市永和區環河東路二段36號","121.522633333333","25.0125566666667","6500400","永和區"
"222002","016-RS","2019/07/19 20:49:22","新北市深坑區北深路三段93巷15號","121.605276666667","25.0006183333333","6501800","深坑區"
"222003","436-BY","2019/07/19 20:49:15","新北市深坑區文山路三段48-1號","121.609906666667","24.9985183333333","6501800","深坑區"
"231061","002-UM","2019/07/19 20:49:20","新北市新店區新和街99號","121.521258333333","24.98662","6500600","新店區"
"231058","0293-UT","2019/07/19 20:49:20","新北市新店區平等街56號","121.535995","24.9726483333333","6500600","新店區"
"231044","046-UY","2019/07/19 20:49:14","新北市新店區民族路176號","121.537166666667","24.9763066666667","6500600","新店區"
"231060","106-UY","2019/07/19 20:49:19","新北市新店區安康路三段740號","121.473818333333","24.941985","6500600","新店區"
"231051","107-UY","2019/07/19 20:49:27","新北市新店區溪園路39-1號","121.530131666667","24.988005","6500600","新店區"
"231049","108-UY","2019/07/19 20:49:20","新北市新店區永業路96-1號","121.529946666667","24.9510183333333","6500600","新店區"
"231065","110-UY","2019/07/19 20:49:13","新北市新店區安祥路69巷17號","121.48193","24.96136","6500600","新店區"
"231068","187-VK","2019/07/19 20:49:22","新北市新店區寶元路一段102號","121.545","24.9832633333333","6500600","新店區"
"231062","256-BX","2019/07/19 20:49:27","新北市新店區和成街15巷31號","121.488846666667","24.947245","6500600","新店區"
"231054","260-TV","2019/07/19 20:49:23","新北市新店區五峰路24號","121.543746666667","24.9691266666667","6500600","新店區"
"231042","268-BY","2019/07/19 20:49:16","新北市新店區寶高路102巷20號","121.55258","24.9739983333333","6500600","新店區"
"231064","278-BY","2019/07/19 20:49:19","新北市新店區安民街365巷8號","121.516166666667","24.97568","6500600","新店區"
"231050","AAD-862","2019/07/19 20:49:27","新北市新店區三民路115號","121.534803333333","24.9720516666667","6500600","新店區"
"231067","4772-VM","2019/07/19 20:49:29","新北市新店區安德街148巷11弄2號","121.507785","24.9600966666667","6500600","新店區"
"231053","513-UM","2019/07/19 20:49:10","新北市新店區屈尺路6號","121.549348333333","24.9241783333333","6500600","新店區"
"231040","617-UM","2019/07/19 20:49:07","新北市新店區中正路270號","121.538955","24.97354","6500600","新店區"
"231041","619-UM","2019/07/19 20:49:24","新北市新店區中正路700巷3號","121.53358","24.9913483333333","6500600","新店區"
"231063","641-BX","2019/07/19 20:49:14","新北市新店區如意街8號","121.494748333333","24.9481766666667","6500600","新店區"
"231048","KED-0819","2019/07/19 20:49:13","新北市新店區文化路92號","121.544953333333","24.98255","6500600","新店區"
"231057","720-UM","2019/07/19 20:49:17","新北市新店區新烏路一段73號","121.546275","24.9430416666667","6500600","新店區"
"231059","897-TW","2019/07/19 20:49:15","新北市新店區僑愛七路39號","121.501196666667","24.9445683333333","6500600","新店區"
"231043","899-TW","2019/07/19 20:49:25","新北市新店區建國路90號","121.540376666667","24.9772483333333","6500600","新店區"
"231066","AKT-0513","2019/07/19 20:49:23","新北市新店區安民街341-1號","121.51671","24.9748783333333","6500600","新店區"
"241011","013-R5","2019/07/19 20:49:19","新北市三重區秀江街113號","121.499805","25.072305","6500200","三重區"
"241028","022-UY","2019/07/19 20:49:10","新北市三重區中正南路44號","121.493903333333","25.0600483333333","6500200","三重區"
"241008","059-VK","2019/07/19 20:49:24","新北市三重區永福街72巷11號","121.479368333333","25.0766516666667","6500200","三重區"
"241018","060-VK","2019/07/19 20:49:21","新北市三重區雙園街92號","121.495261666667","25.06762","6500200","三重區"
"241031","061-VK","2019/07/19 20:49:10","新北市三重區重陽路一段113巷3號","121.487521666667","25.059815","6500200","三重區"
"241015","062-VK","2019/07/19 20:49:22","新北市三重區自強路一段12號","121.49883","25.0682116666667","6500200","三重區"
"241017","063-VK","2019/07/19 20:49:12","新北市三重區自強路一段270號","121.49224","25.067725","6500200","三重區"
"241024","065-VK","2019/07/19 20:49:11","新北市三重區國道路一段58巷18號","121.480961666667","25.072055","6500200","三重區"
"241002","090-VK","2019/07/19 20:49:20","新北市三重區仁義街211巷50號","121.498","25.0826283333333","6500200","三重區"
"241003","091-VK","2019/07/19 20:49:13","新北市三重區五華街141巷58號","121.49353","25.086755","6500200","三重區"
"241030","742-BX","2019/07/19 20:49:27","新北市三重區環河南路221巷10號","121.491881666667","25.0522083333333","6500200","三重區"
"241005","262-UM","2019/07/19 20:49:19","新北市三重區碧華街434號","121.492706666667","25.0857216666667","6500200","三重區"
"241016","266-UM","2019/07/19 20:49:29","新北市三重區自強路一段224號","121.493775","25.06675","6500200","三重區"
"241009","267-UM","2019/07/19 20:49:29","新北市三重區三和路四段197號","121.482128333333","25.07926","6500200","三重區"
"241032","269-UM","2019/07/19 20:49:07","新北市三重區重陽路一段120巷48號","121.485076666667","25.0601666666667","6500200","三重區"
"241013","270-UM","2019/07/19 20:49:18","新北市三重區仁賢街4號","121.495635","25.0747716666667","6500200","三重區"
"241025","271-UM","2019/07/19 20:49:15","新北市三重區貴陽街18-1號","121.484216666667","25.0618933333333","6500200","三重區"
"241007","398-BY","2019/07/19 20:49:21","新北市三重區慈愛街10號","121.484535","25.0784083333333","6500200","三重區"
"241035","462-BY","2019/07/19 20:49:27","新北市三重區文化北路222號","121.497721666667","25.06892","6500200","三重區"
"241004","475-VK","2019/07/19 20:49:16","新北市三重區分子尾街36-1號","121.489466666667","25.0810516666667","6500200","三重區"
"241020","478-VK","2019/07/19 20:49:19","新北市三重區忠孝路一段101號","121.48956","25.0721616666667","6500200","三重區"
"241026","480-VK","2019/07/19 20:49:19","新北市三重區重新路二段36巷33號","121.500016666667","25.06225","6500200","三重區"
"241014","543-UM","2019/07/19 20:49:23","新北市三重區龍濱路116號","121.501935","25.0703433333333","6500200","三重區"
"241023","545-UM","2019/07/19 20:49:23","新北市三重區忠孝路三段84巷1號","121.480308333333","25.0646433333333","6500200","三重區"
"241001","547-UM","2019/07/19 20:49:22","新北市三重區三和路四段122號","121.489408333333","25.0750016666667","6500200","三重區"
"241019","KEA-2593","2019/07/19 20:49:12","新北市三重區自強路二段74巷21號","121.488026666667","25.0697933333333","6500200","三重區"
"241006","AAD-863","2019/07/19 20:49:13","新北市三重區車路頭街139巷14號","121.484275","25.0761983333333","6500200","三重區"
"241022","KED-0820","2019/07/19 20:49:11","新北市三重區中正北路20巷12號","121.487956666667","25.0624966666667","6500200","三重區"
"241012","941-UM","2019/07/19 20:49:14","新北市三重區龍門路274巷45號","121.501173333333","25.0755533333333","6500200","三重區"
"241029","942-UM","2019/07/19 20:49:14","新北市三重區重安街14號","121.490208333333","25.0580483333333","6500200","三重區"
"241033","AAC-255","2019/07/19 20:49:21","新北市三重區神農街378號","121.474045","25.0566366666667","6500200","三重區"
"235055","183-VK","2019/07/19 20:49:24","新北市三重區疏洪西路246號","121.474128333333","25.0603666666667","6500300","中和區"
"247014","KEA-2869","2019/07/19 20:49:16","新北市蘆洲區復興路56號","121.472868333333","25.08549","6501400","蘆洲區"
"235069","4980-A6","2019/07/19 20:49:24","新北市中和區員山路383-2號","121.480966666667","25.0024233333333","6500300","中和區"
"247004","893-R6","2019/07/19 20:49:24","新北市蘆洲區長安街100號","121.46161","25.0809233333333","6501400","蘆洲區"
"247018","546-UM","2019/07/19 20:49:19","新北市蘆洲區民權路70號","121.474986666667","25.0872866666667","6501400","蘆洲區"
"247002","500-BY","2019/07/19 20:49:18","新北市蘆洲區長安街315號","121.457448333333","25.0860583333333","6501400","蘆洲區"
"247006","341-TH","2019/07/19 20:49:23","新北市蘆洲區光華路175巷60號","121.46562","25.0806983333333","6501400","蘆洲區"
"247024","337-TH","2019/07/19 20:49:26","新北市蘆洲區長樂路140號","121.462105","25.0902333333333","6501400","蘆洲區"
"247022","057-VK","2019/07/19 20:49:18","新北市蘆洲區水湳街52號","121.47122","25.0899016666667","6501400","蘆洲區"
"247012","056-VK","2019/07/19 20:49:28","新北市蘆洲區集賢路219-1號","121.482798333333","25.0865616666667","6501400","蘆洲區"
"247016","053-VK","2019/07/19 20:49:17","新北市蘆洲區中正路67號","121.470198333333","25.08273","6501400","蘆洲區"
"247006","002-UY","2019/07/19 20:49:19","新北市五股區中興路三段163號","121.449216666667","25.0807566666667","6501400","蘆洲區"
"222001","KEA-2212","2019/07/19 20:49:17","新北市深坑區北深路三段129號","121.604045","25.0025816666667","6501800","深坑區"
"251001","011-UM","2019/07/19 20:49:09","新北市淡水區淡金路63號","121.45597","25.1614233333333","6501000","淡水區"
"251002","012-UM","2019/07/19 20:49:17","新北市淡水區鼻頭街18-5號","121.44676","25.1667533333333","6501000","淡水區"
"251007","180-VK","2019/07/19 20:49:13","新北市淡水區鄧公路29巷26號","121.452743333333","25.1702616666667","6501000","淡水區"
"251008","181-VK","2019/07/19 20:49:12","新北市淡水區下圭柔山90-8號","121.431298333333","25.2103183333333","6501000","淡水區"
"251010","413-VK","2019/07/19 20:49:10","新北市淡水區沙崙路126號","121.423465","25.18293","6501000","淡水區"
"251012","441-VK","2019/07/19 20:49:18","新北市淡水區淡金路四段508號","121.452076666667","25.2254266666667","6501000","淡水區"
"251005","443-VK","2019/07/19 20:49:21","新北市淡水區學府路88號","121.44897","25.1706866666667","6501000","淡水區"
"251006","561-UM","2019/07/19 20:49:25","新北市淡水區新市一路一段34號","121.430828333333","25.1868466666667","6501000","淡水區"
"251011","650-BX","2019/07/19 20:49:08","新北市淡水區新市一路一段281巷206號","121.434658333333","25.1874666666667","6501000","淡水區"
"251003","766-UM","2019/07/19 20:49:14","新北市淡水區中山北路一段247巷94號","121.442213333333","25.1793533333333","6501000","淡水區"
"252002","178-VK","2019/07/19 20:49:19","新北市三芝區淡金路二段76-2號","121.504066666667","25.26097","6502100","三芝區"
"242039","AAC-296","2019/07/19 20:49:26","新北市新莊區瓊林路59-38號","121.44123","25.0235383333333","6500500","新莊區"
"242002","751-BX","2019/07/19 20:49:12","新北市新莊區中港路五守新村12號","121.4547","25.038625","6500500","新莊區"
"242058","612-BX","2019/07/19 20:49:22","新北市新莊區建國一路136號","121.434723333333","25.0283266666667","6500500","新莊區"
"242046","566-BX","2019/07/19 20:49:13","新北市新莊區中正路639號","121.430788333333","25.03143","6500500","新莊區"
"242050","497-BY","2019/07/19 20:49:19","新北市新莊區民安西路45號","121.427481666667","25.0207416666667","6500500","新莊區"
"242011","442-UM","2019/07/19 20:49:25","新北市新莊區中港路486號","121.45183","25.0513683333333","6500500","新莊區"
"242056","441-UM","2019/07/19 20:49:28","新北市新莊區中正路461號","121.442245","25.0339733333333","6500500","新莊區"
"242048","400-BY","2019/07/19 20:49:25","新北市新莊區中正路597號","121.432845","25.0321866666667","6500500","新莊區"
"242025","362-BY","2019/07/19 20:49:20","新北市五股區中直路11-15號","121.426135","25.1099266666667","6500500","新莊區"
"242023","353-BY","2019/07/19 20:49:27","新北市新莊區復興路三段75號","121.462733333333","25.044535","6500500","新莊區"
"242013","132-UY","2019/07/19 20:49:20","新北市新莊區中和街216號","121.44806","25.0510066666667","6500500","新莊區"
"242037","135-UY","2019/07/19 20:49:18","新北市新莊區中正路455號","121.442733333333","25.034085","6500500","新莊區"
"242021","175-VK","2019/07/19 20:49:20","新北市五股區新五路二段66-1號","121.436951666667","25.0727516666667","6500500","新莊區"
"242034","348-TH","2019/07/19 20:49:20","新北市新莊區中正路313號","121.44808","25.0352083333333","6500500","新莊區"
"242007","349-TH","2019/07/19 20:49:12","新北市新莊區思源路63號","121.460036666667","25.040345","6500500","新莊區"
"242017","351-TH","2019/07/19 20:49:10","新北市泰山區楓江路119號","121.438976666667","25.0643466666667","6500500","新莊區"
"221036","130-UY","2019/07/19 20:49:29","新北市汐止區新昌路76號","121.663601666667","25.068925","6501100","汐止區"
"221012","278-VK","2019/07/19 20:49:10","新北市汐止區保新街31號","121.684495","25.0730033333333","6501100","汐止區"
"221023","279-VK","2019/07/19 20:49:25","新北市汐止區民族二街7-1號","121.635113333333","25.0717216666667","6501100","汐止區"
"221027","281-BY","2019/07/19 20:49:11","新北市汐止區大同路二段370號","121.657581666667","25.0671183333333","6501100","汐止區"
"221033","297-VK","2019/07/19 20:49:17","新北市汐止區合順街18巷8弄5號","121.620281666667","25.0419033333333","6501100","汐止區"
"221029","298-VK","2019/07/19 20:49:10","新北市汐止區大同路一段237號","121.633868333333","25.059375","6501100","汐止區"
"221021","299-VK","2019/07/19 20:49:10","新北市汐止區莊敬街115號","121.6552","25.0610883333333","6501100","汐止區"
"221035","622-UM","2019/07/19 20:49:09","新北市汐止區長江街101-5號","121.658786666667","25.0730966666667","6501100","汐止區"
"242044","281-VK","2019/07/19 20:49:21","新北市新莊區龍安路108號","121.418345","25.020435","6500500","新莊區"
"242009","280-VK","2019/07/19 20:49:13","新北市新莊區思源路71號","121.459943333333","25.0407666666667","6500500","新莊區"
