"lineid","car","time","location","longitude","latitude","cityid","cityname"
"222007","289-BY","2019/12/28 09:43:24","新北市深坑區阿柔洋60號","121.607558333333","24.9962566666667","6501800","深坑區"
"231007","189-VK","2019/12/28 09:43:26","新北市新店區新潭路三段181-1號","121.509656666667","24.9068966666667","6500600","新店區"
"231008","192-VK","2019/12/28 09:42:45","新北市新店區小坑一路22號","121.532218333333","24.91381","6500600","新店區"
"227004","282-VK","2019/12/28 09:43:24","新北市雙溪區長源里土地公山2號","121.79602","25.0114966666667","6502500","雙溪區"
"252004","249-BX","2019/12/28 09:40:04","新北市三芝區圓山里石曹子坑44號","121.518255","25.2142566666667","6502100","三芝區"
"252007","AAC-283","2019/12/28 09:43:27","新北市三芝區新庄里新庄子86號","121.51085","25.27108","6502100","三芝區"
"220005","686-BX","2019/12/28 09:43:36","新北市板橋區金門街319-1號","121.429671666667","24.9860083333333","6500100","板橋區"
