"lineid","car","time","location","longitude","latitude","cityid","cityname"
"234044","148-BY","2019/12/28 12:29:41","新北市永和區福和路1號","121.526406666667","25.01011","6500400","永和區"
"234078","298-R6","2019/12/28 12:29:36","新北市永和區福和路1號","121.526071666667","25.00977","6500400","永和區"
"234068","552-UM","2019/12/28 12:29:41","新北市永和區福和路1號","121.525605","25.009505","6500400","永和區"
"234015","745-BX","2019/12/28 12:29:33","新北市永和區福和路1號","121.526456666667","25.0096666666667","6500400","永和區"
"234076","969-R7","2019/12/28 12:29:39","新北市永和區環河東路二段92號","121.524503333333","25.01067","6500400","永和區"
"234066","AAC-212","2019/12/28 12:29:41","新北市永和區福和路1號","121.526331666667","25.00967","6500400","永和區"
"228005","097-TW","2019/12/28 12:29:38","新北市貢寮區福連里蓬萊街16號","121.986278333333","24.9970366666667","6502600","貢寮區"
"228004","212-TW","2019/12/28 12:29:32","新北市貢寮區龍崗里嵩陽街2-1號","121.903458333333","25.0167216666667","6502600","貢寮區"
"207002","749-BX","2019/12/28 12:29:29","新北市萬里區中幅里大湖路6號","121.660775","25.171365","6502800","萬里區"
