"lineid","car","time","location","longitude","latitude","cityid","cityname"
"234044","148-BY","2019/12/28 13:29:41","新北市永和區秀朗路二段188號","121.52648","25.000865","6500400","永和區"
"234078","298-R6","2019/12/28 13:29:40","新北市永和區福和路7巷11弄16號","121.525848333333","25.0078633333333","6500400","永和區"
"234036","336-UY","2019/12/28 13:29:37","新北市永和區民樂街36號","121.527496666667","25.0007916666667","6500400","永和區"
"234062","337-UY","2019/12/28 13:29:25","新北市永和區中正路368巷1弄88號","121.520535","25.00071","6500400","永和區"
"234084","338-UY","2019/12/28 13:29:24","新北市永和區林森路81號","121.52388","25.0038783333333","6500400","永和區"
"234068","552-UM","2019/12/28 13:29:21","新北市永和區警光街12號","121.519748333333","25.00959","6500400","永和區"
"234015","745-BX","2019/12/28 13:29:33","新北市永和區環河西路一段63號","121.513393333333","25.0181833333333","6500400","永和區"
"234028","746-BX","2019/12/28 13:29:31","新北市永和區得和路328號","121.523358333333","24.999515","6500400","永和區"
"234052","KEA-2590","2019/12/28 13:29:34","新北市永和區復興街19巷9號","121.516085","25.0131816666667","6500400","永和區"
"234005","KED-0605","2019/12/28 13:29:41","新北市永和區中山路一段193號","121.509215","25.008835","6500400","永和區"
"234012","KEA-2591","2019/12/28 13:29:37","新北市永和區永貞路387號","121.508046666667","25.0088966666667","6500400","永和區"
"234060","AAD-866","2019/12/28 13:29:36","新北市永和區中正路437號","121.51714","25.005175","6500400","永和區"
"234040","862-TW","2019/12/28 13:29:24","新北市永和區水源街39巷28號","121.5107","25.0031716666667","6500400","永和區"
"234048","863-TW","2019/12/28 13:29:40","新北市永和區信義路77號","121.512366666667","25.0131983333333","6500400","永和區"
"234025","9371-KE","2019/12/28 13:29:25","新北市永和區中山路一段17巷4弄16號","121.513098333333","25.0101933333333","6500400","永和區"
"234010","9373-KE","2019/12/28 13:29:32","新北市永和區信義路43巷22弄2號","121.512396666667","25.01215","6500400","永和區"
"248017","KED-0813","2019/12/28 13:29:34","新北市五股區御史路300號","121.417238333333","25.108455","6501500","五股區"
"234022","9380-KE","2019/12/28 13:29:34","新北市永和區環河東路二段90號","121.523956666667","25.0106533333333","6500400","永和區"
"234076","969-R7","2019/12/28 13:29:39","新北市永和區智光街53號","121.51718","24.9979983333333","6500400","永和區"
"234072","AAC-211","2019/12/28 13:29:34","新北市永和區永和路二段105號","121.51495","25.01186","6500400","永和區"
"234066","AAC-212","2019/12/28 13:29:41","新北市永和區永貞路404號","121.509203333333","25.0075983333333","6500400","永和區"
"234001","AAC-295","2019/12/28 13:29:27","新北市永和區永和路一段140號","121.514065","25.0082066666667","6500400","永和區"
"244005","248-BX","2019/12/28 13:29:27","新北市林口區忠福路370號","121.35594","25.0795866666667","6501700","林口區"
"231030","002-UM","2019/12/28 13:29:23","新北市新店區安華路16號","121.517286666667","24.95808","6500600","新店區"
"231027","0291-UT","2019/12/28 13:29:42","新北市新店區環河路15-1號","121.53776","24.96139","6500600","新店區"
"231005","046-UY","2019/12/28 13:29:40","新北市新店區北新路一段1號","121.536145","24.9584483333333","6500600","新店區"
"231029","106-UY","2019/12/28 13:29:39","新北市新店區安忠路57巷11弄14號","121.51526","24.9579166666667","6500600","新店區"
"231018","107-UY","2019/12/28 13:29:35","新北市新店區環河路106號","121.536895","24.964215","6500600","新店區"
"231013","108-UY","2019/12/28 13:29:37","新北市新店區中央路141號","121.53025","24.9735266666667","6500600","新店區"
"231036","110-UY","2019/12/28 13:29:38","新北市新店區安祥路158巷2號","121.475111666667","24.9542316666667","6500600","新店區"
"231020","189-VK","2019/12/28 13:19:22","新北市新店區碧潭路33號","121.534533333333","24.954835","6500600","新店區"
"231017","KEA-2219","2019/12/28 13:29:23","新北市新店區光明街9號","121.538145","24.95937","6500600","新店區"
"231033","256-BX","2019/12/28 13:29:32","新北市新店區安忠路97號","121.511246666667","24.9564683333333","6500600","新店區"
"231023","260-TV","2019/12/28 13:29:40","新北市新店區新店路13號","121.540301666667","24.952895","6500600","新店區"
"231003","268-BY","2019/12/28 13:29:33","新北市新店區中興路二段192號","121.548255","24.9733116666667","6500600","新店區"
"231035","278-BY","2019/12/28 13:29:35","新北市新店區安康路一段355號","121.519916666667","24.9638783333333","6500600","新店區"
"231006","355-BY","2019/12/28 13:29:43","新北市新店區安華路28-1號","121.51903","24.9609516666667","6500600","新店區"
"231038","3712-VJ","2019/12/28 13:29:37","新北市新店區安華路30巷1號","121.51961","24.95925","6500600","新店區"
"231024","4716-K9","2019/12/28 13:29:28","新北市新店區中正路128巷2號","121.542221666667","24.9714533333333","6500600","新店區"
"231025","4715-K9","2019/12/28 13:29:33","新北市新店區中央五街37號","121.528563333333","24.97507","6500600","新店區"
"231034","616-UM","2019/12/28 13:29:32","新北市新店區安華路28-1號","121.519448333333","24.96055","6500600","新店區"
"231002","619-UM","2019/12/28 13:29:38","新北市新店區安康路一段61號","121.530615","24.960995","6500600","新店區"
"231012","KED-0819","2019/12/28 13:29:33","新北市新店區北新路一段91號","121.538943333333","24.9618783333333","6500600","新店區"
"231010","719-UM","2019/12/28 13:29:30","新北市新店區自由街19號","121.535203333333","24.974625","6500600","新店區"
"231026","720-UM","2019/12/28 13:29:38","新北市新店區安一路一段1-1號","121.519813333333","24.9620183333333","6500600","新店區"
"231028","897-TW","2019/12/28 13:29:40","新北市新店區安華路1-1號","121.519488333333","24.96052","6500600","新店區"
"231001","898-TW","2019/12/28 13:29:30","新北市新店區安一路一段1-1號","121.519831666667","24.962115","6500600","新店區"
"231004","899-TW","2019/12/28 13:29:40","新北市新店區安華路28-1號","121.519176666667","24.9609483333333","6500600","新店區"
"231037","AKT-0513","2019/12/28 13:29:30","新北市新店區薏仁坑路31號","121.4943","24.962045","6500600","新店區"
"235028","005-UY","2019/12/28 13:29:38","新北市中和區連城路109巷67號","121.497228333333","24.9979766666667","6500300","中和區"
"235027","006-UY","2019/12/28 13:29:30","新北市中和區連城路347巷2弄2號","121.487943333333","24.9959283333333","6500300","中和區"
"235036","KEE-1103","2019/12/28 13:29:35","新北市中和區連城路183號","121.495301666667","24.9983033333333","6500300","中和區"
"235020","096-UM","2019/12/28 13:29:40","新北市中和區新民街6號","121.482406666667","25.0056616666667","6500300","中和區"
"235003","097-UM","2019/12/28 13:29:41","新北市中和區大勇街27巷2號","121.517255","24.9936266666667","6500300","中和區"
"235029","098-UM","2019/12/28 13:29:29","新北市中和區中山路二段64巷12號","121.503516666667","25.0053466666667","6500300","中和區"
"235004","150-BY","2019/12/28 13:29:33","新北市中和區安平路59號","121.509521666667","24.9951433333333","6500300","中和區"
"235022","151-BY","2019/12/28 13:29:29","新北市中和區圓通路369巷133號","121.490535","24.982295","6500300","中和區"
"235019","183-VK","2019/12/28 13:29:31","新北市中和區莒光路120巷58號","121.471618333333","25.0007533333333","6500300","中和區"
"235002","185-VK","2019/12/28 13:29:35","新北市中和區立人街59號","121.520225","24.9942383333333","6500300","中和區"
"235031","255-BX","2019/12/28 13:29:27","新北市中和區新生街242巷11弄6號","121.482886666667","24.9975783333333","6500300","中和區"
"235074","301-VK","2019/12/28 13:29:33","新北市中和區立德街13-9號","121.489495","25.0065816666667","6500300","中和區"
"235007","352-BY","2019/12/28 13:29:31","新北市中和區景平路243號","121.509418333333","24.9927483333333","6500300","中和區"
"235006","KEA-2878","2019/12/28 13:29:39","新北市中和區秀朗路三段177號","121.524311666667","24.9911","6500300","中和區"
"235014","4979-A6","2019/12/28 13:29:41","新北市中和區景新街362巷10號","121.511923333333","24.990165","6500300","中和區"
"235033","4980-A6","2019/12/28 13:29:22","新北市中和區連城路89巷5號","121.497068333333","24.9995183333333","6500300","中和區"
"235032","551-UM","2019/12/28 13:29:35","新北市中和區中正路271號","121.495905","24.9936633333333","6500300","中和區"
"235034","558-UM","2019/12/28 13:29:35","新北市中和區南華路71號","121.504818333333","24.9973133333333","6500300","中和區"
"235009","565-BX","2019/12/28 13:29:37","新北市中和區復興路1號","121.50633","24.9896116666667","6500300","中和區"
"235024","KED-0823","2019/12/28 13:29:40","新北市中和區中山路三段116號","121.475956666667","25.0059483333333","6500300","中和區"
"235018","640-BX","2019/12/28 13:29:40","新北市中和區莒光路144號","121.472525","25.0010283333333","6500300","中和區"
"235011","732-UM","2019/12/28 13:29:28","新北市中和區興南路二段30巷10號","121.507093333333","24.9862533333333","6500300","中和區"
"235010","733-UM","2019/12/28 13:29:30","新北市中和區捷運路12號","121.50916","24.9898516666667","6500300","中和區"
"235021","801-TS","2019/12/28 13:29:31","新北市中和區民安街42巷5-2號","121.478448333333","25.00159","6500300","中和區"
"235005","802-TS","2019/12/28 13:29:28","新北市中和區中和路320號","121.509666666667","25.0005916666667","6500300","中和區"
"235016","805-TS","2019/12/28 13:29:27","新北市中和區興南路二段96號","121.505188333333","24.9842616666667","6500300","中和區"
"235012","896-TW","2019/12/28 13:29:38","新北市中和區中正路395號","121.489655","24.99357","6500300","中和區"
"235017","900-TW","2019/12/28 13:29:39","新北市中和區連城路607號","121.477795","24.9929683333333","6500300","中和區"
"235015","157-BY","2019/12/28 13:29:33","新北市中和區興南路二段114巷14號","121.50379","24.984525","6500300","中和區"
"235001","AAC-213","2019/12/28 13:29:25","新北市中和區景德街141號","121.5146","24.9910366666667","6500300","中和區"
"220013","072-UY","2019/12/28 13:29:33","新北市板橋區南雅南路一段131號","121.455235","25.00422","6500100","板橋區"
"220017","AAD-861","2019/12/28 13:29:45","新北市板橋區華東街1-10號","121.448248333333","24.9949533333333","6500100","板橋區"
"247013","056-VK","2019/12/28 13:29:36","新北市五股區中興路三段2巷10號","121.449266666667","25.081075","6501400","蘆洲區"
"235013","251-BX","2019/12/28 13:29:43","新北市中和區景安路161號","121.50529","24.994715","6500300","中和區"
"228005","097-TW","2019/12/28 13:29:38","新北市貢寮區美豐里文秀坑8號","121.90257","25.0504216666667","6502600","貢寮區"
"228004","212-TW","2019/12/28 13:29:32","新北市貢寮區龍崗里石壁坑街17號","121.910383333333","24.9895016666667","6502600","貢寮區"
"253003","6232-TK","2019/12/28 13:29:26","新北市石門區內石門89-5號","121.567088333333","25.2673783333333","6502200","石門區"
"253004","6251-TK","2019/12/28 13:28:03","新北市石門區竹子湖13號","121.617711666667","25.255765","6502200","石門區"
"253002","637-UY","2019/12/28 13:29:34","新北市石門區老崩山40-3號","121.563251666667","25.2666816666667","6502200","石門區"
"253001","KEC-0718","2019/12/28 13:29:40","新北市石門區白沙灣別墅33號","121.51066","25.2782783333333","6502200","石門區"
"207002","749-BX","2019/12/28 13:29:29","新北市萬里區崁腳里崁腳路166號","121.645078333333","25.155895","6502800","萬里區"
"207001","662-BX","2019/12/28 13:29:37","新北市萬里區大鵬里萬里加投8號","121.653555","25.2089133333333","6502800","萬里區"
"252005","AAC-283","2019/12/28 13:29:32","新北市三芝區圓山里八連溪頭3號","121.524681666667","25.2228233333333","6502100","三芝區"
"220027","145-BY","2019/12/28 13:29:30","新北市板橋區華東街1-10號","121.448358333333","24.9950533333333","6500100","板橋區"
"220028","200-UY","2019/12/28 13:29:24","新北市板橋區華東街1-9號","121.448153333333","24.99489","6500100","板橋區"
"220030","610-BX","2019/12/28 13:29:33","新北市板橋區華東街1-10號","121.448256666667","24.9949466666667","6500100","板橋區"
"220004","276-BY","2019/12/28 13:29:29","新北市板橋區華東街1-9號","121.448176666667","24.9949166666667","6500100","板橋區"
"220019","283-VK","2019/12/28 13:29:22","新北市板橋區華東街1-10號","121.448406666667","24.99484","6500100","板橋區"
"220043","285-UM","2019/12/28 13:29:24","新北市板橋區民生路二段89-6號","121.47049","25.0192933333333","6500100","板橋區"
"220107","286-VK","2019/12/28 13:29:37","新北市板橋區華東街1-10號","121.448398333333","24.99504","6500100","板橋區"
"220029","287-VK","2019/12/28 13:29:29","新北市板橋區華東街1-10號","121.44828","24.99501","6500100","板橋區"
"220009","293-UM","2019/12/28 13:29:32","新北市板橋區民生路二段161巷1號","121.470193333333","25.0198683333333","6500100","板橋區"
"220104","560-BX","2019/12/28 13:29:25","新北市板橋區南雅南路一段108號","121.454936666667","25.0042566666667","6500100","板橋區"
"220109","609-BX","2019/12/28 13:27:39","新北市板橋區民生路二段161巷5號","121.47026","25.019775","6500100","板橋區"
"220005","686-BX","2019/12/28 13:29:24","新北市板橋區華東街1-10號","121.448303333333","24.9949033333333","6500100","板橋區"
"220025","687-BX","2019/12/28 13:29:30","新北市板橋區大觀路二段11-12號","121.447881666667","24.9965383333333","6500100","板橋區"
"220003","827-TW","2019/12/28 13:29:24","新北市板橋區華東街1-9號","121.448211666667","24.99494","6500100","板橋區"
"220022","895-R6","2019/12/28 13:29:25","新北市板橋區南雅南路二段116號","121.453285","25.000325","6500100","板橋區"
"220108","985-R7","2019/12/28 13:29:43","新北市板橋區四川路二段247號","121.449976666667","24.9930816666667","6500100","板橋區"
"220046","AAC-210","2019/12/28 13:29:37","新北市板橋區民生路二段120號","121.470333333333","25.019675","6500100","板橋區"
"220012","AAC-253","2019/12/28 13:29:36","新北市板橋區縣民大道一段193號","121.459363333333","25.0083566666667","6500100","板橋區"
"235025","KEA-2875","2019/12/28 13:29:35","新北市中和區民享街92巷28號","121.473796666667","24.9997266666667","6500300","中和區"
