"lineid","car","time","location","longitude","latitude","cityid","cityname"
"234044","148-BY","2019/12/28 14:13:41","新北市永和區得和路311號","121.523133333333","24.9996483333333","6500400","永和區"
"234078","298-R6","2019/12/28 14:13:36","新北市永和區國中路104巷2弄1號","121.524498333333","25.0067433333333","6500400","永和區"
"234036","336-UY","2019/12/28 14:13:38","新北市永和區成功路一段47巷21弄1號","121.527873333333","25.00394","6500400","永和區"
"234062","337-UY","2019/12/28 14:13:35","新北市永和區得和路259號","121.521365","24.999905","6500400","永和區"
"234084","338-UY","2019/12/28 14:13:44","新北市永和區中正路527號","121.516871666667","25.0076783333333","6500400","永和區"
"234068","552-UM","2019/12/28 14:13:41","新北市永和區永貞路10巷8號","121.520476666667","25.0072783333333","6500400","永和區"
"234015","745-BX","2019/12/28 14:13:33","新北市永和區仁愛路89號","121.51304","25.013205","6500400","永和區"
"234028","746-BX","2019/12/28 14:13:31","新北市永和區民權路49巷5弄21號","121.520961666667","24.9976733333333","6500400","永和區"
"234052","KEA-2590","2019/12/28 14:13:34","新北市永和區光復街2巷6號","121.516756666667","25.016575","6500400","永和區"
"234005","KED-0605","2019/12/28 14:13:40","新北市永和區永貞路372號","121.509953333333","25.0067966666667","6500400","永和區"
"234012","KEA-2591","2019/12/28 14:13:37","新北市永和區永貞路415號","121.507471666667","25.0094133333333","6500400","永和區"
"234060","AAD-866","2019/12/28 14:13:35","新北市永和區得和路46號","121.515835","25.0002216666667","6500400","永和區"
"234040","862-TW","2019/12/28 14:13:44","新北市永和區雙和街8號","121.509691666667","25.0018133333333","6500400","永和區"
"234048","863-TW","2019/12/28 14:13:40","新北市永和區環河西路二段85號","121.506715","25.01502","6500400","永和區"
"234025","9371-KE","2019/12/28 14:13:25","新北市永和區安樂路198巷4弄2號","121.515543333333","25.0019983333333","6500400","永和區"
"248017","KED-0813","2019/12/28 14:13:34","新北市五股區壟路14-9號","121.41539","25.0864416666667","6501500","五股區"
"234022","9380-KE","2019/12/28 14:13:34","新北市永和區竹林路25巷26號","121.517918333333","25.0149083333333","6500400","永和區"
"234076","969-R7","2019/12/28 14:13:39","新北市永和區民族街67巷25號","121.519453333333","24.9971433333333","6500400","永和區"
"234072","AAC-211","2019/12/28 14:13:34","新北市永和區竹林路202號","121.520595","25.0087416666667","6500400","永和區"
"234066","AAC-212","2019/12/28 14:13:41","新北市永和區保平路268巷21號","121.508046666667","25.005705","6500400","永和區"
"234001","AAC-295","2019/12/28 14:13:45","新北市永和區豫溪街33號","121.516435","25.0098266666667","6500400","永和區"
"244005","248-BX","2019/12/28 14:13:27","新北市林口區後坑5-2號","121.368468333333","25.1250016666667","6501700","林口區"
"231030","002-UM","2019/12/28 14:13:23","新北市新店區安民街65巷21-2號","121.515198333333","24.9674433333333","6500600","新店區"
"231027","0291-UT","2019/12/28 14:13:22","新北市新店區北宜路一段3號","121.538505","24.9584","6500600","新店區"
"231005","046-UY","2019/12/28 14:13:40","新北市新店區中興路三段221-3號","121.543491666667","24.9824566666667","6500600","新店區"
"231029","106-UY","2019/12/28 14:13:39","新北市新店區安康路二段161號","121.510251666667","24.959415","6500600","新店區"
"231018","107-UY","2019/12/28 14:13:35","新北市新店區中央四街45號","121.52803","24.9750166666667","6500600","新店區"
"231013","108-UY","2019/12/28 14:13:42","新北市新店區大豐路3號","121.541681666667","24.980405","6500600","新店區"
"231036","110-UY","2019/12/28 14:13:38","新北市新店區安祥路109巷6弄7號","121.47542","24.9585066666667","6500600","新店區"
"231020","189-VK","2019/12/28 14:13:42","新北市新店區屈尺路197號","121.542083333333","24.921585","6500600","新店區"
"231017","KEA-2219","2019/12/28 14:13:43","新北市新店區中生路165號","121.574013333333","24.948805","6500600","新店區"
"231033","256-BX","2019/12/28 14:13:32","新北市新店區華城路2號","121.530525","24.9606166666667","6500600","新店區"
"231023","260-TV","2019/12/28 14:13:40","新北市新店區文中路45號","121.539651666667","24.9566266666667","6500600","新店區"
"231003","268-BY","2019/12/28 14:13:33","新北市新店區中興路一段172巷1號","121.54292","24.964435","6500600","新店區"
"231035","278-BY","2019/12/28 14:13:35","新北市新店區安和路二段115號","121.518626666667","24.9704383333333","6500600","新店區"
"231006","355-BY","2019/12/28 14:13:43","新北市新店區北宜路二段263號","121.554631666667","24.9535633333333","6500600","新店區"
"231038","3712-VJ","2019/12/28 14:13:37","新北市新店區溪洲路8巷2-1號","121.533525","24.96144","6500600","新店區"
"231024","4716-K9","2019/12/28 14:13:28","新北市新店區安和路三段4巷3號","121.519175","24.980985","6500600","新店區"
"231025","4715-K9","2019/12/28 14:13:33","新北市新店區自立街3號","121.538733333333","24.9782116666667","6500600","新店區"
"231034","616-UM","2019/12/28 14:13:32","新北市新店區車子路11號","121.503048333333","24.952015","6500600","新店區"
"231002","619-UM","2019/12/28 14:13:38","新北市新店區中正路441-7號","121.53387","24.9804966666667","6500600","新店區"
"231012","KED-0819","2019/12/28 14:13:33","新北市新店區五峰路63巷8弄23號","121.547438333333","24.969335","6500600","新店區"
"231028","897-TW","2019/12/28 14:13:40","新北市新店區安業街10號","121.516023333333","24.978605","6500600","新店區"
"231001","898-TW","2019/12/28 14:13:30","新北市新店區中華路68號","121.539141666667","24.9691133333333","6500600","新店區"
"231004","899-TW","2019/12/28 14:13:40","新北市新店區北新路二段57號","121.542825","24.973185","6500600","新店區"
"231037","AKT-0513","2019/12/28 14:13:30","新北市新店區安康路二段341巷32號","121.496813333333","24.954425","6500600","新店區"
"235030","003-UY","2019/12/28 14:13:39","新北市中和區廣福路57號","121.502715","25.0012633333333","6500300","中和區"
"235028","005-UY","2019/12/28 14:13:38","新北市中和區南山路81巷50號","121.50372","24.9983416666667","6500300","中和區"
"235027","006-UY","2019/12/28 14:13:30","新北市中和區連勝街181號","121.493976666667","24.99717","6500300","中和區"
"235036","KEE-1103","2019/12/28 14:13:35","新北市中和區永和路52號","121.499143333333","25.0040516666667","6500300","中和區"
"235020","096-UM","2019/12/28 14:13:42","新北市中和區員山路563號","121.47953","25.0077083333333","6500300","中和區"
"235003","097-UM","2019/12/28 14:13:41","新北市中和區秀峰街119巷6弄5號","121.519428333333","24.9900533333333","6500300","中和區"
"235029","098-UM","2019/12/28 14:13:29","新北市中和區中山路二段2巷3弄11號","121.504453333333","25.005775","6500300","中和區"
"235004","150-BY","2019/12/28 14:13:33","新北市中和區保健路10巷23弄2號","121.508151666667","24.9965683333333","6500300","中和區"
"235022","151-BY","2019/12/28 14:13:29","新北市中和區員山路36巷16-2號","121.485231666667","24.991585","6500300","中和區"
"235019","183-VK","2019/12/28 14:13:31","新北市中和區莒光路3巷1號","121.471971666667","25.00608","6500300","中和區"
"235002","185-VK","2019/12/28 14:13:35","新北市中和區大仁街13號","121.517676666667","24.9927483333333","6500300","中和區"
"235031","255-BX","2019/12/28 14:13:27","新北市中和區連城路308號","121.483643333333","24.9962216666667","6500300","中和區"
"235008","293-VK","2019/12/28 14:13:38","新北市中和區中興街241號","121.50038","24.98906","6500300","中和區"
"235074","301-VK","2019/12/28 14:13:33","新北市中和區橋和路99號","121.490685","25.0055366666667","6500300","中和區"
"235007","352-BY","2019/12/28 14:13:31","新北市中和區景平路276-1號","121.51383","24.99254","6500300","中和區"
"235006","KEA-2878","2019/12/28 14:13:39","新北市中和區大勇街60巷4號","121.518423333333","24.9947066666667","6500300","中和區"
"247009","KED-0682","2019/12/28 14:13:41","新北市蘆洲區信義路172號","121.47929","25.0839533333333","6501400","蘆洲區"
"235014","4979-A6","2019/12/28 14:13:41","新北市中和區復興路280巷18弄20號","121.501806666667","24.9923283333333","6500300","中和區"
"235033","4980-A6","2019/12/28 14:13:22","新北市中和區永和路24號","121.49942","25.0035116666667","6500300","中和區"
"235032","551-UM","2019/12/28 14:13:35","新北市中和區景平路493巷12弄2號","121.499043333333","24.9971766666667","6500300","中和區"
"235034","558-UM","2019/12/28 14:13:35","新北市中和區中山路二段213號","121.498756666667","25.0026183333333","6500300","中和區"
"235009","565-BX","2019/12/28 14:13:37","新北市中和區景新街423巷35弄23號","121.513846666667","24.9905133333333","6500300","中和區"
"235024","KED-0823","2019/12/28 14:13:40","新北市中和區員山路314巷7弄6號","121.482063333333","25.0031233333333","6500300","中和區"
"235018","640-BX","2019/12/28 14:13:40","新北市中和區國光街102巷11弄17號","121.470536666667","25.0017116666667","6500300","中和區"
"235011","732-UM","2019/12/28 14:13:28","新北市中和區和平街38巷8號","121.509381666667","24.990855","6500300","中和區"
"235010","733-UM","2019/12/28 14:13:30","新北市中和區華新街152號","121.507685","24.9823533333333","6500300","中和區"
"235021","801-TS","2019/12/28 14:13:31","新北市中和區台新街37號","121.479516666667","25.0050466666667","6500300","中和區"
"235005","802-TS","2019/12/28 14:13:28","新北市中和區中安街192號","121.511466666667","24.9993","6500300","中和區"
"235016","805-TS","2019/12/28 14:13:27","新北市中和區興南路二段142巷31弄81號","121.501561666667","24.9835633333333","6500300","中和區"
"235012","896-TW","2019/12/28 14:13:38","新北市中和區華新街109巷24號","121.508435","24.9804333333333","6500300","中和區"
"235017","900-TW","2019/12/28 14:13:39","新北市中和區華安街19巷10號","121.467426666667","24.9978183333333","6500300","中和區"
"235015","157-BY","2019/12/28 14:13:25","新北市中和區和平街22號","121.509876666667","24.990395","6500300","中和區"
"235001","AAC-213","2019/12/28 14:13:25","新北市中和區秀朗路三段10巷14弄108號","121.522908333333","24.99669","6500300","中和區"
"235023","AAC-215","2019/12/28 14:13:40","新北市中和區錦和路195巷1弄4號","121.49112","24.9909833333333","6500300","中和區"
"220002","015-TV","2019/12/28 14:13:32","新北市板橋區四川路一段197號","121.460711666667","25.003735","6500100","板橋區"
"220013","072-UY","2019/12/28 14:13:33","新北市板橋區海山路1-2號","121.469586666667","25.0091783333333","6500100","板橋區"
"220034","073-UY","2019/12/28 14:13:35","新北市板橋區中正路216巷102號","121.458845","25.01917","6500100","板橋區"
"220105","075-UY","2019/12/28 14:13:33","新北市板橋區江寧路三段125號","121.473448333333","25.03319","6500100","板橋區"
"220017","AAD-861","2019/12/28 14:13:42","新北市板橋區貴興路51號","121.457535","25.0031416666667","6500100","板橋區"
"247005","893-R6","2019/12/28 14:13:32","新北市蘆洲區永安南路二段16巷17弄3號","121.46763","25.07786","6501400","蘆洲區"
"247015","341-TH","2019/12/28 14:13:42","新北市蘆洲區光華路70巷11號","121.46767","25.0832683333333","6501400","蘆洲區"
"247003","336-TH","2019/12/28 14:13:33","新北市蘆洲區長安街174號","121.45911","25.0833583333333","6501400","蘆洲區"
"247023","057-VK","2019/12/28 14:13:34","新北市蘆洲區長榮路500號","121.459531666667","25.0897133333333","6501400","蘆洲區"
"247013","056-VK","2019/12/28 14:13:36","新北市蘆洲區復興路56號","121.473025","25.085645","6501400","蘆洲區"
"247017","053-VK","2019/12/28 14:13:34","新北市蘆洲區復興路174號","121.477745","25.0884083333333","6501400","蘆洲區"
"247021","007-UY","2019/12/28 14:13:32","新北市蘆洲區三民路221號","121.469895","25.08836","6501400","蘆洲區"
"247007","002-UY","2019/12/28 14:13:35","新北市蘆洲區中山一路234號","121.472845","25.0802516666667","6501400","蘆洲區"
"247001","001-UY","2019/12/28 14:13:33","新北市蘆洲區長榮路498號","121.459491666667","25.0895033333333","6501400","蘆洲區"
"235013","251-BX","2019/12/28 14:13:43","新北市中和區景新街230巷5號","121.508136666667","24.9940333333333","6500300","中和區"
"228005","097-TW","2019/12/28 14:13:38","新北市貢寮區美豐里土地公嶺5號","121.89513","25.0599083333333","6502600","貢寮區"
"228004","212-TW","2019/12/28 14:13:32","新北市貢寮區雙玉里下雙溪街10-3號","121.91545","25.0136366666667","6502600","貢寮區"
"253003","6232-TK","2019/12/28 14:13:26","新北市石門區尖子鹿31號","121.579055","25.266425","6502200","石門區"
"253004","6251-TK","2019/12/28 14:13:23","新北市石門區小坑41號","121.596738333333","25.2633366666667","6502200","石門區"
"253002","637-UY","2019/12/28 14:13:34","新北市石門區七股30號","121.55209","25.2641216666667","6502200","石門區"
"253001","KEC-0718","2019/12/28 14:13:40","新北市石門區八甲27-1號","121.528356666667","25.2778","6502200","石門區"
"207002","749-BX","2019/12/28 14:13:29","新北市萬里區溪底里瑞泉路5號","121.60531","25.1437316666667","6502800","萬里區"
"207001","662-BX","2019/12/28 14:13:37","新北市萬里區磺潭里清水18號","121.638063333333","25.1976316666667","6502800","萬里區"
"252005","AAC-283","2019/12/28 14:13:32","新北市三芝區橫山里橫山43號","121.536856666667","25.2574316666667","6502100","三芝區"
"236040","KED-0685","2019/12/28 14:13:25","新北市土城區裕生路61號","121.44768","24.9859733333333","6501300","土城區"
"220110","KED-0812","2019/12/28 14:13:29","新北市板橋區國光路196號","121.461616666667","25.01849","6500100","板橋區"
"236074","166-UM","2019/12/28 14:13:31","新北市土城區永安街54號","121.433038333333","24.9643666666667","6501300","土城區"
"236029","253-BX","2019/12/28 14:13:30","新北市土城區中央路二段126號","121.44209","24.9777116666667","6501300","土城區"
"236024","269-VK","2019/12/28 14:13:37","新北市土城區承天路45號","121.438733333333","24.9640566666667","6501300","土城區"
"236013","270-VK","2019/12/28 14:13:24","新北市土城區青雲路39巷7號","121.460331666667","24.987545","6501300","土城區"
"236032","271-VK","2019/12/28 14:13:32","新北市土城區青雲路453號","121.458703333333","24.9745283333333","6501300","土城區"
"247011","KED-0683","2019/12/28 14:13:34","新北市蘆洲區信義路365號","121.477385","25.0876366666667","6501400","蘆洲區"
"236068","KEA-2877","2019/12/28 14:13:33","新北市土城區明德路一段128巷5號","121.463366666667","24.9790366666667","6501300","土城區"
"236017","401-BY","2019/12/28 14:13:36","新北市土城區永豐路202巷7-1號","121.466181666667","24.9833233333333","6501300","土城區"
"236057","912-UM","2019/12/28 14:13:41","新北市土城區中央路四段274號","121.414595","24.9565516666667","6501300","土城區"
"236045","913-UM","2019/12/28 14:13:27","新北市土城區明德路一段365-1號","121.453535","24.979055","6501300","土城區"
"236060","915-UM","2019/12/28 14:13:28","新北市土城區金城路二段48號","121.45163","24.9791483333333","6501300","土城區"
"236054","AAC-216","2019/12/28 14:13:23","新北市土城區中華路二段92號","121.43822","24.9747566666667","6501300","土城區"
"220027","145-BY","2019/12/28 14:13:30","新北市板橋區民權路202巷7弄2號","121.46001","25.0147866666667","6500100","板橋區"
"220028","200-UY","2019/12/28 14:13:43","新北市板橋區大觀路二段3巷13號","121.447845","25.003885","6500100","板橋區"
"220030","610-BX","2019/12/28 14:13:33","新北市板橋區溪崑二街75號","121.427895","24.990235","6500100","板橋區"
"220050","245-BX","2019/12/28 14:13:25","新北市板橋區雙十路二段37-1號","121.4768","25.02583","6500100","板橋區"
"220040","267-BY","2019/12/28 14:13:42","新北市板橋區縣民大道三段187巷10號","121.479228333333","25.0250933333333","6500100","板橋區"
"220004","276-BY","2019/12/28 14:13:28","新北市土城區青雲路13號","121.460683333333","24.9891933333333","6500100","板橋區"
"220020","277-BY","2019/12/28 14:13:41","新北市板橋區金門街372巷36號","121.427513333333","24.9849683333333","6500100","板橋區"
"220019","283-VK","2019/12/28 14:13:22","新北市板橋區重慶路353巷7號","121.464875","24.99816","6500100","板橋區"
"220043","285-UM","2019/12/28 14:13:44","新北市板橋區吳鳳路17巷26弄24號","121.466891666667","25.029655","6500100","板橋區"
"220001","285-VK","2019/12/28 14:13:31","新北市板橋區永豐街265號","121.478168333333","25.0212933333333","6500100","板橋區"
"220107","286-VK","2019/12/28 14:13:37","新北市板橋區大觀路二段174巷184號","121.442176666667","25.0037483333333","6500100","板橋區"
"220029","287-VK","2019/12/28 14:13:29","新北市板橋區南雅西路一段186號","121.452936666667","25.008225","6500100","板橋區"
"220039","288-VK","2019/12/28 14:13:32","新北市板橋區裕民街87-4號","121.4604","25.02807","6500100","板橋區"
"220009","293-UM","2019/12/28 14:13:32","新北市板橋區中山路二段255巷7號","121.477033333333","25.01794","6500100","板橋區"
"220032","296-UM","2019/12/28 14:13:31","新北市板橋區溪崑二街16號","121.42865","24.991745","6500100","板橋區"
"220023","303-R5","2019/12/28 14:13:32","新北市板橋區南雅南路一段1巷21號","121.457021666667","25.0068333333333","6500100","板橋區"
"220010","305-R5","2019/12/28 14:13:40","新北市板橋區三民路二段153巷36弄2號","121.481138333333","25.014065","6500100","板橋區"
"220041","307-R5","2019/12/28 14:13:29","新北市板橋區光武街2巷45-1號","121.468328333333","25.0259966666667","6500100","板橋區"
"220047","317-R6","2019/12/28 14:13:35","新北市板橋區民有街47號","121.465581666667","25.02599","6500100","板橋區"
"220037","491-VK","2019/12/28 14:13:38","新北市板橋區文化路二段182巷3弄60號","121.472778333333","25.0288233333333","6500100","板橋區"
"220104","560-BX","2019/12/28 14:13:41","新北市板橋區中正路360巷57號","121.456411666667","25.02276","6500100","板橋區"
"220052","561-BX","2019/12/28 14:13:37","新北市板橋區文化路一段266號","121.46726","25.0205233333333","6500100","板橋區"
"220109","609-BX","2019/12/28 14:13:39","新北市板橋區三民路二段204號","121.478858333333","25.0122533333333","6500100","板橋區"
"220005","686-BX","2019/12/28 14:13:44","新北市板橋區五權街22號","121.464496666667","24.9938183333333","6500100","板橋區"
"220025","687-BX","2019/12/28 14:13:30","新北市板橋區龍興街44號","121.44319","25.0008416666667","6500100","板橋區"
"220111","689-BX","2019/12/28 14:13:39","新北市板橋區雨農路32號","121.461208333333","25.02433","6500100","板橋區"
"220051","KEA-2699","2019/12/28 14:13:37","新北市板橋區松柏街70巷1號","121.476626666667","25.0301116666667","6500100","板橋區"
"220003","827-TW","2019/12/28 14:13:24","新北市板橋區新民街7巷14號","121.463656666667","25.0104533333333","6500100","板橋區"
"220016","830-TW","2019/12/28 14:13:29","新北市板橋區三民路一段1巷43號","121.48041","25.0246883333333","6500100","板橋區"
"220014","831-TW","2019/12/28 14:13:32","新北市板橋區三民路二段正隆巷75號","121.476058333333","25.012985","6500100","板橋區"
"220022","895-R6","2019/12/28 14:13:25","新北市板橋區文昌街1號","121.456","25.0100666666667","6500100","板橋區"
"220108","985-R7","2019/12/28 14:13:23","新北市板橋區中正路166號","121.456468333333","25.0169933333333","6500100","板橋區"
"220046","AAC-210","2019/12/28 14:13:39","新北市板橋區幸福路60巷77-2號","121.459826666667","25.0221416666667","6500100","板橋區"
"220012","AAC-253","2019/12/28 14:13:36","新北市板橋區中山路一段50-1號","121.461036666667","25.0090916666667","6500100","板橋區"
"235025","KEA-2875","2019/12/28 14:13:19","新北市中和區民利街31巷2弄10號","121.47974","24.9985783333333","6500300","中和區"
