"lineid","car","time","location","longitude","latitude","cityid","cityname"
"234078","298-R6","2019/12/28 14:29:36","新北市永和區永亨路59號","121.520948333333","25.0061733333333","6500400","永和區"
"234062","337-UY","2019/12/28 14:29:24","新北市永和區中正路417-1號","121.517083333333","25.0049466666667","6500400","永和區"
"234084","338-UY","2019/12/28 14:29:24","新北市永和區永和路二段322號","121.516195","25.01636","6500400","永和區"
"234068","552-UM","2019/12/28 14:29:39","新北市永和區永寧街50號","121.519806666667","25.0069383333333","6500400","永和區"
"234028","746-BX","2019/12/28 14:29:31","新北市永和區中正路175號","121.5167","24.9987016666667","6500400","永和區"
"234052","KEA-2590","2019/12/28 14:29:35","新北市永和區環河東路一段42號","121.51889","25.0169583333333","6500400","永和區"
"234005","KED-0605","2019/12/28 14:29:40","新北市永和區中正路486號","121.517381666667","25.0038983333333","6500400","永和區"
"234060","AAD-866","2019/12/28 14:29:35","新北市永和區秀朗路一段175號","121.51698","25.003635","6500400","永和區"
"234040","862-TW","2019/12/28 14:29:44","新北市永和區安樂路330號","121.514438333333","25.0058883333333","6500400","永和區"
"234048","863-TW","2019/12/28 14:29:20","新北市永和區新生路149號","121.50732","25.014845","6500400","永和區"
"234025","9371-KE","2019/12/28 14:29:25","新北市中和區安樂路255號","121.514061666667","24.999915","6500400","永和區"
"248017","KED-0813","2019/12/28 14:29:34","新北市五股區外寮路13-1號","121.424853333333","25.0811683333333","6501500","五股區"
"234072","AAC-211","2019/12/28 14:29:14","新北市永和區環河東路一段124號","121.520703333333","25.0153883333333","6500400","永和區"
"234001","AAC-295","2019/12/28 14:29:45","新北市永和區大新街12號","121.514891666667","25.00848","6500400","永和區"
"244005","248-BX","2019/12/28 14:29:27","新北市林口區竹林路320巷2號","121.390651666667","25.0822866666667","6501700","林口區"
"231030","002-UM","2019/12/28 14:29:43","新北市新店區安民街82號","121.516618333333","24.9670766666667","6500600","新店區"
"231027","0291-UT","2019/12/28 14:29:22","新北市新店區北新路一段12號","121.540785","24.9655216666667","6500600","新店區"
"231005","046-UY","2019/12/28 14:29:40","新北市新店區北新路三段129號","121.541245","24.9827216666667","6500600","新店區"
"231029","106-UY","2019/12/28 14:29:39","新北市新店區安康路二段382號","121.50051","24.957015","6500600","新店區"
"231018","107-UY","2019/12/28 14:29:35","新北市新店區中央二街60號","121.526645","24.9745283333333","6500600","新店區"
"231013","108-UY","2019/12/28 14:29:37","新北市新店區民權路100-1號","121.536113333333","24.983205","6500600","新店區"
"231036","110-UY","2019/12/28 14:29:38","新北市新店區安祥路109巷137號","121.47712","24.9582533333333","6500600","新店區"
"231020","189-VK","2019/12/28 14:29:42","新北市新店區新烏路三段69號","121.55524","24.90381","6500600","新店區"
"231017","KEA-2219","2019/12/28 14:29:43","新北市新店區北宜路三段168號","121.586538333333","24.951955","6500600","新店區"
"231033","256-BX","2019/12/28 14:29:32","新北市新店區永業路42號","121.53177","24.954505","6500600","新店區"
"231023","260-TV","2019/12/28 14:29:40","新北市新店區光明街185號","121.540005","24.9631266666667","6500600","新店區"
"231003","268-BY","2019/12/28 14:29:33","新北市新店區中興路一段267-3號","121.545066666667","24.9678533333333","6500600","新店區"
"231035","278-BY","2019/12/28 14:29:35","新北市新店區安光路10-1號","121.513833333333","24.9641333333333","6500600","新店區"
"231006","355-BY","2019/12/28 14:29:23","新北市新店區北宜路二段458號","121.570598333333","24.956585","6500600","新店區"
"231038","3712-VJ","2019/12/28 14:29:42","新北市新店區安康路一段323-3號","121.521045","24.9638716666667","6500600","新店區"
"231034","616-UM","2019/12/28 14:29:32","新北市新店區車子路11號","121.503035","24.9518816666667","6500600","新店區"
"231002","619-UM","2019/12/28 14:29:38","新北市新店區中央路13號","121.533418333333","24.97839","6500600","新店區"
"231012","KED-0819","2019/12/28 14:29:33","新北市新店區寶興路65巷1號","121.55091","24.97172","6500600","新店區"
"231028","897-TW","2019/12/28 14:29:40","新北市新店區安和路一段45號","121.517428333333","24.9656616666667","6500600","新店區"
"231001","898-TW","2019/12/28 14:29:30","新北市新店區中正路75巷71號","121.54314","24.9688783333333","6500600","新店區"
"231004","899-TW","2019/12/28 14:29:40","新北市新店區中正路282號","121.538558333333","24.9738016666667","6500600","新店區"
"231037","AKT-0513","2019/12/28 14:29:30","新北市新店區車子路1-1號","121.504705","24.9580533333333","6500600","新店區"
"235030","003-UY","2019/12/28 14:29:39","新北市中和區中和路136號","121.503371666667","24.999365","6500300","中和區"
"235028","005-UY","2019/12/28 14:29:38","新北市中和區圓通路33號","121.501018333333","24.9977583333333","6500300","中和區"
"235027","006-UY","2019/12/28 14:29:30","新北市中和區連城路263巷4弄1號","121.492078333333","24.9960133333333","6500300","中和區"
"235036","KEE-1103","2019/12/28 14:29:35","新北市中和區中山路二段220號","121.49952","25.002795","6500300","中和區"
"235020","096-UM","2019/12/28 14:29:40","新北市中和區員山路514巷19號","121.479781666667","25.0097366666667","6500300","中和區"
"235003","097-UM","2019/12/28 14:29:41","新北市中和區景德街1號","121.519148333333","24.99132","6500300","中和區"
"235029","098-UM","2019/12/28 14:29:29","新北市中和區莊敬路2號","121.499398333333","25.00422","6500300","中和區"
"235004","150-BY","2019/12/28 14:29:33","新北市中和區宜安路47巷6號","121.511531666667","24.99651","6500300","中和區"
"235022","151-BY","2019/12/28 14:29:29","新北市中和區員山路124巷46號","121.482555","24.9962716666667","6500300","中和區"
"235019","183-VK","2019/12/28 14:29:31","新北市中和區德光路15巷18號","121.471338333333","25.003545","6500300","中和區"
"235002","185-VK","2019/12/28 14:29:35","新北市中和區自立路99巷1號","121.52209","24.9950266666667","6500300","中和區"
"235031","255-BX","2019/12/28 14:29:27","新北市中和區員山路148巷44弄7號","121.482588333333","24.9965816666667","6500300","中和區"
"235008","293-VK","2019/12/28 14:29:38","新北市中和區捷運路185號","121.505453333333","24.9914216666667","6500300","中和區"
"235074","301-VK","2019/12/28 14:29:33","新北市中和區連城路469巷40號","121.48347","24.994675","6500300","中和區"
"235007","352-BY","2019/12/28 14:29:31","新北市中和區景平路446號","121.506478333333","24.9934816666667","6500300","中和區"
"235006","KEA-2878","2019/12/28 14:29:39","新北市中和區保健路33巷3號","121.508683333333","24.9978316666667","6500300","中和區"
"247009","KED-0682","2019/12/28 14:29:40","新北市蘆洲區鷺江街23號","121.478923333333","25.08247","6501400","蘆洲區"
"235032","551-UM","2019/12/28 14:29:35","新北市中和區中山路二段136巷3弄4號","121.501258333333","25.0036283333333","6500300","中和區"
"235034","558-UM","2019/12/28 14:29:35","新北市中和區景平路583號","121.497641666667","25.0002433333333","6500300","中和區"
"235009","565-BX","2019/12/28 14:29:37","新北市中和區景新街334號","121.511908333333","24.9907583333333","6500300","中和區"
"235024","KED-0823","2019/12/28 14:29:40","新北市中和區新生街52號","121.483283333333","25.0030433333333","6500300","中和區"
"235018","640-BX","2019/12/28 14:29:40","新北市中和區莒光路220號","121.470286666667","24.99616","6500300","中和區"
"235011","732-UM","2019/12/28 14:29:28","新北市中和區景平路259巷42號","121.506595","24.99279","6500300","中和區"
"235010","733-UM","2019/12/28 14:29:30","新北市中和區忠孝街37巷52號","121.511083333333","24.9848766666667","6500300","中和區"
"235021","801-TS","2019/12/28 14:29:31","新北市中和區員山路134號","121.481216666667","24.9963333333333","6500300","中和區"
"235005","802-TS","2019/12/28 14:29:28","新北市中和區景安路61號","121.507133333333","24.997905","6500300","中和區"
"235016","805-TS","2019/12/28 14:29:27","新北市中和區華新街143巷47號","121.506335","24.9803416666667","6500300","中和區"
"235012","896-TW","2019/12/28 14:29:38","新北市中和區忠孝街60巷7號","121.511731666667","24.9838633333333","6500300","中和區"
"235017","900-TW","2019/12/28 14:29:40","新北市中和區民德路197號","121.469413333333","24.99787","6500300","中和區"
"235015","157-BY","2019/12/28 14:29:25","新北市中和區中興街148號","121.498973333333","24.9916366666667","6500300","中和區"
"235001","AAC-213","2019/12/28 14:29:25","新北市中和區秀朗路三段10巷29弄5號","121.525043333333","24.9960183333333","6500300","中和區"
"235023","AAC-215","2019/12/28 14:29:40","新北市中和區錦和路203巷5號","121.491176666667","24.990395","6500300","中和區"
"220002","015-TV","2019/12/28 14:29:32","新北市板橋區四川路一段281號","121.45941","25.0019216666667","6500100","板橋區"
"220013","072-UY","2019/12/28 14:29:33","新北市板橋區國泰街75巷28弄14號","121.467645","25.0051916666667","6500100","板橋區"
"220034","073-UY","2019/12/28 14:29:35","新北市板橋區中正路250巷33號","121.457038333333","25.01953","6500100","板橋區"
"220105","075-UY","2019/12/28 14:29:33","新北市板橋區文化路二段336號","121.472815","25.0303816666667","6500100","板橋區"
"220017","AAD-861","2019/12/28 14:29:26","新北市板橋區貴興路106巷16弄2號","121.454815","25.0035066666667","6500100","板橋區"
"247005","893-R6","2019/12/28 14:29:32","新北市蘆洲區中華街101號","121.461401666667","25.0797716666667","6501400","蘆洲區"
"247019","546-UM","2019/12/28 14:29:37","新北市蘆洲區水湳街257號","121.469473333333","25.0922183333333","6501400","蘆洲區"
"247015","341-TH","2019/12/28 14:29:42","新北市蘆洲區中正路185巷27號","121.46671","25.0844216666667","6501400","蘆洲區"
"247003","336-TH","2019/12/28 14:29:33","新北市蘆洲區長安街307號","121.457853333333","25.0851816666667","6501400","蘆洲區"
"247023","057-VK","2019/12/28 14:29:34","新北市蘆洲區中正路263巷2號","121.467343333333","25.0873933333333","6501400","蘆洲區"
"247013","056-VK","2019/12/28 14:29:36","新北市蘆洲區中山二路193號","121.470803333333","25.0807533333333","6501400","蘆洲區"
"247017","053-VK","2019/12/28 14:29:34","新北市蘆洲區民族路336巷29-2號","121.4782","25.0915616666667","6501400","蘆洲區"
"247007","002-UY","2019/12/28 14:29:38","新北市蘆洲區信義路64號","121.47598","25.079175","6501400","蘆洲區"
"247001","001-UY","2019/12/28 14:29:33","新北市蘆洲區永樂街38巷33弄6號","121.457865","25.089585","6501400","蘆洲區"
"235013","251-BX","2019/12/28 14:29:23","新北市中和區安平路17號","121.509143333333","24.9941333333333","6500300","中和區"
"228005","097-TW","2019/12/28 14:29:38","新北市貢寮區美豐里巫里岸9-1號","121.901965","25.0700883333333","6502600","貢寮區"
"228004","212-TW","2019/12/28 14:29:41","新北市貢寮區雙玉里田寮洋街33-1號","121.93384","25.0146016666667","6502600","貢寮區"
"253003","6232-TK","2019/12/28 14:29:25","新北市石門區尖子鹿10-2號","121.577735","25.284985","6502200","石門區"
"253004","6251-TK","2019/12/28 14:29:43","新北市石門區內阿里磅1號","121.592303333333","25.254485","6502200","石門區"
"253002","637-UY","2019/12/28 14:29:34","新北市石門區七股1號","121.546113333333","25.2758483333333","6502200","石門區"
"253001","KEC-0718","2019/12/28 14:29:20","新北市石門區崁子腳65-1號","121.532061666667","25.2860466666667","6502200","石門區"
"207002","749-BX","2019/12/28 14:29:29","新北市萬里區崁腳里崁腳路73號","121.647633333333","25.159595","6502800","萬里區"
"207001","662-BX","2019/12/28 14:29:37","新北市萬里區磺潭里清水9號","121.640458333333","25.1999666666667","6502800","萬里區"
"252005","AAC-283","2019/12/28 14:29:32","新北市三芝區橫山里大坑98-1號","121.526175","25.262015","6502100","三芝區"
"236040","KED-0685","2019/12/28 14:29:28","新北市土城區學成路91巷1號","121.450585","24.98792","6501300","土城區"
"220110","KED-0812","2019/12/28 14:29:29","新北市板橋區龍泉街139號","121.457815","25.02396","6500100","板橋區"
"236074","166-UM","2019/12/28 14:29:35","新北市土城區大暖路57號","121.422371666667","24.9585766666667","6501300","土城區"
"236029","253-BX","2019/12/28 14:29:30","新北市土城區水源街69號","121.439863333333","24.9763833333333","6501300","土城區"
"236024","269-VK","2019/12/28 14:29:37","新北市土城區承天路65號","121.439815","24.9635966666667","6501300","土城區"
"236013","270-VK","2019/12/28 14:29:43","新北市土城區青雲路39巷7號","121.460373333333","24.9875383333333","6501300","土城區"
"236032","271-VK","2019/12/28 14:29:32","新北市土城區明德路一段303號","121.459825","24.9772116666667","6501300","土城區"
"247011","KED-0683","2019/12/28 14:29:34","新北市蘆洲區中興街132號","121.482166666667","25.0894116666667","6501400","蘆洲區"
"236068","KEA-2877","2019/12/28 14:29:33","新北市土城區永豐路205-5號","121.474723333333","24.9779583333333","6501300","土城區"
"236017","401-BY","2019/12/28 14:29:36","新北市土城區永豐路202巷5-1號","121.466405","24.9832633333333","6501300","土城區"
"236057","912-UM","2019/12/28 14:29:41","新北市土城區中央路四段107號","121.416591666667","24.95783","6501300","土城區"
"236045","913-UM","2019/12/28 14:29:27","新北市土城區青雲路454號","121.4594","24.970115","6501300","土城區"
"236060","915-UM","2019/12/28 14:29:28","新北市土城區延壽路111巷7號","121.468865","24.9936566666667","6501300","土城區"
"236054","AAC-216","2019/12/28 14:29:23","新北市土城區中華路一段247號","121.440966666667","24.9815966666667","6501300","土城區"
"220027","145-BY","2019/12/28 14:29:30","新北市板橋區公館街25號","121.460986666667","25.0150866666667","6500100","板橋區"
"220028","200-UY","2019/12/28 14:29:34","新北市板橋區大觀路二段37巷182號","121.449683333333","25.00218","6500100","板橋區"
"220030","610-BX","2019/12/28 14:29:33","新北市板橋區金門街405-1號","121.427521666667","24.9840116666667","6500100","板橋區"
"220050","245-BX","2019/12/28 14:29:25","新北市板橋區縣民大道三段33巷1弄16號","121.473266666667","25.0205633333333","6500100","板橋區"
"220040","267-BY","2019/12/28 14:29:42","新北市板橋區文聖街149巷25號","121.479543333333","25.0285816666667","6500100","板橋區"
"220004","276-BY","2019/12/28 14:29:29","新北市板橋區和平路4號","121.45809","24.9942566666667","6500100","板橋區"
"220020","277-BY","2019/12/28 14:29:41","新北市板橋區金門街230號","121.43067","24.98768","6500100","板橋區"
"220019","283-VK","2019/12/28 14:29:22","新北市板橋區忠孝路48巷9弄14號","121.46164","25.0001566666667","6500100","板橋區"
"220043","285-UM","2019/12/28 14:29:24","新北市板橋區銘傳街35號","121.468598333333","25.0310666666667","6500100","板橋區"
"220001","285-VK","2019/12/28 14:29:39","新北市板橋區富山街53巷1弄104號","121.477776666667","25.019895","6500100","板橋區"
"220107","286-VK","2019/12/28 14:29:37","新北市板橋區龍興街71巷1號","121.443818333333","25.0017966666667","6500100","板橋區"
"220029","287-VK","2019/12/28 14:29:29","新北市板橋區大觀路一段75巷37號","121.448921666667","25.004175","6500100","板橋區"
"220039","288-VK","2019/12/28 14:29:32","新北市板橋區新海路431巷12號","121.45792","25.0271616666667","6500100","板橋區"
"220009","293-UM","2019/12/28 14:29:37","新北市板橋區板新路215號","121.46833","25.015775","6500100","板橋區"
"220032","296-UM","2019/12/28 14:29:43","新北市板橋區篤行路三段67號","121.42758","24.9857416666667","6500100","板橋區"
"220023","303-R5","2019/12/28 14:29:32","新北市板橋區僑中一街124巷72-3號","121.44962","25.017625","6500100","板橋區"
"220010","305-R5","2019/12/28 14:29:24","新北市板橋區三民路二段123巷1號","121.479511666667","25.0156216666667","6500100","板橋區"
"220041","307-R5","2019/12/28 14:29:29","新北市板橋區四維路137巷1弄17-2號","121.465091666667","25.0245883333333","6500100","板橋區"
"220047","317-R6","2019/12/28 14:29:35","新北市板橋區民有街87號","121.464743333333","25.02762","6500100","板橋區"
"220037","491-VK","2019/12/28 14:29:38","新北市板橋區文化路二段331號","121.472638333333","25.0302866666667","6500100","板橋區"
"220104","560-BX","2019/12/28 14:29:25","新北市板橋區中正路413巷2弄17號","121.453423333333","25.0231483333333","6500100","板橋區"
"220052","561-BX","2019/12/28 14:29:36","新北市板橋區陽明街29巷7號","121.465046666667","25.0217916666667","6500100","板橋區"
"220109","609-BX","2019/12/28 14:29:39","新北市板橋區三民路一段31巷13號","121.479836666667","25.023225","6500100","板橋區"
"220005","686-BX","2019/12/28 14:29:44","新北市板橋區廣和街60號","121.462061666667","24.99395","6500100","板橋區"
"220025","687-BX","2019/12/28 14:29:30","新北市板橋區大觀路一段79號","121.447006666667","25.0042833333333","6500100","板橋區"
"220111","689-BX","2019/12/28 14:29:39","新北市板橋區長江路一段109號","121.459713333333","25.0297316666667","6500100","板橋區"
"220051","KEA-2699","2019/12/28 14:29:38","新北市板橋區雙十路二段46巷45號","121.476103333333","25.0292583333333","6500100","板橋區"
"220003","827-TW","2019/12/28 14:29:25","新北市板橋區忠孝路116號","121.462833333333","25.0022733333333","6500100","板橋區"
"220016","830-TW","2019/12/28 14:29:29","新北市板橋區中山路二段581-3號","121.484685","25.0220683333333","6500100","板橋區"
"220014","831-TW","2019/12/28 14:29:32","新北市板橋區漢生東路313巷2弄3號","121.472265","25.008155","6500100","板橋區"
"220022","895-R6","2019/12/28 14:29:25","新北市板橋區北門街25號","121.456683333333","25.0112283333333","6500100","板橋區"
"220108","985-R7","2019/12/28 14:29:43","新北市板橋區新生街89巷30號","121.457","25.0226683333333","6500100","板橋區"
"220046","AAC-210","2019/12/28 14:29:38","新北市板橋區文化路一段285巷1弄1號","121.464491666667","25.0188816666667","6500100","板橋區"
"220012","AAC-253","2019/12/28 14:29:36","新北市板橋區民權路45號","121.462091666667","25.011295","6500100","板橋區"
"235025","KEA-2875","2019/12/28 14:29:19","新北市中和區新生街166巷18號","121.482561666667","25.00038","6500300","中和區"
