"lineid","car","time","location","longitude","latitude","cityid","cityname"
"231030","002-UM","2019/12/28 15:43:23","新北市新店區永安街90號","121.520851666667","24.9855433333333","6500600","新店區"
"231005","046-UY","2019/12/28 15:43:40","新北市新店區北新路一段287號","121.54129","24.9670016666667","6500600","新店區"
"231029","106-UY","2019/12/28 15:43:39","新北市新店區安康路二段391號","121.494501666667","24.9542533333333","6500600","新店區"
"231018","107-UY","2019/12/28 15:43:35","新北市新店區中正路663巷1弄2號","121.532991666667","24.990065","6500600","新店區"
"231013","108-UY","2019/12/28 15:43:39","新北市新店區永業路81巷9弄12號","121.531368333333","24.9508166666667","6500600","新店區"
"231036","110-UY","2019/12/28 15:43:38","新北市新店區薏仁坑路6-3號","121.499563333333","24.9587833333333","6500600","新店區"
"231020","189-VK","2019/12/28 15:43:42","新北市新店區金興路12-1號","121.550311666667","24.9297366666667","6500600","新店區"
"231017","KEA-2219","2019/12/28 15:43:43","新北市新店區北宜路一段107-1號","121.539436666667","24.9551433333333","6500600","新店區"
"231033","256-BX","2019/12/28 15:43:32","新北市新店區雙城路36號","121.492031666667","24.9502116666667","6500600","新店區"
"231023","260-TV","2019/12/28 15:43:40","新北市新店區北新路一段169號","121.539958333333","24.964045","6500600","新店區"
"231003","268-BY","2019/12/28 15:43:33","新北市新店區寶興路60巷3號","121.549943333333","24.9718566666667","6500600","新店區"
"231035","278-BY","2019/12/28 15:43:34","新北市新店區安興路83號","121.515256666667","24.9753966666667","6500600","新店區"
"231038","3712-VJ","2019/12/28 15:43:37","新北市新店區安康路二段228巷35弄7號","121.509373333333","24.9600816666667","6500600","新店區"
"231039","512-UM","2019/12/28 15:43:31","新北市新店區寶中路45號","121.545296666667","24.9791366666667","6500600","新店區"
"231034","616-UM","2019/12/28 15:43:31","新北市新店區玫瑰路61巷2號","121.495978333333","24.9452233333333","6500600","新店區"
"231012","KED-0819","2019/12/28 15:43:32","新北市新店區文化路9號","121.54289","24.9793016666667","6500600","新店區"
"231026","720-UM","2019/12/28 15:43:35","新北市新店區三民路51巷5弄4號","121.536403333333","24.9699833333333","6500600","新店區"
"231037","AKT-0513","2019/12/28 15:43:30","新北市新店區安民街365巷1弄8號","121.516346666667","24.9751216666667","6500600","新店區"
"241028","022-UY","2019/12/28 15:43:33","新北市三重區重新路四段146號","121.486388333333","25.0563533333333","6500200","三重區"
"241015","062-VK","2019/12/28 15:43:31","新北市三重區重新路四段121號","121.485215","25.0519816666667","6500200","三重區"
"241017","063-VK","2019/12/28 15:43:21","新北市三重區新北大道一段3-1號","121.49002","25.0613733333333","6500200","三重區"
"241024","065-VK","2019/12/28 15:43:41","新北市三重區大勇街82巷10號","121.479408333333","25.07176","6500200","三重區"
"241007","066-VK","2019/12/28 15:43:41","新北市三重區重新路四段121號","121.48474","25.0519483333333","6500200","三重區"
"241016","266-UM","2019/12/28 15:43:32","新北市三重區重新路四段121號","121.48524","25.0520766666667","6500200","三重區"
"241018","268-UM","2019/12/28 15:43:26","新北市三重區重新路四段121號","121.485225","25.0520316666667","6500200","三重區"
"241013","270-UM","2019/12/28 15:43:23","新北市三重區正義北路291號","121.494926666667","25.070565","6500200","三重區"
"241020","478-VK","2019/12/28 15:43:40","新北市三重區忠孝路二段54號","121.485011666667","25.0704216666667","6500200","三重區"
"241014","543-UM","2019/12/28 15:43:43","新北市三重區重新路四段121號","121.485153333333","25.0520183333333","6500200","三重區"
"241023","545-UM","2019/12/28 15:43:27","新北市三重區忠孝路三段84巷16-1號","121.480751666667","25.0646983333333","6500200","三重區"
"241001","547-UM","2019/12/28 15:43:31","新北市三重區仁義街241巷30號","121.496901666667","25.0832283333333","6500200","三重區"
"241005","AAD-863","2019/12/28 15:43:28","新北市三重區重新路四段121號","121.485158333333","25.0519616666667","6500200","三重區"
"241012","743-BX","2019/12/28 15:43:38","新北市三重區自強路一段66號","121.497066666667","25.06665","6500200","三重區"
"241029","942-UM","2019/12/28 15:43:35","新北市三重區正義南路169號","121.49884","25.05738","6500200","三重區"
"241033","AAC-255","2019/12/28 15:43:44","新北市三重區重新路五段507號","121.472516666667","25.0467183333333","6500200","三重區"
"235003","097-UM","2019/12/28 15:43:41","新北市林口區太平里180號","121.368468333333","25.1343083333333","6500300","中和區"
"235029","098-UM","2019/12/28 15:43:29","新北市中和區華新街143巷106弄26號","121.505413333333","24.9782816666667","6500300","中和區"
"235019","183-VK","2019/12/28 15:43:31","新北市八里區中華路三段15號","121.396941666667","25.1435183333333","6500300","中和區"
"235033","4980-A6","2019/12/28 15:43:42","新北市中和區連城路469巷44弄7號","121.482776666667","24.9945866666667","6500300","中和區"
"235023","AAC-215","2019/12/28 15:43:40","新北市中和區員山路36巷1號","121.482628333333","24.990555","6500300","中和區"
"227002","642-TC","2019/12/28 15:43:43","新北市雙溪區牡丹里頂坪5-1號","121.862803333333","25.03873","6502500","雙溪區"
"227001","400-TW","2019/12/28 15:43:38","新北市雙溪區新基里中華路98號","121.866311666667","25.0393266666667","6502500","雙溪區"
"236074","166-UM","2019/12/28 15:43:30","新北市土城區中央路四段321巷32-2號","121.41172","24.9511233333333","6501300","土城區"
"236029","253-BX","2019/12/28 15:43:37","新北市土城區學成路128巷13弄2號","121.449551666667","24.9901366666667","6501300","土城區"
"236024","269-VK","2019/12/28 15:43:37","新北市土城區中央路一段249巷11號","121.445875","24.9855716666667","6501300","土城區"
"236013","270-VK","2019/12/28 15:43:28","新北市土城區廣明街91號","121.454693333333","24.99436","6501300","土城區"
"236068","KEA-2877","2019/12/28 15:43:33","新北市土城區大安路126號","121.433941666667","24.9697133333333","6501300","土城區"
"236017","401-BY","2019/12/28 15:43:36","新北市土城區和城路二段255巷82-1號","121.474548333333","24.987225","6501300","土城區"
"236057","912-UM","2019/12/28 15:43:41","新北市土城區中央路二段78號","121.442451666667","24.979045","6501300","土城區"
"236045","913-UM","2019/12/28 15:43:27","新北市土城區金城路三段205-1號","121.470385","24.9893283333333","6501300","土城區"
"236054","AAC-216","2019/12/28 15:43:43","新北市土城區中華路一段116號","121.443745","24.9862833333333","6501300","土城區"
"220027","145-BY","2019/12/28 15:43:10","新北市林口區汕頭32號","121.366385","25.1346133333333","6500100","板橋區"
"220022","895-R6","2019/12/28 15:43:25","新北市樹林區中山路三段206號","121.383623333333","24.9667383333333","6500100","板橋區"
