"lineid","car","time","location","longitude","latitude","cityid","cityname"
"234086","338-UY","2019/12/28 18:13:34","新北市永和區福和路1號","121.526358333333","25.009945","6500400","永和區"
"234007","KED-0605","2019/12/28 18:13:39","新北市永和區環河東路二段92號","121.524421666667","25.0106216666667","6500400","永和區"
"234026","9371-KE","2019/12/28 18:13:39","新北市永和區豫溪街28巷19號","121.515043333333","25.0089616666667","6500400","永和區"
"249005","172-UM","2019/12/28 18:13:30","新北市八里區荖阡坑路15號","121.40154","25.14003","6502300","八里區"
"249001","173-UM","2019/12/28 18:13:29","新北市八里區龍米路一段446號","121.45055","25.1343666666667","6502300","八里區"
"249004","303-UY","2019/12/28 18:13:34","新北市八里區龍米路二段200巷3號","121.433696666667","25.1587283333333","6502300","八里區"
"249002","305-UY","2019/12/28 18:13:35","新北市八里區龍形一街3號","121.450696666667","25.130695","6502300","八里區"
"249003","593-UM","2019/12/28 18:13:29","新北市八里區中山路二段466巷36弄20號","121.398578333333","25.148935","6502300","八里區"
"248014","025-BX","2019/12/28 18:13:37","新北市五股區自強路19巷11號","121.434575","25.0737","6501500","五股區"
"248016","026-BX","2019/12/28 18:13:33","新北市五股區成泰路三段221巷16號","121.445746666667","25.0934416666667","6501500","五股區"
"248006","077-UY","2019/12/28 18:13:37","新北市五股區中興路一段169號","121.464733333333","25.0737233333333","6501500","五股區"
"248008","KED-0815","2019/12/28 18:13:41","新北市五股區更洲路32巷26號","121.459093333333","25.08012","6501500","五股區"
"248020","KED-0813","2019/12/28 18:13:38","新北市五股區成泰路三段544-1號","121.454235","25.1023183333333","6501500","五股區"
"248012","247-BX","2019/12/28 18:13:31","新北市五股區御史路2號","121.442323333333","25.0901533333333","6501500","五股區"
"248004","677-BX","2019/12/28 18:13:41","新北市五股區成泰路二段101號","121.438376666667","25.0842616666667","6501500","五股區"
"248002","678-BX","2019/12/28 18:13:30","新北市五股區新五路三段9號","121.444331666667","25.08955","6501500","五股區"
"248010","682-TV","2019/12/28 18:13:34","新北市五股區成泰路一段189巷30-1號","121.4331","25.0767583333333","6501500","五股區"
"234077","969-R7","2019/12/28 18:13:28","新北市永和區福和路1號","121.526455","25.009865","6500400","永和區"
"232011","375-UM","2019/12/28 18:13:36","新北市坪林區下坑子口7號","121.711766666667","24.943515","6502000","坪林區"
"244007","080-UY","2019/12/28 18:13:41","新北市林口區湖北里5鄰24號","121.38613","25.0930916666667","6501700","林口區"
"244019","402-UM","2019/12/28 18:13:24","新北市林口區忠孝路569巷16號","121.373873333333","25.0688866666667","6501700","林口區"
"244013","KEA-2802","2019/12/28 18:13:41","新北市林口區中山路262-1號","121.384586666667","25.0800116666667","6501700","林口區"
"244023","483-VK","2019/12/28 18:13:37","新北市林口區東湖路155號","121.3829","25.07285","6501700","林口區"
"244017","485-VK","2019/12/28 18:13:41","新北市林口區八德路42號","121.367076666667","25.0662383333333","6501700","林口區"
"244009","656-BX","2019/12/28 18:13:35","新北市林口區民生路166號","121.379701666667","25.0878633333333","6501700","林口區"
"244011","701-TV","2019/12/28 18:13:26","新北市林口區仁愛路一段274號","121.393475","25.0761933333333","6501700","林口區"
"244025","837-TS","2019/12/28 18:13:38","新北市林口區文化北路一段301-1號","121.36035","25.072735","6501700","林口區"
"244021","838-TS","2019/12/28 18:13:40","新北市林口區自強一街70號","121.399926666667","25.0770366666667","6501700","林口區"
"208001","267-VK","2019/12/28 18:13:28","新北市金山區磺港里磺港路28號","121.649426666667","25.2288683333333","6502700","金山區"
"222003","KEE-1106","2019/12/28 18:13:34","新北市深坑區文山路二段5號","121.622893333333","25.000325","6501800","深坑區"
"222002","659-BX","2019/12/28 18:13:31","新北市深坑區文化街34號","121.619616666667","25.0015266666667","6501800","深坑區"
"231058","0291-UT","2019/12/28 18:13:36","新北市新店區安華路1-1號","121.51969","24.9604883333333","6500600","新店區"
"231065","110-UY","2019/12/28 18:13:28","新北市新店區安一路一段1-1號","121.519348333333","24.9612016666667","6500600","新店區"
"231054","260-TV","2019/12/28 18:13:38","新北市新店區安一路一段1-1號","121.519365","24.9612183333333","6500600","新店區"
"231064","278-BY","2019/12/28 18:13:36","新北市新店區安一路一段1-1號","121.519743333333","24.9611266666667","6500600","新店區"
"231045","355-BY","2019/12/28 18:13:35","新北市新店區安一路一段1-1號","121.519223333333","24.9609916666667","6500600","新店區"
"231055","4716-K9","2019/12/28 18:13:29","新北市新店區安華路28-1號","121.519775","24.96072","6500600","新店區"
"231056","4715-K9","2019/12/28 18:13:36","新北市新店區安康路一段85號","121.529501666667","24.96138","6500600","新店區"
"231063","616-UM","2019/12/28 18:13:34","新北市新店區安華路28-1號","121.519483333333","24.9606","6500600","新店區"
"231041","619-UM","2019/12/28 18:13:26","新北市新店區安華路28-1號","121.519775","24.9607616666667","6500600","新店區"
"231046","719-UM","2019/12/28 18:13:42","新北市新店區直潭七街60號","121.532275","24.9397483333333","6500600","新店區"
"231057","720-UM","2019/12/28 18:13:32","新北市新店區安一路一段1-1號","121.519281666667","24.9613083333333","6500600","新店區"
"231040","898-TW","2019/12/28 18:13:24","新北市新店區安華路28-1號","121.51943","24.96091","6500600","新店區"
"231043","899-TW","2019/12/28 18:13:38","新北市新店區安華路28-1號","121.519266666667","24.96076","6500600","新店區"
"241033","AAC-255","2019/12/28 18:13:24","新北市三重區光復路一段47號","121.472148333333","25.0486733333333","6500200","三重區"
"235064","005-UY","2019/12/28 18:13:40","新北市中和區圓通路167巷8號","121.497926666667","24.9950316666667","6500300","中和區"
"235063","006-UY","2019/12/28 18:13:31","新北市中和區員山路36巷16-3號","121.484961666667","24.9912816666667","6500300","中和區"
"235072","KEE-1103","2019/12/28 18:13:32","新北市中和區連城路263巷1號","121.492031666667","24.9964916666667","6500300","中和區"
"235056","096-UM","2019/12/28 18:13:38","新北市中和區新生街37號","121.483301666667","25.0033733333333","6500300","中和區"
"235039","097-UM","2019/12/28 18:13:37","新北市中和區中正路221號","121.496131666667","24.9936316666667","6500300","中和區"
"235065","098-UM","2019/12/28 18:13:33","新北市中和區莊敬路49巷18號","121.50165","25.006145","6500300","中和區"
"235040","150-BY","2019/12/28 18:13:24","新北市中和區中正路246號","121.495848333333","24.9939033333333","6500300","中和區"
"235058","151-BY","2019/12/28 18:13:23","新北市中和區錦和路410號","121.490898333333","24.9896133333333","6500300","中和區"
"235055","183-VK","2019/12/28 18:13:22","新北市中和區連城路508號","121.47692","24.9919883333333","6500300","中和區"
"235038","185-VK","2019/12/28 18:13:26","新北市中和區大智街57號","121.521215","24.992115","6500300","中和區"
"235043","352-BY","2019/12/28 18:13:42","新北市中和區景平路381號","121.504006666667","24.99343","6500300","中和區"
"235042","KEA-2878","2019/12/28 18:13:35","新北市中和區景平路169巷11號","121.512441666667","24.9920166666667","6500300","中和區"
"235050","4979-A6","2019/12/28 18:13:23","新北市中和區中正路273號","121.495658333333","24.9936266666667","6500300","中和區"
"235069","4980-A6","2019/12/28 18:13:29","新北市中和區建八路116號","121.488135","24.9984933333333","6500300","中和區"
"235070","558-UM","2019/12/28 18:13:34","新北市中和區圓通路157號","121.498123333333","24.995605","6500300","中和區"
"235045","565-BX","2019/12/28 18:13:39","新北市中和區景安路200巷2弄1號","121.503833333333","24.9915066666667","6500300","中和區"
"235060","KED-0823","2019/12/28 18:13:30","新北市中和區員山路395號","121.481088333333","25.0029616666667","6500300","中和區"
"235054","640-BX","2019/12/28 18:13:37","新北市中和區民享街86巷22號","121.47353","25.00078","6500300","中和區"
"235047","732-UM","2019/12/28 18:13:27","新北市中和區南山路417號","121.507218333333","24.989615","6500300","中和區"
"235046","733-UM","2019/12/28 18:13:34","新北市中和區員山路36巷13號","121.484055","24.9908883333333","6500300","中和區"
"235062","800-TS","2019/12/28 18:13:37","新北市中和區景平路999巷1號","121.495391666667","25.005935","6500300","中和區"
"235057","801-TS","2019/12/28 18:13:42","新北市中和區民享街97巷19號","121.475441666667","24.9995833333333","6500300","中和區"
"235052","805-TS","2019/12/28 18:13:34","新北市中和區興南路二段32巷5號","121.50719","24.9854983333333","6500300","中和區"
"235048","896-TW","2019/12/28 18:13:21","新北市中和區員山路36巷16-2號","121.485241666667","24.9914733333333","6500300","中和區"
"235051","157-BY","2019/12/28 18:13:39","新北市中和區捷運路8號","121.50985","24.9896433333333","6500300","中和區"
"235037","AAC-213","2019/12/28 18:13:24","新北市中和區景德街88號","121.516195","24.99148","6500300","中和區"
"235059","AAC-215","2019/12/28 17:57:00","新北市中和區員山路36巷16-3號","121.4848","24.991175","6500300","中和區"
"207004","KEE-1107","2019/12/28 18:13:40","新北市萬里區中幅里中福路136號","121.674538333333","25.1663233333333","6502800","萬里區"
"226004","312-R5","2019/12/28 18:13:25","新北市平溪區薯榔里薯榔寮20號","121.716648333333","25.0197","6502400","平溪區"
"235049","251-BX","2019/12/28 18:13:27","新北市中和區員山路36巷13號","121.484091666667","24.9909283333333","6500300","中和區"
"228003","097-TW","2019/12/28 18:13:25","新北市貢寮區真理里美艷山街28號","121.92599","25.0657716666667","6502600","貢寮區"
"228001","212-TW","2019/12/28 18:13:32","新北市貢寮區真理里新港街26巷55弄2-1號","121.927396666667","25.0528566666667","6502600","貢寮區"
"228002","663-BX","2019/12/28 18:13:41","新北市貢寮區福連里馬崗街6-1號","122.001636666667","25.0137883333333","6502600","貢寮區"
"224006","676-BX","2019/12/28 18:13:35","新北市瑞芳區三爪子坑路106巷122號","121.808966666667","25.1044716666667","6501200","瑞芳區"
"224007","285-BY","2019/12/28 18:13:28","新北市瑞芳區頂埔巷1弄2號","121.766081666667","25.1024466666667","6501200","瑞芳區"
"224009","275-VK","2019/12/28 18:13:42","新北市瑞芳區金光路246號","121.854456666667","25.10649","6501200","瑞芳區"
"224008","273-VK","2019/12/28 18:13:33","新北市瑞芳區三爪子坑路43號","121.813141666667","25.107455","6501200","瑞芳區"
"224005","271-BY","2019/12/28 18:13:24","新北市瑞芳區建基路二段10號","121.815438333333","25.1284766666667","6501200","瑞芳區"
"227002","642-TC","2019/12/28 18:13:19","新北市雙溪區雙溪里大同街13號","121.864655","25.0350283333333","6502500","雙溪區"
"227001","400-TW","2019/12/28 18:13:38","新北市雙溪區三貂里政光路2-5號","121.852326666667","25.0623416666667","6502500","雙溪區"
"253005","032-BX","2019/12/28 18:13:34","新北市石門區中央路37-5號","121.569615","25.2964333333333","6502200","石門區"
"253006","741-TV","2019/12/28 18:13:23","新北市石門區老梅路52巷21號","121.546395","25.2885816666667","6502200","石門區"
"222001","KEA-2212","2019/12/28 18:13:41","新北市深坑區北深路二段109號","121.617053333333","25.0033483333333","6501800","深坑區"
"208002","KEA-2872","2019/12/28 18:13:35","新北市金山區法鼓路91號","121.624881666667","25.234045","6502700","金山區"
"208003","665-BX","2019/12/28 18:13:42","新北市金山區民生路128號","121.647485","25.2236916666667","6502700","金山區"
"251004","009-UM","2019/12/28 18:13:42","新北市淡水區民族路102號","121.462456666667","25.1353783333333","6501000","淡水區"
"251005","010-UM","2019/12/28 18:13:27","新北市淡水區水源街一段124號","121.447336666667","25.17163","6501000","淡水區"
"251001","011-UM","2019/12/28 18:13:39","新北市淡水區自強路293-1號","121.461988333333","25.1293716666667","6501000","淡水區"
"251002","012-UM","2019/12/28 18:13:40","新北市淡水區中正東路一段117號","121.45469","25.159485","6501000","淡水區"
"251016","180-VK","2019/12/28 18:13:28","新北市淡水區淡金路三段70巷5號","121.448631666667","25.2000383333333","6501000","淡水區"
"251008","181-VK","2019/12/28 18:13:33","新北市淡水區中正東路二段7號","121.457883333333","25.158585","6501000","淡水區"
"251013","182-VK","2019/12/28 18:13:32","新北市淡水區後寮7號","121.476035","25.19872","6501000","淡水區"
"251010","413-VK","2019/12/28 18:13:29","新北市淡水區中正路二段50巷10號","121.419866666667","25.1833416666667","6501000","淡水區"
"251012","441-VK","2019/12/28 18:13:33","新北市淡水區泉洲厝13號","121.488398333333","25.1900783333333","6501000","淡水區"
"251006","561-UM","2019/12/28 18:13:28","新北市淡水區新民街78號","121.438721666667","25.176485","6501000","淡水區"
"251014","577-R6","2019/12/28 18:13:43","新北市淡水區北勢子4-1號","121.485225","25.2235583333333","6501000","淡水區"
"251011","650-BX","2019/12/28 18:13:20","新北市淡水區坪頂路698號","121.481593333333","25.1590383333333","6501000","淡水區"
"251003","766-UM","2019/12/28 18:13:34","新北市淡水區北新路182巷37號","121.44846","25.1774266666667","6501000","淡水區"
"251015","178-VK","2019/12/28 18:13:42","新北市淡水區興福寮88巷1號","121.485385","25.1649816666667","6501000","淡水區"
"252003","249-BX","2019/12/28 18:13:24","新北市三芝區埔頭里埔頭23-1號","121.490388333333","25.2608583333333","6502100","三芝區"
"252001","292-VK","2019/12/28 18:13:41","新北市三芝區中興街二段2號","121.498346666667","25.2566483333333","6502100","三芝區"
"237004","KEA-2597","2019/12/28 18:13:36","新北市三峽區大埔路150-2號","121.364986666667","24.897145","6500900","三峽區"
"237007","153-BY","2019/12/28 18:13:42","新北市三峽區中正路二段370巷36號","121.364601666667","24.91114","6500900","三峽區"
"237009","210-TH","2019/12/28 18:13:34","新北市三峽區大仁路1號","121.366895","24.9376533333333","6500900","三峽區"
"237012","275-BY","2019/12/28 18:13:23","新北市三峽區民生街1巷5-89號","121.378951666667","24.9356","6500900","三峽區"
"237008","302-VK","2019/12/28 18:13:29","新北市三峽區白雞58-2號","121.383518333333","24.9105383333333","6500900","三峽區"
"237006","5530-G3","2019/12/28 18:13:35","新北市三峽區溪東路218巷32號","121.407125","24.9301516666667","6500900","三峽區"
"237013","280-TH","2019/12/28 18:13:43","新北市三峽區永安街15號","121.377505","24.930175","6500900","三峽區"
"237011","KEA-2596","2019/12/28 18:13:41","新北市三峽區橫溪路38號","121.396523333333","24.93551","6500900","三峽區"
"237015","649-BX","2019/12/28 18:13:30","新北市三峽區紫新路36巷1號","121.422083333333","24.92234","6500900","三峽區"
"237010","706-TV","2019/12/28 18:13:40","新北市三峽區民族街151號","121.368853333333","24.92799","6500900","三峽區"
"237005","AKY-6261","2019/12/28 18:13:34","新北市三峽區忠孝街11號","121.370846666667","24.9343983333333","6500900","三峽區"
"236042","KED-0685","2019/12/28 18:13:33","新北市土城區中央路一段289-2號","121.444255","24.984075","6501300","土城區"
"233002","762-BX","2019/12/28 18:13:40","新北市烏來區金堰23號","121.551748333333","24.8837566666667","6502900","烏來區"
"236079","166-UM","2019/12/28 18:13:34","新北市土城區永安街42號","121.433331666667","24.96451","6501300","土城區"
"236030","253-BX","2019/12/28 18:13:30","新北市土城區中央路二段93號","121.4422","24.9781416666667","6501300","土城區"
"236026","269-VK","2019/12/28 18:13:37","新北市土城區承天路67號","121.439595","24.963435","6501300","土城區"
"236014","270-VK","2019/12/28 18:13:30","新北市土城區青雲路39巷7號","121.460301666667","24.9875383333333","6501300","土城區"
"236038","271-VK","2019/12/28 18:13:39","新北市土城區青雲路453號","121.458708333333","24.9745433333333","6501300","土城區"
"236070","KEA-2877","2019/12/28 18:13:41","新北市土城區明德路一段128巷7號","121.463283333333","24.9790433333333","6501300","土城區"
"252002","KED-0821","2019/12/28 18:13:43","新北市三芝區中山路二段39號","121.502931666667","25.2550833333333","6502100","三芝區"
"236021","401-BY","2019/12/28 18:13:40","新北市土城區明德路一段375-3號","121.45416","24.9785433333333","6501300","土城區"
"236059","912-UM","2019/12/28 18:13:25","新北市土城區中央路四段322號","121.413741666667","24.9557566666667","6501300","土城區"
"236049","913-UM","2019/12/28 18:13:35","新北市土城區明德路一段365-1號","121.453543333333","24.9790466666667","6501300","土城區"
"236063","915-UM","2019/12/28 18:13:26","新北市土城區金城路三段202-3號","121.469583333333","24.9886583333333","6501300","土城區"
"236055","AAC-216","2019/12/28 18:13:41","新北市土城區中華路二段92號","121.438206666667","24.9747366666667","6501300","土城區"
"242042","AAC-296","2019/12/28 18:13:29","新北市新莊區天祥街121巷19號","121.414233333333","25.0289916666667","6500500","新莊區"
"242061","986-R7","2019/12/28 18:13:39","新北市新莊區新樹路207-7號","121.435863333333","25.0238866666667","6500500","新莊區"
"242004","751-BX","2019/12/28 18:13:43","新北市新莊區自立街108號","121.455091666667","25.0453666666667","6500500","新莊區"
"242025","705-TV","2019/12/28 18:13:37","新北市新莊區五權一路3-9號","121.457568333333","25.0656633333333","6500500","新莊區"
"242029","615-BX","2019/12/28 18:13:32","新北市新莊區幸福路858號","121.443881666667","25.049055","6500500","新莊區"
"242027","613-BX","2019/12/28 18:13:40","新北市新莊區幸福路546號","121.455128333333","25.0493133333333","6500500","新莊區"
"242058","612-BX","2019/12/28 18:13:25","新北市新莊區壽山路49-6號","121.413916666667","25.03057","6500500","新莊區"
"242048","566-BX","2019/12/28 18:13:28","新北市新莊區富國路130號","121.422618333333","25.0251616666667","6500500","新莊區"
"242053","497-BY","2019/12/28 18:13:26","新北市新莊區西盛街417巷23號","121.428261666667","25.01181","6500500","新莊區"
"242002","441-UM","2019/12/28 18:13:36","新北市新莊區新莊路36號","121.458318333333","25.03705","6500500","新莊區"
"242007","440-UM","2019/12/28 18:13:42","新北市新莊區自立街81號","121.454561666667","25.0454033333333","6500500","新莊區"
"242044","415-TV","2019/12/28 18:13:42","新北市新莊區中正路力行巷34號","121.41635","25.02664","6500500","新莊區"
"242013","413-TV","2019/12/28 18:13:27","新北市新莊區瓊泰路77巷16號","121.442151666667","25.0291866666667","6500500","新莊區"
"242051","400-BY","2019/12/28 18:13:32","新北市新莊區民本街25巷17號","121.429155","25.0195133333333","6500500","新莊區"
"242039","135-UY","2019/12/28 18:13:36","新北市新莊區民安東路182號","121.433548333333","25.0203633333333","6500500","新莊區"
"242017","173-VK","2019/12/28 18:13:39","新北市新莊區中港路303號","121.45285","25.0446266666667","6500500","新莊區"
"242031","175-VK","2019/12/28 18:13:39","新北市新莊區新泰路277巷11號","121.445248333333","25.0402066666667","6500500","新莊區"
"242056","176-VK","2019/12/28 18:13:29","新北市新莊區豐年街豐2巷41號","121.4479","25.0309316666667","6500500","新莊區"
"242021","KED-0687","2019/12/28 18:13:15","新北市新莊區中華路一段63巷40號","121.450085","25.0392666666667","6500500","新莊區"
"242019","346-TH","2019/12/28 18:13:38","新北市新莊區長青街37巷22弄1號","121.456221666667","25.0412466666667","6500500","新莊區"
"242015","347-TH","2019/12/28 18:13:38","新北市新莊區中平路132巷6號","121.445381666667","25.0467116666667","6500500","新莊區"
"242036","348-TH","2019/12/28 18:13:40","新北市新莊區後港一路49巷3弄11號","121.425151666667","25.0266933333333","6500500","新莊區"
"242009","349-TH","2019/12/28 18:13:35","新北市新莊區昌平街41巷5號","121.454293333333","25.0523883333333","6500500","新莊區"
"242034","350-TH","2019/12/28 18:13:37","新北市新莊區新莊路440號","121.447696666667","25.0334583333333","6500500","新莊區"
"238015","755-BX","2019/12/28 18:13:41","新北市樹林區文德街2巷2號","121.419431666667","24.9912816666667","6500700","樹林區"
"238023","601-UM","2019/12/28 18:13:30","新北市樹林區三福街47巷10號","121.407926666667","25.01584","6500700","樹林區"
"238019","599-UM","2019/12/28 18:13:39","新北市樹林區水源街38號","121.425565","24.9814233333333","6500700","樹林區"
"238020","571-TV","2019/12/28 18:13:37","新北市樹林區三龍街107號","121.417118333333","25.018345","6500700","樹林區"
"238018","KEA-2217","2019/12/28 18:13:39","新北市樹林區博愛街121號","121.426105","24.9908333333333","6500700","樹林區"
"238021","KEA-2539","2019/12/28 18:13:31","新北市樹林區柑園街二段28號","121.387348333333","24.9558916666667","6500700","樹林區"
"238025","303-VK","2019/12/28 18:13:23","新北市樹林區保安街一段327-3號","121.417548333333","24.9985016666667","6500700","樹林區"
"238017","283-BY","2019/12/28 18:13:27","新北市樹林區保安街二段337巷8弄2號","121.411235","25.0082583333333","6500700","樹林區"
"238014","282-BY","2019/12/28 18:13:28","新北市樹林區大安路3號","121.42505","25.0006466666667","6500700","樹林區"
"238026","172-UY","2019/12/28 18:13:41","新北市樹林區佳園路一段52號","121.393046666667","24.970625","6500700","樹林區"
"239007","AAC-297","2019/12/28 18:13:40","","121.345963333333","24.9507866666667","6500800","鶯歌區"
"239006","891-R6","2019/12/28 18:13:39","新北市鶯歌區鶯桃路365巷86號","121.33106","24.9622","6500800","鶯歌區"
"239008","527-UM","2019/12/28 18:13:33","新北市鶯歌區朝陽街1號","121.336273333333","24.9765833333333","6500800","鶯歌區"
"239005","526-UM","2019/12/28 18:13:35","新北市鶯歌區鶯桃路668巷73號","121.32995","24.9717983333333","6500800","鶯歌區"
"239001","417-VK","2019/12/28 18:13:38","新北市鶯歌區中正三路373-1號","121.327105","24.9344583333333","6500800","鶯歌區"
"239003","360-BY","2019/12/28 18:13:35","新北市鶯歌區福安街58號","121.335588333333","24.965185","6500800","鶯歌區"
"239002","359-BY","2019/12/28 18:13:27","新北市鶯歌區中山路329巷26弄2號","121.345136666667","24.95647","6500800","鶯歌區"
"239004","193-VK","2019/12/28 18:13:28","新北市鶯歌區尖山路88號","121.348653333333","24.9494966666667","6500800","鶯歌區"
"221036","130-UY","2019/12/28 18:13:42","新北市汐止區大同路三段116號","121.672031666667","25.0767666666667","6501100","汐止區"
"221015","131-UY","2019/12/28 18:13:39","新北市汐止區長江街334號","121.666896666667","25.0817833333333","6501100","汐止區"
"221010","269-BY","2019/12/28 18:13:42","新北市汐止區汐萬路二段275巷3弄1號","121.645268333333","25.0887383333333","6501100","汐止區"
"221012","278-VK","2019/12/28 18:13:37","新北市汐止區保一街81號","121.674593333333","25.0801716666667","6501100","汐止區"
"221023","279-VK","2019/12/28 18:13:28","新北市汐止區中興路293號","121.627986666667","25.0700416666667","6501100","汐止區"
"221032","280-BY","2019/12/28 18:13:31","新北市汐止區橫科路25號","121.618045","25.0511916666667","6501100","汐止區"
"221027","281-BY","2019/12/28 18:13:38","新北市汐止區和平街6巷1弄2號","121.663395","25.0711866666667","6501100","汐止區"
"221029","298-VK","2019/12/28 18:13:34","新北市汐止區樟樹二路320號","121.641386666667","25.07002","6501100","汐止區"
"221021","299-VK","2019/12/28 18:13:37","新北市汐止區復興路24號","121.655985","25.0638233333333","6501100","汐止區"
"207003","KEE-1020","2019/12/28 18:13:35","新北市萬里區港東路野柳風景區攤販153號","121.690745","25.2054866666667","6502800","萬里區"
"221031","567-BX","2019/12/28 18:13:30","新北市汐止區中興路181巷16弄12號","121.629558333333","25.0667116666667","6501100","汐止區"
"221035","622-UM","2019/12/28 18:13:29","新北市汐止區新江北路30巷17號","121.651958333333","25.0693416666667","6501100","汐止區"
"221025","623-UM","2019/12/28 18:13:42","新北市汐止區勤進路3巷27號","121.661071666667","25.0617133333333","6501100","汐止區"
"221038","646-BX","2019/12/28 18:13:39","新北市汐止區復興路119號","121.65943","25.0606833333333","6501100","汐止區"
"221033","647-BX","2019/12/28 18:13:29","新北市汐止區宜興街40巷22弄2號","121.622495","25.0411016666667","6501100","汐止區"
"221002","707-TV","2019/12/28 18:13:41","新北市汐止區福德一路195號","121.635446666667","25.065695","6501100","汐止區"
"221018","753-BX","2019/12/28 18:13:27","新北市汐止區忠孝東路384號","121.66548","25.0700483333333","6501100","汐止區"
"224002","257-TC","2019/12/28 18:13:25","新北市瑞芳區三爪子坑路201號","121.811568333333","25.10578","6501200","瑞芳區"
"242046","281-VK","2019/12/28 18:13:37","新北市新莊區福營路334號","121.421708333333","25.0267966666667","6500500","新莊區"
"242011","280-VK","2019/12/28 18:13:36","新北市新莊區中信街86號","121.44793","25.0532716666667","6500500","新莊區"
"235061","KEA-2875","2019/12/28 18:13:28","新北市中和區國光街8巷2號","121.471683333333","25.0002633333333","6500300","中和區"
