"lineid","car","time","location","longitude","latitude","cityid","cityname"
"234044","148-BY","2019/12/31 13:13:31","新北市永和區秀朗路二段148巷12弄2號","121.525333333333","25.0007816666667","6500400","永和區"
"234078","298-R6","2019/12/31 13:13:43","新北市永和區永貞路41號","121.521116666667","25.0064516666667","6500400","永和區"
"234036","336-UY","2019/12/31 13:13:43","新北市永和區環河東路4段84-1號","121.528406666667","24.9979233333333","6500400","永和區"
"234062","337-UY","2019/12/31 13:13:35","新北市永和區永元路60號","121.52237","25.0013033333333","6500400","永和區"
"234084","338-UY","2019/12/31 13:13:31","新北市永和區永利路2號","121.517358333333","25.0058533333333","6500400","永和區"
"234068","552-UM","2019/12/31 13:13:36","新北市永和區豫溪街137巷1弄9號","121.519265","25.01043","6500400","永和區"
"234015","745-BX","2019/12/31 13:13:29","新北市永和區文化路90巷34號","121.513496666667","25.0163333333333","6500400","永和區"
"234028","746-BX","2019/12/31 13:13:36","新北市永和區民生路21號","121.522901666667","24.998925","6500400","永和區"
"234052","KEA-2590","2019/12/31 13:13:45","新北市永和區中興街80號","121.517928333333","25.0119733333333","6500400","永和區"
"234005","KED-0605","2019/12/31 13:13:41","新北市永和區中山路一段168號","121.509385","25.009165","6500400","永和區"
"234012","KEA-2591","2019/12/31 13:13:24","新北市永和區保福路二段56號","121.510893333333","25.0123433333333","6500400","永和區"
"234060","AAD-866","2019/12/31 13:13:28","新北市永和區秀朗路一段95號","121.515401666667","25.0062766666667","6500400","永和區"
"234040","862-TW","2019/12/31 13:13:30","新北市永和區保平路203巷23號","121.509133333333","25.0047833333333","6500400","永和區"
"234048","863-TW","2019/12/31 13:13:33","新北市永和區仁愛路142號","121.511041666667","25.0133883333333","6500400","永和區"
"234025","9371-KE","2019/12/31 13:13:28","新北市永和區豫溪街28巷22號","121.51502","25.0089116666667","6500400","永和區"
"234010","9373-KE","2019/12/31 13:13:31","新北市永和區文化路126巷15弄2號","121.513058333333","25.0158366666667","6500400","永和區"
"248017","KED-0813","2019/12/31 13:13:43","新北市五股區成泰路三段59號","121.443301666667","25.089575","6501500","五股區"
"234022","9380-KE","2019/12/31 13:13:42","新北市永和區竹林路124巷41號","121.518235","25.0111983333333","6500400","永和區"
"234076","969-R7","2019/12/31 13:13:28","新北市永和區民有街9號","121.516253333333","24.9969666666667","6500400","永和區"
"234072","AAC-211","2019/12/31 13:13:24","新北市永和區竹林路112-1號","121.519756666667","25.01177","6500400","永和區"
"234066","AAC-212","2019/12/31 13:13:36","新北市永和區保平路18巷5號","121.512208333333","25.0078","6500400","永和區"
"234001","AAC-295","2019/12/31 13:13:43","新北市永和區和平街35號","121.512965","25.0098316666667","6500400","永和區"
"231030","002-UM","2019/12/31 13:13:35","新北市新店區安華路28-1號","121.519506666667","24.9607833333333","6500600","新店區"
"231029","106-UY","2019/12/31 13:13:37","新北市新店區安華路28-1號","121.519608333333","24.96074","6500600","新店區"
"231018","107-UY","2019/12/31 13:12:20","新北市新店區安一路一段1-1號","121.51911","24.9614266666667","6500600","新店區"
"231013","108-UY","2019/12/31 12:48:08","新北市新店區安一路一段1-1號","121.519341666667","24.9610583333333","6500600","新店區"
"231036","110-UY","2019/12/31 13:13:32","新北市新店區安華路1-1號","121.51954","24.960295","6500600","新店區"
"231020","189-VK","2019/12/31 13:13:41","新北市新店區安華路28-1號","121.519728333333","24.9609816666667","6500600","新店區"
"231023","260-TV","2019/12/31 13:13:36","新北市新店區安一路一段1-1號","121.519463333333","24.9613416666667","6500600","新店區"
"231003","268-BY","2019/12/31 13:13:29","新北市新店區安一路一段1-1號","121.519643333333","24.961345","6500600","新店區"
"231035","278-BY","2019/12/31 13:13:25","新北市新店區安華路28-1號","121.52021","24.961115","6500600","新店區"
"231025","4715-K9","2019/12/31 13:13:39","新北市新店區安華路1-1號","121.519266666667","24.9603583333333","6500600","新店區"
"231001","617-UM","2019/12/31 13:13:35","新北市新店區安華路28-1號","121.51928","24.96076","6500600","新店區"
"231002","619-UM","2019/12/31 13:13:31","新北市新店區安華路28-1號","121.520156666667","24.9605966666667","6500600","新店區"
"231010","719-UM","2019/12/31 13:13:45","新北市新店區安一路一段1-1號","121.519363333333","24.9612266666667","6500600","新店區"
"231026","720-UM","2019/12/31 13:13:40","新北市新店區安一路一段1-1號","121.519318333333","24.9611366666667","6500600","新店區"
"231028","897-TW","2019/12/31 13:13:30","新北市新店區安華路1-1號","121.519358333333","24.9605483333333","6500600","新店區"
"231004","899-TW","2019/12/31 13:13:39","新北市新店區安華路28-1號","121.51899","24.9608883333333","6500600","新店區"
"235030","003-UY","2019/12/31 13:13:44","新北市中和區中山路二段121號","121.502745","25.0035983333333","6500300","中和區"
"235028","005-UY","2019/12/31 13:13:26","新北市中和區圓通路164號","121.497461666667","24.9949283333333","6500300","中和區"
"235027","006-UY","2019/12/31 13:13:40","新北市中和區員山路36巷16-3號","121.485088333333","24.9913366666667","6500300","中和區"
"235036","KEE-1103","2019/12/31 13:13:30","新北市中和區連城路269號","121.490826666667","24.9963083333333","6500300","中和區"
"235020","096-UM","2019/12/31 13:13:39","新北市中和區員山路36巷16-3號","121.484648333333","24.9909433333333","6500300","中和區"
"235003","097-UM","2019/12/31 13:13:26","新北市中和區中正路161巷2號","121.498543333333","24.993625","6500300","中和區"
"235029","098-UM","2019/12/31 13:13:37","新北市中和區莊敬路49巷20弄22號","121.502733333333","25.0058666666667","6500300","中和區"
"235004","150-BY","2019/12/31 13:13:42","新北市中和區中正路167巷17號","121.498525","24.9928933333333","6500300","中和區"
"235022","151-BY","2019/12/31 13:13:39","新北市中和區圓通路367巷21-1號","121.492565","24.98646","6500300","中和區"
"235019","183-VK","2019/12/31 13:13:29","新北市中和區員山路72號","121.480921666667","24.9936316666667","6500300","中和區"
"235002","185-VK","2019/12/31 13:13:33","新北市中和區大智街57號","121.521163333333","24.9921166666667","6500300","中和區"
"235031","255-BX","2019/12/31 13:13:24","新北市中和區新生街175號","121.483723333333","25.0006966666667","6500300","中和區"
"235035","301-VK","2019/12/31 13:13:36","新北市中和區立德街202號","121.484676666667","25.0093333333333","6500300","中和區"
"235007","352-BY","2019/12/31 13:13:30","新北市中和區景平路381號","121.503938333333","24.9934233333333","6500300","中和區"
"235006","KEA-2878","2019/12/31 13:13:30","新北市中和區中正路21號","121.502748333333","24.9934333333333","6500300","中和區"
"235050","4979-A6","2019/12/31 13:13:33","新北市中和區中正路141號","121.499306666667","24.9935933333333","6500300","中和區"
"235033","4980-A6","2019/12/31 13:13:32","新北市中和區圓通路162巷37弄1號","121.496363333333","24.9953233333333","6500300","中和區"
"235034","558-UM","2019/12/31 13:13:41","新北市中和區圓通路124號","121.498753333333","24.9958483333333","6500300","中和區"
"235009","565-BX","2019/12/31 13:13:38","新北市中和區復興路73號","121.503745","24.9903133333333","6500300","中和區"
"235024","KED-0823","2019/12/31 13:13:37","新北市中和區員山路271-1號","121.481261666667","24.9994133333333","6500300","中和區"
"235018","640-BX","2019/12/31 13:13:42","新北市中和區民享街86巷31號","121.472698333333","25.000325","6500300","中和區"
"235011","732-UM","2019/12/31 13:13:41","新北市中和區錦和路350-1號","121.490363333333","24.9935316666667","6500300","中和區"
"235026","800-TS","2019/12/31 13:13:43","新北市中和區建八路130號","121.488891666667","24.9986166666667","6500300","中和區"
"235021","801-TS","2019/12/31 13:13:33","新北市中和區民享街97巷15號","121.475485","24.99992","6500300","中和區"
"235005","802-TS","2019/12/31 13:13:28","新北市中和區中正路155號","121.499111666667","24.9936033333333","6500300","中和區"
"235016","805-TS","2019/12/31 13:13:25","新北市中和區南山路300號","121.507936666667","24.9871216666667","6500300","中和區"
"235017","900-TW","2019/12/31 13:13:25","新北市中和區員山路36巷16-2號","121.48534","24.9914366666667","6500300","中和區"
"235015","157-BY","2019/12/31 13:13:42","新北市中和區信義街25-1號","121.511093333333","24.989315","6500300","中和區"
"235001","AAC-213","2019/12/31 13:13:38","新北市中和區景新街383巷50號","121.514536666667","24.9907483333333","6500300","中和區"
"235013","251-BX","2019/12/31 13:13:36","新北市中和區員山路36巷13號","121.484285","24.99102","6500300","中和區"
"228004","212-TW","2019/12/31 13:13:23","新北市貢寮區吉林里內寮街65-2號","121.891735","24.9769833333333","6502600","貢寮區"
"228005","828-UM","2019/12/31 13:13:42","新北市貢寮區美豐里丹裡街10-1號","121.917343333333","25.0554433333333","6502600","貢寮區"
"207002","749-BX","2019/12/31 13:13:26","新北市萬里區崁腳里崁腳路166號","121.645086666667","25.1558766666667","6502800","萬里區"
"207001","662-BX","2019/12/31 13:13:41","新北市萬里區萬里里瑪鋉路314號","121.68822","25.1820866666667","6502800","萬里區"
"252005","AAC-283","2019/12/31 13:13:34","新北市三芝區埔坪里埔頭坑166號","121.506656666667","25.249775","6502100","三芝區"
"220108","985-R7","2019/12/31 13:13:44","新北市板橋區華東街1-10號","121.448288333333","24.9949716666667","6500100","板橋區"
