"lineid","car","time","location","longitude","latitude","cityid","cityname"
"234046","148-BY","2019/12/31 19:13:39","新北市永和區秀朗路二段148巷5弄1號","121.525405","25.00083","6500400","永和區"
"234081","298-R6","2019/12/31 19:13:29","新北市永和區永貞路39巷9弄1號","121.521771666667","25.0066283333333","6500400","永和區"
"234038","336-UY","2019/12/31 19:13:39","新北市永和區環河東路四段86號","121.528188333333","24.9977333333333","6500400","永和區"
"234064","337-UY","2019/12/31 19:13:34","新北市永和區永元路71號","121.522223333333","25.0010616666667","6500400","永和區"
"234086","338-UY","2019/12/31 19:13:41","新北市永和區永貞路87號","121.51847","25.0044233333333","6500400","永和區"
"234070","552-UM","2019/12/31 19:13:36","新北市永和區豫溪街135號","121.519715","25.0102166666667","6500400","永和區"
"234017","745-BX","2019/12/31 19:13:33","新北市永和區文化路90巷36號","121.5134","25.016515","6500400","永和區"
"234030","746-BX","2019/12/31 19:13:25","新北市永和區厚德街114號","121.523258333333","24.99898","6500400","永和區"
"234054","KEA-2590","2019/12/31 19:13:38","新北市永和區中興街82號","121.518303333333","25.0120966666667","6500400","永和區"
"234007","KED-0605","2019/12/31 19:13:36","新北市中和區中山路二段60號","121.503996666667","25.0048083333333","6500400","永和區"
"234013","KEA-2591","2019/12/31 19:13:31","新北市永和區仁愛路150號","121.51082","25.0130116666667","6500400","永和區"
"234061","AAD-866","2019/12/31 19:13:36","新北市永和區秀朗路一段90巷2號","121.516016666667","25.00502","6500400","永和區"
"234042","862-TW","2019/12/31 19:13:33","新北市永和區保平路203巷1號","121.50912","25.0048066666667","6500400","永和區"
"234050","863-TW","2019/12/31 19:13:26","新北市永和區保福路二段96號","121.510316666667","25.0135566666667","6500400","永和區"
"234026","9371-KE","2019/12/31 19:13:37","新北市永和區安樂路198巷4弄2號","121.515563333333","25.002","6500400","永和區"
"234011","9373-KE","2019/12/31 19:13:41","新北市永和區保福路二段9巷15弄12號","121.510435","25.010615","6500400","永和區"
"249001","173-UM","2019/12/31 19:13:38","新北市八里區大崁腳48-53號","121.424831666667","25.1592433333333","6502300","八里區"
"249002","305-UY","2019/12/31 19:13:33","新北市八里區龍形一街33巷6-2號","121.449328333333","25.129475","6502300","八里區"
"249003","593-UM","2019/12/31 19:13:31","新北市八里區博物館路555號","121.403353333333","25.1546233333333","6502300","八里區"
"248008","KED-0815","2019/12/31 19:13:41","新北市五股區中興路一段174號","121.463511666667","25.0742433333333","6501500","五股區"
"248020","KED-0813","2019/12/31 19:13:36","新北市五股區凌雲路三段57號","121.42528","25.1249883333333","6501500","五股區"
"248004","677-BX","2019/12/31 19:13:24","新北市五股區五福路18號","121.43426","25.088735","6501500","五股區"
"248002","678-BX","2019/12/31 19:13:42","新北市五股區凌雲路一段158巷6號","121.44778","25.1029816666667","6501500","五股區"
"248010","682-TV","2019/12/31 19:13:35","新北市五股區水碓五路59號","121.42931","25.0713316666667","6501500","五股區"
"234023","9380-KE","2019/12/31 19:13:37","新北市永和區中興街10巷29號","121.516425","25.0110316666667","6500400","永和區"
"234077","969-R7","2019/12/31 19:13:40","新北市永和區民族街27巷13號","121.51957","24.9996566666667","6500400","永和區"
"234074","AAC-211","2019/12/31 19:13:35","新北市永和區竹林路133-3號","121.520225","25.0107866666667","6500400","永和區"
"234067","AAC-212","2019/12/31 19:13:42","新北市永和區保平路18巷12號","121.512158333333","25.0079266666667","6500400","永和區"
"234003","AAC-295","2019/12/31 19:13:41","新北市永和區永平路152巷4號","121.511605","25.008895","6500400","永和區"
"244023","483-VK","2019/12/31 19:13:22","新北市林口區民權路12巷1號","121.371531666667","25.07998","6501700","林口區"
"244025","837-TS","2019/12/31 19:13:29","新北市林口區文化三路一段447巷29號","121.367671666667","25.07503","6501700","林口區"
"208001","267-VK","2019/12/31 19:13:36","新北市金山區慈護街21號","121.639606666667","25.22022","6502700","金山區"
"243012","AAD-798","2019/12/31 19:13:40","新北市泰山區辭修路36巷8弄5號","121.42782","25.0586833333333","6501600","泰山區"
"243010","297-R6","2019/12/31 19:13:34","新北市泰山區明志路一段481號","121.430995","25.0554216666667","6501600","泰山區"
"243014","KEA-2801","2019/12/31 19:13:31","新北市泰山區泰林路二段385巷1號","121.427646666667","25.06422","6501600","泰山區"
"243016","421-VK","2019/12/31 19:13:29","新北市泰山區明志路三段98號","121.425086666667","25.0411383333333","6501600","泰山區"
"243009","KEA-2215","2019/12/31 19:13:26","新北市泰山區明志路一段122巷27號","121.432666666667","25.0637","6501600","泰山區"
"243011","KEA-2216","2019/12/31 19:13:26","新北市泰山區明志路二段356號","121.425405","25.0453066666667","6501600","泰山區"
"243013","646-TV","2019/12/31 19:13:38","新北市泰山區台麗街9號","121.424458333333","25.038345","6501600","泰山區"
"243015","680-BX","2019/12/31 19:13:31","新北市泰山區明志路一段398號","121.43079","25.0571366666667","6501600","泰山區"
"222003","KEE-1106","2019/12/31 19:13:35","新北市深坑區深南路204號","121.626623333333","25.0160416666667","6501800","深坑區"
"222002","659-BX","2019/12/31 19:13:44","新北市深坑區紅葉街2號","121.633166666667","25.0112216666667","6501800","深坑區"
"231061","002-UM","2019/12/31 19:13:34","新北市新店區安康路一段89號","121.529246666667","24.96144","6500600","新店區"
"231058","0293-UT","2019/12/31 19:13:32","新北市新店區光明街65號","121.538806666667","24.9604533333333","6500600","新店區"
"231044","046-UY","2019/12/31 19:13:29","新北市新店區中興路三段170號","121.544196666667","24.9809466666667","6500600","新店區"
"231060","106-UY","2019/12/31 19:13:36","新北市新店區安康路二段210-1號","121.510013333333","24.95946","6500600","新店區"
"231051","107-UY","2019/12/31 19:13:28","新北市新店區中正路382巷5號","121.535145","24.97748","6500600","新店區"
"231049","108-UY","2019/12/31 19:13:40","新北市新店區北新路三段74號","121.542075","24.980535","6500600","新店區"
"231065","110-UY","2019/12/31 19:13:26","新北市新店區安祥路112號","121.474858333333","24.956925","6500600","新店區"
"231053","189-VK","2019/12/31 19:13:29","新北市新店區屈尺路87巷2號","121.545535","24.9227233333333","6500600","新店區"
"231062","256-BX","2019/12/31 19:13:36","新北市新店區安平路21號","121.5231","24.9676483333333","6500600","新店區"
"231054","260-TV","2019/12/31 19:13:36","新北市新店區新店路201號","121.537116666667","24.956385","6500600","新店區"
"231042","268-BY","2019/12/31 19:13:24","新北市新店區中興路一段115號","121.54155","24.9626333333333","6500600","新店區"
"231064","278-BY","2019/12/31 19:13:28","新北市新店區安忠路79號","121.511163333333","24.9571733333333","6500600","新店區"
"231050","AAD-862","2019/12/31 19:13:31","新北市新店區竹林路30巷21號","121.552005","24.9501366666667","6500600","新店區"
"231045","355-BY","2019/12/31 19:13:21","新北市新店區北宜路一段154號","121.540275","24.9536883333333","6500600","新店區"
"231056","4715-K9","2019/12/31 19:13:27","新北市新店區安興路137-1號","121.516246666667","24.9794216666667","6500600","新店區"
"231063","616-UM","2019/12/31 19:13:28","新北市新店區達觀路8巷1號","121.505235","24.94298","6500600","新店區"
"231040","617-UM","2019/12/31 19:13:39","新北市新店區三民路155-1號","121.533868333333","24.9734566666667","6500600","新店區"
"231041","619-UM","2019/12/31 19:13:37","新北市新店區溪園路363號","121.52314","24.980855","6500600","新店區"
"231048","KED-0819","2019/12/31 19:13:31","新北市新店區德正街27巷29弄143號","121.545616666667","24.9735866666667","6500600","新店區"
"231046","719-UM","2019/12/31 19:13:25","新北市新店區華城路12-1號","121.529175","24.9578433333333","6500600","新店區"
"231057","720-UM","2019/12/31 19:13:42","新北市新店區百齡一路12號","121.553051666667","24.93251","6500600","新店區"
"231059","897-TW","2019/12/31 19:13:40","新北市新店區安和路一段52巷2號","121.517643333333","24.966185","6500600","新店區"
"231043","899-TW","2019/12/31 19:13:22","新北市新店區寶橋路10號","121.545811666667","24.974745","6500600","新店區"
"231066","AKT-0513","2019/12/31 19:13:38","新北市新店區安祥路35-2號","121.49076","24.9567433333333","6500600","新店區"
"241031","061-VK","2019/12/31 19:13:39","新北市三重區捷運路22巷6號","121.484983333333","25.0555933333333","6500200","三重區"
"241007","066-VK","2019/12/31 19:13:39","新北市三重區慈愛街8號","121.48448","25.0784266666667","6500200","三重區"
"241020","316-R6","2019/12/31 19:13:39","新北市三重區後竹圍街132號","121.488085","25.07259","6500200","三重區"
"241035","KEA-2210","2019/12/31 19:13:26","新北市三重區信義西街138號","121.49567","25.06436","6500200","三重區"
"241026","480-VK","2019/12/31 19:13:27","新北市三重區中正南路201號","121.49329","25.0540516666667","6500200","三重區"
"241022","KED-0820","2019/12/31 19:13:31","新北市三重區中正北路111-2號","121.485181666667","25.0656416666667","6500200","三重區"
"241029","942-UM","2019/12/31 19:13:38","新北市三重區中正南路199號","121.493406666667","25.054515","6500200","三重區"
"235066","003-UY","2019/12/31 19:13:23","新北市中和區廣福路88號","121.502826666667","25.0014516666667","6500300","中和區"
"235064","005-UY","2019/12/31 19:13:33","新北市中和區中和路26巷12號","121.499331666667","25.0015516666667","6500300","中和區"
"235063","006-UY","2019/12/31 19:13:33","新北市中和區連城路249巷28弄2號","121.494663333333","24.9951366666667","6500300","中和區"
"235072","KEE-1103","2019/12/31 19:13:37","新北市中和區連城路97號","121.496501666667","24.9999316666667","6500300","中和區"
"235056","096-UM","2019/12/31 19:13:31","新北市中和區新民街12-3號","121.482016666667","25.007395","6500300","中和區"
"235039","097-UM","2019/12/31 19:13:33","新北市中和區景平路3號","121.523618333333","24.9902833333333","6500300","中和區"
"235065","098-UM","2019/12/31 19:13:37","新北市中和區中山路二段64巷12弄1號","121.503713333333","25.0053483333333","6500300","中和區"
"235040","150-BY","2019/12/31 19:13:36","新北市中和區保健路61巷7號","121.509745","24.9974833333333","6500300","中和區"
"235058","151-BY","2019/12/31 19:13:37","新北市中和區連城路342號","121.482761666667","24.9958283333333","6500300","中和區"
"235055","183-VK","2019/12/31 19:13:39","新北市中和區莒光路84巷1號","121.472001666667","25.00254","6500300","中和區"
"235038","185-VK","2019/12/31 19:13:29","新北市中和區大仁街10巷17號","121.518613333333","24.99259","6500300","中和區"
"235067","255-BX","2019/12/31 19:13:42","新北市中和區民樂路81號","121.484626666667","25.001255","6500300","中和區"
"235044","293-VK","2019/12/31 19:13:32","新北市中和區中興街233巷8弄12號","121.500973333333","24.9892883333333","6500300","中和區"
"235071","301-VK","2019/12/31 19:13:41","新北市中和區連城路330號","121.483166666667","24.9959466666667","6500300","中和區"
"235043","352-BY","2019/12/31 19:13:29","新北市中和區景平路374號","121.510845","24.9931566666667","6500300","中和區"
"235042","KEA-2878","2019/12/31 19:13:31","新北市永和區民有街27號","121.517411666667","24.9960366666667","6500300","中和區"
"235050","4979-A6","2019/12/31 19:13:35","新北市中和區復興路263巷9弄11號","121.503303333333","24.989835","6500300","中和區"
"235069","4980-A6","2019/12/31 19:13:33","新北市中和區中和路217巷6號","121.504093333333","25.0003383333333","6500300","中和區"
"235070","558-UM","2019/12/31 19:13:24","新北市中和區中山路二段227號","121.498395","25.0026016666667","6500300","中和區"
"235045","565-BX","2019/12/31 19:13:23","新北市中和區景新街423巷35弄16號","121.514078333333","24.989975","6500300","中和區"
"235060","KED-0823","2019/12/31 19:13:37","新北市中和區中正路823號","121.483651666667","25.0018566666667","6500300","中和區"
"235054","640-BX","2019/12/31 19:13:31","新北市中和區國光街107巷2弄29號","121.469503333333","24.9991383333333","6500300","中和區"
"235047","732-UM","2019/12/31 19:13:35","新北市中和區和平街48號","121.508805","24.9906266666667","6500300","中和區"
"235046","733-UM","2019/12/31 19:13:26","新北市中和區華新街122號","121.508388333333","24.982715","6500300","中和區"
"235057","801-TS","2019/12/31 19:13:20","新北市中和區員山路423巷12弄1號","121.48039","25.003155","6500300","中和區"
"235041","802-TS","2019/12/31 19:13:28","新北市永和區中和路381號","121.508535","24.9999216666667","6500300","中和區"
"235052","805-TS","2019/12/31 19:13:42","新北市中和區興南路二段142巷17弄24號","121.50306","24.9830166666667","6500300","中和區"
"235048","896-TW","2019/12/31 19:13:29","新北市中和區忠孝街108-1號","121.512148333333","24.9846833333333","6500300","中和區"
"235053","900-TW","2019/12/31 19:13:34","新北市中和區華安街30巷2號","121.466961666667","24.9976766666667","6500300","中和區"
"235051","157-BY","2019/12/31 19:13:30","新北市中和區捷運路6號","121.510238333333","24.9897483333333","6500300","中和區"
"235037","AAC-213","2019/12/31 19:13:33","新北市中和區自立路12號","121.522376666667","24.9962666666667","6500300","中和區"
"235059","AAC-215","2019/12/31 19:13:23","新北市中和區圓通路417-5號","121.488935","24.988915","6500300","中和區"
"207004","KEE-1107","2019/12/31 19:13:43","新北市萬里區萬里里瑪鋉路30巷26號","121.690073333333","25.1769316666667","6502800","萬里區"
"220054","015-TV","2019/12/31 19:13:33","新北市板橋區後埔街79-1號","121.460695","25.005345","6500100","板橋區"
"220065","072-UY","2019/12/31 19:13:40","新北市板橋區民族路129巷12弄5號","121.468048333333","25.0084216666667","6500100","板橋區"
"220086","073-UY","2019/12/31 19:13:40","新北市板橋區中正路250巷130號","121.460526666667","25.02003","6500100","板橋區"
"220106","075-UY","2019/12/31 19:13:28","新北市板橋區江寧路三段119號","121.473276666667","25.0332533333333","6500100","板橋區"
"220069","AAD-861","2019/12/31 19:13:30","新北市板橋區貴興路41號","121.457558333333","25.0036066666667","6500100","板橋區"
"226004","312-R5","2019/12/31 19:13:41","新北市平溪區望古里灰3-1號","121.754828333333","25.02882","6502400","平溪區"
"235049","251-BX","2019/12/31 19:13:41","新北市中和區景新街241號","121.508268333333","24.994405","6500300","中和區"
"228001","212-TW","2019/12/31 19:13:37","新北市貢寮區真理里新港街10號","121.92547","25.05431","6502600","貢寮區"
"228002","663-BX","2019/12/31 19:13:32","新北市貢寮區福隆里興隆街36號","121.941265","25.0173333333333","6502600","貢寮區"
"228003","828-UM","2019/12/31 19:13:28","新北市貢寮區和美里和美街21-1號","121.912446666667","25.082535","6502600","貢寮區"
"224009","275-VK","2019/12/31 19:13:31","新北市瑞芳區洞頂路8-1號","121.862008333333","25.1217116666667","6501200","瑞芳區"
"224008","273-VK","2019/12/31 19:13:37","新北市瑞芳區瑞芳街162號","121.801356666667","25.110855","6501200","瑞芳區"
"227002","642-TC","2019/12/31 19:13:26","新北市雙溪區平林里梅竹蹊56-4號","121.86074","25.0366716666667","6502500","雙溪區"
"227001","400-TW","2019/12/31 19:13:25","新北市雙溪區牡丹里自強路20號","121.865163333333","25.039195","6502500","雙溪區"
"253005","032-BX","2019/12/31 19:13:42","新北市石門區阿里荖28-1號","121.607183333333","25.280685","6502200","石門區"
"253006","295-VK","2019/12/31 19:13:31","新北市石門區崁子腳46號","121.533815","25.2884716666667","6502200","石門區"
"222001","KEA-2212","2019/12/31 19:13:25","新北市深坑區北深路二段20號","121.620708333333","25.0044416666667","6501800","深坑區"
"208002","KEA-2872","2019/12/31 19:13:35","新北市金山區環金路376巷2號","121.632128333333","25.2221483333333","6502700","金山區"
"208003","665-BX","2019/12/31 19:13:40","新北市金山區中山路174-1號","121.638241666667","25.2211166666667","6502700","金山區"
"251005","010-UM","2019/12/31 19:13:34","新北市淡水區原德路73巷22號","121.442318333333","25.1725316666667","6501000","淡水區"
"251016","180-VK","2019/12/31 19:13:35","新北市淡水區下圭柔山119-51號","121.450721666667","25.2085083333333","6501000","淡水區"
"251013","182-VK","2019/12/31 19:13:26","新北市淡水區安子內12-1號","121.481513333333","25.219105","6501000","淡水區"
"251010","413-VK","2019/12/31 19:13:21","新北市淡水區沙崙路24號","121.421373333333","25.1813216666667","6501000","淡水區"
"251007","442-VK","2019/12/31 19:13:35","新北市淡水區民生路145巷58號","121.46803","25.1387916666667","6501000","淡水區"
"251001","559-UM","2019/12/31 19:13:38","新北市淡水區自強路201巷39號","121.462213333333","25.1267533333333","6501000","淡水區"
"251009","575-R6","2019/12/31 19:13:30","新北市淡水區清水街214號","121.440305","25.1713166666667","6501000","淡水區"
"251014","577-R6","2019/12/31 19:13:41","新北市淡水區小中寮19-7號","121.484756666667","25.2295916666667","6501000","淡水區"
"251002","672-BX","2019/12/31 19:13:35","新北市淡水區中山路77號","121.442661666667","25.170475","6501000","淡水區"
"251003","673-BX","2019/12/31 19:13:25","新北市淡水區中山北路一段38號","121.441755","25.175235","6501000","淡水區"
"251015","178-VK","2019/12/31 19:13:35","新北市淡水區南勢埔45號","121.482291666667","25.1775783333333","6501000","淡水區"
"252001","292-VK","2019/12/31 19:13:43","新北市三芝區長勤街18號","121.501245","25.2557483333333","6502100","三芝區"
"237004","KEA-2597","2019/12/31 19:13:32","新北市三峽區有木205-1號","121.43907","24.85168","6500900","三峽區"
"237007","153-BY","2019/12/31 19:13:26","新北市三峽區中正路二段176巷86號","121.363058333333","24.9129616666667","6500900","三峽區"
"237009","210-TH","2019/12/31 19:13:34","新北市三峽區文化路208號","121.36939","24.9360116666667","6500900","三峽區"
"237013","252-BX","2019/12/31 19:13:34","新北市三峽區大同路39巷33號","121.378105","24.9275283333333","6500900","三峽區"
"237012","275-BY","2019/12/31 19:13:23","新北市三峽區三樹路222巷236弄8-12號","121.392023333333","24.9431533333333","6500900","三峽區"
"237008","302-VK","2019/12/31 19:13:37","新北市三峽區永安街183號","121.373175","24.9267816666667","6500900","三峽區"
"237006","5530-G3","2019/12/31 19:13:29","新北市三峽區橫溪路95-2號","121.398505","24.935475","6500900","三峽區"
"237014","433-BY","2019/12/31 19:13:34","新北市三峽區大仁路54號","121.36527","24.9375333333333","6500900","三峽區"
"237011","KEA-2596","2019/12/31 19:13:25","新北市三峽區介壽路三段107號","121.3955","24.939245","6500900","三峽區"
"237015","649-BX","2019/12/31 19:13:27","新北市三峽區安坑50號","121.463003333333","24.9316083333333","6500900","三峽區"
"237010","706-TV","2019/12/31 19:13:42","新北市三峽區國光街57號","121.37452","24.9380233333333","6500900","三峽區"
"237005","AKY-6261","2019/12/31 19:13:31","新北市三峽區隆恩街245號","121.357683333333","24.9408766666667","6500900","三峽區"
"220089","KED-0812","2019/12/31 19:13:25","新北市板橋區國光路189號","121.461225","25.0186233333333","6500100","板橋區"
"236079","166-UM","2019/12/31 19:13:43","新北市土城區中央路四段217號","121.413786666667","24.9557516666667","6501300","土城區"
"236026","269-VK","2019/12/31 19:13:35","新北市土城區中正路65號","121.444548333333","24.9756833333333","6501300","土城區"
"236014","270-VK","2019/12/31 19:13:39","新北市土城區學府路一段23巷35號","121.457381666667","24.986655","6501300","土城區"
"236070","KEA-2877","2019/12/31 19:13:38","新北市土城區中央路一段186-2號","121.445408333333","24.98635","6501300","土城區"
"252002","KED-0821","2019/12/31 19:13:22","新北市三芝區淡金路二段18-1號","121.50265","25.2595766666667","6502100","三芝區"
"236021","401-BY","2019/12/31 19:13:22","新北市土城區延吉街146號","121.469078333333","24.985715","6501300","土城區"
"236059","912-UM","2019/12/31 19:13:41","新北市土城區中央路三段2號","121.439186666667","24.970325","6501300","土城區"
"236049","913-UM","2019/12/31 19:13:38","新北市土城區明德路一段365-1號","121.453663333333","24.9790883333333","6501300","土城區"
"242061","986-R7","2019/12/31 19:13:38","新北市新莊區四維路97巷20號","121.424058333333","25.0234933333333","6500500","新莊區"
"238015","755-BX","2019/12/31 19:13:24","新北市樹林區備內街99-3號","121.407513333333","24.989335","6500700","樹林區"
"238023","601-UM","2019/12/31 19:13:26","新北市樹林區三興路25號","121.39687","25.015055","6500700","樹林區"
"238019","599-UM","2019/12/31 19:13:39","新北市樹林區東榮街119號","121.415143333333","24.9819083333333","6500700","樹林區"
"238018","KEA-2217","2019/12/31 19:13:41","新北市樹林區太平路45號","121.419216666667","24.9828466666667","6500700","樹林區"
"238021","KEA-2539","2019/12/31 19:13:27","新北市樹林區柑園街二段301號","121.371306666667","24.9505816666667","6500700","樹林區"
"238025","303-VK","2019/12/31 19:13:24","新北市樹林區中山路三段291號","121.391651666667","24.9720616666667","6500700","樹林區"
"238017","283-BY","2019/12/31 19:13:36","新北市樹林區光興街157巷6號","121.407605","25.0044016666667","6500700","樹林區"
"238014","282-BY","2019/12/31 19:13:26","新北市樹林區千歲街70巷1弄22號","121.426976666667","24.9975916666667","6500700","樹林區"
"238020","268-VK","2019/12/31 19:13:27","新北市樹林區俊英街133巷20號","121.42357","25.0111166666667","6500700","樹林區"
"238026","172-UY","2019/12/31 19:13:36","新北市樹林區地政街8巷10弄2號","121.393646666667","24.9715166666667","6500700","樹林區"
"238016","169-UY","2019/12/31 19:13:39","新北市樹林區文化街23號","121.419411666667","24.98762","6500700","樹林區"
"239007","AAC-297","2019/12/31 19:13:34","新北市鶯歌區中正一路269巷40號","121.35556","24.9595883333333","6500800","鶯歌區"
"239006","891-R6","2019/12/31 19:13:35","新北市鶯歌區鶯桃路296巷90號","121.336798333333","24.96201","6500800","鶯歌區"
"239008","527-UM","2019/12/31 19:13:34","新北市鶯歌區國際二路20巷15號","121.337058333333","24.9753083333333","6500800","鶯歌區"
"239005","526-UM","2019/12/31 19:13:36","新北市鶯歌區大湖路361巷24弄19號","121.329835","24.9774466666667","6500800","鶯歌區"
"239001","417-VK","2019/12/31 19:13:27","新北市鶯歌區鶯桃路72號","121.34036","24.9533933333333","6500800","鶯歌區"
"239003","360-BY","2019/12/31 19:13:36","新北市鶯歌區鶯桃路658巷29號","121.329813333333","24.9696983333333","6500800","鶯歌區"
"239002","359-BY","2019/12/31 19:13:28","新北市鶯歌區中正一路187號","121.353301666667","24.9569","6500800","鶯歌區"
"239004","193-VK","2019/12/31 19:13:35","新北市鶯歌區中正三路232號","121.331076666667","24.93781","6500800","鶯歌區"
"221008","489-VK","2019/12/31 19:13:40","新北市汐止區康寧街382號","121.629228333333","25.0677116666667","6501100","汐止區"
"221036","130-UY","2019/12/31 19:13:31","新北市汐止區忠孝東路314巷15號","121.664548333333","25.0686083333333","6501100","汐止區"
"221032","280-BY","2019/12/31 19:13:29","新北市汐止區橫科路241-4號","121.62235","25.04887","6501100","汐止區"
"207003","KEE-1020","2019/12/31 19:13:28","新北市萬里區大鵬里萬里加投19-7號","121.64904","25.2104883333333","6502800","萬里區"
"221031","567-BX","2019/12/31 19:13:36","新北市汐止區中興路181巷29弄8號","121.629768333333","25.0658516666667","6501100","汐止區"
"221035","622-UM","2019/12/31 19:13:28","新北市汐止區汐萬路一段125號","121.654041666667","25.0711833333333","6501100","汐止區"
"221002","707-TV","2019/12/31 19:13:39","新北市汐止區環河街207號","121.62625","25.0540416666667","6501100","汐止區"
"220079","145-BY","2019/12/31 19:13:29","新北市板橋區民權路117號","121.45868","25.0133383333333","6500100","板橋區"
"233001","KEA-2870","2019/12/31 19:13:24","新北市新店區安豐路54-1號","121.499781666667","24.9540883333333","6502900","烏來區"
"220080","200-UY","2019/12/31 19:13:11","新北市板橋區大觀路二段7巷59號","121.448731666667","25.0032483333333","6500100","板橋區"
"220082","610-BX","2019/12/31 19:13:40","新北市板橋區溪崑二街111巷1號","121.426706666667","24.9887716666667","6500100","板橋區"
"220101","245-BX","2019/12/31 19:13:29","新北市板橋區縣民大道三段121巷10號","121.476818333333","25.0230683333333","6500100","板橋區"
"220056","276-BY","2019/12/31 19:13:34","新北市板橋區信義路150巷18號","121.458166666667","24.9918816666667","6500100","板橋區"
"220072","277-BY","2019/12/31 19:13:31","新北市板橋區溪城路87號","121.426963333333","24.9833716666667","6500100","板橋區"
"220094","283-UM","2019/12/31 19:13:31","新北市板橋區光武街110巷19號","121.466421666667","25.029755","6500100","板橋區"
"220071","283-VK","2019/12/31 19:13:26","新北市板橋區重慶路245巷50弄32號","121.465343333333","25.0006366666667","6500100","板橋區"
"220053","285-VK","2019/12/31 19:13:28","新北市板橋區富山街7巷10號","121.47855","25.0215116666667","6500100","板橋區"
"220083","286-VK","2019/12/31 19:13:26","新北市板橋區大觀路一段38巷184號","121.441358333333","25.0046816666667","6500100","板橋區"
"220081","287-VK","2019/12/31 19:13:38","新北市板橋區南雅西路二段156巷31號","121.452348333333","25.0131016666667","6500100","板橋區"
"220090","288-VK","2019/12/31 19:13:31","新北市板橋區長江路一段106巷12弄1號","121.460013333333","25.02891","6500100","板橋區"
"220061","293-UM","2019/12/31 19:13:36","新北市板橋區中山路二段318巷20弄39號","121.481231666667","25.0188983333333","6500100","板橋區"
"220084","296-UM","2019/12/31 19:13:40","新北市板橋區溪崑二街16巷6號","121.428566666667","24.9917933333333","6500100","板橋區"
"220075","303-R5","2019/12/31 19:13:33","新北市板橋區南雅南路一段3巷25-14號","121.456513333333","25.00567","6500100","板橋區"
"220062","305-R5","2019/12/31 19:13:35","新北市板橋區三民路二段153巷36弄2號","121.481218333333","25.014085","6500100","板橋區"
"220092","307-R5","2019/12/31 19:13:33","新北市板橋區松江街20號","121.46908","25.026455","6500100","板橋區"
"220098","317-R6","2019/12/31 19:13:32","新北市板橋區四維路103巷9號","121.465061666667","25.0242666666667","6500100","板橋區"
"220088","491-VK","2019/12/31 19:13:43","新北市板橋區雙十路二段4-1號","121.477121666667","25.0254933333333","6500100","板橋區"
"220035","560-BX","2019/12/31 19:13:21","新北市板橋區中正路326巷13號","121.45512","25.0223183333333","6500100","板橋區"
"220103","561-BX","2019/12/31 19:13:37","新北市板橋區民生路二段237號","121.468301666667","25.0214716666667","6500100","板橋區"
"220063","609-BX","2019/12/31 19:13:30","新北市板橋區三民路二段247號","121.479018333333","25.01244","6500100","板橋區"
"220091","637-BX","2019/12/31 19:13:39","新北市板橋區萬板路558號","121.481018333333","25.0265316666667","6500100","板橋區"
"220057","686-BX","2019/12/31 19:13:32","新北市板橋區五權街26號","121.464585","24.993685","6500100","板橋區"
"220077","687-BX","2019/12/31 19:13:37","新北市板橋區大觀路二段155號","121.445503333333","25.0007733333333","6500100","板橋區"
"220093","689-BX","2019/12/31 19:13:24","新北市板橋區漢生西路73號","121.462938333333","25.0188","6500100","板橋區"
"220102","KEA-2699","2019/12/31 19:13:35","新北市板橋區文聖街70號","121.477248333333","25.0303466666667","6500100","板橋區"
"220055","827-TW","2019/12/31 19:13:24","新北市板橋區新民街7巷29號","121.463741666667","25.0106566666667","6500100","板橋區"
"220067","829-TW","2019/12/31 19:13:32","新北市板橋區三民路二段正隆巷67號","121.476358333333","25.0132583333333","6500100","板橋區"
"220068","830-TW","2019/12/31 19:13:41","新北市板橋區翠華街6巷21號","121.481171666667","25.0243316666667","6500100","板橋區"
"220074","895-R6","2019/12/31 19:13:36","新北市板橋區中正路自強新村45-1號","121.454823333333","25.0139033333333","6500100","板橋區"
"220073","985-R7","2019/12/31 19:13:30","新北市板橋區中正路303號","121.455221666667","25.01955","6500100","板橋區"
"220097","AAC-210","2019/12/31 19:13:35","新北市板橋區幸福路60巷36號","121.460203333333","25.0217766666667","6500100","板橋區"
"220064","AAC-253","2019/12/31 19:13:37","新北市板橋區縣民大道二段60號","121.462813333333","25.012425","6500100","板橋區"
"235061","KEA-2875","2019/12/31 19:13:38","新北市中和區員山路143巷2號","121.480841666667","24.9962433333333","6500300","中和區"
"235068","KEA-2876","2019/12/31 19:13:25","新北市中和區圓通路162巷14號","121.496718333333","24.9955533333333","6500300","中和區"
