"lineid","car","time","location","longitude","latitude","cityid","cityname"
"234046","148-BY","2019/12/31 20:13:39","新北市永和區永元路68號","121.522565","25.00157","6500400","永和區"
"234081","298-R6","2019/12/31 20:13:40","新北市永和區國中路33號","121.524593333333","25.005465","6500400","永和區"
"234038","336-UY","2019/12/31 20:13:39","新北市永和區環河東路三段96號","121.528203333333","25.0040666666667","6500400","永和區"
"234064","337-UY","2019/12/31 20:13:43","新北市永和區得和路249-4號","121.520833333333","24.999925","6500400","永和區"
"234086","338-UY","2019/12/31 20:13:21","新北市永和區中正路575-1號","121.516825","25.0086366666667","6500400","永和區"
"234070","552-UM","2019/12/31 20:13:36","新北市永和區永亨路31號","121.519745","25.006135","6500400","永和區"
"234017","745-BX","2019/12/31 20:13:32","新北市永和區文化路70號","121.514253333333","25.0151433333333","6500400","永和區"
"234030","746-BX","2019/12/31 20:13:20","新北市永和區民有街75巷10弄22號","121.519263333333","24.9960083333333","6500400","永和區"
"234054","KEA-2590","2019/12/31 20:13:18","新北市永和區永和路二段336號","121.516213333333","25.016665","6500400","永和區"
"234007","KED-0605","2019/12/31 20:13:36","新北市永和區仁愛路271號","121.506066666667","25.00985","6500400","永和區"
"234013","KEA-2591","2019/12/31 20:13:31","新北市永和區保生路24號","121.50642","25.0075966666667","6500400","永和區"
"234061","AAD-866","2019/12/31 20:13:36","新北市永和區安樂路100巷15號","121.514543333333","24.9991866666667","6500400","永和區"
"234042","862-TW","2019/12/31 20:13:13","新北市永和區雙和街43號","121.508905","25.0028766666667","6500400","永和區"
"234050","863-TW","2019/12/31 20:13:26","新北市永和區環河西路二段39號","121.50736","25.0156083333333","6500400","永和區"
"234011","9373-KE","2019/12/31 20:13:41","新北市永和區保順路8號","121.503973333333","25.0112166666667","6500400","永和區"
"249005","172-UM","2019/12/31 20:13:38","新北市八里區下罟子54號","121.387886666667","25.1407866666667","6502300","八里區"
"249001","173-UM","2019/12/31 20:13:24","新北市八里區中華路二段348號","121.402668333333","25.14741","6502300","八里區"
"249004","303-UY","2019/12/31 20:13:40","新北市八里區中山路一段191號","121.411783333333","25.1582666666667","6502300","八里區"
"249002","305-UY","2019/12/31 20:13:33","新北市八里區龍米路一段52號","121.456258333333","25.1197866666667","6502300","八里區"
"249003","593-UM","2019/12/31 20:13:31","新北市八里區中山路二段445號","121.396848333333","25.1455216666667","6502300","八里區"
"248016","026-BX","2019/12/31 20:13:41","新北市五股區成泰路三段577巷80弄25號","121.449643333333","25.1046416666667","6501500","五股區"
"248008","KED-0815","2019/12/31 20:13:41","新北市五股區中興路一段1巷28號","121.46988","25.07027","6501500","五股區"
"248012","247-BX","2019/12/31 20:13:25","新北市五股區六合街103號","121.430013333333","25.0898816666667","6501500","五股區"
"248004","677-BX","2019/12/31 20:13:24","新北市五股區成泰路一段220-1號","121.436361666667","25.0795733333333","6501500","五股區"
"248002","678-BX","2019/12/31 20:13:42","新北市五股區成泰路三段311-2號","121.447828333333","25.09491","6501500","五股區"
"248010","682-TV","2019/12/31 20:13:35","新北市五股區登林路92-5號","121.42853","25.0696","6501500","五股區"
"234023","9380-KE","2019/12/31 20:13:37","新北市永和區中正路657號","121.514951666667","25.0101833333333","6500400","永和區"
"234077","969-R7","2019/12/31 20:13:40","新北市永和區民享街21號","121.515578333333","24.9949716666667","6500400","永和區"
"234074","AAC-211","2019/12/31 20:13:35","新北市永和區竹林路191巷2號","121.520951666667","25.00944","6500400","永和區"
"234067","AAC-212","2019/12/31 20:13:42","新北市永和區保平路236巷12弄5號","121.508641666667","25.006495","6500400","永和區"
"234003","AAC-295","2019/12/31 20:13:21","新北市永和區福和路306號","121.516498333333","25.0073783333333","6500400","永和區"
"243012","AAD-798","2019/12/31 20:13:40","新北市泰山區楓江路48號","121.435135","25.0623533333333","6501600","泰山區"
"243010","297-R6","2019/12/31 20:03:34","新北市泰山區明志路二段110號","121.427518333333","25.0517983333333","6501600","泰山區"
"243014","KEA-2801","2019/12/31 20:13:40","新北市泰山區明志路一段17號","121.43365","25.0657833333333","6501600","泰山區"
"243016","421-VK","2019/12/31 20:13:29","新北市泰山區明志路三段225號","121.423808333333","25.0380316666667","6501600","泰山區"
"243009","KEA-2215","2019/12/31 20:13:30","新北市泰山區泰林路二段116巷1弄2號","121.434908333333","25.059425","6501600","泰山區"
"243011","KEA-2216","2019/12/31 20:13:26","新北市泰山區壽山路160巷2號","121.41702","25.0309966666667","6501600","泰山區"
"243013","646-TV","2019/12/31 20:13:36","新北市泰山區明志路三段72號","121.424788333333","25.0418533333333","6501600","泰山區"
"243015","680-BX","2019/12/31 20:13:35","新北市泰山區明志路一段493-1號","121.430565","25.0550466666667","6501600","泰山區"
"222003","KEE-1106","2019/12/31 20:13:35","新北市深坑區埔新街99號","121.619191666667","25.00227","6501800","深坑區"
"222002","659-BX","2019/12/31 20:13:24","新北市深坑區北深路三段240-10號","121.60097","25.0051766666667","6501800","深坑區"
"231061","002-UM","2019/12/31 20:13:34","新北市新店區安興路33-1號","121.515828333333","24.97039","6500600","新店區"
"231055","0291-UT","2019/12/31 20:13:26","新北市新店區中華路48巷38號","121.541126666667","24.9693633333333","6500600","新店區"
"231044","046-UY","2019/12/31 20:13:29","新北市新店區寶慶街58巷2號","121.542186666667","24.9868433333333","6500600","新店區"
"231060","106-UY","2019/12/31 20:13:36","新北市新店區安康路三段454號","121.484326666667","24.9512266666667","6500600","新店區"
"231051","107-UY","2019/12/31 20:13:28","新北市新店區中央路192號","121.530838333333","24.9746466666667","6500600","新店區"
"231049","108-UY","2019/12/31 20:13:40","新北市新店區北新路二段97巷9弄15號","121.542235","24.9739466666667","6500600","新店區"
"231065","110-UY","2019/12/31 20:13:24","新北市新店區安祥路106巷315號","121.472296666667","24.9583316666667","6500600","新店區"
"231053","189-VK","2019/12/31 20:13:33","新北市新店區新烏路三段47號","121.554088333333","24.9044633333333","6500600","新店區"
"221015","KEA-2785","2019/12/31 20:13:38","新北市汐止區建成路35號","121.663858333333","25.0727333333333","6501100","汐止區"
"231062","256-BX","2019/12/31 20:13:40","新北市新店區秀山路68-1號","121.531006666667","24.9609566666667","6500600","新店區"
"231054","260-TV","2019/12/31 20:13:36","新北市新店區檳榔路43巷2號","121.54308","24.96304","6500600","新店區"
"231042","268-BY","2019/12/31 20:13:24","新北市新店區中興路二段100巷1號","121.54763","24.9716233333333","6500600","新店區"
"231064","278-BY","2019/12/31 20:13:28","新北市新店區安和路二段132號","121.519423333333","24.9715816666667","6500600","新店區"
"231050","AAD-862","2019/12/31 20:13:31","新北市新店區北新路一段90號","121.541866666667","24.9685316666667","6500600","新店區"
"231045","355-BY","2019/12/31 20:13:41","新北市新店區北宜路一段182號","121.540921666667","24.9529466666667","6500600","新店區"
"231056","4715-K9","2019/12/31 20:13:27","新北市新店區中正路328巷42弄2號","121.53829","24.976295","6500600","新店區"
"231067","4772-VM","2019/12/31 20:13:45","新北市新店區溪洲路6巷5號","121.533946666667","24.9614183333333","6500600","新店區"
"231068","512-UM","2019/12/31 20:13:26","新北市新店區中興路三段202號","121.543768333333","24.9819866666667","6500600","新店區"
"231063","616-UM","2019/12/31 20:13:28","新北市新店區黎明路9號","121.502416666667","24.950285","6500600","新店區"
"231040","617-UM","2019/12/31 20:13:39","新北市新店區北新路一段146號","121.542926666667","24.970645","6500600","新店區"
"231041","619-UM","2019/12/31 20:13:37","新北市新店區民權路121號","121.535741666667","24.98267","6500600","新店區"
"231048","KED-0819","2019/12/31 20:13:31","新北市新店區永華街47號","121.5442","24.9759733333333","6500600","新店區"
"231057","720-UM","2019/12/31 20:13:42","新北市新店區花園六路一段1號","121.553293333333","24.9331916666667","6500600","新店區"
"231059","897-TW","2019/12/31 20:13:27","新北市新店區安德街39號","121.511513333333","24.9624066666667","6500600","新店區"
"231043","899-TW","2019/12/31 20:13:42","新北市新店區建國路133號","121.539356666667","24.9781716666667","6500600","新店區"
"231066","AKT-0513","2019/12/31 20:13:38","新北市新店區安興路20號","121.515006666667","24.9659566666667","6500600","新店區"
"241011","013-R5","2019/12/31 20:13:37","新北市三重區仁愛街30號","121.496431666667","25.0717416666667","6500200","三重區"
"241028","022-UY","2019/12/31 20:13:31","新北市三重區大同南路162號","121.496683333333","25.0574483333333","6500200","三重區"
"241008","059-VK","2019/12/31 20:13:32","新北市三重區永福街213號","121.479998333333","25.0743216666667","6500200","三重區"
"241004","060-VK","2019/12/31 20:13:30","新北市三重區溪尾街106號","121.489616666667","25.0788233333333","6500200","三重區"
"241031","061-VK","2019/12/31 20:13:39","新北市三重區三寧街18號","121.489356666667","25.0598116666667","6500200","三重區"
"241015","062-VK","2019/12/31 20:13:37","新北市三重區福德北路15-1號","121.502445","25.0643466666667","6500200","三重區"
"241017","063-VK","2019/12/31 20:13:38","新北市三重區長壽西街171號","121.492608333333","25.06652","6500200","三重區"
"241024","065-VK","2019/12/31 20:13:36","新北市三重區中正北路330號","121.47877","25.0692033333333","6500200","三重區"
"241007","066-VK","2019/12/31 20:13:39","新北市三重區三和路四段117巷12號","121.485806666667","25.0777133333333","6500200","三重區"
"241003","091-VK","2019/12/31 20:13:38","新北市三重區富華街14號","121.489561666667","25.0824266666667","6500200","三重區"
"241009","742-BX","2019/12/31 20:13:24","新北市三重區三和路四段382巷94弄5號","121.479178333333","25.0779566666667","6500200","三重區"
"241006","262-UM","2019/12/31 20:13:24","新北市三重區車路頭街139巷14號","121.484286666667","25.0762616666667","6500200","三重區"
"241020","316-R6","2019/12/31 20:13:39","新北市三重區三和路三段155號","121.491883333333","25.0737266666667","6500200","三重區"
"241016","266-UM","2019/12/31 20:13:26","新北市三重區大同北路54巷1號","121.494223333333","25.0635033333333","6500200","三重區"
"241018","268-UM","2019/12/31 20:13:41","新北市三重區正義北路250號","121.496065","25.068465","6500200","三重區"
"241032","269-UM","2019/12/31 20:13:30","新北市三重區捷運路19巷1號","121.485243333333","25.0562833333333","6500200","三重區"
"241013","270-UM","2019/12/31 20:13:34","新北市三重區三和路三段167巷2號","121.49198","25.074105","6500200","三重區"
"241025","271-UM","2019/12/31 20:13:41","新北市三重區忠孝路三段15巷63號","121.479336666667","25.06854","6500200","三重區"
"241035","KEA-2210","2019/12/31 20:13:26","新北市三重區大榮街53號","121.499043333333","25.0635233333333","6500200","三重區"
"241030","KED-0822","2019/12/31 20:13:36","新北市三重區成功路145巷33號","121.487768333333","25.0531483333333","6500200","三重區"
"241026","480-VK","2019/12/31 20:13:26","新北市三重區中央南路123號","121.501595","25.0597933333333","6500200","三重區"
"241014","543-UM","2019/12/31 20:13:32","新北市三重區長樂街133-13號","121.503156666667","25.0697933333333","6500200","三重區"
"241023","545-UM","2019/12/31 20:13:41","新北市三重區頂崁街217巷4弄1號","121.477718333333","25.0678283333333","6500200","三重區"
"241001","547-UM","2019/12/31 20:13:36","新北市三重區三和路四段89巷26號","121.490148333333","25.0761916666667","6500200","三重區"
"241019","KEA-2593","2019/12/31 20:13:39","新北市三重區自強路二段74巷1號","121.488445","25.07003","6500200","三重區"
"241005","AAD-863","2019/12/31 20:13:33","新北市三重區碧華街285號","121.490185","25.0836416666667","6500200","三重區"
"241012","743-BX","2019/12/31 20:13:29","新北市三重區河邊北街280號","121.501496666667","25.0769433333333","6500200","三重區"
"241022","KED-0820","2019/12/31 20:13:31","新北市三重區中正北路34號","121.488133333333","25.0637216666667","6500200","三重區"
"241002","KED-0670","2019/12/31 20:13:26","新北市三重區仁義街225巷6號","121.496778333333","25.0825083333333","6500200","三重區"
"241029","942-UM","2019/12/31 20:13:38","新北市三重區中寮街122號","121.493921666667","25.0575733333333","6500200","三重區"
"241033","AAC-255","2019/12/31 20:13:23","新北市三重區五谷王北街77號","121.475743333333","25.0500666666667","6500200","三重區"
"235066","003-UY","2019/12/31 20:13:43","新北市中和區南工路102號","121.507381666667","25.0033366666667","6500300","中和區"
"235039","097-UM","2019/12/31 20:13:33","新北市中和區大勇街27巷2號","121.517348333333","24.9937433333333","6500300","中和區"
"235065","098-UM","2019/12/31 20:13:37","新北市中和區橋和路310號","121.497136666667","25.00699","6500300","中和區"
"235040","150-BY","2019/12/31 20:13:36","新北市中和區保健路33巷11號","121.50923","24.9979266666667","6500300","中和區"
"235055","183-VK","2019/12/31 20:13:39","新北市五股區成泰路三段320號","121.4508","25.09746","6500300","中和區"
"247016","KEA-2869","2019/12/31 20:13:26","新北市蘆洲區光華路150巷15號","121.465196666667","25.0831116666667","6501400","蘆洲區"
"247010","KED-0682","2019/12/31 20:13:26","新北市蘆洲區信義路188巷2弄1號","121.479561666667","25.0843383333333","6501400","蘆洲區"
"235050","4979-A6","2019/12/31 20:13:41","新北市中和區景新街313號","121.51116","24.9922783333333","6500300","中和區"
"235069","4980-A6","2019/12/31 20:13:33","新北市中和區景新街34巷2號","121.50327","24.9991183333333","6500300","中和區"
"235051","157-BY","2019/12/31 20:13:30","新北市中和區捷運路6號","121.510091666667","24.9894233333333","6500300","中和區"
"235059","AAC-215","2019/12/31 20:13:43","新北市中和區圓通路367巷13弄26號","121.493071666667","24.9882983333333","6500300","中和區"
"207004","KEE-1107","2019/12/31 20:13:26","新北市萬里區北基里仁三街23號","121.681811666667","25.1763133333333","6502800","萬里區"
"220054","015-TV","2019/12/31 20:13:38","新北市板橋區忠孝路忠義巷9弄1號","121.465108333333","25.0047166666667","6500100","板橋區"
"220065","072-UY","2019/12/31 20:13:39","新北市板橋區永豐街89巷5弄14號","121.472561666667","25.0193966666667","6500100","板橋區"
"247006","893-R6","2019/12/31 20:13:38","新北市蘆洲區中山一路417號","121.468745","25.0768183333333","6501400","蘆洲區"
"247012","337-TH","2019/12/31 20:13:28","新北市蘆洲區中興街15巷42號","121.480008333333","25.0885066666667","6501400","蘆洲區"
"247004","336-TH","2019/12/31 20:13:27","新北市蘆洲區長安街285巷23號","121.45742","25.0841183333333","6501400","蘆洲區"
"247024","057-VK","2019/12/31 20:13:30","新北市蘆洲區光明路90號","121.462906666667","25.0877166666667","6501400","蘆洲區"
"247014","056-VK","2019/12/31 20:13:31","新北市蘆洲區中山二路235號","121.47036","25.080025","6501400","蘆洲區"
"247018","053-VK","2019/12/31 20:13:27","新北市蘆洲區民族路388號","121.475225","25.0911733333333","6501400","蘆洲區"
"247022","007-UY","2019/12/31 20:13:40","新北市蘆洲區中正路202號","121.466673333333","25.08835","6501400","蘆洲區"
"247002","001-UY","2019/12/31 20:13:21","新北市蘆洲區長安街240號","121.457613333333","25.0859066666667","6501400","蘆洲區"
"227002","642-TC","2019/12/31 20:13:26","新北市雙溪區雙溪里中正路48號","121.865375","25.0398783333333","6502500","雙溪區"
"222001","KEA-2212","2019/12/31 20:13:25","新北市深坑區北深路三段248號","121.600163333333","25.0043183333333","6501800","深坑區"
"251004","009-UM","2019/12/31 20:13:30","新北市淡水區民族路29巷24-1號","121.461591666667","25.1368133333333","6501000","淡水區"
"251016","180-VK","2019/12/31 20:13:35","新北市淡水區番子田20-4號","121.457731666667","25.2282416666667","6501000","淡水區"
"251008","181-VK","2019/12/31 20:13:36","新北市淡水區淡海路72巷30弄18號","121.425261666667","25.1825183333333","6501000","淡水區"
"251013","182-VK","2019/12/31 20:13:26","新北市淡水區奎柔山路752巷67號","121.474221666667","25.20402","6501000","淡水區"
"251010","413-VK","2019/12/31 20:13:41","新北市淡水區濱海路三段150號","121.424881666667","25.1915566666667","6501000","淡水區"
"251012","441-VK","2019/12/31 20:13:39","新北市淡水區淡金路三段260號","121.448966666667","25.2065416666667","6501000","淡水區"
"251001","559-UM","2019/12/31 20:13:38","新北市淡水區淡金路二段15號","121.446113333333","25.18921","6501000","淡水區"
"251006","561-UM","2019/12/31 20:13:28","新北市淡水區北新路141巷2弄4號","121.449561666667","25.17916","6501000","淡水區"
"251009","575-R6","2019/12/31 20:13:30","新北市淡水區清水街1號","121.445151666667","25.1703516666667","6501000","淡水區"
"251014","577-R6","2019/12/31 20:13:41","新北市淡水區石頭厝2-1號","121.458126666667","25.2357883333333","6501000","淡水區"
"251011","650-BX","2019/12/31 20:13:38","新北市淡水區崁頂128號","121.432176666667","25.205015","6501000","淡水區"
"251002","672-BX","2019/12/31 20:13:35","新北市淡水區中正路306-1號","121.43728","25.172305","6501000","淡水區"
"251003","673-BX","2019/12/31 20:13:25","新北市淡水區中山北路一段229號","121.444453333333","25.179495","6501000","淡水區"
"251015","178-VK","2019/12/31 20:13:35","新北市淡水區商工路356號","121.468743333333","25.1853583333333","6501000","淡水區"
"252001","292-VK","2019/12/31 20:13:23","新北市三芝區中山路一段9巷8號","121.500045","25.2585833333333","6502100","三芝區"
"237012","275-BY","2019/12/31 20:13:23","新北市三峽區中華路133號","121.371348333333","24.92759","6500900","三峽區"
"237006","5530-G3","2019/12/31 20:13:30","新北市三峽區嘉添11號","121.368676666667","24.91198","6500900","三峽區"
"237015","649-BX","2019/12/31 20:13:27","新北市三峽區介壽路二段138巷45-2號","121.395241666667","24.9331433333333","6500900","三峽區"
"236042","KED-0685","2019/12/31 20:13:33","新北市土城區學享街32號","121.451805","24.9870133333333","6501300","土城區"
"236030","253-BX","2019/12/31 20:13:24","新北市土城區裕民路32巷6號","121.447591666667","24.9881066666667","6501300","土城區"
"236026","269-VK","2019/12/31 20:13:33","新北市土城區裕生路67巷6弄1號","121.447815","24.984475","6501300","土城區"
"236014","270-VK","2019/12/31 20:13:39","新北市土城區廣明街63巷23號","121.454173333333","24.9930483333333","6501300","土城區"
"236038","271-VK","2019/12/31 20:13:26","新北市土城區延吉街282號","121.465033333333","24.9841966666667","6501300","土城區"
"236070","KEA-2877","2019/12/31 20:13:38","新北市土城區中央路三段153號","121.432128333333","24.96542","6501300","土城區"
"252002","KED-0821","2019/12/31 20:13:42","新北市三芝區利民街6號","121.503306666667","25.2592666666667","6502100","三芝區"
"236021","401-BY","2019/12/31 20:13:42","新北市土城區金城路三段206巷1號","121.471521666667","24.989675","6501300","土城區"
"236059","912-UM","2019/12/31 20:13:41","新北市土城區中央路三段142號","121.43305","24.9655416666667","6501300","土城區"
"236049","913-UM","2019/12/31 20:13:38","新北市土城區裕民路285號","121.456098333333","24.9816433333333","6501300","土城區"
"242042","AAC-296","2019/12/31 20:13:34","新北市新莊區青山路一段159號","121.403006666667","25.029345","6500500","新莊區"
"242061","986-R7","2019/12/31 20:13:38","新北市新莊區瓊林路瓊英巷2弄2號","121.443803333333","25.0273383333333","6500500","新莊區"
"242005","751-BX","2019/12/31 20:13:40","新北市新莊區化成路400號","121.465943333333","25.0506016666667","6500500","新莊區"
"242025","705-TV","2019/12/31 20:13:33","新北市新莊區五權一路12巷25弄22號","121.45856","25.0645833333333","6500500","新莊區"
"242029","615-BX","2019/12/31 20:13:31","新北市新莊區中原路319-1號","121.446616666667","25.05426","6500500","新莊區"
"242027","613-BX","2019/12/31 20:13:43","新北市新莊區立信一街16號","121.444123333333","25.0496666666667","6500500","新莊區"
"242058","612-BX","2019/12/31 20:13:43","新北市新莊區八德街147號","121.42366","25.0196666666667","6500500","新莊區"
"242048","566-BX","2019/12/31 20:13:32","新北市新莊區民安路166號","121.42495","25.024235","6500500","新莊區"
"242054","497-BY","2019/12/31 20:13:39","新北市新莊區民安西路310號","121.42641","25.0119466666667","6500500","新莊區"
"242002","441-UM","2019/12/31 20:13:42","新北市新莊區中正路11號","121.463993333333","25.0409616666667","6500500","新莊區"
"242007","440-UM","2019/12/31 20:13:28","新北市新莊區思源路419巷1弄3號","121.459381666667","25.052345","6500500","新莊區"
"242044","415-TV","2019/12/31 20:13:34","桃園市龜山區萬壽路一段21巷8號","121.41046","25.02039","6500500","新莊區"
"242013","413-TV","2019/12/31 20:13:34","新北市新莊區幸福路710巷6弄2號","121.450076666667","25.0496566666667","6500500","新莊區"
"242051","400-BY","2019/12/31 20:13:25","新北市新莊區民安西路170號","121.425941666667","25.01598","6500500","新莊區"
"242023","353-BY","2019/12/31 20:13:44","新北市新莊區化成路556號","121.466251666667","25.053875","6500500","新莊區"
"242015","132-UY","2019/12/31 20:13:27","新北市新莊區中平路26巷36號","121.44638","25.0431716666667","6500500","新莊區"
"242039","135-UY","2019/12/31 20:13:40","新北市新莊區龍安路437號","121.424178333333","25.0188433333333","6500500","新莊區"
"242056","172-VK","2019/12/31 20:13:41","新北市新莊區新莊路649巷13弄12號","121.445508333333","25.0318216666667","6500500","新莊區"
"242017","173-VK","2019/12/31 20:13:37","新北市新莊區中華路二段71巷14號","121.452305","25.0473016666667","6500500","新莊區"
"242032","175-VK","2019/12/31 20:13:26","新北市新莊區中正路400號","121.44171","25.0338916666667","6500500","新莊區"
"242021","KED-0687","2019/12/31 20:13:39","新北市新莊區建中街34號","121.448976666667","25.037485","6500500","新莊區"
"242019","346-TH","2019/12/31 20:13:21","新北市新莊區思源路137號","121.459698333333","25.0437183333333","6500500","新莊區"
"242037","348-TH","2019/12/31 20:13:21","新北市新莊區建安街9巷3-1號","121.428996666667","25.02674","6500500","新莊區"
"242009","349-TH","2019/12/31 20:13:41","新北市新莊區昌平街14號","121.454928333333","25.052705","6500500","新莊區"
"242034","350-TH","2019/12/31 20:13:38","新北市新莊區中正路318巷6號","121.446425","25.0352466666667","6500500","新莊區"
"221008","489-VK","2019/12/31 20:13:39","台北市內湖區康樂街201巷32號","121.622465","25.076565","6501100","汐止區"
"221036","130-UY","2019/12/31 20:13:31","新北市汐止區新台五路二段15號","121.662423333333","25.06608","6501100","汐止區"
"221010","269-BY","2019/12/31 20:13:33","新北市汐止區連峰街225巷23號","121.644083333333","25.0809683333333","6501100","汐止區"
"221012","278-VK","2019/12/31 20:13:27","新北市汐止區大同路三段324號","121.679145","25.0712683333333","6501100","汐止區"
"221023","279-VK","2019/12/31 20:13:35","新北市汐止區明峰街295號","121.62563","25.0679483333333","6501100","汐止區"
"221029","298-VK","2019/12/31 20:13:25","新北市汐止區樟樹一路119巷8-5號","121.641386666667","25.0643766666667","6501100","汐止區"
"221021","299-VK","2019/12/31 20:13:26","新北市汐止區水源路一段241號","121.654296666667","25.0600383333333","6501100","汐止區"
"207003","KEE-1020","2019/12/31 20:13:28","新北市萬里區大鵬里萬里加投78-3號","121.647236666667","25.2116633333333","6502800","萬里區"
"221031","567-BX","2019/12/31 20:13:29","新北市汐止區中興路214巷7弄2號","121.631406666667","25.0666016666667","6501100","汐止區"
"221035","622-UM","2019/12/31 20:13:28","新北市汐止區長江街53號","121.656061666667","25.0713766666667","6501100","汐止區"
"221025","623-UM","2019/12/31 20:13:42","新北市汐止區秀峰路62號","121.65978","25.06474","6501100","汐止區"
"221038","646-BX","2019/12/31 20:13:28","新北市汐止區忠孝東路462巷24號","121.666645","25.07377","6501100","汐止區"
"221033","647-BX","2019/12/31 20:13:29","新北市汐止區東勢街201巷104號","121.633526666667","25.0428466666667","6501100","汐止區"
"221002","707-TV","2019/12/31 20:13:39","新北市汐止區福德一路9號","121.639175","25.06984","6501100","汐止區"
"221018","753-BX","2019/12/31 20:13:25","新北市汐止區茄興街12號","121.673501666667","25.0672133333333","6501100","汐止區"
"220079","145-BY","2019/12/31 20:13:29","新北市板橋區建國街103號","121.460041666667","25.0174916666667","6500100","板橋區"
"233001","KEA-2870","2019/12/31 20:01:09","新北市烏來區啦卡路70-1號","121.565375","24.8559083333333","6502900","烏來區"
"220080","200-UY","2019/12/31 20:13:31","新北市板橋區大觀路二段187巷1號","121.445005","24.9997483333333","6500100","板橋區"
"224002","257-TC","2019/12/31 20:13:28","新北市瑞芳區三爪子坑路21號","121.813643333333","25.1076083333333","6501200","瑞芳區"
"220072","277-BY","2019/12/31 20:13:31","新北市板橋區溪城路85號","121.42693","24.9836366666667","6500100","板橋區"
"220083","286-VK","2019/12/31 20:13:26","新北市板橋區僑中二街90巷14號","121.445645","25.009255","6500100","板橋區"
"220081","287-VK","2019/12/31 20:13:32","新北市板橋區僑中一街124巷20弄25號","121.447231666667","25.01392","6500100","板橋區"
"220061","293-UM","2019/12/31 20:13:36","新北市板橋區館前東路1號","121.459616666667","25.007345","6500100","板橋區"
"242046","281-VK","2019/12/31 20:13:40","新北市新莊區裕民街103巷20號","121.419148333333","25.022845","6500500","新莊區"
"220075","303-R5","2019/12/31 20:13:35","新北市板橋區金華街10巷87-1號","121.458341666667","25.0204433333333","6500100","板橋區"
"242011","280-VK","2019/12/31 20:13:29","新北市新莊區中和街204巷7弄2號","121.448376666667","25.0504533333333","6500500","新莊區"
"220035","560-BX","2019/12/31 20:13:41","新北市板橋區新生街37號","121.456808333333","25.0210833333333","6500100","板橋區"
"220103","561-BX","2019/12/31 20:13:37","新北市板橋區漢生東路23巷48號","121.465995","25.0180016666667","6500100","板橋區"
"220077","687-BX","2019/12/31 20:13:37","新北市板橋區僑中一街124巷18弄1號","121.446195","25.01378","6500100","板橋區"
"220055","827-TW","2019/12/31 20:13:24","新北市板橋區忠孝路48巷11弄6號","121.461655","24.9997933333333","6500100","板橋區"
"220074","895-R6","2019/12/31 20:13:36","新北市板橋區府後街1巷2-2號","121.459111666667","25.010575","6500100","板橋區"
"235068","KEA-2876","2019/12/31 20:13:14","新北市中和區永和路39巷14號","121.497541666667","25.0049833333333","6500300","中和區"
