"lineid","car","time","location","longitude","latitude","cityid","cityname"
"232017","290-BY","2019/09/16 08:19:25","新北市坪林區坪雙路二段152號","121.766608333333","24.96187","6502000","坪林區"
"232005","291-BY","2019/09/16 08:19:27","新北市坪林區鶯子瀨2-1號","121.708833333333","24.9129033333333","6502000","坪林區"
"232012","705-BZ","2019/09/16 08:19:44","新北市坪林區九芎根10號","121.66438","24.88127","6502000","坪林區"
"232001","758-BX","2019/09/16 08:19:29","新北市坪林區坪雙路一段100號","121.722933333333","24.946035","6502000","坪林區"
"244006","080-UY","2019/09/16 08:19:43","新北市林口區菁埔10-16號","121.379913333333","25.0966616666667","6501700","林口區"
"244001","248-BX","2019/09/16 08:19:32","新北市林口區下福里28-2號","121.307725","25.11126","6501700","林口區"
"244012","KEA-2802","2019/09/16 08:19:36","新北市林口區佳林路171號","121.385028333333","25.0787183333333","6501700","林口區"
"244022","483-VK","2019/09/16 08:19:42","新北市林口區隆林街63號","121.387085","25.0754116666667","6501700","林口區"
"244016","485-VK","2019/09/16 08:19:32","新北市林口區中山路152-1號","121.391003333333","25.0787283333333","6501700","林口區"
"244008","656-BX","2019/09/16 08:19:32","新北市林口區中北三街124號","121.383976666667","25.0844066666667","6501700","林口區"
"244010","701-TV","2019/09/16 08:19:31","新北市林口區佳林路253號","121.382956666667","25.0761083333333","6501700","林口區"
"244024","837-TS","2019/09/16 08:19:30","新北市林口區文化三路一段394巷10號","121.366246666667","25.07286","6501700","林口區"
"244020","838-TS","2019/09/16 08:19:42","新北市林口區粉寮路二段160巷29號","121.405738333333","25.0913916666667","6501700","林口區"
"222004","289-BY","2019/09/16 08:19:34","新北市深坑區萬福路51號","121.59994","25.00661","6501800","深坑區"
"231007","189-VK","2019/09/16 08:19:34","新北市新店區新潭路一段19號","121.523146666667","24.94276","6500600","新店區"
"231008","192-VK","2019/09/16 08:19:37","新北市新店區新烏路二段212-1號","121.54747","24.9152783333333","6500600","新店區"
"226005","5620-A6","2019/09/16 08:19:36","新北市平溪區南山里南山坪118-1號","121.783248333333","25.0441333333333","6502400","平溪區"
"226001","7418-A5","2019/09/16 08:19:30","新北市平溪區南山里南山坪94號","121.776921666667","25.041135","6502400","平溪區"
"226003","AGD-0702","2019/09/16 08:19:31","新北市平溪區新寮里新寮路1號","121.793","25.0593333333333","6502400","平溪區"
"223003","205-TH","2019/09/16 08:19:39","新北市石碇區北宜路五段80號","121.646301666667","24.9516883333333","6501900","石碇區"
"223008","406-TH","2019/09/16 08:19:35","新北市石碇區靜安路一段262號","121.68077","25.0107783333333","6501900","石碇區"
"223001","592-UM","2019/09/16 08:19:30","新北市石碇區北宜路五段80號","121.6464","24.951655","6501900","石碇區"
"223004","660-BX","2019/09/16 08:19:27","新北市石碇區外按16-1號","121.650646666667","24.9975583333333","6501900","石碇區"
"223007","661-BX","2019/09/16 08:19:30","新北市石碇區靜安路一段262號","121.68086","25.0108083333333","6501900","石碇區"
"223005","677-TV","2019/09/16 08:19:43","新北市石碇區外按16-1號","121.650685","24.99753","6501900","石碇區"
"227003","282-VK","2019/09/16 08:19:43","新北市雙溪區上林里大瀨10號","121.822411666667","25.0220866666667","6502500","雙溪區"
"252006","073-UM","2019/09/16 08:19:31","新北市三芝區後厝里大片頭90號","121.456173333333","25.2467166666667","6502100","三芝區"
"252004","249-BX","2019/09/16 08:19:40","新北市三芝區興華里車埕62號","121.498688333333","25.1969116666667","6502100","三芝區"
"242040","AAC-296","2019/09/16 08:19:31","新北市新莊區中正路612-1號","121.426161666667","25.0302066666667","6500500","新莊區"
"242059","986-R7","2019/09/16 08:19:32","新北市新莊區新樹路481號","121.432706666667","25.0126183333333","6500500","新莊區"
"242003","751-BX","2019/09/16 08:19:23","新北市新莊區自立街259號","121.459143333333","25.0456233333333","6500500","新莊區"
"242028","615-BX","2019/09/16 08:19:35","新北市新莊區中平路83號","121.444628333333","25.0454333333333","6500500","新莊區"
"242026","613-BX","2019/09/16 08:19:27","新北市新莊區福壽街171號","121.45794","25.0537316666667","6500500","新莊區"
"242057","612-BX","2019/09/16 08:19:33","新北市新莊區中正路887-12號","121.416341666667","25.024415","6500500","新莊區"
"242047","566-BX","2019/09/16 08:19:38","新北市新莊區萬安街60巷9號","121.420615","25.0233416666667","6500500","新莊區"
"242052","497-BY","2019/09/16 08:19:26","新北市新莊區新樹路699巷29號","121.432816666667","25.0014866666667","6500500","新莊區"
"242049","442-UM","2019/09/16 08:19:32","新北市新莊區民安西路141號","121.426455","25.0170716666667","6500500","新莊區"
"242001","441-UM","2019/09/16 08:19:43","新北市新莊區大觀街42巷13號","121.454306666667","25.0359016666667","6500500","新莊區"
"242006","440-UM","2019/09/16 08:19:26","新北市新莊區自信街67號","121.455441666667","25.0482516666667","6500500","新莊區"
"242043","415-TV","2019/09/16 08:19:30","新北市新莊區中正路855巷10號","121.419778333333","25.0273333333333","6500500","新莊區"
"242012","413-TV","2019/09/16 08:19:37","新北市新莊區中泰街104巷5弄8號","121.448258333333","25.04685","6500500","新莊區"
"242024","362-BY","2019/09/16 08:19:40","新北市三重區新北大道二段37號","121.470996666667","25.0612383333333","6500500","新莊區"
"242022","353-BY","2019/09/16 08:19:44","新北市新莊區福樂街102號","121.457571666667","25.04758","6500500","新莊區"
"242038","135-UY","2019/09/16 08:19:27","新北市新莊區民安路140號","121.424326666667","25.0252966666667","6500500","新莊區"
"242055","172-VK","2019/09/16 08:19:36","新北市新莊區瓊林路40巷20-3號","121.447155","25.0302216666667","6500500","新莊區"
"242016","173-VK","2019/09/16 08:19:37","新北市新莊區永安街39號","121.451681666667","25.0446933333333","6500500","新莊區"
"242030","175-VK","2019/09/16 08:19:46","新北市新莊區新泰路357巷3弄1號","121.442501666667","25.0412216666667","6500500","新莊區"
"242020","KED-0687","2019/09/16 08:19:46","新北市新莊區中華路一段18號","121.452008333333","25.0371016666667","6500500","新莊區"
"242014","347-TH","2019/09/16 08:19:28","新北市新莊區新泰路478號","121.442808333333","25.045495","6500500","新莊區"
"242035","348-TH","2019/09/16 08:19:39","新北市新莊區建福路59巷24號","121.42781","25.0275066666667","6500500","新莊區"
"242008","349-TH","2019/09/16 08:19:28","新北市新莊區昌明街70號","121.455381666667","25.0520883333333","6500500","新莊區"
"242033","350-TH","2019/09/16 08:19:31","新北市新莊區新莊路666號","121.441805","25.0328816666667","6500500","新莊區"
"242018","351-TH","2019/09/16 08:19:32","新北市新莊區明中街48號","121.456695","25.0400333333333","6500500","新莊區"
"244018","KED-0667","2019/09/16 08:19:41","新北市林口區文化一路一段201號","121.378295","25.0752233333333","6501700","林口區"
"233003","KEA-2870","2019/09/16 08:19:32","新北市烏來區西羅岸路22號","121.550466666667","24.8683216666667","6502900","烏來區"
"242045","281-VK","2019/09/16 08:19:41","新北市新莊區建國一路52號","121.434105","25.0309716666667","6500500","新莊區"
"242010","280-VK","2019/09/16 08:19:36","新北市新莊區中富街122號","121.449706666667","25.0568116666667","6500500","新莊區"
