"lineid","car","time","location","longitude","latitude","cityid","cityname"
"244006","080-UY","2019/09/16 09:09:23","新北市林口區林口路113巷6弄1號","121.388715","25.08062","6501700","林口區"
"244012","KEA-2802","2019/09/16 09:09:36","新北市林口區文化一路一段100巷10弄16-1號","121.374938333333","25.071205","6501700","林口區"
"244022","483-VK","2019/09/16 09:09:42","新北市林口區東湖一街71號","121.385323333333","25.0724833333333","6501700","林口區"
"244016","485-VK","2019/09/16 09:09:32","新北市林口區八德路62號","121.36571","25.0655583333333","6501700","林口區"
"244008","656-BX","2019/09/16 09:09:32","新北市林口區民生路131巷1號","121.377533333333","25.0886366666667","6501700","林口區"
"244010","701-TV","2019/09/16 09:09:31","新北市林口區新寮1-82號","121.39264","25.0767816666667","6501700","林口區"
"244024","837-TS","2019/09/16 09:09:30","新北市林口區南勢街192巷1號","121.360583333333","25.0745633333333","6501700","林口區"
"244020","838-TS","2019/09/16 09:09:42","新北市林口區工六路62-2號","121.399631666667","25.07784","6501700","林口區"
"222004","289-BY","2019/09/16 09:09:34","新北市深坑區大坪街11號","121.63071","25.02008","6501800","深坑區"
"231007","189-VK","2019/09/16 09:09:26","新北市新店區新潭路三段211號","121.505213333333","24.9043083333333","6500600","新店區"
"231008","192-VK","2019/09/16 09:09:37","新北市新店區廣興路98巷1號","121.53783","24.91305","6500600","新店區"
"226001","7418-A5","2019/09/16 08:55:50","新北市平溪區東勢里番仔坑16號","121.755385","24.99146","6502400","平溪區"
"226003","AGD-0702","2019/09/16 09:09:31","新北市平溪區望古里望古坑26號","121.763345","25.0343733333333","6502400","平溪區"
"223003","205-TH","2019/09/16 09:09:39","新北市石碇區北宜路六段水底寮巷10號","121.664868333333","24.9475616666667","6501900","石碇區"
"223008","406-TH","2019/09/16 09:09:35","新北市石碇區碇南路二段松柏崎巷53號","121.679175","25.0263466666667","6501900","石碇區"
"223001","592-UM","2019/09/16 09:09:30","新北市石碇區北宜路六段水底寮巷5號","121.659261666667","24.94921","6501900","石碇區"
"223004","660-BX","2019/09/16 09:09:27","新北市石碇區碇坪路二段52號","121.683186666667","24.9706633333333","6501900","石碇區"
"223007","661-BX","2019/09/16 09:09:30","新北市石碇區碇南路二段鹿窟巷2號","121.673436666667","25.030375","6501900","石碇區"
"223005","677-TV","2019/09/16 09:09:31","新北市石碇區碇坪路二段80號","121.685271666667","24.9630466666667","6501900","石碇區"
"227003","282-VK","2019/09/16 09:09:43","新北市雙溪區泰平里料角坑11號","121.813573333333","24.9745016666667","6502500","雙溪區"
"252006","073-UM","2019/09/16 09:09:30","新北市三芝區埔頭里埔頭19號","121.491556666667","25.2601883333333","6502100","三芝區"
"252004","249-BX","2019/09/16 09:09:40","新北市三芝區興華里車埕69-3號","121.49331","25.1936916666667","6502100","三芝區"
"242040","AAC-296","2019/09/16 09:09:31","新北市新莊區青山路一段46號","121.410073333333","25.0276933333333","6500500","新莊區"
"242059","986-R7","2019/09/16 09:09:45","新北市新莊區瓊泰路9號","121.444575","25.0285433333333","6500500","新莊區"
"242003","751-BX","2019/09/16 09:09:43","新北市新莊區化成路198號","121.465616666667","25.0461983333333","6500500","新莊區"
"242028","615-BX","2019/09/16 09:09:35","新北市新莊區昌平街19號","121.454368333333","25.0513883333333","6500500","新莊區"
"242026","613-BX","2019/09/16 09:09:27","新北市新莊區中平路267號","121.444738333333","25.04969","6500500","新莊區"
"242057","612-BX","2019/09/16 09:09:30","新北市新莊區八德街17號","121.425283333333","25.0226216666667","6500500","新莊區"
"242047","566-BX","2019/09/16 09:09:42","新北市新莊區四維路152巷21號","121.422121666667","25.0226583333333","6500500","新莊區"
"242052","497-BY","2019/09/16 09:09:26","新北市新莊區民安西路278號","121.426143333333","25.0127383333333","6500500","新莊區"
"242049","442-UM","2019/09/16 09:09:36","新北市新莊區民安西路189巷16號","121.426833333333","25.01533","6500500","新莊區"
"242001","441-UM","2019/09/16 09:09:23","新北市新莊區化成路33號","121.465151666667","25.044","6500500","新莊區"
"242006","440-UM","2019/09/16 09:09:26","新北市新莊區思源路287巷2弄6號","121.459361666667","25.04838","6500500","新莊區"
"242043","415-TV","2019/09/16 09:09:30","新北市新莊區天泉二街11號","121.415106666667","25.0248816666667","6500500","新莊區"
"242012","413-TV","2019/09/16 09:09:37","新北市新莊區中和街155巷24弄83號","121.446445","25.051445","6500500","新莊區"
"242024","362-BY","2019/09/16 09:09:40","新北市新莊區五工二路70巷8號","121.460611666667","25.0661383333333","6500500","新莊區"
"242022","353-BY","2019/09/16 09:09:36","新北市新莊區化成路539號","121.46513","25.0644116666667","6500500","新莊區"
"242038","135-UY","2019/09/16 09:09:41","新北市新莊區龍安路479號","121.42538","25.018355","6500500","新莊區"
"242055","172-VK","2019/09/16 09:09:43","新北市新莊區新豐街68巷1號","121.446443333333","25.0337283333333","6500500","新莊區"
"242016","173-VK","2019/09/16 09:09:37","新北市新莊區中平路81巷16號","121.443765","25.04543","6500500","新莊區"
"242030","175-VK","2019/09/16 09:09:29","新北市新莊區新泰路213巷46號","121.445341666667","25.038455","6500500","新莊區"
"242020","KED-0687","2019/09/16 09:09:46","新北市新莊區和興街41號","121.446753333333","25.0403533333333","6500500","新莊區"
"242014","347-TH","2019/09/16 09:09:30","新北市新莊區永樂街233號","121.446771666667","25.0442583333333","6500500","新莊區"
"242035","348-TH","2019/09/16 09:09:43","新北市新莊區建安街25巷5號","121.429293333333","25.0261333333333","6500500","新莊區"
"242008","349-TH","2019/09/16 09:09:28","新北市新莊區昌隆街73號","121.457161666667","25.0510716666667","6500500","新莊區"
"242033","350-TH","2019/09/16 09:09:38","新北市新莊區中正路318巷18號","121.44644","25.03601","6500500","新莊區"
"242018","351-TH","2019/09/16 09:09:45","新北市新莊區銘德街49巷15號","121.457348333333","25.042875","6500500","新莊區"
"244018","KED-0667","2019/09/16 09:09:41","新北市林口區忠孝路561巷14號","121.373315","25.0689","6501700","林口區"
"233003","KEA-2870","2019/09/16 09:09:31","新北市烏來區李茂岸8號","121.497376666667","24.784635","6502900","烏來區"
"242045","281-VK","2019/09/16 09:09:41","新北市新莊區裕民街103巷11號","121.419048333333","25.0228833333333","6500500","新莊區"
"242010","280-VK","2019/09/16 09:09:36","新北市新莊區中信街32號","121.450286666667","25.050835","6500500","新莊區"
