"lineid","car","time","location","longitude","latitude","cityid","cityname"
"244022","483-VK","2019/09/16 10:39:42","新北市林口區仁愛路二段269號","121.373441666667","25.0774416666667","6501700","林口區"
"231007","189-VK","2019/09/16 10:39:37","新北市新店區新潭路三段86號","121.503768333333","24.90984","6500600","新店區"
"231008","192-VK","2019/09/16 10:38:57","新北市新店區成功路50巷15號","121.539738333333","24.90007","6500600","新店區"
"227003","282-VK","2019/09/16 10:11:03","新北市雙溪區泰平里灣潭路35-1號","121.812866666667","24.92912","6502500","雙溪區"
"233003","KEA-2870","2019/09/16 10:39:39","新北市新店區新烏路三段266號","121.55014","24.89977","6502900","烏來區"
