"lineid","car","time","location","longitude","latitude","cityid","cityname"
"234044","148-BY","2019/09/16 14:09:42","新北市永和區得和路408號","121.525823333333","24.9991233333333","6500400","永和區"
"234078","298-R6","2019/09/16 14:09:28","新北市永和區國中路86巷1號","121.524616666667","25.0061866666667","6500400","永和區"
"234062","337-UY","2019/09/16 14:09:28","新北市永和區永利路152號","121.522486666667","25.0027783333333","6500400","永和區"
"234084","338-UY","2019/09/16 14:09:30","新北市永和區福和路284號","121.517643333333","25.0074466666667","6500400","永和區"
"234068","552-UM","2019/09/16 14:09:38","新北市永和區福和路173號","121.520015","25.007625","6500400","永和區"
"234036","553-UM","2019/09/16 14:09:36","新北市永和區成功路一段46號","121.526916666667","25.0041883333333","6500400","永和區"
"234015","745-BX","2019/09/16 14:09:33","新北市永和區文化路66號","121.514353333333","25.0151333333333","6500400","永和區"
"234028","746-BX","2019/09/16 14:09:37","新北市永和區民權路49巷4號","121.520353333333","24.9971766666667","6500400","永和區"
"234052","KEA-2590","2019/09/16 14:09:38","新北市永和區博愛街45巷2號","121.519251666667","25.01587","6500400","永和區"
"234005","KED-0605","2019/09/16 14:09:26","新北市永和區中和路373號","121.508263333333","24.99966","6500400","永和區"
"234012","KEA-2591","2019/09/16 14:09:35","新北市永和區仁愛路271號","121.506095","25.009855","6500400","永和區"
"234060","AAD-866","2019/09/16 14:09:42","新北市永和區安樂路134號","121.514086666667","25.0002416666667","6500400","永和區"
"234040","862-TW","2019/09/16 14:09:17","新北市永和區雙和街64巷22弄3號","121.509763333333","25.0030933333333","6500400","永和區"
"234048","863-TW","2019/09/16 14:09:40","新北市永和區環河西路二段49號","121.507151666667","25.0154833333333","6500400","永和區"
"234025","9371-KE","2019/09/16 14:09:25","新北市永和區安樂路272巷9弄7號","121.515015","25.004625","6500400","永和區"
"234010","9373-KE","2019/09/16 14:09:26","新北市永和區仁愛路352巷122弄11號","121.500665","25.0088683333333","6500400","永和區"
"248015","026-BX","2019/09/16 14:09:32","新北市五股區成泰路三段543巷56號","121.449566666667","25.103135","6501500","五股區"
"248007","KED-0815","2019/09/16 14:09:40","新北市五股區中興路一段118巷14號","121.465978333333","25.0741666666667","6501500","五股區"
"248019","KED-0813","2019/09/16 14:02:32","","121.425253333333","25.1249966666667","6501500","五股區"
"248011","247-BX","2019/09/16 14:09:42","新北市五股區工商路36巷11號","121.439781666667","25.084275","6501500","五股區"
"248003","677-BX","2019/09/16 14:09:35","新北市五股區工商路148號","121.433753333333","25.0871333333333","6501500","五股區"
"248001","678-BX","2019/09/16 14:09:24","新北市五股區成泰路三段577巷49號","121.450675","25.103195","6501500","五股區"
"234022","9380-KE","2019/09/16 14:09:30","新北市永和區博愛街32巷17-1號","121.518915","25.0152316666667","6500400","永和區"
"234076","969-R7","2019/09/16 14:09:37","新北市永和區民有街75巷10弄33號","121.519356666667","24.9960433333333","6500400","永和區"
"234072","AAC-211","2019/09/16 14:09:37","新北市永和區竹林路201巷16號","121.521705","25.0092833333333","6500400","永和區"
"234066","AAC-212","2019/09/16 14:09:40","新北市永和區保平路236巷15弄1號","121.508568333333","25.0062383333333","6500400","永和區"
"234001","AAC-295","2019/09/16 14:09:39","新北市永和區中正路720號","121.515796666667","25.01009","6500400","永和區"
"244002","658-BX","2019/09/16 14:09:41","新北市林口區文化北路一段303號","121.365386666667","25.0777533333333","6501700","林口區"
"243004","AAD-798","2019/09/16 14:09:41","新北市泰山區辭修路10-7號","121.42975","25.0579983333333","6501600","泰山區"
"243002","297-R6","2019/09/16 14:09:33","新北市泰山區明志路一段481號","121.43099","25.0553883333333","6501600","泰山區"
"243006","KEA-2801","2019/09/16 14:09:25","新北市泰山區泰林路二段480號","121.425041666667","25.0640566666667","6501600","泰山區"
"243008","421-VK","2019/09/16 14:09:33","新北市泰山區明志路二段373號","121.425158333333","25.0438883333333","6501600","泰山區"
"243001","KEA-2215","2019/09/16 14:09:38","新北市泰山區楓樹街15巷3-2號","121.434805","25.0630633333333","6501600","泰山區"
"243003","KEA-2216","2019/09/16 14:09:29","新北市泰山區明志路二段374號","121.425418333333","25.0448916666667","6501600","泰山區"
"243005","646-TV","2019/09/16 14:09:28","新北市泰山區明志路三段277號","121.423076666667","25.036825","6501600","泰山區"
"243007","680-BX","2019/09/16 14:09:38","新北市泰山區明志路一段366號","121.430776666667","25.0579733333333","6501600","泰山區"
"231030","002-UM","2019/09/16 14:09:40","新北市新店區安興路7號","121.514903333333","24.968365","6500600","新店區"
"231024","0291-UT","2019/09/16 14:09:42","新北市新店區力行路14巷16弄1號","121.539061666667","24.9656616666667","6500600","新店區"
"231005","046-UY","2019/09/16 14:09:36","新北市新店區寶慶街71號","121.541803333333","24.9864766666667","6500600","新店區"
"231029","106-UY","2019/09/16 14:09:27","新北市新店區安康路二段139號","121.511808333333","24.96029","6500600","新店區"
"231013","108-UY","2019/09/16 14:09:40","新北市新店區北新路三段65巷34弄18號","121.540075","24.9815616666667","6500600","新店區"
"231036","110-UY","2019/09/16 14:09:25","新北市新店區安祥路109巷1弄17號","121.476121666667","24.959805","6500600","新店區"
"231031","256-BX","2019/09/16 14:09:31","新北市新店區永業路3號","121.533943333333","24.9561366666667","6500600","新店區"
"231023","260-TV","2019/09/16 14:09:34","新北市新店區文中路45號","121.539615","24.9566483333333","6500600","新店區"
"231003","268-BY","2019/09/16 14:09:27","新北市新店區中興路一段24號","121.538658333333","24.95837","6500600","新店區"
"231035","278-BY","2019/09/16 14:09:33","新北市新店區安和路二段115號","121.51868","24.97042","6500600","新店區"
"231014","AAD-862","2019/09/16 14:09:34","新北市新店區郵政路1巷6號","121.557306666667","24.9521566666667","6500600","新店區"
"231006","355-BY","2019/09/16 14:09:34","新北市新店區北宜路二段207號","121.553108333333","24.9533133333333","6500600","新店區"
"231038","3712-VJ","2019/09/16 14:09:31","新北市新店區溪洲路6巷2-1號","121.533958333333","24.9607416666667","6500600","新店區"
"231027","3713-VJ","2019/09/16 14:09:28","新北市新店區北宜路一段3號","121.538343333333","24.9586","6500600","新店區"
"231025","4715-K9","2019/09/16 14:09:32","新北市新店區自立街43號","121.537216666667","24.9798683333333","6500600","新店區"
"231019","513-UM","2019/09/16 14:09:43","新北市新店區屈尺路87巷2號","121.545526666667","24.92269","6500600","新店區"
"231002","618-UM","2019/09/16 14:09:24","新北市新店區中正路543-4號","121.533643333333","24.98743","6500600","新店區"
"231034","641-BX","2019/09/16 14:09:44","新北市新店區車子路22-2號","121.504576666667","24.9536733333333","6500600","新店區"
"231011","KED-0819","2019/09/16 14:09:38","新北市新店區五峰路63巷14號","121.546646666667","24.968665","6500600","新店區"
"231018","718-UY","2019/09/16 14:09:27","新北市新店區中央五街5號","121.530053333333","24.9741366666667","6500600","新店區"
"231028","897-TW","2019/09/16 14:09:39","新北市新店區安和路三段61號","121.517928333333","24.9831966666667","6500600","新店區"
"231001","898-TW","2019/09/16 14:09:32","新北市新店區中華路68號","121.53915","24.9691016666667","6500600","新店區"
"231004","899-TW","2019/09/16 14:09:39","新北市新店區北新路二段182號","121.543025","24.97609","6500600","新店區"
"231037","AKT-0513","2019/09/16 14:09:39","新北市新店區安康路三段165巷2弄10號","121.489188333333","24.9513316666667","6500600","新店區"
"235030","003-UY","2019/09/16 14:09:39","新北市中和區廣福路36號","121.504403333333","25.0023283333333","6500300","中和區"
"235027","006-UY","2019/09/16 14:09:30","新北市中和區連城路249巷12弄2號","121.493853333333","24.99631","6500300","中和區"
"235020","096-UM","2019/09/16 14:09:39","新北市中和區中正路1205號","121.480243333333","25.01019","6500300","中和區"
"235003","097-UM","2019/09/16 14:09:37","新北市中和區秀峰街119巷6弄2號","121.519605","24.9900483333333","6500300","中和區"
"235029","098-UM","2019/09/16 14:09:39","新北市中和區中山路二段116巷5弄5號","121.5022","25.0041783333333","6500300","中和區"
"235004","150-BY","2019/09/16 14:09:28","新北市中和區宜安路121號","121.510005","24.99794","6500300","中和區"
"235022","151-BY","2019/09/16 14:09:28","新北市中和區連城路523巷11弄1號","121.481675","24.99423","6500300","中和區"
"235002","185-VK","2019/09/16 14:09:27","新北市中和區大仁街20巷34號","121.519318333333","24.993155","6500300","中和區"
"235013","186-VK","2019/09/16 14:09:26","新北市中和區景新街216號","121.50713","24.9951933333333","6500300","中和區"
"235031","255-BX","2019/09/16 14:09:41","新北市中和區連城路270號","121.484925","24.9963716666667","6500300","中和區"
"235008","293-VK","2019/09/16 14:09:33","新北市中和區中興街235巷1號","121.500748333333","24.9896266666667","6500300","中和區"
"235036","301-VK","2019/09/16 14:09:30","新北市中和區中山路二段146-1號","121.501728333333","25.002875","6500300","中和區"
"235007","352-BY","2019/09/16 14:09:37","新北市中和區景平路142號","121.518508333333","24.99204","6500300","中和區"
"235006","KEA-2878","2019/09/16 14:09:42","新北市中和區大勇街60巷35號","121.519063333333","24.9947533333333","6500300","中和區"
"247015","KEA-2869","2019/09/16 14:09:41","新北市蘆洲區光華路46巷36號","121.467848333333","25.0842316666667","6501400","蘆洲區"
"247009","KED-0682","2019/09/16 14:09:29","新北市蘆洲區信義路176號","121.479245","25.0840133333333","6501400","蘆洲區"
"235014","4979-A6","2019/09/16 14:09:40","新北市中和區復興路249巷11弄3號","121.503535","24.9897683333333","6500300","中和區"
"235033","4980-A6","2019/09/16 14:09:30","新北市中和區中山路二段181巷22號","121.500965","25.001925","6500300","中和區"
"235034","558-UM","2019/09/16 14:09:29","新北市中和區連城路14號","121.498883333333","25.0022816666667","6500300","中和區"
"235009","565-BX","2019/09/16 14:09:28","新北市中和區景新街426號","121.51299","24.9888683333333","6500300","中和區"
"235018","640-BX","2019/09/16 14:09:35","新北市中和區國光街107巷2弄26號","121.469611666667","24.9993783333333","6500300","中和區"
"235024","647-TV","2019/09/16 14:09:39","新北市中和區員山路294巷15號","121.482161666667","25.002375","6500300","中和區"
"235011","732-UM","2019/09/16 14:09:37","新北市中和區興南路二段39號","121.507556666667","24.9857416666667","6500300","中和區"
"235010","733-UM","2019/09/16 14:09:43","新北市中和區華新街142號","121.507945","24.9824416666667","6500300","中和區"
"235035","783-BX","2019/09/16 14:09:26","新北市中和區板南路472號","121.48896","25.0059266666667","6500300","中和區"
"235021","801-TS","2019/09/16 14:09:34","新北市中和區員山路423巷16號","121.480271666667","25.002735","6500300","中和區"
"235005","802-TS","2019/09/16 14:09:34","新北市中和區中安街178巷13弄15號","121.510715","24.9988233333333","6500300","中和區"
"235016","805-TS","2019/09/16 14:09:35","新北市中和區興南路二段114巷2號","121.504323333333","24.9841866666667","6500300","中和區"
"235012","896-TW","2019/09/16 14:09:29","新北市中和區工專路165-2號","121.50883","24.979095","6500300","中和區"
"235017","900-TW","2019/09/16 14:09:32","新北市中和區華福街57巷10號","121.466793333333","24.9970733333333","6500300","中和區"
"235028","911-UM","2019/09/16 14:09:39","新北市中和區連城路4號","121.499186666667","25.0023166666667","6500300","中和區"
"235015","157-BY","2019/09/16 14:09:42","新北市中和區忠孝街99-3號","121.512058333333","24.986215","6500300","中和區"
"235001","AAC-213","2019/09/16 14:09:27","新北市中和區秀朗路三段10巷37弄15號","121.524125","24.9956","6500300","中和區"
"235023","AAC-215","2019/09/16 14:09:25","新北市中和區圓通路294巷3號","121.48886","24.9897333333333","6500300","中和區"
"220013","072-UY","2019/09/16 14:09:38","新北市板橋區民族路247巷2弄3號","121.470511666667","25.0075616666667","6500100","板橋區"
"220034","073-UY","2019/09/16 14:09:23","新北市板橋區中正路236巷78號","121.45821","25.0194133333333","6500100","板橋區"
"220105","075-UY","2019/09/16 14:09:26","新北市板橋區雙十路三段66巷1號","121.470511666667","25.03196","6500100","板橋區"
"220017","AAD-861","2019/09/16 14:09:25","新北市板橋區華興街35號","121.458273333333","25.00467","6500100","板橋區"
"220016","120-SR","2019/09/16 14:09:29","新北市板橋區翠華街6巷13號","121.480951666667","25.024295","6500100","板橋區"
"247005","893-R6","2019/09/16 14:09:34","新北市蘆洲區和平路121巷14弄1號","121.46633","25.0794033333333","6501400","蘆洲區"
"247019","546-UM","2019/09/16 14:09:38","新北市蘆洲區民族路426巷19號","121.473003333333","25.0931683333333","6501400","蘆洲區"
"247017","500-BY","2019/09/16 14:09:41","新北市蘆洲區民族路227巷12-1號","121.477081666667","25.0893666666667","6501400","蘆洲區"
"247007","341-TH","2019/09/16 14:09:25","新北市蘆洲區中山一路293-1號","121.471573333333","25.07921","6501400","蘆洲區"
"247011","337-TH","2019/09/16 14:09:26","新北市蘆洲區信義路355號","121.477573333333","25.0875033333333","6501400","蘆洲區"
"247003","336-TH","2019/09/16 14:09:24","新北市蘆洲區長安街108巷5弄1號","121.461268333333","25.0817383333333","6501400","蘆洲區"
"247023","057-VK","2019/09/16 14:09:26","新北市蘆洲區光榮路88號","121.463695","25.0889933333333","6501400","蘆洲區"
"247013","056-VK","2019/09/16 14:09:30","新北市蘆洲區忠孝路78號","121.471521666667","25.0855266666667","6501400","蘆洲區"
"247021","007-UY","2019/09/16 14:09:41","新北市蘆洲區三民路157-1號","121.470781666667","25.08664","6501400","蘆洲區"
"247001","001-UY","2019/09/16 14:09:33","新北市蘆洲區永平街59號","121.457585","25.0913833333333","6501400","蘆洲區"
"253003","6232-TK","2019/09/16 14:09:27","新北市石門區尖子鹿53-1號","121.582665","25.27317","6502200","石門區"
"253004","6251-TK","2019/09/16 14:09:14","新北市石門區小坑41號","121.597303333333","25.2629433333333","6502200","石門區"
"253002","637-UY","2019/09/16 14:07:29","新北市石門區尖山湖21號","121.556863333333","25.2485083333333","6502200","石門區"
"253001","KEC-0718","2019/09/16 14:09:11","新北市石門區八甲40號","121.53202","25.2690716666667","6502200","石門區"
"207002","749-BX","2019/09/16 14:09:40","新北市萬里區溪底里瑞泉路1號","121.610363333333","25.1452366666667","6502800","萬里區"
"252005","073-UM","2019/09/16 14:09:40","新北市三芝區橫山里橫山56-6號","121.534833333333","25.24932","6502100","三芝區"
"207001","662-BX","2019/09/16 14:09:36","新北市萬里區磺潭里清水18號","121.637776666667","25.1976016666667","6502800","萬里區"
"236040","KED-0685","2019/09/16 14:09:40","新北市土城區城林路6巷80號","121.438425","24.97976","6501300","土城區"
"236029","253-BX","2019/09/16 14:09:25","新北市土城區城林路6巷80號","121.43845","24.9797116666667","6501300","土城區"
"236024","269-VK","2019/09/16 14:09:27","新北市土城區承天路67號","121.439483333333","24.9635683333333","6501300","土城區"
"236012","270-VK","2019/09/16 14:09:40","新北市土城區青雲路39巷7號","121.460338333333","24.9876033333333","6501300","土城區"
"236032","271-VK","2019/09/16 14:09:25","新北市土城區青雲路449-1號","121.458731666667","24.9747016666667","6501300","土城區"
"236064","KEA-2877","2019/09/16 14:09:26","新北市土城區明德路一段365-1號","121.4539","24.9787183333333","6501300","土城區"
"236016","401-BY","2019/09/16 14:09:20","新北市土城區員福街62號","121.440058333333","24.9793383333333","6501300","土城區"
"236057","912-UM","2019/09/16 14:09:38","新北市土城區中央路四段123號","121.416353333333","24.95771","6501300","土城區"
"236045","913-UM","2019/09/16 14:09:24","新北市土城區明德路一段365-1號","121.45355","24.97907","6501300","土城區"
"236060","915-UM","2019/09/16 14:09:38","新北市土城區金城路二段2巷5號","121.447368333333","24.97593","6501300","土城區"
"236054","AAC-216","2019/09/16 14:09:20","新北市土城區中華路二段80號","121.438648333333","24.9756516666667","6501300","土城區"
"220027","145-BY","2019/09/16 14:09:25","新北市板橋區中正路6號","121.456855","25.012345","6500100","板橋區"
"220030","610-BX","2019/09/16 14:09:15","新北市板橋區滿平街74號","121.427463333333","24.9892583333333","6500100","板橋區"
"220028","256-TC","2019/09/16 14:09:30","新北市板橋區大觀路二段7巷95號","121.450113333333","25.003","6500100","板橋區"
"220004","276-BY","2019/09/16 14:09:34","新北市土城區廣福街108號","121.456638333333","24.9923916666667","6500100","板橋區"
"220020","277-BY","2019/09/16 14:09:27","新北市板橋區金門街369巷31號","121.42902","24.9842833333333","6500100","板橋區"
"220050","280-UM","2019/09/16 14:09:33","新北市板橋區雙十路二段76巷2號","121.475193333333","25.0279183333333","6500100","板橋區"
"220043","285-UM","2019/09/16 14:09:25","新北市板橋區吳鳳路21巷2號","121.46697","25.0311733333333","6500100","板橋區"
"220031","286-VK","2019/09/16 14:09:30","新北市板橋區大觀路二段174巷179弄5號","121.441816666667","25.0037966666667","6500100","板橋區"
"220029","287-VK","2019/09/16 14:09:42","新北市板橋區南雅西路二段156巷7號","121.452221666667","25.0134166666667","6500100","板橋區"
"220009","293-UM","2019/09/16 14:09:26","新北市板橋區中山路二段326-1號","121.481028333333","25.0195266666667","6500100","板橋區"
"220032","296-UM","2019/09/16 14:09:28","新北市板橋區大觀路三段162號","121.431363333333","24.9931033333333","6500100","板橋區"
"220023","303-R5","2019/09/16 14:09:37","新北市板橋區大智街25巷10號","121.454785","25.01482","6500100","板橋區"
"220010","305-R5","2019/09/16 14:09:22","新北市板橋區三民路二段居仁巷1弄38號","121.48057","25.0136183333333","6500100","板橋區"
"220041","307-R5","2019/09/16 14:09:25","新北市板橋區松江街72巷32號","121.469833333333","25.0277433333333","6500100","板橋區"
"220047","317-R6","2019/09/16 14:09:40","新北市板橋區四維路112巷33號","121.465211666667","25.0257933333333","6500100","板橋區"
"220038","487-VK","2019/09/16 14:09:22","新北市板橋區文化路一段383號","121.467158333333","25.021755","6500100","板橋區"
"220037","491-VK","2019/09/16 14:09:31","新北市板橋區莊敬路48-2號","121.472678333333","25.0271316666667","6500100","板橋區"
"220104","560-BX","2019/09/16 14:09:33","新北市板橋區中正路375巷42號","121.453676666667","25.0203833333333","6500100","板橋區"
"220052","561-BX","2019/09/16 14:09:35","新北市板橋區文化路一段268號","121.46698","25.0209183333333","6500100","板橋區"
"220019","568-UM","2019/09/16 14:09:35","新北市板橋區忠孝路153號","121.463548333333","25.0024033333333","6500100","板橋區"
"220011","609-BX","2019/09/16 14:09:39","新北市板橋區三民路二段203-1號","121.479045","25.0137016666667","6500100","板橋區"
"220040","637-BX","2019/09/16 14:09:39","新北市板橋區文聖街208號","121.48034","25.0256666666667","6500100","板橋區"
"220005","686-BX","2019/09/16 14:09:31","新北市板橋區國慶路205號","121.463463333333","24.99703","6500100","板橋區"
"220025","687-BX","2019/09/16 14:09:41","新北市板橋區大觀路二段174巷165弄2號","121.441923333333","25.0034483333333","6500100","板橋區"
"220042","689-BX","2019/09/16 14:09:38","新北市板橋區漢生西路101號","121.462603333333","25.0199516666667","6500100","板橋區"
"220002","741-BX","2019/09/16 14:09:22","新北市板橋區實踐路32巷6號","121.462991666667","25.0072266666667","6500100","板橋區"
"220051","KEA-2699","2019/09/16 14:09:34","新北市板橋區田單街33號","121.48237","25.0286433333333","6500100","板橋區"
"220003","827-TW","2019/09/16 14:09:37","新北市板橋區中山路一段160-5號","121.46602","25.01206","6500100","板橋區"
"220014","829-TW","2019/09/16 14:09:38","新北市板橋區民享街116巷6號","121.47823","25.0155883333333","6500100","板橋區"
"220039","831-TW","2019/09/16 14:09:37","新北市板橋區長江路一段106巷13弄1號","121.4601","25.0291766666667","6500100","板橋區"
"220022","895-R6","2019/09/16 14:09:32","新北市板橋區林園街44號","121.453703333333","25.0103816666667","6500100","板橋區"
"220021","985-R7","2019/09/16 14:09:26","新北市板橋區民權路220號","121.458698333333","25.01414","6500100","板橋區"
"220046","AAC-210","2019/09/16 14:09:13","新北市板橋區幸福路60巷4號","121.460695","25.02091","6500100","板橋區"
"220012","AAC-253","2019/09/16 14:09:39","新北市板橋區板新路226號","121.46843","25.0161533333333","6500100","板橋區"
"235032","KEA-2873","2019/09/16 14:09:16","新北市中和區景平路493巷12弄23號","121.49865","24.9970333333333","6500300","中和區"
"235025","KEA-2875","2019/09/16 14:09:17","新北市中和區員山路143巷38號","121.479243333333","24.9956366666667","6500300","中和區"
"235026","KEA-2876","2019/09/16 14:09:22","新北市中和區中山路二段504號","121.486675","25.0049283333333","6500300","中和區"
