"lineid","car","time","location","longitude","latitude","cityid","cityname"
"234062","337-UY","2019/09/16 14:39:28","新北市永和區光復街42號","121.516693333333","25.0176566666667","6500400","永和區"
"234084","338-UY","2019/09/16 14:39:30","新北市永和區光復街32號","121.51656","25.017445","6500400","永和區"
"234028","746-BX","2019/09/16 14:39:37","新北市板橋區民生路二段210-1號","121.46925","25.021255","6500400","永和區"
"234040","862-TW","2019/09/16 14:39:28","新北市永和區永和路一段115-1號","121.513963333333","25.0081266666667","6500400","永和區"
"234025","9371-KE","2019/09/16 14:39:25","新北市永和區中和路501巷2號","121.51051","25.0025833333333","6500400","永和區"
"248013","025-BX","2019/09/16 14:39:29","","121.434353333333","25.09031","6501500","五股區"
"248015","026-BX","2019/09/16 14:39:31","","121.449513333333","25.10429","6501500","五股區"
"248007","KED-0815","2019/09/16 14:39:40","新北市五股區中興路一段95巷9號","121.466666666667","25.0724466666667","6501500","五股區"
"248019","KED-0813","2019/09/16 14:39:25","新北市五股區凌雲路三段94-1號","121.427635","25.1218716666667","6501500","五股區"
"248011","247-BX","2019/09/16 14:39:22","","121.435353333333","25.085265","6501500","五股區"
"248003","677-BX","2019/09/16 14:39:40","","121.435153333333","25.07665","6501500","五股區"
"248001","678-BX","2019/09/16 14:39:33","新北市五股區成泰路三段309號","121.447625","25.0947583333333","6501500","五股區"
"248009","682-TV","2019/09/16 14:39:39","","121.429131666667","25.070065","6501500","五股區"
"234072","AAC-211","2019/09/16 14:39:37","新北市永和區環河東路二段54-1號","121.523421666667","25.01152","6500400","永和區"
"234066","AAC-212","2019/09/16 14:39:40","新北市永和區光復街33巷7號","121.516066666667","25.01816","6500400","永和區"
"234001","AAC-295","2019/09/16 14:39:39","","121.516855","25.0081516666667","6500400","永和區"
"244002","658-BX","2019/09/16 14:39:41","新北市林口區文化二路一段539號","121.373941666667","25.0766666666667","6501700","林口區"
"243004","AAD-798","2019/09/16 14:39:33","新北市泰山區仁愛路100巷57號","121.43376","25.0548733333333","6501600","泰山區"
"243002","297-R6","2019/09/16 14:39:33","新北市泰山區明志路二段136巷24號","121.426183333333","25.0520016666667","6501600","泰山區"
"243006","KEA-2801","2019/09/16 14:39:25","新北市泰山區泰林路二段119號","121.434363333333","25.0595616666667","6501600","泰山區"
"243008","421-VK","2019/09/16 14:39:26","新北市泰山區貴陽街86號","121.423935","25.0318566666667","6501600","泰山區"
"243001","KEA-2215","2019/09/16 14:39:27","新北市泰山區楓江路16巷7號","121.433948333333","25.0620083333333","6501600","泰山區"
"243003","KEA-2216","2019/09/16 14:39:29","新北市泰山區明志路三段204巷10弄15號","121.4229","25.038755","6501600","泰山區"
"231030","002-UM","2019/09/16 14:39:40","新北市新店區安民街65巷1號","121.51612","24.9666833333333","6500600","新店區"
"231005","046-UY","2019/09/16 14:39:36","新北市新店區順安街21號","121.540855","24.9855966666667","6500600","新店區"
"231029","106-UY","2019/09/16 14:39:27","新北市新店區安康路三段230號","121.488085","24.9518833333333","6500600","新店區"
"231013","108-UY","2019/09/16 14:39:40","新北市新店區建國路220號","121.537695","24.9812066666667","6500600","新店區"
"231036","110-UY","2019/09/16 14:39:25","新北市新店區安祥路106巷210號","121.474033333333","24.9604933333333","6500600","新店區"
"231031","256-BX","2019/09/16 14:39:31","新北市新店區安業街8巷1號","121.515485","24.97744","6500600","新店區"
"231023","260-TV","2019/09/16 14:39:34","新北市新店區檳榔路55號","121.543196666667","24.9628333333333","6500600","新店區"
"231003","268-BY","2019/09/16 14:39:27","新北市新店區中興路二段192號","121.548461666667","24.9735466666667","6500600","新店區"
"231035","278-BY","2019/09/16 14:39:33","新北市新店區安德街2號","121.512351666667","24.9628283333333","6500600","新店區"
"231014","AAD-862","2019/09/16 14:39:35","新北市新店區北宜路三段284號","121.603893333333","24.9553966666667","6500600","新店區"
"231006","355-BY","2019/09/16 14:39:34","新北市新店區北宜路二段277號","121.5551","24.953615","6500600","新店區"
"231038","3712-VJ","2019/09/16 14:39:30","新北市新店區安康路一段355-3號","121.519593333333","24.96284","6500600","新店區"
"231027","3713-VJ","2019/09/16 14:39:37","新北市新店區寶橋路85巷50號","121.54551","24.97626","6500600","新店區"
"231019","513-UM","2019/09/16 14:39:23","新北市新店區桂山路51巷6-1號","121.561891666667","24.9015883333333","6500600","新店區"
"231002","618-UM","2019/09/16 14:39:24","新北市新店區中央路25號","121.53303","24.9780466666667","6500600","新店區"
"231034","641-BX","2019/09/16 14:39:42","新北市新店區黎明路53巷1號","121.502306666667","24.94869","6500600","新店區"
"231011","KED-0819","2019/09/16 14:39:38","新北市新店區寶橋路82號","121.54631","24.975645","6500600","新店區"
"231018","718-UY","2019/09/16 14:39:27","新北市新店區中央五街9號","121.52997","24.9742566666667","6500600","新店區"
"231028","897-TW","2019/09/16 14:39:39","新北市新店區安康路二段176號","121.511643333333","24.960365","6500600","新店區"
"231001","898-TW","2019/09/16 14:39:32","新北市新店區中正路59號","121.544196666667","24.969985","6500600","新店區"
"231004","899-TW","2019/09/16 14:39:31","新北市新店區中正路295號","121.537126666667","24.9746233333333","6500600","新店區"
"235030","003-UY","2019/09/16 14:39:39","新北市中和區景新街133號","121.505905","24.9972283333333","6500300","中和區"
"235027","006-UY","2019/09/16 14:39:30","新北市中和區連城路184號","121.492756666667","24.99677","6500300","中和區"
"235020","096-UM","2019/09/16 14:39:34","新北市中和區員山路581巷31弄22號","121.476625","25.0103616666667","6500300","中和區"
"235003","097-UM","2019/09/16 14:39:37","新北市中和區安平路186號","121.51296","24.99908","6500300","中和區"
"235029","098-UM","2019/09/16 14:39:40","新北市中和區福祥路72號","121.499301666667","25.0055533333333","6500300","中和區"
"235004","150-BY","2019/09/16 14:39:28","新北市中和區宜安路66號","121.511481666667","24.99701","6500300","中和區"
"235022","151-BY","2019/09/16 14:39:28","新北市中和區員山路124巷52號","121.482556666667","24.9965533333333","6500300","中和區"
"235002","185-VK","2019/09/16 14:39:27","新北市中和區自立路20巷10號","121.521758333333","24.993395","6500300","中和區"
"235013","186-VK","2019/09/16 14:39:26","新北市中和區景平路385-1號","121.503015","24.9941366666667","6500300","中和區"
"235031","255-BX","2019/09/16 14:39:30","新北市中和區新生街186巷2號","121.483515","24.999685","6500300","中和區"
"235008","293-VK","2019/09/16 14:39:33","新北市中和區南山路493號","121.50793","24.9879466666667","6500300","中和區"
"235036","301-VK","2019/09/16 14:39:30","新北市中和區保平路340巷18號","121.50601","25.0045566666667","6500300","中和區"
"235007","352-BY","2019/09/16 14:39:37","新北市中和區安和路95號","121.507298333333","24.9956716666667","6500300","中和區"
"235006","KEA-2878","2019/09/16 14:39:42","新北市中和區宜安路66號","121.511388333333","24.997085","6500300","中和區"
"247015","KEA-2869","2019/09/16 14:39:41","新北市蘆洲區正和街28號","121.469776666667","25.0821033333333","6501400","蘆洲區"
"247009","KED-0682","2019/09/16 14:39:29","新北市蘆洲區信義路222巷57號","121.480986666667","25.0854266666667","6501400","蘆洲區"
"235034","558-UM","2019/09/16 14:39:28","新北市中和區連城路171巷41弄1號","121.496065","24.9964866666667","6500300","中和區"
"235018","640-BX","2019/09/16 14:39:27","新北市中和區莒光路222-2號","121.469285","24.99512","6500300","中和區"
"235024","647-TV","2019/09/16 14:39:40","新北市中和區新生街115號","121.483486666667","25.0018566666667","6500300","中和區"
"235011","732-UM","2019/09/16 14:39:33","新北市中和區南山路283巷12號","121.504563333333","24.9924916666667","6500300","中和區"
"235010","733-UM","2019/09/16 14:39:43","新北市中和區景新街496巷33弄2號","121.513571666667","24.9860333333333","6500300","中和區"
"235035","783-BX","2019/09/16 14:39:26","新北市中和區建八路130巷6號","121.488108333333","24.9976983333333","6500300","中和區"
"235021","801-TS","2019/09/16 14:39:33","新北市中和區中正路802號","121.485085","25.00163","6500300","中和區"
"235005","802-TS","2019/09/16 14:39:34","新北市中和區中和路252巷1號","121.507606666667","24.9992983333333","6500300","中和區"
"235016","805-TS","2019/09/16 14:39:42","新北市中和區華新街206巷20號","121.506238333333","24.9827966666667","6500300","中和區"
"235012","896-TW","2019/09/16 14:39:29","新北市中和區景新街491號","121.513753333333","24.9872933333333","6500300","中和區"
"235017","900-TW","2019/09/16 14:39:25","新北市中和區國光街186巷3號","121.466458333333","25.00201","6500300","中和區"
"235015","157-BY","2019/09/16 14:39:22","新北市中和區中興街180巷52弄2號","121.498805","24.9886933333333","6500300","中和區"
"235001","AAC-213","2019/09/16 14:39:27","新北市中和區秀朗路三段138號","121.524406666667","24.9916516666667","6500300","中和區"
"235023","AAC-215","2019/09/16 14:39:25","新北市中和區圓通路305巷1-1號","121.493501666667","24.990575","6500300","中和區"
"220013","072-UY","2019/09/16 14:39:38","新北市板橋區國泰街111巷9號","121.465778333333","25.0061566666667","6500100","板橋區"
"220034","073-UY","2019/09/16 14:39:44","新北市板橋區國光路177號","121.460661666667","25.018375","6500100","板橋區"
"220105","075-UY","2019/09/16 14:39:26","新北市板橋區仁化街221號","121.478718333333","25.0347033333333","6500100","板橋區"
"220017","AAD-861","2019/09/16 14:39:25","新北市板橋區南雅南路二段11-29號","121.453843333333","25.0014883333333","6500100","板橋區"
"220016","120-SR","2019/09/16 14:39:29","新北市板橋區中山路二段416巷36-1號","121.48322","25.0198633333333","6500100","板橋區"
"247005","893-R6","2019/09/16 14:39:40","新北市蘆洲區長安街46巷21號","121.463945","25.08031","6501400","蘆洲區"
"247019","546-UM","2019/09/16 14:39:38","新北市蘆洲區民權路131巷8號","121.471546666667","25.0899983333333","6501400","蘆洲區"
"247017","500-BY","2019/09/16 14:39:41","新北市蘆洲區民族路311號","121.474703333333","25.0913583333333","6501400","蘆洲區"
"247007","341-TH","2019/09/16 14:39:25","新北市蘆洲區成功路50號","121.473123333333","25.07976","6501400","蘆洲區"
"247011","337-TH","2019/09/16 14:39:26","新北市蘆洲區集賢路224巷58號","121.481038333333","25.08802","6501400","蘆洲區"
"247003","336-TH","2019/09/16 14:39:24","新北市蘆洲區長安街285巷26號","121.456911666667","25.0839966666667","6501400","蘆洲區"
"247023","057-VK","2019/09/16 14:39:26","新北市蘆洲區正和街63巷9號","121.469201666667","25.0806866666667","6501400","蘆洲區"
"247013","056-VK","2019/09/16 14:39:30","新北市蘆洲區成功路164號","121.471486666667","25.0835066666667","6501400","蘆洲區"
"247021","007-UY","2019/09/16 14:39:41","新北市蘆洲區三民路246號","121.468068333333","25.0898533333333","6501400","蘆洲區"
"247001","001-UY","2019/09/16 14:39:33","新北市蘆洲區永樂街38巷57弄5號","121.458168333333","25.090215","6501400","蘆洲區"
"253003","6232-TK","2019/09/16 14:39:27","新北市石門區尖子鹿87號","121.578878333333","25.29195","6502200","石門區"
"253004","6251-TK","2019/09/16 14:39:34","新北市石門區內阿里磅37-1號","121.585183333333","25.2389033333333","6502200","石門區"
"253002","637-UY","2019/09/16 14:39:29","新北市石門區七股7號","121.547375","25.27113","6502200","石門區"
"253001","KEC-0718","2019/09/16 14:39:30","新北市石門區崁子腳37-5號","121.536498333333","25.268645","6502200","石門區"
"207002","749-BX","2019/09/16 14:38:20","","121.625258333333","25.1561416666667","6502800","萬里區"
"252005","073-UM","2019/09/16 14:39:40","新北市三芝區橫山里大坑23-5號","121.523773333333","25.2554666666667","6502100","三芝區"
"207001","662-BX","2019/09/16 14:39:36","新北市萬里區磺潭里員潭路54號","121.643515","25.1910216666667","6502800","萬里區"
"236040","KED-0685","2019/09/16 14:39:29","新北市土城區裕民路55巷16號","121.449625","24.98868","6501300","土城區"
"236029","253-BX","2019/09/16 14:39:38","新北市土城區中華路二段185號","121.438573333333","24.9746","6501300","土城區"
"236024","269-VK","2019/09/16 14:39:27","新北市土城區忠義路47號","121.440521666667","24.9693633333333","6501300","土城區"
"236012","270-VK","2019/09/16 14:39:40","新北市土城區清水路209號","121.460215","24.9819766666667","6501300","土城區"
"236032","271-VK","2019/09/16 14:39:37","新北市土城區明德路一段313巷3弄16號","121.460125","24.9764583333333","6501300","土城區"
"236064","KEA-2877","2019/09/16 14:39:26","新北市土城區永豐路340巷8-1號","121.474178333333","24.9769116666667","6501300","土城區"
"236016","401-BY","2019/09/16 14:39:40","新北市土城區延吉街251號","121.467541666667","24.9847716666667","6501300","土城區"
"236057","912-UM","2019/09/16 14:39:37","新北市土城區中央路三段235巷1號","121.428898333333","24.9643","6501300","土城區"
"236045","913-UM","2019/09/16 14:39:44","新北市土城區明德路一段28號","121.465161666667","24.9847466666667","6501300","土城區"
"236060","915-UM","2019/09/16 14:39:38","新北市土城區延壽路13巷17號","121.470023333333","24.9912916666667","6501300","土城區"
"236054","AAC-216","2019/09/16 14:39:40","新北市土城區裕民路22號","121.447683333333","24.9886366666667","6501300","土城區"
"220027","145-BY","2019/09/16 14:39:25","新北市板橋區民權路258-8號","121.457911666667","25.0152983333333","6500100","板橋區"
"220030","610-BX","2019/09/16 14:39:36","新北市板橋區金門街302號","121.429006666667","24.9855183333333","6500100","板橋區"
"220028","256-TC","2019/09/16 14:39:30","新北市板橋區大觀路二段37巷188號","121.449648333333","25.0018733333333","6500100","板橋區"
"220004","276-BY","2019/09/16 14:39:34","新北市板橋區干城路20巷6號","121.459193333333","24.9935266666667","6500100","板橋區"
"220020","277-BY","2019/09/16 14:39:27","新北市板橋區金門街253巷17弄27號","121.433556666667","24.9891216666667","6500100","板橋區"
"220050","280-UM","2019/09/16 14:39:43","新北市板橋區萬板路48號","121.47198","25.0227966666667","6500100","板橋區"
"220043","285-UM","2019/09/16 14:39:25","新北市板橋區長江路二段165號","121.466516666667","25.0319883333333","6500100","板橋區"
"220001","285-VK","2019/09/16 14:39:20","台北市萬華區東園街66巷37弄2號","121.495418333333","25.0254333333333","6500100","板橋區"
"220031","286-VK","2019/09/16 14:39:30","新北市板橋區龍興街65巷28號","121.443048333333","25.0016666666667","6500100","板橋區"
"220029","287-VK","2019/09/16 14:39:42","新北市板橋區大觀路一段75巷1號","121.447321666667","25.0045283333333","6500100","板橋區"
"220009","293-UM","2019/09/16 14:39:26","新北市板橋區板新路136號","121.47082","25.0156083333333","6500100","板橋區"
"220032","296-UM","2019/09/16 14:39:28","新北市板橋區溪崑二街138號","121.425823333333","24.9875816666667","6500100","板橋區"
"220023","303-R5","2019/09/16 14:39:37","新北市板橋區中正路275巷93號","121.450796666667","25.0181033333333","6500100","板橋區"
"220010","305-R5","2019/09/16 14:39:42","新北市板橋區三民路二段109巷29號","121.480565","25.016055","6500100","板橋區"
"220041","307-R5","2019/09/16 14:39:32","新北市板橋區四維路259巷73號","121.460523333333","25.026615","6500100","板橋區"
"220047","317-R6","2019/09/16 14:39:40","新北市板橋區民生路三段281巷2弄2號","121.463651666667","25.029965","6500100","板橋區"
"220038","487-VK","2019/09/16 14:39:42","新北市板橋區龍泉街82巷14弄1號","121.455661666667","25.0255333333333","6500100","板橋區"
"220037","491-VK","2019/09/16 14:39:42","新北市板橋區莊敬路2號","121.473876666667","25.0286383333333","6500100","板橋區"
"220104","560-BX","2019/09/16 14:39:27","新北市板橋區中正路399巷32號","121.45289","25.0228066666667","6500100","板橋區"
"220052","561-BX","2019/09/16 14:39:36","新北市板橋區文化路一段421巷9號","121.466935","25.0227933333333","6500100","板橋區"
"220019","568-UM","2019/09/16 14:39:43","新北市板橋區四川路一段325巷11號","121.459528333333","25.000395","6500100","板橋區"
"220011","609-BX","2019/09/16 14:39:39","新北市板橋區三民路一段1巷28號","121.480225","25.02439","6500100","板橋區"
"220040","637-BX","2019/09/16 14:39:39","新北市板橋區懷德街191巷26弄8號","121.480545","25.0293133333333","6500100","板橋區"
"220005","686-BX","2019/09/16 14:39:31","新北市板橋區廣和街60號","121.461975","24.9938866666667","6500100","板橋區"
"220025","687-BX","2019/09/16 14:39:41","新北市板橋區大觀路一段31號","121.449931666667","25.0084983333333","6500100","板橋區"
"220042","689-BX","2019/09/16 14:39:38","新北市板橋區長江路一段373號","121.461766666667","25.0307366666667","6500100","板橋區"
"220002","741-BX","2019/09/16 14:39:42","新北市板橋區忠孝路192號","121.46511","25.0026366666667","6500100","板橋區"
"220051","KEA-2699","2019/09/16 14:39:34","新北市板橋區文化路二段410巷1弄3號","121.474365","25.0312316666667","6500100","板橋區"
"220003","827-TW","2019/09/16 14:39:37","新北市板橋區重慶路290巷2號","121.463138333333","24.9990216666667","6500100","板橋區"
"220014","829-TW","2019/09/16 14:39:38","新北市板橋區漢生東路279巷14號","121.47201","25.00921","6500100","板橋區"
"220039","831-TW","2019/09/16 14:39:37","新北市板橋區綠堤街33-4號","121.455751666667","25.0264766666667","6500100","板橋區"
"220022","895-R6","2019/09/16 14:39:32","新北市板橋區館前西路132號","121.456433333333","25.0079266666667","6500100","板橋區"
"220021","985-R7","2019/09/16 14:39:26","新北市板橋區新生街17號","121.455858333333","25.0211733333333","6500100","板橋區"
"220046","AAC-210","2019/09/16 14:39:33","新北市板橋區文化路一段49號","121.460565","25.0133483333333","6500100","板橋區"
"220012","AAC-253","2019/09/16 14:39:31","新北市板橋區民族路37號","121.462475","25.0096183333333","6500100","板橋區"
"235032","KEA-2873","2019/09/16 14:39:16","新北市中和區中山路二段250巷22號","121.497405","25.0033733333333","6500300","中和區"
