"lineid","car","time","location","longitude","latitude","cityid","cityname"
"248007","KED-0815","2019/09/16 15:09:40","新北市五股區四維路155巷36弄4號","121.466878333333","25.0745916666667","6501500","五股區"
"248019","KED-0813","2019/09/16 15:09:25","新北市五股區凌雲路三段24巷16-1號","121.434916666667","25.105645","6501500","五股區"
"248011","247-BX","2019/09/16 15:09:22","","121.457586666667","25.077065","6501500","五股區"
"244001","248-BX","2019/09/16 15:09:38","新北市林口區林口路76號","121.389678333333","25.080685","6501700","林口區"
"244002","658-BX","2019/09/16 15:09:41","新北市林口區公園路59號","121.367491666667","25.0690083333333","6501700","林口區"
"243004","AAD-798","2019/09/16 15:09:33","新北市泰山區文化街37-7號","121.435213333333","25.0642783333333","6501600","泰山區"
"243008","421-VK","2019/09/16 15:09:26","新北市泰山區文程路36號","121.429303333333","25.048715","6501600","泰山區"
"243001","KEA-2215","2019/09/16 15:09:27","新北市泰山區泰林路二段387號","121.427481666667","25.0642533333333","6501600","泰山區"
"243003","KEA-2216","2019/09/16 15:09:29","新北市泰山區新北大道六段313巷5號","121.424065","25.0333883333333","6501600","泰山區"
"231030","002-UM","2019/09/16 15:09:40","新北市新店區安興路80號","121.515245","24.9758683333333","6500600","新店區"
"231005","046-UY","2019/09/16 15:09:36","新北市新店區順安街30號","121.541121666667","24.985515","6500600","新店區"
"231029","106-UY","2019/09/16 15:09:27","新北市新店區錦秀路27號","121.479326666667","24.9441233333333","6500600","新店區"
"231036","110-UY","2019/09/16 15:09:40","新北市新店區安祥路104巷10號","121.481298333333","24.9631266666667","6500600","新店區"
"231039","187-VK","2019/09/16 15:09:23","新北市新店區寶安街2號","121.542348333333","24.980625","6500600","新店區"
"231031","256-BX","2019/09/16 15:09:31","新北市新店區安泰路60巷134弄66號","121.483485","24.9434516666667","6500600","新店區"
"231023","260-TV","2019/09/16 15:09:34","新北市新店區檳榔路105號","121.544666666667","24.9617283333333","6500600","新店區"
"231003","268-BY","2019/09/16 15:09:27","新北市新店區寶橋路218號","121.551115","24.9786483333333","6500600","新店區"
"231035","278-BY","2019/09/16 15:09:41","新北市新店區安和路三段171號","121.516008333333","24.986065","6500600","新店區"
"231014","AAD-862","2019/09/16 15:09:34","新北市新店區銀河路75號","121.578753333333","24.9582783333333","6500600","新店區"
"231006","355-BY","2019/09/16 15:09:34","新北市新店區新坡一街72號","121.54886","24.9646533333333","6500600","新店區"
"231038","3712-VJ","2019/09/16 15:09:30","新北市新店區安華路28-1號","121.519746666667","24.9610116666667","6500600","新店區"
"231025","4715-K9","2019/09/16 15:09:32","新北市新店區中央路11號","121.533281666667","24.9785516666667","6500600","新店區"
"231019","513-UM","2019/09/16 15:09:43","新北市新店區永福路54號","121.55807","24.9287283333333","6500600","新店區"
"231002","618-UM","2019/09/16 15:09:44","新北市新店區中正路566號","121.533801666667","24.9874866666667","6500600","新店區"
"231034","641-BX","2019/09/16 15:09:22","新北市新店區玫瑰路4-1號","121.493538333333","24.9514466666667","6500600","新店區"
"231011","KED-0819","2019/09/16 15:09:38","新北市新店區寶元路一段65號","121.542245","24.9858483333333","6500600","新店區"
"231018","718-UY","2019/09/16 15:09:26","新北市新店區溪園路457號","121.525118333333","24.9774483333333","6500600","新店區"
"231026","720-UM","2019/09/16 15:09:38","新北市新店區建安街15巷1號","121.539815","24.9754316666667","6500600","新店區"
"231028","897-TW","2019/09/16 15:09:39","新北市新店區安豐路54-1號","121.499823333333","24.95388","6500600","新店區"
"231001","898-TW","2019/09/16 15:09:32","新北市新店區中正路251號","121.538998333333","24.9734616666667","6500600","新店區"
"231004","899-TW","2019/09/16 15:09:31","新北市新店區建國路37巷1號","121.540488333333","24.9748283333333","6500600","新店區"
"231037","AKT-0513","2019/09/16 15:09:39","新北市新店區安興路81號","121.51547","24.97525","6500600","新店區"
"235030","003-UY","2019/09/16 15:09:39","新北市中和區中山路二段3巷28-3號","121.507041666667","25.0051583333333","6500300","中和區"
"235029","098-UM","2019/09/16 15:09:39","新北市中和區福美路310號","121.49685","25.00477","6500300","中和區"
"235004","150-BY","2019/09/16 15:09:28","新北市中和區保健路44巷5號","121.509388333333","24.9969283333333","6500300","中和區"
"235007","352-BY","2019/09/16 15:09:37","新北市中和區興南路二段159巷18號","121.505278333333","24.9830233333333","6500300","中和區"
"235014","4979-A6","2019/09/16 15:09:40","新北市中和區景平路336號","121.511831666667","24.9926866666667","6500300","中和區"
"235033","4980-A6","2019/09/16 15:09:26","新北市中和區景新街34巷18弄2號","121.503375","24.9985966666667","6500300","中和區"
"235035","783-BX","2019/09/16 15:09:26","新北市中和區立德街323號","121.482008333333","25.0105733333333","6500300","中和區"
"235012","896-TW","2019/09/16 15:09:29","新北市中和區興南路一段18號","121.511336666667","24.9912333333333","6500300","中和區"
"235001","AAC-213","2019/09/16 15:09:27","新北市板橋區民生路二段89-4號","121.471301666667","25.0184166666667","6500300","中和區"
"235023","AAC-215","2019/09/16 15:09:25","新北市中和區圓通路335巷39號","121.493898333333","24.9892133333333","6500300","中和區"
"220013","072-UY","2019/09/16 15:09:38","新北市板橋區中山路一段154巷19號","121.465253333333","25.0107133333333","6500100","板橋區"
"220034","073-UY","2019/09/16 15:09:23","新北市板橋區大觀路一段28巷106-3號","121.451005","25.0107333333333","6500100","板橋區"
"253004","6251-TK","2019/09/16 15:09:34","新北市石門區茂林社區3-1號","121.592003333333","25.27104","6502200","石門區"
"253002","637-UY","2019/09/16 15:09:29","新北市石門區楓林43號","121.541071666667","25.282855","6502200","石門區"
"207002","749-BX","2019/09/16 15:09:40","新北市萬里區崁腳里崁腳路42號","121.651638333333","25.1611633333333","6502800","萬里區"
"207001","662-BX","2019/09/16 15:09:36","新北市萬里區雙興里麗水路3-2號","121.653421666667","25.181075","6502800","萬里區"
"236040","KED-0685","2019/09/16 15:09:40","新北市土城區裕民路276號","121.4551","24.98243","6501300","土城區"
"236029","253-BX","2019/09/16 15:09:29","新北市土城區中央路二段48-3號","121.442533333333","24.9796366666667","6501300","土城區"
"236024","269-VK","2019/09/16 15:09:32","新北市土城區中央路二段177巷20號","121.442588333333","24.9758533333333","6501300","土城區"
"236012","270-VK","2019/09/16 15:09:40","新北市土城區學府路一段75巷1弄2號","121.457223333333","24.9877233333333","6501300","土城區"
"236064","KEA-2877","2019/09/16 15:09:26","新北市土城區學成路146號","121.448681666667","24.98959","6501300","土城區"
"236016","401-BY","2019/09/16 15:09:40","新北市土城區延峰街19號","121.468915","24.986065","6501300","土城區"
"236057","912-UM","2019/09/16 15:09:37","新北市土城區金城路一段53號","121.441235","24.969785","6501300","土城區"
"236045","913-UM","2019/09/16 15:09:24","新北市土城區清水路165號","121.458893333333","24.9815716666667","6501300","土城區"
"236060","915-UM","2019/09/16 15:09:38","新北市土城區金城路三段33巷24號","121.465058333333","24.9875716666667","6501300","土城區"
"236054","AAC-216","2019/09/16 15:09:40","新北市土城區學府路一段254號","121.451413333333","24.9844266666667","6501300","土城區"
"238010","601-UM","2019/09/16 15:09:29","新北市樹林區大安路568-4號","121.412136666667","24.9839216666667","6500700","樹林區"
"238006","599-UM","2019/09/16 15:09:39","新北市樹林區太平路273巷23號","121.421191666667","24.9763316666667","6500700","樹林區"
"238005","KEA-2217","2019/09/16 15:09:26","新北市板橋區金門街215巷88號","121.432998333333","24.98439","6500700","樹林區"
"238008","KEA-2539","2019/09/16 15:09:33","新北市樹林區西圳街一段165巷20弄11號","121.395665","24.9601683333333","6500700","樹林區"
"238012","303-VK","2019/09/16 15:09:30","新北市樹林區中山路二段185-2號","121.405275","24.9781983333333","6500700","樹林區"
"238004","283-BY","2019/09/16 15:07:02","新北市樹林區大安路576號","121.411903333333","24.983725","6500700","樹林區"
"238001","282-BY","2019/09/16 15:09:25","新北市樹林區大安路575號","121.41206","24.9836333333333","6500700","樹林區"
"238007","268-VK","2019/09/16 15:09:26","新北市樹林區文化街91巷16號","121.41578","24.9894283333333","6500700","樹林區"
"238013","172-UY","2019/09/16 15:09:35","新北市樹林區東大街144號","121.409993333333","24.9759583333333","6500700","樹林區"
"238003","169-UY","2019/09/16 15:09:25","新北市樹林區中山路二段10號","121.417571666667","24.9850266666667","6500700","樹林區"
"220027","145-BY","2019/09/16 15:09:36","新北市板橋區建國街2號","121.456998333333","25.0166416666667","6500100","板橋區"
"220030","610-BX","2019/09/16 15:09:35","新北市板橋區溪北路84號","121.42812","24.9893883333333","6500100","板橋區"
"220028","256-TC","2019/09/16 15:09:30","新北市板橋區大觀路二段153巷44弄23號","121.44614","24.99921","6500100","板橋區"
"220004","276-BY","2019/09/16 15:09:34","新北市板橋區四川路二段140巷20號","121.449281666667","24.9934433333333","6500100","板橋區"
"220050","280-UM","2019/09/16 15:09:33","新北市板橋區萬板路328號","121.478335","25.0253083333333","6500100","板橋區"
"220031","286-VK","2019/09/16 15:09:30","新北市板橋區僑中二街90巷27號","121.444916666667","25.0092933333333","6500100","板橋區"
"220029","287-VK","2019/09/16 15:09:42","新北市板橋區僑中一街80巷12弄1號","121.448113333333","25.0131233333333","6500100","板橋區"
"220032","296-UM","2019/09/16 15:09:28","新北市板橋區溪崑二街134號","121.425968333333","24.9878516666667","6500100","板橋區"
"220023","303-R5","2019/09/16 15:09:37","新北市板橋區金華街10巷48弄31號","121.458098333333","25.0200866666667","6500100","板橋區"
"220047","317-R6","2019/09/16 15:09:40","新北市板橋區新海路385巷24號","121.457981666667","25.0254433333333","6500100","板橋區"
"220038","487-VK","2019/09/16 15:09:42","新北市板橋區四維路231號","121.46379","25.0275016666667","6500100","板橋區"
"220037","491-VK","2019/09/16 15:09:31","新北市板橋區懷德街181巷5號","121.479416666667","25.0300083333333","6500100","板橋區"
"220104","560-BX","2019/09/16 15:09:34","新北市板橋區新生街29巷15弄2號","121.45659","25.022095","6500100","板橋區"
"220011","609-BX","2019/09/16 15:09:41","新北市板橋區三民路一段5巷1號","121.479073333333","25.0233716666667","6500100","板橋區"
"220040","637-BX","2019/09/16 15:09:39","新北市板橋區民治街117號","121.478418333333","25.0308266666667","6500100","板橋區"
"220005","686-BX","2019/09/16 15:09:31","新北市土城區廣興街38號","121.453535","24.9914666666667","6500100","板橋區"
"220025","687-BX","2019/09/16 15:09:41","新北市板橋區僑中一街148號","121.445013333333","25.01184","6500100","板橋區"
"220042","689-BX","2019/09/16 15:09:39","新北市板橋區長江路二段230號","121.468521666667","25.0324366666667","6500100","板橋區"
"220002","741-BX","2019/09/16 15:09:42","新北市板橋區忠孝路忠義巷3弄26號","121.46525","25.0041416666667","6500100","板橋區"
"220051","KEA-2699","2019/09/16 15:09:42","新北市板橋區莒光路79巷6號","121.47198","25.02446","6500100","板橋區"
"220003","827-TW","2019/09/16 15:09:37","新北市板橋區重慶路308巷2號","121.463378333333","24.99808","6500100","板橋區"
"220014","829-TW","2019/09/16 15:09:38","新北市板橋區中山路一段206巷89號","121.471971666667","25.0132366666667","6500100","板橋區"
"220022","895-R6","2019/09/16 15:09:32","新北市板橋區府中路13號","121.459635","25.0095766666667","6500100","板橋區"
"220012","AAC-253","2019/09/16 15:09:31","新北市板橋區民族路237號","121.469915","25.00708","6500100","板橋區"
"235026","KEA-2876","2019/09/16 15:09:22","新北市中和區中山路二段480號","121.48778","25.0048066666667","6500300","中和區"
