"lineid","car","time","location","longitude","latitude","cityid","cityname"
"243003","KEA-2216","2019/09/16 15:39:29","新北市泰山區泰林路三段745巷145號","121.405566666667","25.0679283333333","6501600","泰山區"
"231030","002-UM","2019/09/16 15:39:40","新北市新店區新和街116巷1號","121.521113333333","24.9864566666667","6500600","新店區"
"231005","046-UY","2019/09/16 15:39:36","新北市新店區民族路241號","121.536486666667","24.9755966666667","6500600","新店區"
"231029","106-UY","2019/09/16 15:39:27","新北市新店區安康路三段47號","121.492723333333","24.9526083333333","6500600","新店區"
"231013","108-UY","2019/09/16 15:39:40","新北市新店區永業路81巷1弄1-1號","121.529648333333","24.9493783333333","6500600","新店區"
"231036","110-UY","2019/09/16 15:39:25","新北市新店區安祥路65號","121.483853333333","24.9602733333333","6500600","新店區"
"231039","187-VK","2019/09/16 15:39:43","新北市新店區寶元路二段37號","121.546973333333","24.9813866666667","6500600","新店區"
"231031","256-BX","2019/09/16 15:39:11","新北市新店區雙城路156號","121.496241666667","24.9429466666667","6500600","新店區"
"231023","260-TV","2019/09/16 15:39:34","新北市新店區大新街7巷21號","121.544225","24.9680116666667","6500600","新店區"
"231003","268-BY","2019/09/16 15:39:27","新北市新店區寶興路60巷2號","121.549878333333","24.971925","6500600","新店區"
"231035","278-BY","2019/09/16 15:39:33","新北市新店區安興路83-8號","121.515263333333","24.975585","6500600","新店區"
"231014","AAD-862","2019/09/16 15:39:34","新北市新店區北宜路二段2號","121.547576666667","24.95203","6500600","新店區"
"231038","3712-VJ","2019/09/16 15:39:30","新北市新店區安康路二段242巷8號","121.50882","24.95968","6500600","新店區"
"231019","513-UM","2019/09/16 15:39:23","新北市新店區金興路35號","121.552875","24.9313983333333","6500600","新店區"
"231034","641-BX","2019/09/16 15:39:22","新北市新店區如意街53號","121.493388333333","24.947215","6500600","新店區"
"231011","KED-0819","2019/09/16 15:39:38","新北市新店區文化路23號","121.543486666667","24.9798383333333","6500600","新店區"
"231018","718-UY","2019/09/16 15:39:26","新北市新店區溪園路35號","121.53076","24.9884516666667","6500600","新店區"
"231026","720-UM","2019/09/16 15:39:38","新北市新店區三民路51巷2-1號","121.536686666667","24.9706416666667","6500600","新店區"
"231028","897-TW","2019/09/16 15:39:39","新北市新店區僑義路37號","121.500521666667","24.950275","6500600","新店區"
"231004","899-TW","2019/09/16 15:39:31","新北市新店區民族路108號","121.538158333333","24.9773716666667","6500600","新店區"
"231037","AKT-0513","2019/09/16 15:39:39","新北市新店區安民街339號","121.51691","24.9749116666667","6500600","新店區"
"241028","022-UY","2019/09/16 15:39:36","新北市三重區重新路四段121號","121.484686666667","25.0518916666667","6500200","三重區"
"241015","062-VK","2019/09/16 15:39:44","新北市三重區重新路四段121號","121.485076666667","25.0521166666667","6500200","三重區"
"241017","063-VK","2019/09/16 15:39:33","新北市三重區新北大道一段7號","121.489871666667","25.0616466666667","6500200","三重區"
"241007","066-VK","2019/09/16 15:39:32","新北市三重區重新路四段121號","121.484948333333","25.0518966666667","6500200","三重區"
"241016","266-UM","2019/09/16 15:39:25","新北市三重區重新路四段121號","121.485098333333","25.0521383333333","6500200","三重區"
"241018","268-UM","2019/09/16 15:39:26","新北市三重區重新路四段121號","121.485226666667","25.052115","6500200","三重區"
"241004","270-UM","2019/09/16 15:39:25","新北市三重區重陽路三段14號","121.488408333333","25.0653533333333","6500200","三重區"
"241013","475-VK","2019/09/16 15:39:32","新北市三重區正義北路328號","121.494768333333","25.0706533333333","6500200","三重區"
"241020","478-VK","2019/09/16 15:39:39","新北市三重區忠孝路三段38號","121.481105","25.066535","6500200","三重區"
"241014","543-UM","2019/09/16 15:39:23","新北市三重區重新路四段121號","121.485103333333","25.05201","6500200","三重區"
"241012","941-UM","2019/09/16 15:39:33","新北市三重區自強路一段66號","121.49715","25.0665833333333","6500200","三重區"
"241029","942-UM","2019/09/16 15:39:35","新北市三重區環河南路220-8號","121.49338","25.0528233333333","6500200","三重區"
"241033","AAC-255","2019/09/16 15:39:32","新北市三重區重新路五段447號","121.474433333333","25.0473616666667","6500200","三重區"
"235033","4980-A6","2019/09/16 15:39:25","新北市中和區員山路349號","121.481166666667","25.0017483333333","6500300","中和區"
"235023","AAC-215","2019/09/16 15:39:25","新北市中和區員山路26號","121.48164","24.9860116666667","6500300","中和區"
"224007","285-BY","2019/09/16 15:39:37","新北市瑞芳區傑魚坑路280號","121.787485","25.10644","6501200","瑞芳區"
"236040","KED-0685","2019/09/16 15:39:39","新北市土城區學享街9號","121.450838333333","24.9872533333333","6501300","土城區"
"236029","253-BX","2019/09/16 15:39:25","新北市土城區中華路一段39巷1號","121.446163333333","24.98824","6501300","土城區"
"236024","269-VK","2019/09/16 15:39:27","新北市土城區中央路一段289號","121.444386666667","24.984275","6501300","土城區"
"236012","270-VK","2019/09/16 15:39:40","新北市土城區廣明街63巷2弄2號","121.454825","24.9936233333333","6501300","土城區"
"236032","271-VK","2019/09/16 15:39:38","新北市土城區國際路158巷42號","121.46818","24.9753583333333","6501300","土城區"
"236064","KEA-2877","2019/09/16 15:39:26","新北市土城區中央路三段38號","121.438408333333","24.9687966666667","6501300","土城區"
"236016","401-BY","2019/09/16 15:39:40","新北市土城區延吉街111巷12弄20號","121.471528333333","24.98547","6501300","土城區"
"236057","912-UM","2019/09/16 15:39:37","新北市土城區中央路一段212號","121.445056666667","24.9855633333333","6501300","土城區"
"236045","913-UM","2019/09/16 15:39:29","新北市土城區金城路三段248號","121.473895","24.9906633333333","6501300","土城區"
"236060","915-UM","2019/09/16 15:39:38","新北市土城區金城路三段73巷9弄2號","121.4662","24.9876733333333","6501300","土城區"
"236054","AAC-216","2019/09/16 15:39:40","新北市土城區學府路一段146號","121.454911666667","24.98718","6501300","土城區"
"238002","755-BX","2019/09/16 15:39:24","新北市樹林區日新街109號","121.421398333333","24.9898433333333","6500700","樹林區"
"238010","601-UM","2019/09/16 15:39:29","新北市樹林區龍興街15號","121.40306","25.0163866666667","6500700","樹林區"
"238006","599-UM","2019/09/16 15:39:39","新北市樹林區太平路243號","121.418678333333","24.9756183333333","6500700","樹林區"
"238011","5061-A6","2019/09/16 15:39:40","新北市樹林區中山路二段189巷6號","121.405341666667","24.9765183333333","6500700","樹林區"
"238005","KEA-2217","2019/09/16 15:39:37","新北市樹林區中華路135號","121.421688333333","24.982445","6500700","樹林區"
"238009","KEA-2213","2019/09/16 15:39:33","新北市樹林區中華路187巷2號","121.420361666667","24.9816216666667","6500700","樹林區"
"238008","KEA-2539","2019/09/16 15:39:33","新北市樹林區柑園街二段18號","121.38778","24.9557883333333","6500700","樹林區"
"238012","303-VK","2019/09/16 15:39:32","新北市樹林區中山路二段54號","121.416475","24.9845916666667","6500700","樹林區"
"238004","283-BY","2019/09/16 15:39:25","新北市樹林區保安街二段297號","121.412275","25.0063666666667","6500700","樹林區"
"238001","282-BY","2019/09/16 15:39:44","新北市樹林區潭興街143巷18號","121.425165","25.0000616666667","6500700","樹林區"
"238007","268-VK","2019/09/16 15:39:26","新北市樹林區俊英街210號","121.42523","25.0094183333333","6500700","樹林區"
"238013","172-UY","2019/09/16 15:39:41","新北市樹林區新興街39號","121.399941666667","24.9719783333333","6500700","樹林區"
"238003","169-UY","2019/09/16 15:39:25","新北市樹林區育英街146號","121.419105","24.989465","6500700","樹林區"
"220004","276-BY","2019/09/16 15:39:34","新北市樹林區中山路三段214號","121.380045","24.9679516666667","6500100","板橋區"
"220031","286-VK","2019/09/16 15:39:30","新北市板橋區僑中二街116巷23號","121.444673333333","25.0064733333333","6500100","板橋區"
"235026","KEA-2876","2019/09/16 15:39:22","新北市中和區立業路61巷3弄1號","121.492275","25.006655","6500300","中和區"
