"lineid","car","time","location","longitude","latitude","cityid","cityname"
"249005","172-UM","2019/09/16 17:09:34","新北市八里區華富山5-1號","121.41887","25.14305","6502300","八里區"
"249001","173-UM","2019/09/16 17:09:31","新北市八里區中華路二段249-2號","121.404075","25.14844","6502300","八里區"
"249004","303-UY","2019/09/16 17:09:32","新北市八里區忠孝路81號","121.42499","25.1604016666667","6502300","八里區"
"249002","305-UY","2019/09/16 17:09:39","新北市八里區米倉13-2號","121.43876","25.1497066666667","6502300","八里區"
"249003","593-UM","2019/09/16 17:09:33","新北市八里區中山路二段401號","121.39802","25.1467733333333","6502300","八里區"
"244007","080-UY","2019/09/16 17:09:30","新北市林口區菁埔26-68號","121.3766","25.0952383333333","6501700","林口區"
"244023","483-VK","2019/09/16 17:09:41","新北市林口區仁愛路一段8號","121.388671666667","25.0758183333333","6501700","林口區"
"244009","656-BX","2019/09/16 17:09:35","新北市林口區文林街163巷9號","121.381031666667","25.0917933333333","6501700","林口區"
"244025","837-TS","2019/09/16 17:09:40","新北市林口區富貴路83號","121.378068333333","25.0834466666667","6501700","林口區"
"244021","838-TS","2019/09/16 17:09:24","新北市林口區粉寮62號","121.406923333333","25.0894666666667","6501700","林口區"
"231046","719-UM","2019/09/16 17:04:45","新北市新店區灣潭路15-2號","121.542485","24.9431816666667","6500600","新店區"
"241011","013-R5","2019/09/16 17:09:27","新北市三重區龍濱路287號","121.500748333333","25.0735733333333","6500200","三重區"
"241028","022-UY","2019/09/16 17:09:36","新北市三重區重新路三段110號","121.492336666667","25.0603216666667","6500200","三重區"
"241008","059-VK","2019/09/16 17:09:45","新北市三重區力行路二段136巷21號","121.481501666667","25.0755883333333","6500200","三重區"
"241005","060-VK","2019/09/16 17:09:34","新北市三重區永安北路二段25巷7號","121.482411666667","25.081595","6500200","三重區"
"241031","061-VK","2019/09/16 17:09:23","新北市三重區重陽路一段113巷1弄37號","121.487921666667","25.0588516666667","6500200","三重區"
"241015","062-VK","2019/09/16 17:09:23","新北市三重區文化北路61-4號","121.498548333333","25.0663716666667","6500200","三重區"
"241017","063-VK","2019/09/16 17:09:33","新北市三重區國隆路24號","121.492626666667","25.064215","6500200","三重區"
"241024","065-VK","2019/09/16 17:09:28","新北市三重區大勇街82巷26弄31號","121.478355","25.07206","6500200","三重區"
"241007","066-VK","2019/09/16 17:09:32","新北市三重區三和路四段145巷147號","121.487446666667","25.0790516666667","6500200","三重區"
"241002","090-VK","2019/09/16 17:09:33","新北市三重區仁義街223號","121.496603333333","25.082175","6500200","三重區"
"241003","091-VK","2019/09/16 17:09:36","新北市三重區富福街106號","121.493365","25.0855433333333","6500200","三重區"
"241006","262-UM","2019/09/16 17:09:37","新北市三重區車路頭街143巷18號","121.484671666667","25.0769183333333","6500200","三重區"
"241016","266-UM","2019/09/16 17:09:25","新北市三重區大同北路132巷6號","121.4925","25.0647183333333","6500200","三重區"
"241009","267-UM","2019/09/16 17:09:29","新北市三重區三和路四段215巷18號","121.4824","25.0799916666667","6500200","三重區"
"241018","268-UM","2019/09/16 17:09:26","新北市三重區六張街95號","121.492421666667","25.0698266666667","6500200","三重區"
"241032","269-UM","2019/09/16 17:09:42","新北市三重區三陽路3號","121.486221666667","25.0588566666667","6500200","三重區"
"241013","270-UM","2019/09/16 17:09:24","新北市三重區仁昌街34號","121.4969","25.074135","6500200","三重區"
"241025","271-UM","2019/09/16 17:09:33","新北市三重區中正北路560巷89號","121.470933333333","25.0685633333333","6500200","三重區"
"241030","KED-0822","2019/09/16 17:09:42","新北市三重區集成路36號","121.488901666667","25.0524366666667","6500200","三重區"
"241004","475-VK","2019/09/16 17:09:32","新北市三重區五華街124號","121.491815","25.0831783333333","6500200","三重區"
"241020","478-VK","2019/09/16 17:09:39","新北市三重區自強路三段75號","121.48688","25.073635","6500200","三重區"
"241026","480-VK","2019/09/16 17:09:40","新北市三重區重新路一段51-1號","121.501918333333","25.06387","6500200","三重區"
"241014","543-UM","2019/09/16 17:09:43","新北市三重區龍濱路128號","121.501786666667","25.0715783333333","6500200","三重區"
"241023","545-UM","2019/09/16 17:09:43","新北市三重區忠孝路三段84巷1號","121.480213333333","25.0646516666667","6500200","三重區"
"241019","KEA-2593","2019/09/16 17:09:37","新北市三重區力行路一段153巷48號","121.486365","25.06929","6500200","三重區"
"241022","KED-0820","2019/09/16 17:09:34","新北市三重區重陽路二段34巷68號","121.485041666667","25.0641833333333","6500200","三重區"
"241001","887-TS","2019/09/16 17:09:37","新北市三重區五華街1巷2號","121.495543333333","25.0796566666667","6500200","三重區"
"241012","941-UM","2019/09/16 17:09:33","新北市三重區仁興街10號","121.499618333333","25.0743166666667","6500200","三重區"
"241029","942-UM","2019/09/16 17:09:35","新北市三重區中正南路173號","121.493511666667","25.0556116666667","6500200","三重區"
"241033","AAC-255","2019/09/16 17:09:32","新北市三重區中興北街275號","121.469273333333","25.0609116666667","6500200","三重區"
"247016","KEA-2869","2019/09/16 17:09:44","新北市蘆洲區光華路73巷5號","121.468318333333","25.0824683333333","6501400","蘆洲區"
"247010","KED-0682","2019/09/16 17:09:26","新北市蘆洲區民族路7號","121.47564","25.0840466666667","6501400","蘆洲區"
"235064","911-UM","2019/09/16 16:53:05","新北市中和區員山路36巷16-3號","121.485153333333","24.9910483333333","6500300","中和區"
"247006","893-R6","2019/09/16 17:09:38","新北市蘆洲區長安街102巷47號","121.46234","25.08175","6501400","蘆洲區"
"247020","546-UM","2019/09/16 17:09:31","新北市蘆洲區仁愛街64號","121.471523333333","25.0940216666667","6501400","蘆洲區"
"247018","500-BY","2019/09/16 17:09:44","新北市蘆洲區復興路107號","121.476918333333","25.087735","6501400","蘆洲區"
"247008","341-TH","2019/09/16 17:09:40","新北市蘆洲區信義路34巷16號","121.474676666667","25.07871","6501400","蘆洲區"
"247012","337-TH","2019/09/16 17:09:33","新北市蘆洲區信義路266巷3號","121.478336666667","25.0871933333333","6501400","蘆洲區"
"247004","336-TH","2019/09/16 17:09:31","新北市蘆洲區長安街193巷39號","121.45923","25.0811433333333","6501400","蘆洲區"
"247024","057-VK","2019/09/16 17:09:25","新北市蘆洲區長興路37號","121.463343333333","25.0837116666667","6501400","蘆洲區"
"247014","056-VK","2019/09/16 17:09:29","新北市蘆洲區中央路37巷15-17號","121.47315","25.0826","6501400","蘆洲區"
"247022","007-UY","2019/09/16 17:09:21","新北市蘆洲區民族路379號","121.46982","25.09048","6501400","蘆洲區"
"247002","001-UY","2019/09/16 17:09:25","新北市蘆洲區長安街389號","121.457205","25.0884","6501400","蘆洲區"
"228003","097-TW","2019/09/16 17:09:38","新北市貢寮區福隆里東興街31-1號","121.952333333333","25.0206216666667","6502600","貢寮區"
"228002","663-BX","2019/09/16 17:09:34","新北市貢寮區貢寮里貢寮街2號","121.90754","25.0188366666667","6502600","貢寮區"
"228001","670-TC","2019/09/16 17:09:24","新北市貢寮區龍門里復興街46-6號","121.929131666667","25.0312566666667","6502600","貢寮區"
"224006","676-BX","2019/09/16 17:09:25","新北市瑞芳區大寮路101-4號","121.777993333333","25.0995033333333","6501200","瑞芳區"
"224009","275-VK","2019/09/16 17:09:24","新北市瑞芳區濱二路30號","121.841203333333","25.1151566666667","6501200","瑞芳區"
"224008","273-VK","2019/09/16 17:09:41","新北市瑞芳區九芎橋路4-2號","121.831913333333","25.090805","6501200","瑞芳區"
"224005","271-BY","2019/09/16 17:09:24","新北市瑞芳區鼻頭路115號","121.91621","25.1225883333333","6501200","瑞芳區"
"227001","642-TC","2019/09/16 17:09:31","新北市雙溪區三貂里定福路27號","121.851676666667","25.0744016666667","6502500","雙溪區"
"227002","400-TW","2019/09/16 17:09:37","新北市雙溪區上林里新寮子1號","121.84155","25.0317666666667","6502500","雙溪區"
"251009","008-UM","2019/09/16 17:09:31","新北市淡水區中正路一段85號","121.422343333333","25.1789533333333","6501000","淡水區"
"251004","009-UM","2019/09/16 17:09:09","新北市淡水區中正東路二段88巷15號","121.45907","25.150525","6501000","淡水區"
"251015","KEA-2871","2019/09/16 17:09:28","新北市淡水區鄧公路35巷2號","121.451486666667","25.1712833333333","6501000","淡水區"
"251016","179-VK","2019/09/16 17:09:41","新北市淡水區社厝坑2-5號","121.475691666667","25.1890183333333","6501000","淡水區"
"251008","181-VK","2019/09/16 17:09:41","新北市淡水區民生路169號","121.470646666667","25.1427933333333","6501000","淡水區"
"251013","182-VK","2019/09/16 17:09:38","新北市淡水區桂花樹1號","121.482936666667","25.196705","6501000","淡水區"
"251010","413-VK","2019/09/16 17:09:26","新北市淡水區中正路二段31號","121.419463333333","25.1815066666667","6501000","淡水區"
"251012","441-VK","2019/09/16 17:09:30","新北市淡水區中山北路一段173號","121.443695","25.1777683333333","6501000","淡水區"
"251007","442-VK","2019/09/16 17:09:28","新北市淡水區民生路117巷43弄2號","121.464553333333","25.1404483333333","6501000","淡水區"
"251005","443-VK","2019/09/16 17:09:34","新北市淡水區中正東路一段3巷2號","121.450486666667","25.1647533333333","6501000","淡水區"
"251006","561-UM","2019/09/16 17:09:30","新北市淡水區真理街6號","121.438453333333","25.174565","6501000","淡水區"
"251014","577-R6","2019/09/16 17:09:31","新北市淡水區八里堆7-6號","121.46064","25.2247033333333","6501000","淡水區"
"251011","650-BX","2019/09/16 17:09:24","新北市淡水區坪頂路51巷2號","121.45826","25.1626","6501000","淡水區"
"252002","178-VK","2019/09/16 17:09:33","新北市三芝區忠孝街1-12號","121.505516666667","25.25421","6502100","三芝區"
"233002","762-BX","2019/09/16 17:09:21","","121.546988333333","24.8527533333333","6502900","烏來區"
"252001","KED-0821","2019/09/16 17:09:21","新北市三芝區埔頭里埔頭37號","121.498445","25.2602783333333","6502100","三芝區"
"242042","AAC-296","2019/09/16 17:09:32","新北市新莊區三和路12-13號","121.442198333333","25.0371916666667","6500500","新莊區"
"242060","986-R7","2019/09/16 17:09:30","新北市新莊區新泰路255巷83號","121.442411666667","25.0393116666667","6500500","新莊區"
"242004","751-BX","2019/09/16 17:09:39","新北市新莊區新泰路255巷83號","121.442313333333","25.0387233333333","6500500","新莊區"
"242029","615-BX","2019/09/16 17:09:40","新北市新莊區新泰路357巷3弄57號","121.442148333333","25.0392683333333","6500500","新莊區"
"242027","613-BX","2019/09/16 17:09:40","新北市新莊區新泰路357巷3弄57號","121.442351666667","25.03933","6500500","新莊區"
"242058","612-BX","2019/09/16 17:09:25","新北市新莊區新泰路357巷3弄57號","121.442201666667","25.0393133333333","6500500","新莊區"
"242048","566-BX","2019/09/16 17:09:32","新北市新莊區中正路508巷35弄18號","121.438003333333","25.0367733333333","6500500","新莊區"
"242053","497-BY","2019/09/16 17:09:29","新北市新莊區新莊路773號","121.442058333333","25.0325783333333","6500500","新莊區"
"242044","415-TV","2019/09/16 17:09:31","新北市泰山區磚雅厝3號","121.44211","25.0416866666667","6500500","新莊區"
"242013","413-TV","2019/09/16 17:09:29","新北市新莊區新泰路357巷3弄57號","121.442126666667","25.0394716666667","6500500","新莊區"
"242025","362-BY","2019/09/16 17:09:37","新北市新莊區新泰路255巷83號","121.442133333333","25.0390466666667","6500500","新莊區"
"242023","353-BY","2019/09/16 17:09:29","新北市新莊區新泰路357巷3弄57號","121.442128333333","25.03922","6500500","新莊區"
"242015","132-UY","2019/09/16 17:09:34","新北市新莊區新泰路255巷83號","121.442116666667","25.03884","6500500","新莊區"
"242039","135-UY","2019/09/16 17:09:32","新北市新莊區新泰路357巷3弄57號","121.442145","25.039605","6500500","新莊區"
"242017","173-VK","2019/09/16 17:09:28","新北市新莊區三和路12-21號","121.442058333333","25.0387433333333","6500500","新莊區"
"242021","KED-0687","2019/09/16 17:09:28","新北市新莊區三和路12-21號","121.44232","25.0381016666667","6500500","新莊區"
"242009","346-TH","2019/09/16 17:09:21","新北市新莊區三和路12-21號","121.442301666667","25.0384433333333","6500500","新莊區"
"242036","348-TH","2019/09/16 17:09:22","新北市新莊區三和路12-10號","121.442135","25.0367766666667","6500500","新莊區"
"242034","350-TH","2019/09/16 17:09:33","新北市新莊區新泰路357巷3弄57號","121.442331666667","25.039745","6500500","新莊區"
"242019","351-TH","2019/09/16 17:09:35","新北市新莊區新泰路357巷3弄57號","121.442136666667","25.0395516666667","6500500","新莊區"
"238023","601-UM","2019/09/16 17:09:29","新北市樹林區中正路460號","121.412951666667","25.0124066666667","6500700","樹林區"
"238019","599-UM","2019/09/16 17:09:39","新北市樹林區育德街78-1號","121.38779","24.9682233333333","6500700","樹林區"
"238018","KEA-2217","2019/09/16 17:09:39","新北市樹林區環河路10號","121.427125","24.978325","6500700","樹林區"
"238022","KEA-2213","2019/09/16 17:09:34","新北市樹林區忠孝街33號","121.423693333333","24.98214","6500700","樹林區"
"238021","KEA-2539","2019/09/16 17:09:31","新北市樹林區西圳街一段165巷20弄11號","121.395685","24.9601866666667","6500700","樹林區"
"238025","303-VK","2019/09/16 17:09:29","新北市樹林區保安二街29號","121.424743333333","24.993745","6500700","樹林區"
"238017","283-BY","2019/09/16 17:09:24","新北市樹林區光武街28號","121.415883333333","25.00541","6500700","樹林區"
"238014","282-BY","2019/09/16 17:09:25","新北市樹林區中正路21號","121.427631666667","24.9993466666667","6500700","樹林區"
"239007","AAC-297","2019/09/16 17:09:36","新北市鶯歌區文化路116號","121.352078333333","24.9521383333333","6500800","鶯歌區"
"239006","891-R6","2019/09/16 17:09:38","新北市鶯歌區八德路2巷17號","121.336936666667","24.9472883333333","6500800","鶯歌區"
"239008","527-UM","2019/09/16 17:09:38","新北市鶯歌區尖山路137巷25弄1號","121.347688333333","24.94752","6500800","鶯歌區"
"239005","526-UM","2019/09/16 17:09:24","新北市鶯歌區尖山埔路114號","121.3442","24.9503033333333","6500800","鶯歌區"
"239001","417-VK","2019/09/16 17:09:33","新北市鶯歌區尖山路127號","121.3472","24.9488916666667","6500800","鶯歌區"
"239002","359-BY","2019/09/16 17:09:37","新北市鶯歌區建國路172號","121.349901666667","24.953515","6500800","鶯歌區"
"239004","193-VK","2019/09/16 17:09:34","新北市鶯歌區文化路324巷8弄1衖2號","121.349913333333","24.9450133333333","6500800","鶯歌區"
"244019","KED-0667","2019/09/16 17:09:39","新北市林口區公園路233-4號","121.376223333333","25.0756016666667","6501700","林口區"
"233001","KEA-2870","2019/09/16 17:09:38","新北市烏來區西羅岸路29號","121.547215","24.8665166666667","6502900","烏來區"
"242046","281-VK","2019/09/16 17:09:35","新北市新莊區新莊路773號","121.442061666667","25.0326466666667","6500500","新莊區"
"242011","280-VK","2019/09/16 17:09:34","新北市新莊區三和路12-21號","121.442056666667","25.0382533333333","6500500","新莊區"
"235062","KEA-2876","2019/09/16 17:09:35","新北市中和區員山路36巷16-3號","121.48507","24.991385","6500300","中和區"
