"lineid","car","time","location","longitude","latitude","cityid","cityname"
"249005","172-UM","2019/09/16 17:29:34","新北市八里區荖阡里36-1號","121.408258333333","25.125825","6502300","八里區"
"249001","173-UM","2019/09/16 17:29:31","新北市八里區中華路一段5號","121.42272","25.1583183333333","6502300","八里區"
"249004","303-UY","2019/09/16 17:29:32","新北市八里區民治街173號","121.413406666667","25.156785","6502300","八里區"
"249002","305-UY","2019/09/16 17:29:39","新北市八里區龍米路二段50號","121.448113333333","25.1406716666667","6502300","八里區"
"249003","593-UM","2019/09/16 17:29:33","新北市八里區中山路二段315號","121.400605","25.1477933333333","6502300","八里區"
"232011","375-UM","2019/09/16 17:29:33","新北市坪林區鶯子瀨9-8號","121.71022","24.916845","6502000","坪林區"
"244007","080-UY","2019/09/16 17:29:30","新北市林口區文化一路二段313號","121.385896666667","25.0860433333333","6501700","林口區"
"244013","KEA-2802","2019/09/16 17:29:33","新北市林口區中山路143號","121.387393333333","25.0792616666667","6501700","林口區"
"244023","483-VK","2019/09/16 17:29:41","新北市林口區東明一街35巷19號","121.392723333333","25.0715866666667","6501700","林口區"
"244017","485-VK","2019/09/16 17:29:34","新北市林口區仁愛路二段201-1號","121.377891666667","25.0746733333333","6501700","林口區"
"244009","656-BX","2019/09/16 17:29:35","新北市林口區中北三街161號","121.383415","25.0831666666667","6501700","林口區"
"244011","701-TV","2019/09/16 17:29:29","新北市林口區佳林路211號","121.384245","25.0770933333333","6501700","林口區"
"244025","837-TS","2019/09/16 17:29:40","新北市林口區文化二路一段241巷26號","121.366703333333","25.07123","6501700","林口區"
"244021","838-TS","2019/09/16 17:29:44","新北市林口區東林街18號","121.396026666667","25.0790383333333","6501700","林口區"
"231046","719-UM","2019/09/16 17:04:45","新北市新店區灣潭路15-2號","121.542485","24.9431816666667","6500600","新店區"
"241005","060-VK","2019/09/16 17:29:34","新北市三重區碧華街97號","121.485488333333","25.08165","6500200","三重區"
"241015","062-VK","2019/09/16 17:29:23","新北市三重區長元街75-4號","121.503328333333","25.0666316666667","6500200","三重區"
"241017","063-VK","2019/09/16 17:29:33","新北市三重區中正北路25巷8號","121.4934","25.0628316666667","6500200","三重區"
"241024","065-VK","2019/09/16 17:29:39","新北市三重區後竹圍街305號","121.478495","25.0698216666667","6500200","三重區"
"241007","066-VK","2019/09/16 17:29:32","新北市三重區慈愛街8號","121.484465","25.07847","6500200","三重區"
"241003","091-VK","2019/09/16 17:29:36","新北市三重區環河北路三段86號","121.496555","25.0857483333333","6500200","三重區"
"241016","266-UM","2019/09/16 17:29:38","新北市三重區信義西街51號","121.4951","25.06387","6500200","三重區"
"241009","267-UM","2019/09/16 17:29:29","新北市三重區力行路二段121號","121.483061666667","25.0764883333333","6500200","三重區"
"241018","268-UM","2019/09/16 17:29:26","新北市三重區新北大道一段2號","121.491341666667","25.0614166666667","6500200","三重區"
"241032","269-UM","2019/09/16 17:29:26","新北市三重區名源街27號","121.48174","25.060545","6500200","三重區"
"241013","270-UM","2019/09/16 17:29:24","新北市三重區仁愛街141巷25號","121.497198333333","25.0759833333333","6500200","三重區"
"241025","271-UM","2019/09/16 17:29:33","新北市三重區中正北路311號","121.474026666667","25.0714233333333","6500200","三重區"
"241030","KED-0822","2019/09/16 17:29:22","新北市三重區新興路55號","121.491241666667","25.05391","6500200","三重區"
"241020","478-VK","2019/09/16 17:29:39","新北市三重區新北大道一段238號","121.481841666667","25.06167","6500200","三重區"
"241014","543-UM","2019/09/16 17:29:23","新北市三重區安和路15號","121.50127","25.0684266666667","6500200","三重區"
"241019","KEA-2593","2019/09/16 17:29:37","新北市三重區六張街158號","121.489403333333","25.06876","6500200","三重區"
"241033","AAC-255","2019/09/16 17:29:32","新北市三重區中興北街153-7號","121.469095","25.0533766666667","6500200","三重區"
"247016","KEA-2869","2019/09/16 17:29:24","新北市蘆洲區光華路22巷22號","121.468873333333","25.0843133333333","6501400","蘆洲區"
"247010","KED-0682","2019/09/16 17:29:26","新北市蘆洲區信義路126號","121.47976","25.08254","6501400","蘆洲區"
"247006","893-R6","2019/09/16 17:29:38","新北市蘆洲區長安街22巷31弄9號","121.464133333333","25.0803383333333","6501400","蘆洲區"
"247018","500-BY","2019/09/16 17:29:29","新北市蘆洲區民權路144號","121.472755","25.0891733333333","6501400","蘆洲區"
"247008","341-TH","2019/09/16 17:29:40","新北市蘆洲區信義路34巷80號","121.475276666667","25.0775283333333","6501400","蘆洲區"
"247012","337-TH","2019/09/16 17:29:33","新北市蘆洲區三民路88號","121.473828333333","25.0852333333333","6501400","蘆洲區"
"247004","336-TH","2019/09/16 17:29:31","新北市蘆洲區長安街231號","121.459416666667","25.0828533333333","6501400","蘆洲區"
"247024","057-VK","2019/09/16 17:29:24","新北市蘆洲區長興路312號","121.46152","25.0921516666667","6501400","蘆洲區"
"247014","056-VK","2019/09/16 17:29:29","新北市蘆洲區三民路33號","121.475398333333","25.0829866666667","6501400","蘆洲區"
"247022","007-UY","2019/09/16 17:29:41","新北市蘆洲區三民路299-1號","121.465871666667","25.0906816666667","6501400","蘆洲區"
"247002","001-UY","2019/09/16 17:29:25","新北市蘆洲區永樂街38巷57弄1號","121.458266666667","25.0900333333333","6501400","蘆洲區"
"228003","097-TW","2019/09/16 17:29:38","新北市貢寮區仁理村仁和路2-1號","121.923163333333","25.0486233333333","6502600","貢寮區"
"228002","663-BX","2019/09/16 17:29:34","新北市貢寮區福隆里興隆街21-2號","121.933253333333","25.0188966666667","6502600","貢寮區"
"228001","670-TC","2019/09/16 17:29:24","新北市貢寮區仁理村仁愛路25號","121.924691666667","25.053315","6502600","貢寮區"
"224010","AGQ-8101","2019/09/16 17:29:21","新北市瑞芳區逢甲路41號","121.808425","25.108945","6501200","瑞芳區"
"224006","676-BX","2019/09/16 17:29:25","新北市瑞芳區傑魚坑路72號","121.792986666667","25.11056","6501200","瑞芳區"
"224009","275-VK","2019/09/16 17:29:24","新北市瑞芳區汽車路21-3號","121.845293333333","25.1105233333333","6501200","瑞芳區"
"224008","273-VK","2019/09/16 17:29:40","新北市瑞芳區侯硐路302號","121.831828333333","25.0894366666667","6501200","瑞芳區"
"224005","271-BY","2019/09/16 17:29:24","新北市瑞芳區洞頂路106號","121.860485","25.1238716666667","6501200","瑞芳區"
"227001","642-TC","2019/09/16 17:20:31","新北市雙溪區三貂里定福路1-2號","121.850685","25.0633683333333","6502500","雙溪區"
"227002","400-TW","2019/09/16 17:29:37","新北市雙溪區共和里東榮街52號","121.866443333333","25.0336366666667","6502500","雙溪區"
"251009","008-UM","2019/09/16 17:29:31","新北市淡水區新生街60號","121.438988333333","25.1741283333333","6501000","淡水區"
"251004","009-UM","2019/09/16 17:09:09","新北市淡水區中正東路二段88巷15號","121.45907","25.150525","6501000","淡水區"
"251015","KEA-2871","2019/09/16 17:29:28","新北市淡水區三空泉21號","121.468828333333","25.167215","6501000","淡水區"
"251016","179-VK","2019/09/16 17:29:27","新北市淡水區埤島72號","121.456333333333","25.19315","6501000","淡水區"
"251008","181-VK","2019/09/16 17:29:41","新北市淡水區大同路100巷2號","121.462406666667","25.139325","6501000","淡水區"
"251013","182-VK","2019/09/16 17:29:38","新北市淡水區大竹圍5號","121.466581666667","25.19522","6501000","淡水區"
"251010","413-VK","2019/09/16 17:29:26","新北市淡水區中正路二段208號","121.426273333333","25.1891533333333","6501000","淡水區"
"251012","441-VK","2019/09/16 17:29:30","新北市淡水區北新路100號","121.447458333333","25.1784666666667","6501000","淡水區"
"251007","442-VK","2019/09/16 17:29:28","新北市淡水區民生路47-4號","121.462001666667","25.1380866666667","6501000","淡水區"
"251005","443-VK","2019/09/16 17:29:34","新北市淡水區鄧公路31巷1號","121.45131","25.1709","6501000","淡水區"
"251006","561-UM","2019/09/16 17:29:30","新北市淡水區大仁街25號","121.442521666667","25.1752966666667","6501000","淡水區"
"251014","577-R6","2019/09/16 17:29:31","新北市淡水區北勢子16號","121.47364","25.227665","6501000","淡水區"
"251011","650-BX","2019/09/16 17:29:24","新北市淡水區三空泉8-1號","121.475915","25.161295","6501000","淡水區"
"251002","672-BX","2019/09/16 17:29:28","新北市淡水區中正路一段87巷1號","121.421823333333","25.17931","6501000","淡水區"
"251003","673-BX","2019/09/16 17:29:45","新北市淡水區中山路159-1號","121.440758333333","25.1729216666667","6501000","淡水區"
"207003","550-UM","2019/09/16 17:29:26","新北市萬里區龜吼里美崙路91號","121.68561","25.1850516666667","6502800","萬里區"
"207004","291-VK","2019/09/16 17:29:29","新北市萬里區萬里里成功新村45號","121.687883333333","25.174585","6502800","萬里區"
"252002","178-VK","2019/09/16 17:29:33","新北市三芝區忠孝街1-14號","121.505555","25.253955","6502100","三芝區"
"233002","762-BX","2019/09/16 17:29:21","","121.547551666667","24.863625","6502900","烏來區"
"252001","KED-0821","2019/09/16 17:29:41","新北市三芝區長安街119號","121.497995","25.2596666666667","6502100","三芝區"
"242042","AAC-296","2019/09/16 17:29:32","新北市新莊區新樹路113巷15號","121.438406666667","25.0267483333333","6500500","新莊區"
"242060","986-R7","2019/09/16 17:29:30","新北市新莊區瓊林路186號","121.440313333333","25.0219816666667","6500500","新莊區"
"242004","751-BX","2019/09/16 17:29:39","新北市新莊區中港路280號","121.453063333333","25.0441116666667","6500500","新莊區"
"242029","615-BX","2019/09/16 17:29:40","新北市新莊區復興路二段192號","121.459228333333","25.0444133333333","6500500","新莊區"
"242027","613-BX","2019/09/16 17:29:40","新北市新莊區思源路57號","121.46017","25.0402916666667","6500500","新莊區"
"242058","612-BX","2019/09/16 17:29:25","新北市新莊區中正路384號","121.442006666667","25.034965","6500500","新莊區"
"242048","566-BX","2019/09/16 17:29:32","新北市新莊區福營路478號","121.419601666667","25.024195","6500500","新莊區"
"242053","497-BY","2019/09/16 17:29:29","新北市新莊區瓊林南路305巷16號","121.435083333333","25.0050633333333","6500500","新莊區"
"242050","442-UM","2019/09/16 17:29:22","新北市新莊區新樹路447號","121.432705","25.0135033333333","6500500","新莊區"
"242002","441-UM","2019/09/16 17:19:53","新北市新莊區瓊林路118-3號","121.442243333333","25.0253566666667","6500500","新莊區"
"242007","440-UM","2019/09/16 17:29:40","新北市新莊區中華路二段36-1號","121.453726666667","25.0453966666667","6500500","新莊區"
"242044","415-TV","2019/09/16 17:29:36","新北市新莊區富國路99號","121.42103","25.0256083333333","6500500","新莊區"
"242013","413-TV","2019/09/16 17:29:29","新北市新莊區中誠街16巷2號","121.45199","25.0483","6500500","新莊區"
"242025","362-BY","2019/09/16 17:29:36","新北市新莊區中港路272號","121.453115","25.0439466666667","6500500","新莊區"
"242023","353-BY","2019/09/16 17:29:29","新北市新莊區公園路39號","121.453176666667","25.0401866666667","6500500","新莊區"
"242015","132-UY","2019/09/16 17:29:34","新北市新莊區新泰路154號","121.447601666667","25.0373733333333","6500500","新莊區"
"242039","135-UY","2019/09/16 17:29:32","新北市新莊區民安路274號","121.427601666667","25.0214766666667","6500500","新莊區"
"242056","172-VK","2019/09/16 17:29:44","新北市新莊區新泰路12號","121.449791666667","25.0330133333333","6500500","新莊區"
"242017","173-VK","2019/09/16 17:29:35","新北市新莊區中港路293號","121.452843333333","25.0441483333333","6500500","新莊區"
"242031","175-VK","2019/09/16 17:29:33","新北市新莊區新泰路417號","121.443141666667","25.0444266666667","6500500","新莊區"
"242021","KED-0687","2019/09/16 17:29:28","新北市新莊區中正路100號","121.454783333333","25.0366733333333","6500500","新莊區"
"242009","346-TH","2019/09/16 17:29:41","新北市新莊區中原路183號","121.453305","25.05439","6500500","新莊區"
"242036","348-TH","2019/09/16 17:29:22","新北市新莊區建國二路19號","121.434183333333","25.0240166666667","6500500","新莊區"
"242034","350-TH","2019/09/16 17:29:33","新北市新莊區新莊路378號","121.44919","25.0334283333333","6500500","新莊區"
"242019","351-TH","2019/09/16 17:29:35","新北市新莊區中港路72號","121.455508333333","25.0389416666667","6500500","新莊區"
"238023","601-UM","2019/09/16 17:29:29","新北市樹林區三福街114號","121.40642","25.0163666666667","6500700","樹林區"
"238019","599-UM","2019/09/16 17:29:39","新北市樹林區八德街136號","121.421468333333","24.978915","6500700","樹林區"
"238024","5061-A6","2019/09/16 17:29:40","新北市樹林區博愛街207號","121.424115","24.9878566666667","6500700","樹林區"
"238018","KEA-2217","2019/09/16 17:29:39","新北市樹林區鎮前街165號","121.422371666667","24.9873633333333","6500700","樹林區"
"238022","KEA-2213","2019/09/16 17:29:33","新北市樹林區仁愛街43號","121.422268333333","24.9820583333333","6500700","樹林區"
"238021","KEA-2539","2019/09/16 17:29:31","新北市樹林區西圳街一段203巷13號","121.39328","24.9596716666667","6500700","樹林區"
"238025","303-VK","2019/09/16 17:29:29","新北市樹林區保安二街二段6-11號","121.415731666667","25.001385","6500700","樹林區"
"238017","283-BY","2019/09/16 17:29:24","新北市樹林區中正路232號","121.418363333333","25.00702","6500700","樹林區"
"238014","282-BY","2019/09/16 17:29:25","新北市樹林區保安街一段294巷41號","121.420233333333","24.9987433333333","6500700","樹林區"
"238020","268-VK","2019/09/16 17:29:30","新北市樹林區千歲街103號","121.428636666667","25.000945","6500700","樹林區"
"238026","172-UY","2019/09/16 17:29:34","新北市樹林區味王街20號","121.403211666667","24.9758083333333","6500700","樹林區"
"238016","169-UY","2019/09/16 17:29:30","新北市樹林區中山路一段2巷1號","121.424335","24.993865","6500700","樹林區"
"239007","AAC-297","2019/09/16 17:29:36","新北市鶯歌區仁愛路59號","121.354756666667","24.9559066666667","6500800","鶯歌區"
"239006","891-R6","2019/09/16 17:29:38","新北市鶯歌區鶯桃路403號","121.333213333333","24.96416","6500800","鶯歌區"
"239008","527-UM","2019/09/16 17:29:38","新北市鶯歌區大湖路351號","121.339093333333","24.9707983333333","6500800","鶯歌區"
"239005","526-UM","2019/09/16 17:29:24","新北市鶯歌區鶯桃路559號","121.330053333333","24.9680966666667","6500800","鶯歌區"
"239001","417-VK","2019/09/16 17:29:34","新北市鶯歌區中正二路192-3號","121.339711666667","24.9433783333333","6500800","鶯歌區"
"239003","360-BY","2019/09/16 17:29:37","新北市鶯歌區德昌街201號","121.330023333333","24.9604233333333","6500800","鶯歌區"
"239002","359-BY","2019/09/16 17:29:37","新北市鶯歌區南雅路31號","121.3492","24.954125","6500800","鶯歌區"
"239004","193-VK","2019/09/16 17:29:34","新北市鶯歌區文化路322-1號","121.352396666667","24.9460333333333","6500800","鶯歌區"
"221008","489-VK","2019/09/16 17:29:26","新北市汐止區康寧街901號","121.651398333333","25.0749333333333","6501100","汐止區"
"244019","KED-0667","2019/09/16 17:29:39","新北市林口區文化一路一段135巷30號","121.373085","25.072555","6501700","林口區"
"233001","KEA-2870","2019/09/16 17:29:38","新北市烏來區娃娃谷55-1號","121.528003333333","24.8401816666667","6502900","烏來區"
"242046","281-VK","2019/09/16 17:29:35","新北市新莊區新樹路6號","121.440506666667","25.032615","6500500","新莊區"
"242011","280-VK","2019/09/16 17:29:34","新北市新莊區中港路390號","121.452328333333","25.04941","6500500","新莊區"
"235061","KEA-2875","2019/09/16 17:19:29","新北市中和區員山路36巷16-2號","121.485298333333","24.9916966666667","6500300","中和區"
"235062","KEA-2876","2019/09/16 17:29:35","新北市中和區員山路36巷16-3號","121.48503","24.991645","6500300","中和區"
