"lineid","car","time","location","longitude","latitude","cityid","cityname"
"234026","9371-KE","2019/09/16 17:49:29","新北市永和區永平路180巷5號","121.510848333333","25.0094266666667","6500400","永和區"
"249005","172-UM","2019/09/16 17:49:34","新北市八里區荖阡坑路34-3號","121.402268333333","25.13178","6502300","八里區"
"249001","173-UM","2019/09/16 17:49:31","新北市八里區龍米路二段118號","121.441876666667","25.15159","6502300","八里區"
"249004","303-UY","2019/09/16 17:49:32","新北市八里區中華路一段81巷22號","121.419586666667","25.155325","6502300","八里區"
"249002","305-UY","2019/09/16 17:49:39","新北市八里區頂寮二街121巷18-10號","121.446315","25.1274616666667","6502300","八里區"
"249003","593-UM","2019/09/16 17:49:33","新北市八里區中山路二段66號","121.408846666667","25.1560466666667","6502300","八里區"
"248014","025-BX","2019/09/16 17:49:26","新北市五股區中興路二段83巷26-3號","121.460038333333","25.0753766666667","6501500","五股區"
"248016","026-BX","2019/09/16 17:49:26","","121.46019","25.07502","6501500","五股區"
"248008","KED-0815","2019/09/16 17:49:23","新北市五股區中興路二段63巷17號","121.460288333333","25.0753266666667","6501500","五股區"
"248018","KED-0813","2019/09/16 17:49:33","","121.46017","25.0752883333333","6501500","五股區"
"232011","375-UM","2019/09/16 17:49:33","新北市坪林區北宜路八段148號","121.706933333333","24.9344333333333","6502000","坪林區"
"244007","080-UY","2019/09/16 17:49:30","新北市林口區竹林路161號","121.388826666667","25.0799316666667","6501700","林口區"
"244013","KEA-2802","2019/09/16 17:49:33","新北市林口區中山路140-1號","121.391531666667","25.0786033333333","6501700","林口區"
"244023","483-VK","2019/09/16 17:49:41","新北市林口區東湖路58號","121.387606666667","25.074115","6501700","林口區"
"244017","485-VK","2019/09/16 17:49:34","新北市林口區文化二路一段256號","121.370566666667","25.0733533333333","6501700","林口區"
"244009","656-BX","2019/09/16 17:49:35","新北市林口區林口路241號","121.386595","25.0837633333333","6501700","林口區"
"244011","701-TV","2019/09/16 17:49:29","新北市林口區中正路258號","121.389688333333","25.07781","6501700","林口區"
"244025","837-TS","2019/09/16 17:49:40","新北市林口區忠孝三路一段110號","121.35969","25.0714416666667","6501700","林口區"
"244021","838-TS","2019/09/16 17:49:44","新北市林口區仁愛路一段123巷13號","121.398116666667","25.0706416666667","6501700","林口區"
"222003","436-BY","2019/09/16 17:49:28","新北市深坑區阿柔洋60-1號","121.60825","24.99877","6501800","深坑區"
"222002","659-BX","2019/09/16 17:49:33","新北市深坑區平埔街22巷8號","121.614918333333","25.0009266666667","6501800","深坑區"
"241007","066-VK","2019/09/16 17:49:32","新北市三重區車路頭街94號","121.484325","25.0744066666667","6500200","三重區"
"241016","266-UM","2019/09/16 17:49:25","新北市三重區重新路三段52-3號","121.493933333333","25.0612283333333","6500200","三重區"
"241024","KEA-2210","2019/09/16 17:49:29","新北市三重區車路頭街62巷31號","121.48344","25.072475","6500200","三重區"
"241033","AAC-255","2019/09/16 17:49:32","新北市三重區重新路五段552號","121.470565","25.04589","6500200","三重區"
"235065","098-UM","2019/09/16 17:49:39","新北市中和區中正路637巷60弄61號","121.485431666667","24.9928166666667","6500300","中和區"
"235058","151-BY","2019/09/16 17:49:26","新北市中和區員山路36巷16-2號","121.485228333333","24.9916","6500300","中和區"
"247016","KEA-2869","2019/09/16 17:49:44","新北市蘆洲區中正路185巷25弄18號","121.467155","25.0838333333333","6501400","蘆洲區"
"247010","KED-0682","2019/09/16 17:49:29","新北市蘆洲區民族路62號","121.477216666667","25.08474","6501400","蘆洲區"
"235045","565-BX","2019/09/16 17:49:42","新北市中和區員山路36巷13號","121.484143333333","24.991","6500300","中和區"
"235054","640-BX","2019/09/16 17:49:37","新北市中和區員山路36巷16-2號","121.485218333333","24.9915983333333","6500300","中和區"
"235057","801-TS","2019/09/16 17:49:41","新北市中和區員山路36巷16-2號","121.485141666667","24.9915283333333","6500300","中和區"
"235064","911-UM","2019/09/16 17:49:34","新北市中和區員山路36巷16-2號","121.485315","24.99129","6500300","中和區"
"235037","AAC-213","2019/09/16 17:49:28","","121.490111666667","24.9935433333333","6500300","中和區"
"247006","893-R6","2019/09/16 17:49:38","新北市蘆洲區長安街22巷26號","121.464845","25.0797866666667","6501400","蘆洲區"
"247020","546-UM","2019/09/16 17:49:31","新北市蘆洲區民義街71巷30號","121.4724","25.0910416666667","6501400","蘆洲區"
"247008","341-TH","2019/09/16 17:49:40","新北市蘆洲區中山一路289號","121.471933333333","25.079295","6501400","蘆洲區"
"247012","337-TH","2019/09/16 17:49:33","新北市蘆洲區民權路38巷5號","121.476226666667","25.0869483333333","6501400","蘆洲區"
"247004","336-TH","2019/09/16 17:49:31","新北市蘆洲區長榮路152號","121.4612","25.084885","6501400","蘆洲區"
"247024","057-VK","2019/09/16 17:49:42","新北市蘆洲區光榮路61巷20號","121.46118","25.0889116666667","6501400","蘆洲區"
"247014","056-VK","2019/09/16 17:49:29","新北市蘆洲區中正路150-3號","121.469576666667","25.0855883333333","6501400","蘆洲區"
"247022","007-UY","2019/09/16 17:49:41","新北市蘆洲區中正路450號","121.462615","25.0947116666667","6501400","蘆洲區"
"247002","001-UY","2019/09/16 17:49:25","新北市蘆洲區永平街32巷21弄32號","121.457978333333","25.0923466666667","6501400","蘆洲區"
"226004","312-R5","2019/09/16 17:49:23","新北市平溪區石底里公園街18-3號","121.73345","25.0257116666667","6502400","平溪區"
"228003","097-TW","2019/09/16 17:49:38","新北市貢寮區真理里延平街36號","121.92447","25.056435","6502600","貢寮區"
"228002","663-BX","2019/09/16 17:49:34","新北市貢寮區福隆里外隆林街14-1號","121.95903","25.0036416666667","6502600","貢寮區"
"228001","670-TC","2019/09/16 17:49:24","新北市貢寮區仁理村仁愛路95-1號","121.927685","25.0555133333333","6502600","貢寮區"
"224006","676-BX","2019/09/16 17:49:25","新北市瑞芳區傑魚坑路181-1號","121.78853","25.1083266666667","6501200","瑞芳區"
"224009","275-VK","2019/09/16 17:49:24","新北市瑞芳區金光路374號","121.849928333333","25.1109933333333","6501200","瑞芳區"
"224008","273-VK","2019/09/16 17:49:40","新北市瑞芳區明燈路一段131號","121.820055","25.1071283333333","6501200","瑞芳區"
"224005","271-BY","2019/09/16 17:49:24","新北市瑞芳區海濱路157號","121.82918","25.1218516666667","6501200","瑞芳區"
"227001","642-TC","2019/09/16 17:20:31","新北市雙溪區三貂里定福路1-2號","121.850685","25.0633683333333","6502500","雙溪區"
"227002","400-TW","2019/09/16 17:49:37","新北市雙溪區共和里東榮街52號","121.86631","25.0336783333333","6502500","雙溪區"
"253006","295-VK","2019/09/16 17:49:27","新北市石門區老崩山2-1號","121.553626666667","25.2917466666667","6502200","石門區"
"208002","KEA-2872","2019/09/16 17:49:41","新北市金山區磺清路135號","121.639451666667","25.2277566666667","6502700","金山區"
"251009","008-UM","2019/09/16 17:49:42","新北市淡水區長興街8號","121.443888333333","25.1707016666667","6501000","淡水區"
"251004","009-UM","2019/09/16 17:49:37","新北市淡水區民權一街17巷2號","121.458698333333","25.13658","6501000","淡水區"
"251015","KEA-2871","2019/09/16 17:49:28","新北市淡水區興福寮1-8號","121.489223333333","25.16469","6501000","淡水區"
"251016","179-VK","2019/09/16 17:49:27","新北市淡水區埤島39-15號","121.452746666667","25.195865","6501000","淡水區"
"251008","181-VK","2019/09/16 17:49:41","新北市淡水區八勢路一段123巷6號","121.466913333333","25.1567766666667","6501000","淡水區"
"251013","182-VK","2019/09/16 17:49:38","新北市淡水區泉洲厝31號","121.479575","25.1910066666667","6501000","淡水區"
"251010","413-VK","2019/09/16 17:49:26","新北市淡水區中正路二段22巷47號","121.421593333333","25.18277","6501000","淡水區"
"251012","441-VK","2019/09/16 17:49:30","新北市淡水區北新路一段403號","121.467908333333","25.18267","6501000","淡水區"
"251007","442-VK","2019/09/16 17:49:28","新北市淡水區民生路16巷12號","121.46124","25.1373966666667","6501000","淡水區"
"251005","443-VK","2019/09/16 17:49:34","新北市淡水區學府路102巷5-1號","121.450573333333","25.1719166666667","6501000","淡水區"
"251006","561-UM","2019/09/16 17:49:30","新北市淡水區大信街1巷16號","121.440156666667","25.1768566666667","6501000","淡水區"
"251014","577-R6","2019/09/16 17:49:31","新北市淡水區公埔子16-6號","121.481001666667","25.224605","6501000","淡水區"
"251011","650-BX","2019/09/16 17:49:24","新北市淡水區小坪頂13-3號","121.486611666667","25.15617","6501000","淡水區"
"251002","672-BX","2019/09/16 17:49:28","新北市淡水區中山路104號","121.442298333333","25.170705","6501000","淡水區"
"251003","673-BX","2019/09/16 17:49:25","新北市淡水區大忠街5巷1號","121.443156666667","25.1764233333333","6501000","淡水區"
"207003","550-UM","2019/09/16 17:49:26","新北市萬里區野柳里東澳路66號","121.692623333333","25.2008716666667","6502800","萬里區"
"207004","291-VK","2019/09/16 17:49:41","新北市萬里區萬里里瑪鋉路12-4號","121.687745","25.1756766666667","6502800","萬里區"
"252002","178-VK","2019/09/16 17:49:33","新北市三芝區智成街47號","121.50425","25.2562583333333","6502100","三芝區"
"237004","KEA-2597","2019/09/16 17:49:32","新北市三峽區仁愛街15號","121.368476666667","24.9335583333333","6500900","三峽區"
"237009","210-TH","2019/09/16 17:49:35","新北市三峽區大勇路3巷36號","121.367485","24.9367766666667","6500900","三峽區"
"237013","252-BX","2019/09/16 17:49:41","新北市三峽區中華路8號","121.3753","24.9330583333333","6500900","三峽區"
"237012","275-BY","2019/09/16 17:49:37","新北市三峽區復興路1號","121.374473333333","24.93581","6500900","三峽區"
"237014","433-BY","2019/09/16 17:49:23","新北市三峽區文化路120巷20號","121.371286666667","24.9369433333333","6500900","三峽區"
"237006","5529-G3","2019/09/16 17:49:42","新北市三峽區介壽路二段36號","121.39102","24.9353133333333","6500900","三峽區"
"237011","KEA-2596","2019/09/16 17:49:38","新北市三峽區大同路59號","121.375448333333","24.927465","6500900","三峽區"
"237015","649-BX","2019/09/16 17:49:39","新北市三峽區白雞149-2號","121.399946666667","24.9051683333333","6500900","三峽區"
"237010","706-TV","2019/09/16 17:49:32","新北市三峽區復興路235號","121.368401666667","24.9388716666667","6500900","三峽區"
"237005","AKY-6261","2019/09/16 17:49:38","新北市三峽區中山路459巷66號","121.355476666667","24.9363716666667","6500900","三峽區"
"236042","KED-0685","2019/09/16 17:49:38","新北市土城區城林路6巷80號","121.43853","24.9796966666667","6501300","土城區"
"236026","269-VK","2019/09/16 17:49:37","新北市土城區城林路6巷80號","121.438436666667","24.9797","6501300","土城區"
"236014","270-VK","2019/09/16 17:49:25","新北市土城區城林路6巷80號","121.438461666667","24.9795583333333","6501300","土城區"
"236039","271-VK","2019/09/16 17:49:32","新北市土城區城林路6巷80號","121.438658333333","24.9797166666667","6501300","土城區"
"236069","KEA-2877","2019/09/16 17:49:35","新北市土城區城林路6巷80號","121.438406666667","24.9797483333333","6501300","土城區"
"252001","KED-0821","2019/09/16 17:49:41","新北市三芝區淡金路一段25號","121.49904","25.259565","6502100","三芝區"
"236020","401-BY","2019/09/16 17:49:39","新北市土城區城林路6巷80號","121.438645","24.97961","6501300","土城區"
"236059","912-UM","2019/09/16 17:49:24","新北市土城區中華路二段114號","121.43793","24.97404","6501300","土城區"
"236048","913-UM","2019/09/16 17:49:39","新北市土城區城林路6巷80號","121.438505","24.979615","6501300","土城區"
"236063","915-UM","2019/09/16 17:49:38","新北市土城區城林路6巷80號","121.438465","24.9797166666667","6501300","土城區"
"236055","AAC-216","2019/09/16 17:49:40","新北市土城區城林路6巷80號","121.438455","24.97961","6501300","土城區"
"242042","AAC-296","2019/09/16 17:49:32","新北市泰山區中山路二段841號","121.42587","25.0354283333333","6500500","新莊區"
"242060","986-R7","2019/09/16 17:49:37","新北市新莊區瓊林南路214號","121.433781666667","25.0059216666667","6500500","新莊區"
"242004","751-BX","2019/09/16 17:49:39","新北市新莊區自立街258號","121.459246666667","25.0455","6500500","新莊區"
"242029","615-BX","2019/09/16 17:49:40","新北市新莊區中平路31號","121.444741666667","25.0437316666667","6500500","新莊區"
"242027","613-BX","2019/09/16 17:49:40","新北市新莊區福壽街139號","121.458","25.052665","6500500","新莊區"
"242058","612-BX","2019/09/16 17:49:26","新北市新莊區中正路672號","121.420925","25.0284033333333","6500500","新莊區"
"242048","566-BX","2019/09/16 17:49:32","新北市新莊區萬安街60巷2號","121.420893333333","25.02365","6500500","新莊區"
"242053","497-BY","2019/09/16 17:49:29","新北市新莊區民安西路468-1號","121.43167","25.0079133333333","6500500","新莊區"
"242050","442-UM","2019/09/16 17:49:41","新北市新莊區西盛街311巷14號","121.428713333333","25.0151233333333","6500500","新莊區"
"242002","441-UM","2019/09/16 17:49:27","新北市新莊區新莊路435號","121.450128333333","25.03351","6500500","新莊區"
"242007","440-UM","2019/09/16 17:49:40","新北市新莊區福樂街108巷7號","121.457603333333","25.0480466666667","6500500","新莊區"
"242044","415-TV","2019/09/16 17:49:31","新北市新莊區中正路855巷21號","121.42024","25.0268883333333","6500500","新莊區"
"242013","413-TV","2019/09/16 17:49:29","新北市新莊區中誠街168號","121.448113333333","25.0474966666667","6500500","新莊區"
"242025","362-BY","2019/09/16 17:49:40","新北市新莊區新北大道二段237號","121.461153333333","25.06055","6500500","新莊區"
"242023","353-BY","2019/09/16 17:49:29","新北市新莊區福樂街40號","121.457771666667","25.0456783333333","6500500","新莊區"
"242015","132-UY","2019/09/16 17:49:33","新北市新莊區新泰路464號","121.443341666667","25.0449466666667","6500500","新莊區"
"242039","135-UY","2019/09/16 17:49:32","新北市新莊區民安路158號","121.424715","25.0246783333333","6500500","新莊區"
"242056","172-VK","2019/09/16 17:49:41","新北市新莊區瓊林路38-10號","121.448011666667","25.0301716666667","6500500","新莊區"
"242017","173-VK","2019/09/16 17:49:28","新北市新莊區永安街154號","121.449155","25.0444033333333","6500500","新莊區"
"242031","175-VK","2019/09/16 17:49:33","新北市新莊區新泰路321巷23號","121.443648333333","25.0410316666667","6500500","新莊區"
"242021","KED-0687","2019/09/16 17:49:28","新北市新莊區公園路85號","121.454495","25.0403533333333","6500500","新莊區"
"242009","346-TH","2019/09/16 17:49:41","新北市新莊區昌明街48號","121.456048333333","25.0521283333333","6500500","新莊區"
"242036","348-TH","2019/09/16 17:49:22","新北市新莊區建福路68號","121.426783333333","25.0268933333333","6500500","新莊區"
"242034","350-TH","2019/09/16 17:49:33","新北市新莊區新莊路783號","121.441106666667","25.0326983333333","6500500","新莊區"
"242019","351-TH","2019/09/16 17:49:35","新北市新莊區長青街30號","121.456706666667","25.04226","6500500","新莊區"
"238015","755-BX","2019/09/16 17:49:23","新北市樹林區復興路50號","121.421985","24.9939566666667","6500700","樹林區"
"238023","601-UM","2019/09/16 17:49:43","新北市樹林區龍興街32巷32號","121.401671666667","25.0154516666667","6500700","樹林區"
"238019","599-UM","2019/09/16 17:49:39","新北市樹林區太平路125號","121.419178333333","24.9805183333333","6500700","樹林區"
"238018","KEA-2217","2019/09/16 17:49:39","新北市樹林區博愛一街40號","121.42596","24.990885","6500700","樹林區"
"238022","KEA-2213","2019/09/16 17:49:33","新北市樹林區太順街62巷3弄35號","121.416431666667","24.9790566666667","6500700","樹林區"
"238021","KEA-2539","2019/09/16 17:49:31","新北市樹林區柑園街一段36-8號","121.40552","24.9615883333333","6500700","樹林區"
"238025","303-VK","2019/09/16 17:49:29","新北市樹林區三俊街113號","121.41724","25.01552","6500700","樹林區"
"238017","283-BY","2019/09/16 17:49:24","新北市樹林區三德街30巷17號","121.414663333333","25.0126083333333","6500700","樹林區"
"238014","282-BY","2019/09/16 17:49:25","新北市樹林區保安街一段241-1號","121.420051666667","24.9965983333333","6500700","樹林區"
"238020","268-VK","2019/09/16 17:49:26","新北市樹林區俊英街254-2號","121.424496666667","25.0112183333333","6500700","樹林區"
"238026","172-UY","2019/09/16 17:49:34","新北市樹林區新興街19巷10號","121.40079","24.9729083333333","6500700","樹林區"
"238016","169-UY","2019/09/16 17:49:25","新北市樹林區復興路372巷9號","121.41505","24.98611","6500700","樹林區"
"239007","AAC-297","2019/09/16 17:49:36","新北市鶯歌區永安街54號","121.337905","24.9566516666667","6500800","鶯歌區"
"239006","891-R6","2019/09/16 17:49:38","新北市鶯歌區永和街34巷21號","121.333801666667","24.967175","6500800","鶯歌區"
"239008","527-UM","2019/09/16 17:49:38","新北市鶯歌區大湖路732巷15弄4號","121.332783333333","24.97788","6500800","鶯歌區"
"239005","526-UM","2019/09/16 17:49:24","新北市鶯歌區福隆二街3號","121.325405","24.972145","6500800","鶯歌區"
"239001","417-VK","2019/09/16 17:49:33","新北市鶯歌區中正三路154號","121.335276666667","24.9394433333333","6500800","鶯歌區"
"239003","360-BY","2019/09/16 17:49:37","新北市鶯歌區鶯桃路206巷36號","121.337871666667","24.9599266666667","6500800","鶯歌區"
"239002","359-BY","2019/09/16 17:49:37","新北市鶯歌區南雅路493號","121.345611666667","24.9540383333333","6500800","鶯歌區"
"239004","193-VK","2019/09/16 17:49:14","新北市鶯歌區文化路206號","121.352758333333","24.9494583333333","6500800","鶯歌區"
"221008","489-VK","2019/09/16 17:49:26","新北市汐止區康寧街901號","121.651431666667","25.0749816666667","6501100","汐止區"
"244019","KED-0667","2019/09/16 17:49:39","新北市林口區文化一路一段24號","121.37041","25.0684866666667","6501700","林口區"
"221023","279-VK","2019/09/16 17:49:28","新北市汐止區康寧街753巷2弄22號","121.640125","25.0745566666667","6501100","汐止區"
"221031","353-TW","2019/09/16 17:49:43","新北市汐止區汐萬路一段333巷23號","121.648213333333","25.0761766666667","6501100","汐止區"
"233001","KEA-2870","2019/09/16 17:49:38","新北市烏來區信福路2巷2號","121.535431666667","24.83961","6502900","烏來區"
"242046","281-VK","2019/09/16 17:49:35","新北市新莊區建國一路23號","121.433976666667","25.0314183333333","6500500","新莊區"
"242011","280-VK","2019/09/16 17:49:44","新北市新莊區中港路742號","121.450338333333","25.0582983333333","6500500","新莊區"
"235062","KEA-2876","2019/09/16 17:49:16","新北市中和區員山路36巷16-3號","121.484605","24.9912583333333","6500300","中和區"
