"lineid","car","time","location","longitude","latitude","cityid","cityname"
"234026","9371-KE","2019/09/16 18:07:29","新北市永和區永和路一段72巷4號","121.513451666667","25.006115","6500400","永和區"
"249005","172-UM","2019/09/16 18:07:34","新北市八里區荖阡坑路17-11號","121.40156","25.1385183333333","6502300","八里區"
"249001","173-UM","2019/09/16 18:07:31","新北市八里區龍米路二段39號","121.448396666667","25.140095","6502300","八里區"
"249004","303-UY","2019/09/16 18:07:32","新北市八里區龍米路二段159-2號","121.439201666667","25.1539633333333","6502300","八里區"
"249002","305-UY","2019/09/16 18:07:39","新北市八里區龍米路一段386巷20號","121.452261666667","25.1314483333333","6502300","八里區"
"249003","593-UM","2019/09/16 18:07:33","新北市八里區松子腳9號","121.403061666667","25.1456","6502300","八里區"
"248014","025-BX","2019/09/16 18:07:26","新北市五股區成泰路一段189巷32弄1號","121.433398333333","25.0764516666667","6501500","五股區"
"248016","026-BX","2019/09/16 18:07:26","","121.444461666667","25.08961","6501500","五股區"
"248006","077-UY","2019/09/16 18:07:38","新北市五股區中興路二段82號","121.46086","25.07725","6501500","五股區"
"248008","KED-0815","2019/09/16 18:07:43","新北市蘆洲區永安南路二段322號","121.457043333333","25.082735","6501500","五股區"
"248018","KED-0813","2019/09/16 18:07:33","","121.441765","25.0820816666667","6501500","五股區"
"248004","677-BX","2019/09/16 18:07:36","新北市五股區成泰路二段121號","121.438613333333","25.0847533333333","6501500","五股區"
"248002","678-BX","2019/09/16 18:07:24","新北市五股區中興路三段163號","121.448693333333","25.08014","6501500","五股區"
"248010","682-TV","2019/09/16 18:07:25","","121.441868333333","25.0819583333333","6501500","五股區"
"232011","375-UM","2019/09/16 18:07:33","新北市坪林區水柳腳4號","121.711521666667","24.9354633333333","6502000","坪林區"
"244007","080-UY","2019/09/16 18:07:30","新北市林口區林口路113巷57號","121.387861666667","25.0797766666667","6501700","林口區"
"244013","KEA-2802","2019/09/16 18:07:33","新北市林口區中山路188-2號","121.389363333333","25.07896","6501700","林口區"
"244023","483-VK","2019/09/16 18:07:41","新北市林口區隆林街215巷8號","121.38342","25.073795","6501700","林口區"
"244017","485-VK","2019/09/16 18:07:34","新北市林口區八德路20巷17號","121.367521666667","25.067825","6501700","林口區"
"244009","656-BX","2019/09/16 18:07:35","新北市林口區文化二路二段126號","121.379981666667","25.0829416666667","6501700","林口區"
"244011","701-TV","2019/09/16 18:07:29","新北市林口區中正路76號","121.394631666667","25.077535","6501700","林口區"
"244025","837-TS","2019/09/16 18:07:40","新北市林口區文化北路一段212-1號","121.358103333333","25.07084","6501700","林口區"
"244021","838-TS","2019/09/16 18:07:26","新北市林口區自強五街7號","121.398861666667","25.07649","6501700","林口區"
"243013","646-TV","2019/09/16 18:07:41","新北市泰山區黎明路49號","121.421803333333","25.0583316666667","6501600","泰山區"
"222003","436-BY","2019/09/16 18:07:28","新北市深坑區腳坑6號","121.610128333333","24.9946333333333","6501800","深坑區"
"222002","659-BX","2019/09/16 18:07:33","新北市深坑區文化街52號","121.619043333333","25.0016216666667","6501800","深坑區"
"231060","106-UY","2019/09/16 18:07:26","新北市新店區安華路28-1號","121.519653333333","24.9607883333333","6500600","新店區"
"231054","260-TV","2019/09/16 18:07:43","新北市新店區安一路一段1-1號","121.519268333333","24.9610316666667","6500600","新店區"
"231042","268-BY","2019/09/16 18:07:30","新北市新店區安一路一段1-1號","121.519861666667","24.96142","6500600","新店區"
"231064","278-BY","2019/09/16 18:07:30","新北市新店區安一路一段1-1號","121.519681666667","24.9610983333333","6500600","新店區"
"231050","AAD-862","2019/09/16 18:07:38","新北市新店區安華路28-1號","121.51976","24.96097","6500600","新店區"
"231045","355-BY","2019/09/16 18:07:42","新北市新店區安華路28-1號","121.51919","24.9607766666667","6500600","新店區"
"231058","3713-VJ","2019/09/16 18:07:41","新北市新店區安華路28-1號","121.519163333333","24.96062","6500600","新店區"
"231056","4715-K9","2019/09/16 18:07:42","新北市新店區安華路1-1號","121.519411666667","24.9603016666667","6500600","新店區"
"231052","513-UM","2019/09/16 18:07:38","新北市新店區安一路一段1-1號","121.51958","24.9610483333333","6500600","新店區"
"231057","720-UM","2019/09/16 18:07:30","新北市新店區安一路一段1-1號","121.518913333333","24.9613633333333","6500600","新店區"
"231040","898-TW","2019/09/16 18:07:36","新北市新店區安華路28-1號","121.51945","24.9608416666667","6500600","新店區"
"231043","899-TW","2019/09/16 18:07:24","新北市新店區安華路28-1號","121.519315","24.9608416666667","6500600","新店區"
"241024","KEA-2210","2019/09/16 18:07:29","新北市三重區中正北路193巷35弄11號","121.476613333333","25.0708766666667","6500200","三重區"
"241023","545-UM","2019/09/16 18:07:43","新北市三重區忠孝路三段50巷17號","121.481458333333","25.06536","6500200","三重區"
"241033","AAC-255","2019/09/16 18:07:32","新北市三重區中興北街52-5號","121.469241666667","25.05054","6500200","三重區"
"235063","006-UY","2019/09/16 18:07:35","新北市中和區員山路36巷16-2號","121.485186666667","24.9914316666667","6500300","中和區"
"235056","096-UM","2019/09/16 18:07:28","新北市中和區中正路748號","121.485618333333","24.99837","6500300","中和區"
"235039","097-UM","2019/09/16 18:07:35","新北市中和區中正路637巷60弄61號","121.485506666667","24.9925933333333","6500300","中和區"
"235065","098-UM","2019/09/16 18:07:39","新北市中和區莊敬路49巷18號","121.501656666667","25.0061733333333","6500300","中和區"
"235040","150-BY","2019/09/16 18:07:31","新北市中和區中正路305號","121.492745","24.9938866666667","6500300","中和區"
"235058","151-BY","2019/09/16 18:07:26","新北市中和區圓通路367巷57弄6號","121.492915","24.9836416666667","6500300","中和區"
"235038","185-VK","2019/09/16 18:07:34","新北市中和區景平路293號","121.507093333333","24.993205","6500300","中和區"
"235072","301-VK","2019/09/16 18:07:25","新北市中和區員山路36巷16-8號","121.485408333333","24.9924516666667","6500300","中和區"
"235042","KEA-2878","2019/09/16 18:07:41","新北市中和區錦和路350-1號","121.490426666667","24.9935166666667","6500300","中和區"
"247016","KEA-2869","2019/09/16 18:07:25","新北市蘆洲區中正路172號","121.468345","25.086205","6501400","蘆洲區"
"235070","558-UM","2019/09/16 18:07:35","新北市中和區中正路206號","121.497121666667","24.9942016666667","6500300","中和區"
"235045","565-BX","2019/09/16 18:07:22","新北市中和區中正路271號","121.495921666667","24.9937483333333","6500300","中和區"
"235054","640-BX","2019/09/16 18:07:37","新北市中和區莒光路222-7號","121.469183333333","24.9948583333333","6500300","中和區"
"235060","647-TV","2019/09/16 18:07:26","新北市中和區員山路90號","121.480891666667","24.9944316666667","6500300","中和區"
"235047","732-UM","2019/09/16 18:07:28","新北市中和區中正路517號","121.48805","24.9942416666667","6500300","中和區"
"235057","801-TS","2019/09/16 18:07:41","新北市中和區民享街97巷19號","121.475396666667","24.99959","6500300","中和區"
"235052","805-TS","2019/09/16 18:07:36","新北市中和區南山路287號","121.504286666667","24.992145","6500300","中和區"
"235053","900-TW","2019/09/16 18:07:33","新北市中和區員山路36巷16-2號","121.485158333333","24.9914683333333","6500300","中和區"
"235064","911-UM","2019/09/16 18:07:34","新北市中和區中正路161巷4號","121.498478333333","24.9934433333333","6500300","中和區"
"235051","157-BY","2019/09/16 18:07:40","新北市中和區中興街118巷8號","121.499906666667","24.9934133333333","6500300","中和區"
"235037","AAC-213","2019/09/16 18:07:28","","121.517961666667","24.9915283333333","6500300","中和區"
"235059","AAC-215","2019/09/16 18:07:33","新北市中和區員山路36巷16-3號","121.485046666667","24.9912483333333","6500300","中和區"
"247002","001-UY","2019/09/16 18:07:39","新北市蘆洲區永平街32巷69弄23號","121.45913","25.0936883333333","6501400","蘆洲區"
"226004","312-R5","2019/09/16 18:07:42","新北市平溪區菁桐里菁桐街159號","121.723181666667","25.023685","6502400","平溪區"
"228003","097-TW","2019/09/16 18:07:38","新北市貢寮區真理里美艷山街6-2號","121.92883","25.0607466666667","6502600","貢寮區"
"228002","663-BX","2019/09/16 18:07:34","新北市貢寮區福連里香蘭街34號","121.987291666667","25.0196366666667","6502600","貢寮區"
"228001","670-TC","2019/09/16 18:07:24","新北市貢寮區真理里新港街26巷55弄2-1號","121.927371666667","25.0529033333333","6502600","貢寮區"
"224006","676-BX","2019/09/16 18:07:25","新北市瑞芳區中山路241號","121.800333333333","25.1068616666667","6501200","瑞芳區"
"224002","639-TC","2019/09/16 18:07:40","新北市瑞芳區三爪子坑路64-22號","121.8094","25.1053933333333","6501200","瑞芳區"
"224007","285-BY","2019/09/16 18:07:36","新北市瑞芳區四腳亭埔路40-1號","121.778766666667","25.105255","6501200","瑞芳區"
"224009","275-VK","2019/09/16 18:07:43","新北市瑞芳區金光路259-1號","121.849495","25.1081283333333","6501200","瑞芳區"
"224008","273-VK","2019/09/16 18:07:40","新北市瑞芳區明燈路一段45巷109-2號","121.822098333333","25.10357","6501200","瑞芳區"
"224005","271-BY","2019/09/16 18:07:24","新北市瑞芳區深澳路189-1號","121.82072","25.1338316666667","6501200","瑞芳區"
"227001","642-TC","2019/09/16 18:07:29","新北市雙溪區三貂里定福路1-2號","121.85063","25.063335","6502500","雙溪區"
"227002","400-TW","2019/09/16 18:07:37","新北市雙溪區共和里東榮街52號","121.866331666667","25.0336816666667","6502500","雙溪區"
"253005","032-BX","2019/09/16 18:07:37","新北市石門區福安街45號","121.568521666667","25.2918466666667","6502200","石門區"
"253006","295-VK","2019/09/16 18:07:27","新北市石門區老梅路52巷25弄2-1號","121.546865","25.2865933333333","6502200","石門區"
"222001","KEA-2212","2019/09/16 18:07:36","新北市深坑區北深路二段187號","121.612246666667","25.001135","6501800","深坑區"
"208002","KEA-2872","2019/09/16 18:07:41","新北市金山區三界壇路99巷19號","121.620183333333","25.2275733333333","6502700","金山區"
"208003","665-BX","2019/09/16 18:07:29","新北市金山區磺港里磺港路54號","121.64779","25.2282816666667","6502700","金山區"
"251009","008-UM","2019/09/16 18:07:31","新北市淡水區大仁街6巷2號","121.442683333333","25.1746633333333","6501000","淡水區"
"251004","009-UM","2019/09/16 18:07:37","新北市淡水區民權路187巷81號","121.461366666667","25.13457","6501000","淡水區"
"251015","KEA-2871","2019/09/16 18:07:28","新北市淡水區興福寮88巷1號","121.485345","25.1649366666667","6501000","淡水區"
"251016","179-VK","2019/09/16 18:07:27","新北市淡水區下圭柔山18-1號","121.4537","25.2027716666667","6501000","淡水區"
"251008","181-VK","2019/09/16 18:07:41","新北市淡水區紅樹林路209號","121.460801666667","25.1560916666667","6501000","淡水區"
"251013","182-VK","2019/09/16 18:07:38","新北市淡水區竹圍子9-1號","121.476933333333","25.1921883333333","6501000","淡水區"
"251010","413-VK","2019/09/16 18:07:26","新北市淡水區淡海路75號","121.422993333333","25.1812716666667","6501000","淡水區"
"251012","441-VK","2019/09/16 18:07:30","新北市淡水區北新路三段62號","121.485136666667","25.18764","6501000","淡水區"
"251005","443-VK","2019/09/16 18:07:34","新北市淡水區水源街一段145號","121.447463333333","25.17177","6501000","淡水區"
"251001","559-UM","2019/09/16 18:07:30","新北市淡水區自立路12-5號","121.463335","25.1289216666667","6501000","淡水區"
"251006","561-UM","2019/09/16 18:07:30","新北市淡水區真理街3巷12號","121.437253333333","25.1754566666667","6501000","淡水區"
"251014","577-R6","2019/09/16 18:07:31","新北市淡水區南平14號","121.48552","25.2211683333333","6501000","淡水區"
"251011","650-BX","2019/09/16 18:07:24","新北市淡水區坪頂路506號","121.480348333333","25.1601016666667","6501000","淡水區"
"251002","672-BX","2019/09/16 18:07:28","新北市淡水區中正東路34-3號","121.448611666667","25.1658533333333","6501000","淡水區"
"251003","673-BX","2019/09/16 18:07:45","新北市淡水區大忠街79-1號","121.445866666667","25.1773516666667","6501000","淡水區"
"207003","550-UM","2019/09/16 18:07:26","新北市萬里區野柳里東澳路8號","121.691241666667","25.2038033333333","6502800","萬里區"
"207004","291-VK","2019/09/16 18:07:29","新北市萬里區中幅里中福路58-12號","121.679183333333","25.1717666666667","6502800","萬里區"
"252003","249-BX","2019/09/16 18:07:33","新北市三芝區淡金路二段76號","121.503513333333","25.26154","6502100","三芝區"
"208001","170-UY","2019/09/16 18:07:35","新北市金山區磺港里磺港路116號","121.646","25.226415","6502700","金山區"
"237004","KEA-2597","2019/09/16 18:07:32","新北市三峽區大埔路150-2號","121.364981666667","24.89768","6500900","三峽區"
"237007","153-BY","2019/09/16 18:07:30","新北市三峽區中正路二段311號","121.366023333333","24.91054","6500900","三峽區"
"237009","210-TH","2019/09/16 18:07:35","新北市三峽區復興路303巷1弄2號","121.365605","24.9383283333333","6500900","三峽區"
"237013","252-BX","2019/09/16 18:07:41","新北市三峽區長泰街47號","121.37761","24.9328683333333","6500900","三峽區"
"237012","275-BY","2019/09/16 18:07:32","新北市三峽區民生街1巷1-32號","121.37755","24.9351283333333","6500900","三峽區"
"237008","302-VK","2019/09/16 18:07:25","新北市三峽區白雞44-13號","121.378433333333","24.9094633333333","6500900","三峽區"
"237014","433-BY","2019/09/16 18:07:23","新北市三峽區復興路80巷2號","121.373395","24.937505","6500900","三峽區"
"237006","5529-G3","2019/09/16 18:07:42","新北市三峽區介壽路二段138巷1弄112號","121.397916666667","24.9308316666667","6500900","三峽區"
"237011","KEA-2596","2019/09/16 18:07:38","新北市三峽區大同路1-2號","121.37836","24.9298883333333","6500900","三峽區"
"237015","649-BX","2019/09/16 18:07:39","新北市三峽區紫微路34號","121.418438333333","24.9183133333333","6500900","三峽區"
"237010","706-TV","2019/09/16 18:07:32","新北市三峽區民權街168號","121.367935","24.9301116666667","6500900","三峽區"
"237005","AKY-6261","2019/09/16 18:07:38","新北市三峽區文化路152號","121.37034","24.93621","6500900","三峽區"
"236042","KED-0685","2019/09/16 18:07:38","新北市土城區城林路6巷80號","121.438503333333","24.979635","6501300","土城區"
"233002","762-BX","2019/09/16 18:07:41","","121.54279","24.878815","6502900","烏來區"
"236030","253-BX","2019/09/16 18:07:35","新北市土城區城林路6巷80號","121.43849","24.9797983333333","6501300","土城區"
"236026","269-VK","2019/09/16 18:07:37","新北市土城區承天路18號","121.439435","24.9635516666667","6501300","土城區"
"236014","270-VK","2019/09/16 18:07:25","新北市土城區學府路一段292號","121.449481666667","24.9826416666667","6501300","土城區"
"236039","271-VK","2019/09/16 18:07:32","新北市土城區明德路一段365-1號","121.453705","24.9789333333333","6501300","土城區"
"236069","KEA-2877","2019/09/16 18:07:35","新北市土城區明德路一段307號","121.459718333333","24.9771683333333","6501300","土城區"
"252001","KED-0821","2019/09/16 18:07:41","新北市三芝區中興街二段2號","121.498326666667","25.2566633333333","6502100","三芝區"
"236020","401-BY","2019/09/16 18:07:39","新北市土城區城林路6巷80號","121.438581666667","24.9795733333333","6501300","土城區"
"236059","912-UM","2019/09/16 18:07:24","新北市土城區中央路四段158號","121.417046666667","24.9582383333333","6501300","土城區"
"236048","913-UM","2019/09/16 18:07:39","新北市土城區金城路一段112號","121.446541666667","24.9758583333333","6501300","土城區"
"236063","915-UM","2019/09/16 18:07:38","新北市土城區中央路二段110號","121.44187","24.9783366666667","6501300","土城區"
"236055","AAC-216","2019/09/16 18:07:40","新北市土城區中華路二段92號","121.438265","24.97473","6501300","土城區"
"242042","AAC-296","2019/09/16 18:07:32","新北市泰山區壽山路30號","121.420663333333","25.028965","6500500","新莊區"
"242060","986-R7","2019/09/16 18:07:30","新北市新莊區新樹路381號","121.432876666667","25.017425","6500500","新莊區"
"242004","751-BX","2019/09/16 18:07:39","新北市新莊區自由街36號","121.455821666667","25.046455","6500500","新莊區"
"242029","615-BX","2019/09/16 18:07:40","新北市新莊區幸福路858號","121.443821666667","25.0488883333333","6500500","新莊區"
"242027","613-BX","2019/09/16 18:07:40","新北市新莊區幸福路47號","121.457788333333","25.049365","6500500","新莊區"
"242058","612-BX","2019/09/16 18:07:45","新北市新莊區雙鳳路134巷34號","121.412225","25.028555","6500500","新莊區"
"242048","566-BX","2019/09/16 18:07:39","新北市新莊區萬安街67巷6號","121.42163","25.023895","6500500","新莊區"
"242053","497-BY","2019/09/16 18:07:32","新北市新莊區民安西路356號","121.427361666667","25.0112216666667","6500500","新莊區"
"242050","442-UM","2019/09/16 18:07:41","新北市新莊區民本街27巷17號","121.42911","25.0192433333333","6500500","新莊區"
"242002","441-UM","2019/09/16 18:07:27","新北市新莊區中正路147-16號","121.457308333333","25.036995","6500500","新莊區"
"242007","440-UM","2019/09/16 18:07:40","新北市新莊區自重街2號","121.453475","25.047375","6500500","新莊區"
"242044","415-TV","2019/09/16 18:07:31","新北市新莊區雙鳳路170號","121.412715","25.02688","6500500","新莊區"
"242013","413-TV","2019/09/16 18:07:29","新北市新莊區中正路384號","121.441933333333","25.0345466666667","6500500","新莊區"
"242025","362-BY","2019/09/16 18:07:37","新北市新莊區五權一路3號","121.457255","25.0652933333333","6500500","新莊區"
"242015","132-UY","2019/09/16 18:07:40","新北市新莊區中平路132巷30號","121.446011666667","25.0466166666667","6500500","新莊區"
"242039","135-UY","2019/09/16 18:07:38","新北市新莊區民安西路38巷6號","121.426995","25.02088","6500500","新莊區"
"242056","172-VK","2019/09/16 18:07:24","新北市新莊區豐年街豐2巷44號","121.447895","25.0308716666667","6500500","新莊區"
"242017","173-VK","2019/09/16 18:07:28","新北市新莊區永樂街109號","121.450081666667","25.0448366666667","6500500","新莊區"
"242031","175-VK","2019/09/16 18:07:41","新北市新莊區新泰路289巷47號","121.443488333333","25.04029","6500500","新莊區"
"242021","KED-0687","2019/09/16 18:07:28","新北市新莊區建興街89巷2號","121.449888333333","25.0389483333333","6500500","新莊區"
"242009","346-TH","2019/09/16 18:07:40","新北市新莊區昌平街31巷2號","121.4546","25.0523083333333","6500500","新莊區"
"242036","348-TH","2019/09/16 18:07:22","新北市新莊區後港一路65巷11弄2號","121.42615","25.0273883333333","6500500","新莊區"
"242034","350-TH","2019/09/16 18:07:33","新北市新莊區中正路377巷8號","121.446096666667","25.0341783333333","6500500","新莊區"
"242019","351-TH","2019/09/16 18:07:41","新北市新莊區長青街37巷22弄5號","121.456011666667","25.041115","6500500","新莊區"
"238015","755-BX","2019/09/16 18:07:43","新北市樹林區大安路323巷10弄20號","121.416768333333","24.9912033333333","6500700","樹林區"
"238023","601-UM","2019/09/16 18:07:29","新北市樹林區三福街85巷11號","121.407243333333","25.0153966666667","6500700","樹林區"
"238018","KEA-2217","2019/09/16 18:07:39","新北市樹林區樹新路207號","121.429741666667","24.9980366666667","6500700","樹林區"
"238022","KEA-2213","2019/09/16 18:07:33","新北市樹林區太平路225巷2號","121.418491666667","24.976945","6500700","樹林區"
"238021","KEA-2539","2019/09/16 18:07:31","新北市樹林區柑園街二段153號","121.381881666667","24.9541216666667","6500700","樹林區"
"238025","303-VK","2019/09/16 18:07:29","新北市樹林區保安街二段329號","121.412473333333","25.0073566666667","6500700","樹林區"
"238017","283-BY","2019/09/16 18:07:24","新北市樹林區中正路626號","121.41021","25.0160016666667","6500700","樹林區"
"238014","282-BY","2019/09/16 18:07:25","新北市樹林區千歲街61巷38號","121.42575","24.998725","6500700","樹林區"
"238020","268-VK","2019/09/16 18:07:26","新北市樹林區俊興街298號","121.418605","25.0179266666667","6500700","樹林區"
"238026","172-UY","2019/09/16 18:07:34","新北市樹林區中山路三段167號","121.394913333333","24.9725833333333","6500700","樹林區"
"238016","169-UY","2019/09/16 18:07:25","新北市樹林區文化街7號","121.420056666667","24.9871816666667","6500700","樹林區"
"239007","AAC-297","2019/09/16 18:07:36","新北市鶯歌區鶯桃路94巷59弄13號","121.341338333333","24.9552116666667","6500800","鶯歌區"
"239006","891-R6","2019/09/16 18:07:42","新北市鶯歌區鶯桃路413巷76號","121.32974","24.9630933333333","6500800","鶯歌區"
"239008","527-UM","2019/09/16 18:07:38","新北市鶯歌區明圓街2號","121.336","24.9775783333333","6500800","鶯歌區"
"239005","526-UM","2019/09/16 18:07:24","新北市鶯歌區鶯桃路658巷49-1號","121.3307","24.97009","6500800","鶯歌區"
"239001","417-VK","2019/09/16 18:07:33","新北市鶯歌區中正三路328號","121.327873333333","24.9351166666667","6500800","鶯歌區"
"239003","360-BY","2019/09/16 18:07:37","新北市鶯歌區永吉街7巷2號","121.336636666667","24.9584266666667","6500800","鶯歌區"
"239002","359-BY","2019/09/16 18:07:37","新北市鶯歌區國華路81號","121.342983333333","24.9542783333333","6500800","鶯歌區"
"221008","489-VK","2019/09/16 18:07:26","新北市汐止區明峰街17號","121.634725","25.0713066666667","6501100","汐止區"
"221036","130-UY","2019/09/16 18:07:27","新北市汐止區大同路三段116號","121.67205","25.076745","6501100","汐止區"
"244019","KED-0667","2019/09/16 18:07:39","新北市林口區忠孝路561巷15號","121.373296666667","25.068915","6501700","林口區"
"221010","269-BY","2019/09/16 18:07:35","新北市汐止區汐萬路二段245巷29號","121.644418333333","25.087535","6501100","汐止區"
"221012","278-VK","2019/09/16 18:07:25","新北市汐止區長興街二段50巷9號","121.674338333333","25.0815816666667","6501100","汐止區"
"221023","279-VK","2019/09/16 18:07:32","新北市汐止區民族五街45號","121.629083333333","25.07097","6501100","汐止區"
"221032","280-BY","2019/09/16 18:07:37","新北市汐止區橫科路73巷2-1號","121.619443333333","25.0507933333333","6501100","汐止區"
"221027","281-BY","2019/09/16 18:07:27","新北市汐止區大同路二段516號","121.66098","25.06835","6501100","汐止區"
"221029","298-VK","2019/09/16 18:07:40","新北市汐止區樟樹二路251巷46號","121.640386666667","25.0671783333333","6501100","汐止區"
"221021","299-VK","2019/09/16 18:07:37","新北市汐止區龍安路1號","121.656741666667","25.0643883333333","6501100","汐止區"
"221031","353-TW","2019/09/16 18:07:23","新北市汐止區中興路194號","121.631511666667","25.06587","6501100","汐止區"
"221035","622-UM","2019/09/16 18:07:29","新北市汐止區汐萬路一段129號","121.653838333333","25.0711866666667","6501100","汐止區"
"221025","623-UM","2019/09/16 18:07:28","新北市汐止區仁愛路32號","121.660235","25.062845","6501100","汐止區"
"221038","646-BX","2019/09/16 18:07:36","新北市汐止區水源路一段273號","121.654085","25.0591316666667","6501100","汐止區"
"221033","647-BX","2019/09/16 18:07:35","新北市汐止區林森街15號","121.621498333333","25.0406416666667","6501100","汐止區"
"221002","707-TV","2019/09/16 18:07:33","新北市汐止區福德一路256號","121.633506666667","25.06462","6501100","汐止區"
"221018","753-BX","2019/09/16 18:04:03","新北市汐止區招商街11巷1號","121.666475","25.0688833333333","6501100","汐止區"
"233001","KEA-2870","2019/09/16 18:07:37","新北市烏來區新烏路五段125號","121.54762","24.8710983333333","6502900","烏來區"
"242046","281-VK","2019/09/16 18:07:35","新北市新莊區福營路226號","121.427271666667","25.0293866666667","6500500","新莊區"
"242011","280-VK","2019/09/16 18:07:34","新北市新莊區中榮街56巷11號","121.449166666667","25.0533816666667","6500500","新莊區"
"235061","KEA-2875","2019/09/16 18:07:33","新北市中和區民德路197-1號","121.468373333333","24.99881","6500300","中和區"
"235062","KEA-2876","2019/09/16 18:07:16","新北市中和區景平路999巷2號","121.495381666667","25.005955","6500300","中和區"
