"lineid","car","time","location","longitude","latitude","cityid","cityname"
"234081","298-R6","2019/09/16 18:19:27","新北市永和區福和路1號","121.526523333333","25.009905","6500400","永和區"
"234086","338-UY","2019/09/16 18:19:37","新北市永和區福和路1號","121.526326666667","25.0100216666667","6500400","永和區"
"234007","KED-0605","2019/09/16 18:19:25","新北市永和區仁愛路306巷28號","121.502141666667","25.00884","6500400","永和區"
"234013","KEA-2591","2019/09/16 18:19:28","新北市永和區福和路1號","121.526258333333","25.0094783333333","6500400","永和區"
"234026","9371-KE","2019/09/16 18:19:29","新北市永和區豫溪街28巷22號","121.515015","25.00892","6500400","永和區"
"234011","9373-KE","2019/09/16 18:18:14","新北市永和區福和路1號","121.52623","25.009575","6500400","永和區"
"249005","172-UM","2019/09/16 18:19:34","新北市八里區荖阡坑路15-22號","121.400073333333","25.1407683333333","6502300","八里區"
"249001","173-UM","2019/09/16 18:19:31","新北市八里區龍米路一段129號","121.45221","25.126715","6502300","八里區"
"249004","303-UY","2019/09/16 18:19:32","新北市八里區龍米路二段232巷1弄2號","121.431448333333","25.1589733333333","6502300","八里區"
"249002","305-UY","2019/09/16 18:19:39","新北市八里區龍形一街3號","121.450723333333","25.130685","6502300","八里區"
"249003","593-UM","2019/09/16 18:19:33","新北市林口區太平里180號","121.367123333333","25.1337566666667","6502300","八里區"
"248014","025-BX","2019/09/16 18:19:26","新北市五股區自強路90巷19號","121.432206666667","25.0720983333333","6501500","五股區"
"248016","026-BX","2019/09/16 18:19:26","","121.449871666667","25.0988916666667","6501500","五股區"
"248006","077-UY","2019/09/16 18:19:38","新北市五股區中興路一段84號","121.466585","25.0731316666667","6501500","五股區"
"248008","KED-0815","2019/09/16 18:19:23","新北市五股區更洲路32巷8弄17號","121.459268333333","25.0796183333333","6501500","五股區"
"248018","KED-0813","2019/09/16 18:19:33","","121.431563333333","25.1000916666667","6501500","五股區"
"248012","247-BX","2019/09/16 18:19:39","新北市五股區御史路1巷101弄2號","121.440978333333","25.091195","6501500","五股區"
"248004","677-BX","2019/09/16 18:19:36","新北市五股區成泰路二段222-2號","121.439128333333","25.0854616666667","6501500","五股區"
"248002","678-BX","2019/09/16 18:19:24","新北市五股區西雲路46號","121.443458333333","25.0908983333333","6501500","五股區"
"248010","682-TV","2019/09/16 18:19:26","","121.433483333333","25.0776016666667","6501500","五股區"
"232011","375-UM","2019/09/16 18:19:33","新北市坪林區坪雙路一段41號","121.711743333333","24.9424616666667","6502000","坪林區"
"244007","080-UY","2019/09/16 18:19:30","新北市林口區後湖17-9號","121.387003333333","25.0974183333333","6501700","林口區"
"244013","KEA-2802","2019/09/16 18:19:33","新北市林口區文化一路二段106號","121.382116666667","25.0789516666667","6501700","林口區"
"244023","483-VK","2019/09/16 18:19:41","新北市林口區仁愛路二段145號","121.382651666667","25.074205","6501700","林口區"
"244017","485-VK","2019/09/16 18:19:34","新北市林口區八德路78號","121.365463333333","25.0654866666667","6501700","林口區"
"244009","656-BX","2019/09/16 18:19:35","新北市林口區文林一街115巷22號","121.378891666667","25.0877433333333","6501700","林口區"
"244011","701-TV","2019/09/16 18:19:29","新北市林口區仁愛路一段272巷2號","121.393605","25.0759883333333","6501700","林口區"
"244025","837-TS","2019/09/16 18:19:40","新北市林口區文化北路一段192-100號","121.357305","25.070415","6501700","林口區"
"244021","838-TS","2019/09/16 18:19:44","新北市林口區自強一街31號","121.398725","25.0780183333333","6501700","林口區"
"243013","646-TV","2019/09/16 18:19:42","新北市泰山區南林路89-4號","121.415621666667","25.051375","6501600","泰山區"
"222003","436-BY","2019/09/16 18:19:28","新北市深坑區旺耽路67號","121.62627","25.003015","6501800","深坑區"
"222002","659-BX","2019/09/16 18:19:33","新北市深坑區雲鄉路31號","121.622306666667","24.9996583333333","6501800","深坑區"
"231055","0291-UT","2019/09/16 18:19:28","新北市新店區安康路一段79巷3號","121.52993","24.9611716666667","6500600","新店區"
"231060","106-UY","2019/09/16 18:19:26","新北市新店區安華路28-1號","121.519591666667","24.9607783333333","6500600","新店區"
"231054","260-TV","2019/09/16 18:19:23","新北市新店區安一路一段1-1號","121.519298333333","24.961085","6500600","新店區"
"231042","268-BY","2019/09/16 18:19:30","新北市新店區安一路一段1-1號","121.519663333333","24.96142","6500600","新店區"
"231064","278-BY","2019/09/16 18:19:30","新北市新店區安一路一段1-1號","121.519781666667","24.9611133333333","6500600","新店區"
"231050","AAD-862","2019/09/16 18:19:38","新北市新店區安華路28-1號","121.519911666667","24.9608933333333","6500600","新店區"
"231045","355-BY","2019/09/16 18:19:42","新北市新店區安華路28-1號","121.519195","24.96084","6500600","新店區"
"231058","3713-VJ","2019/09/16 18:19:41","新北市新店區秀山路72號","121.53134","24.9609166666667","6500600","新店區"
"231056","4715-K9","2019/09/16 18:19:42","新北市新店區中央路230號","121.529573333333","24.9726933333333","6500600","新店區"
"231052","513-UM","2019/09/16 18:19:38","新北市新店區安康路一段227號","121.525613333333","24.9630833333333","6500600","新店區"
"231063","641-BX","2019/09/16 18:19:30","新北市新店區安華路28-1號","121.519686666667","24.960625","6500600","新店區"
"231057","720-UM","2019/09/16 18:19:30","新北市新店區安一路一段1-1號","121.519121666667","24.9611983333333","6500600","新店區"
"231059","897-TW","2019/09/16 18:19:44","新北市新店區安華路28-1號","121.519741666667","24.9609066666667","6500600","新店區"
"231040","898-TW","2019/09/16 18:19:36","新北市新店區安華路28-1號","121.519401666667","24.9608416666667","6500600","新店區"
"231043","899-TW","2019/09/16 18:19:43","新北市新店區安華路28-1號","121.519211666667","24.96084","6500600","新店區"
"231066","AKT-0513","2019/09/16 18:19:24","新北市新店區安華路1-1號","121.51947","24.9604866666667","6500600","新店區"
"241023","545-UM","2019/09/16 18:19:23","新北市三重區中華路125號","121.483581666667","25.0639116666667","6500200","三重區"
"241033","AAC-255","2019/09/16 18:19:32","新北市三重區中興北街42巷27號","121.468478333333","25.0493933333333","6500200","三重區"
"235063","006-UY","2019/09/16 18:19:35","新北市中和區連城路347巷45號","121.488635","24.99462","6500300","中和區"
"235056","096-UM","2019/09/16 18:19:28","新北市中和區員山路611巷1號","121.477905","25.011215","6500300","中和區"
"235039","097-UM","2019/09/16 18:19:35","新北市中和區安平路7-2號","121.508956666667","24.9935883333333","6500300","中和區"
"235065","098-UM","2019/09/16 18:19:39","新北市中和區莊敬路49巷18號","121.501636666667","25.0061533333333","6500300","中和區"
"235040","150-BY","2019/09/16 18:19:31","新北市中和區保健路50巷66號","121.509213333333","24.9952","6500300","中和區"
"235058","151-BY","2019/09/16 18:19:26","新北市中和區圓通路369巷30弄16號","121.489588333333","24.985105","6500300","中和區"
"235038","185-VK","2019/09/16 18:19:34","新北市中和區大智街57號","121.521218333333","24.9921066666667","6500300","中和區"
"235049","186-VK","2019/09/16 18:19:40","新北市中和區錦和路350-1號","121.490543333333","24.993555","6500300","中和區"
"235072","301-VK","2019/09/16 18:19:25","新北市中和區連城路241號","121.493733333333","24.9972166666667","6500300","中和區"
"235043","352-BY","2019/09/16 18:19:40","新北市中和區景平路381號","121.503906666667","24.9934233333333","6500300","中和區"
"235042","KEA-2878","2019/09/16 18:19:41","新北市中和區景平路406號","121.508676666667","24.9930533333333","6500300","中和區"
"235050","4979-A6","2019/09/16 18:19:24","新北市中和區南山路325號","121.505178333333","24.991165","6500300","中和區"
"235069","4980-A6","2019/09/16 18:19:36","新北市中和區連城路297號","121.490121666667","24.9963166666667","6500300","中和區"
"235070","558-UM","2019/09/16 18:19:35","新北市中和區景平路572號","121.501686666667","24.9954833333333","6500300","中和區"
"235045","565-BX","2019/09/16 18:19:22","新北市中和區復興路54號","121.503981666667","24.990295","6500300","中和區"
"235054","640-BX","2019/09/16 18:19:37","新北市中和區民享街99號","121.474945","24.9998966666667","6500300","中和區"
"235060","647-TV","2019/09/16 18:19:28","新北市中和區員山路469巷1號","121.48036","25.0046383333333","6500300","中和區"
"235047","732-UM","2019/09/16 18:19:28","新北市中和區南山路250巷2號","121.507728333333","24.98905","6500300","中和區"
"235046","733-UM","2019/09/16 18:19:25","新北市中和區中正路395號","121.489935","24.9935533333333","6500300","中和區"
"235057","801-TS","2019/09/16 18:19:41","新北市中和區民安街47號","121.479748333333","25.000125","6500300","中和區"
"235041","802-TS","2019/09/16 18:19:36","新北市中和區中正路192號","121.497658333333","24.99384","6500300","中和區"
"235052","805-TS","2019/09/16 18:19:36","新北市中和區興南路二段96號","121.505163333333","24.984195","6500300","中和區"
"235048","896-TW","2019/09/16 18:19:39","新北市中和區錦和路350-1號","121.490081666667","24.9935483333333","6500300","中和區"
"235053","900-TW","2019/09/16 18:19:33","新北市中和區中正路637巷52弄1號","121.485398333333","24.99351","6500300","中和區"
"235064","911-UM","2019/09/16 18:19:34","新北市中和區圓通路141巷17號","121.498933333333","24.995305","6500300","中和區"
"235051","157-BY","2019/09/16 18:19:40","新北市中和區忠孝街104號","121.512155","24.9847616666667","6500300","中和區"
"235037","AAC-213","2019/09/16 18:19:28","","121.515573333333","24.9912616666667","6500300","中和區"
"235059","AAC-215","2019/09/16 18:19:33","新北市中和區員山路36巷16-3號","121.485108333333","24.9913616666667","6500300","中和區"
"220069","AAD-861","2019/09/16 18:19:29","新北市板橋區華東街1-10號","121.448358333333","24.9950733333333","6500100","板橋區"
"226004","312-R5","2019/09/16 18:19:23","新北市平溪區薯榔里薯榔寮32-3號","121.710876666667","25.0195833333333","6502400","平溪區"
"228003","097-TW","2019/09/16 18:19:38","新北市貢寮區真理里美艷山街63號","121.92077","25.072085","6502600","貢寮區"
"228002","663-BX","2019/09/16 18:19:34","新北市貢寮區福連里馬崗街2-2號","122.000958333333","25.0143416666667","6502600","貢寮區"
"228001","670-TC","2019/09/16 18:19:44","新北市貢寮區真理里新港街26巷55弄2-1號","121.927361666667","25.052885","6502600","貢寮區"
"224010","AGQ-8101","2019/09/16 18:19:03","新北市瑞芳區崙頂路17號","121.845785","25.1064183333333","6501200","瑞芳區"
"224006","676-BX","2019/09/16 18:19:25","新北市瑞芳區三爪子坑路106巷112號","121.808576666667","25.1043666666667","6501200","瑞芳區"
"224002","639-TC","2019/09/16 18:19:40","新北市瑞芳區三爪子坑路30號","121.810501666667","25.10627","6501200","瑞芳區"
"224007","285-BY","2019/09/16 18:19:36","新北市瑞芳區大埔路61號","121.764373333333","25.1019183333333","6501200","瑞芳區"
"224009","275-VK","2019/09/16 18:19:44","新北市瑞芳區新山路43號","121.855966666667","25.108335","6501200","瑞芳區"
"224008","273-VK","2019/09/16 18:19:40","新北市瑞芳區民權街5號","121.808481666667","25.1083066666667","6501200","瑞芳區"
"224005","271-BY","2019/09/16 18:19:28","新北市瑞芳區建基路二段110-1號","121.812228333333","25.13249","6501200","瑞芳區"
"227001","642-TC","2019/09/16 18:19:41","新北市雙溪區牡丹里牡丹73號","121.851708333333","25.0593433333333","6502500","雙溪區"
"227002","400-TW","2019/09/16 18:19:37","新北市雙溪區共和里中山路2號","121.863803333333","25.0337883333333","6502500","雙溪區"
"253005","032-BX","2019/09/16 18:19:37","新北市石門區中央路35號","121.56828","25.29428","6502200","石門區"
"253006","295-VK","2019/09/16 18:19:27","新北市石門區老梅路89號","121.546548333333","25.2892266666667","6502200","石門區"
"222001","KEA-2212","2019/09/16 18:19:36","新北市深坑區北深路二段66號","121.61902","25.004155","6501800","深坑區"
"208002","KEA-2872","2019/09/16 18:19:41","新北市金山區清泉里清水路60巷20號","121.635258333333","25.2332283333333","6502700","金山區"
"208003","665-BX","2019/09/16 18:19:29","新北市金山區民生路126號","121.647575","25.223695","6502700","金山區"
"251004","009-UM","2019/09/16 18:19:37","新北市淡水區民族路146號","121.462721666667","25.134095","6501000","淡水區"
"251015","KEA-2871","2019/09/16 18:19:28","新北市淡水區興福寮88巷85號","121.484538333333","25.1656066666667","6501000","淡水區"
"251016","179-VK","2019/09/16 18:19:27","新北市淡水區淡金路三段228巷24號","121.449746666667","25.2049416666667","6501000","淡水區"
"251008","181-VK","2019/09/16 18:19:40","新北市淡水區坪頂路70巷41號","121.460661666667","25.16039","6501000","淡水區"
"251013","182-VK","2019/09/16 18:19:38","新北市淡水區行忠路590號","121.468011666667","25.1992616666667","6501000","淡水區"
"251010","413-VK","2019/09/16 18:19:26","新北市淡水區淡海路218號","121.420245","25.1857166666667","6501000","淡水區"
"251012","441-VK","2019/09/16 18:19:30","新北市淡水區北新路二段79-7號","121.481001666667","25.185505","6501000","淡水區"
"251005","443-VK","2019/09/16 18:19:34","新北市淡水區水源街一段122巷37號","121.447133333333","25.1705133333333","6501000","淡水區"
"251001","559-UM","2019/09/16 18:19:30","新北市淡水區自強路110-6號","121.46166","25.1313983333333","6501000","淡水區"
"251006","561-UM","2019/09/16 18:19:30","新北市淡水區新民街76巷36弄1號","121.43949","25.17801","6501000","淡水區"
"251014","577-R6","2019/09/16 18:19:32","新北市淡水區南平18號","121.491751666667","25.2192816666667","6501000","淡水區"
"251011","650-BX","2019/09/16 18:19:24","新北市淡水區三空泉9-1號","121.474523333333","25.163035","6501000","淡水區"
"251002","672-BX","2019/09/16 18:19:28","新北市淡水區中正東路一段125號","121.455201666667","25.159455","6501000","淡水區"
"251003","673-BX","2019/09/16 18:19:25","新北市淡水區北新路184巷3-1號","121.44942","25.17841","6501000","淡水區"
"207003","550-UM","2019/09/16 18:19:26","新北市萬里區野柳里港西路75號","121.685731666667","25.2051","6502800","萬里區"
"207004","291-VK","2019/09/16 18:19:40","新北市萬里區中幅里中福路202-1號","121.67323","25.1651783333333","6502800","萬里區"
"252003","249-BX","2019/09/16 18:19:33","新北市三芝區錫板里南勢崗2號","121.481096666667","25.263425","6502100","三芝區"
"208001","170-UY","2019/09/16 18:19:35","新北市金山區中山路69號","121.641151666667","25.217665","6502700","金山區"
"237004","KEA-2597","2019/09/16 18:19:32","新北市三峽區五寮6號","121.376393333333","24.87201","6500900","三峽區"
"237007","153-BY","2019/09/16 18:19:30","新北市三峽區中正路二段514號","121.36084","24.9065533333333","6500900","三峽區"
"237009","210-TH","2019/09/16 18:19:35","新北市三峽區中山路106巷18-7號","121.366181666667","24.9369816666667","6500900","三峽區"
"237013","252-BX","2019/09/16 18:19:41","新北市三峽區永安街3號","121.377996666667","24.9299916666667","6500900","三峽區"
"237012","275-BY","2019/09/16 18:19:32","新北市三峽區民生街1巷5-15號","121.37878","24.9360866666667","6500900","三峽區"
"237008","302-VK","2019/09/16 18:19:25","新北市三峽區白雞68-331號","121.39158","24.90964","6500900","三峽區"
"237014","433-BY","2019/09/16 18:19:23","新北市三峽區復興路80巷16號","121.3736","24.937695","6500900","三峽區"
"237006","5529-G3","2019/09/16 18:19:42","新北市三峽區溪東路218巷5弄1號","121.40736","24.9312416666667","6500900","三峽區"
"237011","KEA-2596","2019/09/16 18:19:38","新北市三峽區溪東路218巷2-2號","121.407453333333","24.9318066666667","6500900","三峽區"
"237015","649-BX","2019/09/16 18:19:39","新北市三峽區紫新路21號","121.423231666667","24.9207583333333","6500900","三峽區"
"237010","706-TV","2019/09/16 18:19:32","新北市三峽區民族街158號","121.36894","24.928155","6500900","三峽區"
"237005","AKY-6261","2019/09/16 18:19:38","新北市三峽區秀川街26巷3號","121.371536666667","24.9343066666667","6500900","三峽區"
"236042","KED-0685","2019/09/16 18:19:43","新北市土城區裕生路21巷2弄32號","121.447911666667","24.9861166666667","6501300","土城區"
"233002","762-BX","2019/09/16 18:19:41","","121.548533333333","24.88384","6502900","烏來區"
"236030","253-BX","2019/09/16 18:19:36","新北市土城區順風路30號","121.440118333333","24.977125","6501300","土城區"
"236026","269-VK","2019/09/16 18:19:37","新北市土城區承天路67號","121.43941","24.9636983333333","6501300","土城區"
"236014","270-VK","2019/09/16 18:19:25","新北市土城區青雲路39巷7號","121.460281666667","24.987415","6501300","土城區"
"236039","271-VK","2019/09/16 18:19:32","新北市土城區青雲路483巷9號","121.459351666667","24.9736133333333","6501300","土城區"
"236069","KEA-2877","2019/09/16 18:19:35","新北市土城區永豐路202巷14號","121.466425","24.9835166666667","6501300","土城區"
"252001","KED-0821","2019/09/16 18:19:41","新北市三芝區中興街二段2號","121.49832","25.2566616666667","6502100","三芝區"
"236020","401-BY","2019/09/16 18:19:39","新北市土城區明德路一段375-3號","121.45452","24.9783333333333","6501300","土城區"
"236059","912-UM","2019/09/16 18:19:24","新北市土城區中央路四段424-1號","121.411073333333","24.9519916666667","6501300","土城區"
"236048","913-UM","2019/09/16 18:19:39","新北市土城區明德路一段369號","121.455856666667","24.9778266666667","6501300","土城區"
"236063","915-UM","2019/09/16 18:19:38","新北市土城區金城路三段182-3號","121.468145","24.9877783333333","6501300","土城區"
"236055","AAC-216","2019/09/16 18:19:40","新北市土城區中華路二段120號","121.437831666667","24.9738666666667","6501300","土城區"
"242042","AAC-296","2019/09/16 18:19:32","新北市新莊區天祥街135巷11號","121.413741666667","25.0293816666667","6500500","新莊區"
"242060","986-R7","2019/09/16 18:19:30","新北市新莊區新樹路207-7號","121.435863333333","25.0239366666667","6500500","新莊區"
"242004","751-BX","2019/09/16 18:19:39","新北市新莊區新泰路368號","121.444616666667","25.0427383333333","6500500","新莊區"
"242027","613-BX","2019/09/16 18:19:40","新北市新莊區幸福路732號","121.448845","25.04918","6500500","新莊區"
"242058","612-BX","2019/09/16 18:19:25","新北市新莊區新北大道七段650號","121.412068333333","25.0279666666667","6500500","新莊區"
"242053","497-BY","2019/09/16 18:19:29","新北市新莊區民安西路412-3號","121.428803333333","25.0097616666667","6500500","新莊區"
"242050","442-UM","2019/09/16 18:19:41","新北市新莊區民安西路69號","121.42729","25.0199716666667","6500500","新莊區"
"242002","441-UM","2019/09/16 18:19:39","新北市新莊區新莊路161號","121.456308333333","25.0360283333333","6500500","新莊區"
"242007","440-UM","2019/09/16 18:19:40","新北市新莊區自治街35號","121.454096666667","25.0479733333333","6500500","新莊區"
"242044","415-TV","2019/09/16 18:19:31","新北市新莊區中正路726-11號","121.415378333333","25.0238983333333","6500500","新莊區"
"242025","362-BY","2019/09/16 18:19:37","新北市新莊區五工三路94巷30號","121.459155","25.0664466666667","6500500","新莊區"
"242015","132-UY","2019/09/16 18:19:33","新北市新莊區中和街118號","121.447541666667","25.0477033333333","6500500","新莊區"
"242039","135-UY","2019/09/16 18:19:32","新北市新莊區新樹路206巷3號","121.433501666667","25.0203766666667","6500500","新莊區"
"242056","172-VK","2019/09/16 18:19:24","新北市新莊區環漢路三段1號","121.442596666667","25.0244066666667","6500500","新莊區"
"242031","175-VK","2019/09/16 18:19:33","新北市新莊區新泰路255巷21號","121.445241666667","25.0396116666667","6500500","新莊區"
"242021","KED-0687","2019/09/16 18:19:28","新北市新莊區中正路170號","121.45077","25.0360383333333","6500500","新莊區"
"242009","346-TH","2019/09/16 18:19:40","新北市新莊區幸福路600號","121.453096666667","25.049345","6500500","新莊區"
"242034","350-TH","2019/09/16 18:19:33","新北市新莊區景德路249號","121.448491666667","25.0336416666667","6500500","新莊區"
"238015","755-BX","2019/09/16 18:19:43","新北市樹林區大安路323巷10弄15號","121.417131666667","24.9908683333333","6500700","樹林區"
"238023","601-UM","2019/09/16 18:19:29","新北市樹林區中正路815號","121.409413333333","25.0170466666667","6500700","樹林區"
"238019","599-UM","2019/09/16 18:19:39","新北市樹林區國凱街162號","121.42453","24.9806833333333","6500700","樹林區"
"238018","KEA-2217","2019/09/16 18:19:39","新北市樹林區保安街一段20巷6號","121.427658333333","24.9936183333333","6500700","樹林區"
"238025","303-VK","2019/09/16 18:19:29","新北市樹林區保安街一段332號","121.41805","24.9978933333333","6500700","樹林區"
"238017","283-BY","2019/09/16 18:19:24","新北市樹林區中正路713號","121.411295","25.014295","6500700","樹林區"
"238020","268-VK","2019/09/16 18:19:26","新北市樹林區三俊街72-1號","121.413443333333","25.0156933333333","6500700","樹林區"
"238026","172-UY","2019/09/16 18:19:42","新北市樹林區佳園路一段82-1號","121.393353333333","24.9695466666667","6500700","樹林區"
"238016","169-UY","2019/09/16 18:19:25","新北市樹林區中山路一段412號","121.417383333333","24.9851766666667","6500700","樹林區"
"239007","AAC-297","2019/09/16 18:19:36","新北市鶯歌區尖山埔路163號","121.3461","24.9506816666667","6500800","鶯歌區"
"239006","891-R6","2019/09/16 18:19:38","新北市鶯歌區鶯桃路381巷2弄17號","121.332861666667","24.963915","6500800","鶯歌區"
"239008","527-UM","2019/09/16 18:19:38","新北市鶯歌區朝陽街48巷2號","121.337538333333","24.9778333333333","6500800","鶯歌區"
"239001","417-VK","2019/09/16 18:19:33","新北市鶯歌區中正三路234-4號","121.330628333333","24.93703","6500800","鶯歌區"
"239003","360-BY","2019/09/16 18:19:37","新北市鶯歌區福安街28號","121.334403333333","24.964155","6500800","鶯歌區"
"239002","359-BY","2019/09/16 18:19:37","新北市鶯歌區育才街24號","121.348968333333","24.9550366666667","6500800","鶯歌區"
"221036","130-UY","2019/09/16 18:19:27","新北市汐止區大同路三段193號","121.671146666667","25.0773233333333","6501100","汐止區"
"221015","131-UY","2019/09/16 18:19:36","新北市汐止區長江街353號","121.66763","25.0821516666667","6501100","汐止區"
"244019","KED-0667","2019/09/16 18:19:39","新北市林口區忠孝路616巷15號","121.37722","25.067635","6501700","林口區"
"221010","269-BY","2019/09/16 18:19:35","新北市汐止區祥雲街12號","121.646151666667","25.089845","6501100","汐止區"
"221012","278-VK","2019/09/16 18:19:25","新北市汐止區保一街81-1號","121.674595","25.08025","6501100","汐止區"
"221023","279-VK","2019/09/16 18:19:28","新北市汐止區中興路201號","121.629216666667","25.0684316666667","6501100","汐止區"
"221032","280-BY","2019/09/16 18:19:31","新北市汐止區力行街39巷1號","121.616666666667","25.0500566666667","6501100","汐止區"
"221029","298-VK","2019/09/16 18:19:40","新北市汐止區樟樹二路330巷76號","121.642998333333","25.07004","6501100","汐止區"
"221021","299-VK","2019/09/16 18:19:37","新北市汐止區復興路11號","121.655813333333","25.064705","6501100","汐止區"
"221031","353-TW","2019/09/16 18:19:23","新北市汐止區中興路202號","121.63133","25.065995","6501100","汐止區"
"221035","622-UM","2019/09/16 18:19:29","新北市汐止區汐萬路一段114號","121.653966666667","25.071265","6501100","汐止區"
"221025","623-UM","2019/09/16 18:19:28","新北市汐止區勤進路12巷29號","121.65923","25.0623916666667","6501100","汐止區"
"221038","646-BX","2019/09/16 18:19:36","新北市汐止區仁愛路200巷2號","121.664955","25.06564","6501100","汐止區"
"221033","647-BX","2019/09/16 18:19:35","新北市汐止區宜興街40巷1號","121.622053333333","25.0420216666667","6501100","汐止區"
"221002","707-TV","2019/09/16 18:19:33","新北市汐止區福德一路201巷27號","121.635863333333","25.0647016666667","6501100","汐止區"
"221018","753-BX","2019/09/16 18:19:43","新北市汐止區茄苳路88巷6弄1號","121.666708333333","25.070035","6501100","汐止區"
"242046","281-VK","2019/09/16 18:19:35","新北市新莊區中正路829巷22弄1號","121.421588333333","25.02711","6500500","新莊區"
"242011","280-VK","2019/09/16 18:19:34","新北市新莊區中港路550號","121.451491666667","25.0526583333333","6500500","新莊區"
"235068","KEA-2873","2019/09/16 18:19:33","新北市中和區錦和路350-1號","121.490278333333","24.9935583333333","6500300","中和區"
"235061","KEA-2875","2019/09/16 18:19:33","新北市中和區民享街98號","121.474803333333","24.999655","6500300","中和區"
"235062","KEA-2876","2019/09/16 18:19:38","新北市中和區景平路741號","121.496346666667","25.0044883333333","6500300","中和區"
