"lineid","car","time","location","longitude","latitude","cityid","cityname"
"234046","148-BY","2019/09/16 19:19:30","新北市永和區得和路373巷17號","121.524856666667","25.000015","6500400","永和區"
"234081","298-R6","2019/09/16 19:19:27","新北市永和區福和路57巷14弄4號","121.522768333333","25.0071683333333","6500400","永和區"
"234064","337-UY","2019/09/16 19:19:27","新北市永和區得和路243巷28弄21號","121.521435","25.0011233333333","6500400","永和區"
"234086","338-UY","2019/09/16 19:19:37","新北市永和區永利路4巷2號","121.51743","25.005395","6500400","永和區"
"234070","552-UM","2019/09/16 19:19:31","新北市永和區豫溪街55號","121.517203333333","25.0099116666667","6500400","永和區"
"234038","553-UM","2019/09/16 19:19:37","新北市永和區民樂街59巷9號","121.528106666667","24.9982916666667","6500400","永和區"
"234017","745-BX","2019/09/16 19:19:32","新北市永和區文化路144巷27號","121.512485","25.0167533333333","6500400","永和區"
"234030","746-BX","2019/09/16 19:19:29","新北市永和區四維街40號","121.525366666667","24.9981483333333","6500400","永和區"
"234054","KEA-2590","2019/09/16 19:19:36","新北市永和區中興街45號","121.516445","25.011775","6500400","永和區"
"234007","KED-0605","2019/09/16 19:19:25","新北市永和區中山路一段232號","121.5078","25.008125","6500400","永和區"
"234013","KEA-2591","2019/09/16 19:19:36","新北市永和區仁愛路114號","121.511816666667","25.0131883333333","6500400","永和區"
"234061","AAD-866","2019/09/16 19:19:29","新北市永和區秀朗路一段175號","121.517056666667","25.00368","6500400","永和區"
"234042","862-TW","2019/09/16 19:19:39","新北市永和區保平路151巷6弄1號","121.510255","25.00537","6500400","永和區"
"234050","863-TW","2019/09/16 19:19:26","新北市永和區仁愛路104巷10號","121.51213","25.0137233333333","6500400","永和區"
"234026","9371-KE","2019/09/16 19:19:29","新北市永和區安樂路144巷31號","121.515323333333","24.9997366666667","6500400","永和區"
"234011","9373-KE","2019/09/16 19:19:34","新北市永和區保福路二段23巷21號","121.510043333333","25.0112116666667","6500400","永和區"
"249001","173-UM","2019/09/16 19:19:31","新北市八里區中華路二段145號","121.409048333333","25.1524466666667","6502300","八里區"
"249003","593-UM","2019/09/16 19:19:42","新北市八里區中山路二段462號","121.398956666667","25.1472683333333","6502300","八里區"
"248014","025-BX","2019/09/16 19:19:26","新北市五股區民義路一段185-19號","121.431235","25.0874516666667","6501500","五股區"
"248008","KED-0815","2019/09/16 19:19:42","新北市五股區中興路二段83巷26-6號","121.460088333333","25.0753016666667","6501500","五股區"
"248018","KED-0813","2019/09/16 19:19:33","","121.429636666667","25.0899333333333","6501500","五股區"
"248012","247-BX","2019/09/16 19:19:39","新北市五股區中興路四段48巷16號","121.43864","25.0834383333333","6501500","五股區"
"248004","677-BX","2019/09/16 19:19:36","新北市五股區五福路125-1號","121.43197","25.0912566666667","6501500","五股區"
"248002","678-BX","2019/09/16 19:19:24","新北市五股區凌雲路一段158巷6號","121.447805","25.1029616666667","6501500","五股區"
"234023","9380-KE","2019/09/16 19:19:26","新北市永和區竹林路109巷3號","121.520116666667","25.0119316666667","6500400","永和區"
"234077","969-R7","2019/09/16 19:19:40","新北市永和區民權路12號","121.520106666667","24.9995433333333","6500400","永和區"
"234074","AAC-211","2019/09/16 19:19:32","新北市永和區竹林路106號","121.519633333333","25.0118416666667","6500400","永和區"
"234067","AAC-212","2019/09/16 19:19:26","新北市永和區保平路52號","121.511338333333","25.00707","6500400","永和區"
"234003","AAC-295","2019/09/16 19:19:30","","121.51104","25.010515","6500400","永和區"
"244023","483-VK","2019/09/16 19:19:41","新北市林口區文林六街13巷18號","121.370341666667","25.0806733333333","6501700","林口區"
"244025","837-TS","2019/09/16 19:19:40","新北市林口區民族路216巷13號","121.369451666667","25.0772583333333","6501700","林口區"
"243012","AAD-798","2019/09/16 19:19:34","新北市泰山區同義街22號","121.431575","25.0563183333333","6501600","泰山區"
"243010","297-R6","2019/09/16 19:19:24","新北市泰山區明志路一段492巷2號","121.430193333333","25.0547266666667","6501600","泰山區"
"243014","KEA-2801","2019/09/16 19:19:33","新北市泰山區泰林路二段155號","121.433863333333","25.06034","6501600","泰山區"
"243016","421-VK","2019/09/16 19:19:38","新北市泰山區工專路10號","121.42395","25.0396583333333","6501600","泰山區"
"243009","KEA-2215","2019/09/16 19:19:39","新北市泰山區明志路一段93號","121.433521666667","25.0641133333333","6501600","泰山區"
"243011","KEA-2216","2019/09/16 19:19:27","新北市泰山區中央路9巷1號","121.426408333333","25.0430766666667","6501600","泰山區"
"243013","646-TV","2019/09/16 19:19:33","新北市泰山區明志路三段145巷2弄13號","121.425128333333","25.0395033333333","6501600","泰山區"
"243015","680-BX","2019/09/16 19:19:35","新北市泰山區公園路65號","121.427326666667","25.0550683333333","6501600","泰山區"
"222003","436-BY","2019/09/16 19:19:28","新北市深坑區深南路91號","121.626523333333","25.0160133333333","6501800","深坑區"
"222002","659-BX","2019/09/16 19:19:33","新北市深坑區紅葉街10巷2號","121.63301","25.0117883333333","6501800","深坑區"
"231061","002-UM","2019/09/16 19:19:38","新北市新店區安康路一段46巷4號","121.530663333333","24.9611233333333","6500600","新店區"
"231055","0291-UT","2019/09/16 19:19:28","新北市新店區安德街60巷5號","121.510048333333","24.9630116666667","6500600","新店區"
"231044","046-UY","2019/09/16 19:19:39","新北市新店區寶元路一段61號","121.542056666667","24.985935","6500600","新店區"
"231060","106-UY","2019/09/16 19:19:26","新北市新店區安康路二段140號","121.51241","24.96177","6500600","新店區"
"231049","108-UY","2019/09/16 19:19:44","新北市新店區明德路64號","121.541578333333","24.9794033333333","6500600","新店區"
"231065","110-UY","2019/09/16 19:19:39","新北市新店區安祥路109巷3弄2號","121.475518333333","24.9592516666667","6500600","新店區"
"231062","256-BX","2019/09/16 19:19:33","新北市新店區莒光路38巷10號","121.522791666667","24.95878","6500600","新店區"
"231054","260-TV","2019/09/16 19:19:42","新北市新店區文中路16號","121.537973333333","24.9569616666667","6500600","新店區"
"231042","268-BY","2019/09/16 19:19:29","新北市新店區北宜路一段3號","121.538443333333","24.9585533333333","6500600","新店區"
"231064","278-BY","2019/09/16 19:19:30","新北市新店區安忠路57巷26弄8號","121.51279","24.95857","6500600","新店區"
"231050","AAD-862","2019/09/16 19:19:38","新北市新店區竹林路25巷10號","121.552311666667","24.951385","6500600","新店區"
"231045","355-BY","2019/09/16 19:19:22","新北市新店區北宜路一段260號","121.545691666667","24.952765","6500600","新店區"
"231058","3713-VJ","2019/09/16 19:19:21","新北市新店區光明街286巷6-2號","121.540696666667","24.9636266666667","6500600","新店區"
"231056","4715-K9","2019/09/16 19:19:22","新北市新店區安德街148巷37號","121.507283333333","24.9613133333333","6500600","新店區"
"231051","512-UM","2019/09/16 19:19:29","新北市新店區中央路192號","121.530793333333","24.97465","6500600","新店區"
"231052","513-UM","2019/09/16 19:19:42","新北市新店區自強路251號","121.548105","24.9190433333333","6500600","新店區"
"231041","618-UM","2019/09/16 19:19:38","新北市新店區溪園路205號","121.527153333333","24.9846866666667","6500600","新店區"
"231063","641-BX","2019/09/16 19:19:30","新北市新店區達觀路14巷1-3號","121.504101666667","24.9424383333333","6500600","新店區"
"231047","KED-0819","2019/09/16 19:19:31","新北市新店區中興路二段57巷1號","121.546226666667","24.9705216666667","6500600","新店區"
"231046","719-UM","2019/09/16 19:19:25","新北市新店區華城路12-1號","121.529226666667","24.957855","6500600","新店區"
"231057","720-UM","2019/09/16 19:19:30","新北市新店區百齡一路12號","121.553015","24.9324466666667","6500600","新店區"
"231059","897-TW","2019/09/16 19:19:40","新北市新店區安和路二段207號","121.517798333333","24.9754366666667","6500600","新店區"
"231040","898-TW","2019/09/16 19:19:36","新北市新店區三民路111號","121.53509","24.9721383333333","6500600","新店區"
"231043","899-TW","2019/09/16 19:19:41","新北市新店區北新路二段99號","121.542915","24.97437","6500600","新店區"
"231066","AKT-0513","2019/09/16 19:19:43","新北市新店區安祥路35-2號","121.490703333333","24.9567866666667","6500600","新店區"
"241011","013-R5","2019/09/16 19:19:39","新北市三重區介壽路39巷175號","121.502285","25.0706166666667","6500200","三重區"
"241028","022-UY","2019/09/16 19:19:35","新北市三重區中正北路23號","121.492135","25.0613316666667","6500200","三重區"
"241031","061-VK","2019/09/16 19:19:23","新北市三重區重新路四段101-3號","121.485636666667","25.054245","6500200","三重區"
"241017","063-VK","2019/09/16 19:19:33","新北市三重區大同北路213-4號","121.491723333333","25.0658816666667","6500200","三重區"
"241007","066-VK","2019/09/16 19:19:30","新北市三重區慈愛街56號","121.486628333333","25.0793366666667","6500200","三重區"
"241006","262-UM","2019/09/16 19:19:36","新北市三重區車路頭街164號","121.483676666667","25.0767466666667","6500200","三重區"
"241009","267-UM","2019/09/16 19:19:29","新北市三重區溪尾街218巷37-7號","121.486388333333","25.0812333333333","6500200","三重區"
"241032","269-UM","2019/09/16 19:19:43","新北市三重區新生街85號","121.484048333333","25.0594666666667","6500200","三重區"
"241025","271-UM","2019/09/16 19:19:32","新北市三重區中正北路406號","121.475388333333","25.0704933333333","6500200","三重區"
"241030","KED-0822","2019/09/16 19:19:42","新北市三重區成功路41巷70號","121.491236666667","25.0531316666667","6500200","三重區"
"241035","462-BY","2019/09/16 19:19:31","新北市三重區信義西街138號","121.495476666667","25.0643583333333","6500200","三重區"
"241020","478-VK","2019/09/16 19:19:39","新北市三重區大智街161號","121.489765","25.0722316666667","6500200","三重區"
"241026","480-VK","2019/09/16 19:19:40","新北市三重區正義南路103號","121.49856","25.059115","6500200","三重區"
"241022","KED-0820","2019/09/16 19:19:34","新北市三重區重陽路二段50號","121.487166666667","25.0633866666667","6500200","三重區"
"241029","942-UM","2019/09/16 19:19:35","新北市三重區重安街15-1號","121.490431666667","25.0577866666667","6500200","三重區"
"235066","003-UY","2019/09/16 19:19:29","新北市中和區景新街2號","121.502648333333","24.9996266666667","6500300","中和區"
"235063","006-UY","2019/09/16 19:19:34","新北市中和區連城路249巷30弄1號","121.494785","24.9945883333333","6500300","中和區"
"235056","096-UM","2019/09/16 19:19:28","新北市中和區中山路三段102號","121.476865","25.0060516666667","6500300","中和區"
"235039","097-UM","2019/09/16 19:19:35","新北市中和區秀峰街119巷6弄2號","121.519713333333","24.9900683333333","6500300","中和區"
"235065","098-UM","2019/09/16 19:19:39","新北市中和區中山路二段64巷12弄16號","121.504078333333","25.00547","6500300","中和區"
"235040","150-BY","2019/09/16 19:19:31","新北市中和區保健路50巷1-2號","121.510365","24.99686","6500300","中和區"
"235058","151-BY","2019/09/16 19:19:26","新北市中和區員山路36巷16-2號","121.485166666667","24.9916433333333","6500300","中和區"
"235038","185-VK","2019/09/16 19:19:33","新北市中和區大仁街20巷57號","121.519783333333","24.9933366666667","6500300","中和區"
"235049","186-VK","2019/09/16 19:19:40","新北市中和區景新街271-1號","121.509228333333","24.9937383333333","6500300","中和區"
"235067","255-BX","2019/09/16 19:19:37","新北市中和區中正路673號","121.485188333333","24.996755","6500300","中和區"
"235044","293-VK","2019/09/16 19:19:41","新北市中和區復興路302號","121.501388333333","24.9903433333333","6500300","中和區"
"235072","301-VK","2019/09/16 19:19:25","新北市中和區連城路265巷1號","121.491415","24.996285","6500300","中和區"
"235043","352-BY","2019/09/16 19:19:40","新北市中和區景平路476號","121.505311666667","24.9936166666667","6500300","中和區"
"235042","KEA-2878","2019/09/16 19:19:41","新北市中和區中安街192號","121.511316666667","24.999245","6500300","中和區"
"235050","4979-A6","2019/09/16 19:19:44","新北市中和區景安路208巷44號","121.502348333333","24.99219","6500300","中和區"
"235069","4980-A6","2019/09/16 19:19:36","新北市中和區莊敬路33巷8號","121.500386666667","25.0051466666667","6500300","中和區"
"235070","558-UM","2019/09/16 19:19:35","新北市中和區中和路119號","121.501501666667","25.0001683333333","6500300","中和區"
"235045","565-BX","2019/09/16 19:19:40","新北市中和區景新街383巷36號","121.513735","24.9907066666667","6500300","中和區"
"235054","640-BX","2019/09/16 19:19:37","新北市中和區國光街112巷22弄4號","121.469976666667","25.00232","6500300","中和區"
"235060","647-TV","2019/09/16 19:19:26","新北市中和區新生街118巷14號","121.482956666667","25.00186","6500300","中和區"
"235047","732-UM","2019/09/16 19:19:28","新北市中和區景平路239巷59弄19號","121.508908333333","24.9917183333333","6500300","中和區"
"235046","733-UM","2019/09/16 19:19:45","新北市中和區忠孝街20巷7號","121.51068","24.9825683333333","6500300","中和區"
"235071","783-BX","2019/09/16 19:19:31","新北市中和區連城路469巷70弄2號","121.483408333333","24.9938533333333","6500300","中和區"
"235057","801-TS","2019/09/16 19:19:41","新北市中和區中山路三段37巷37號","121.479686666667","25.004835","6500300","中和區"
"235041","802-TS","2019/09/16 19:19:36","新北市中和區中和路324巷3弄1號","121.509863333333","25.0009083333333","6500300","中和區"
"235052","805-TS","2019/09/16 19:19:35","新北市中和區興南路二段159巷18號","121.505265","24.9830433333333","6500300","中和區"
"235048","896-TW","2019/09/16 19:19:39","新北市中和區景新街436號","121.513126666667","24.988445","6500300","中和區"
"235053","900-TW","2019/09/16 19:19:33","新北市中和區華安街17巷7號","121.46677","24.9982433333333","6500300","中和區"
"235064","911-UM","2019/09/16 19:19:34","新北市中和區景新街132巷23號","121.504475","24.9974283333333","6500300","中和區"
"235051","157-BY","2019/09/16 19:19:40","新北市中和區和平街54巷16弄10號","121.509516666667","24.9917483333333","6500300","中和區"
"235037","AAC-213","2019/09/16 19:19:28","","121.524916666667","24.9966233333333","6500300","中和區"
"235059","AAC-215","2019/09/16 19:19:33","新北市中和區圓通路286巷20號","121.491811666667","24.99152","6500300","中和區"
"220065","072-UY","2019/09/16 19:19:28","新北市板橋區民族路129巷12弄3號","121.467998333333","25.0084","6500100","板橋區"
"220086","073-UY","2019/09/16 19:19:28","新北市板橋區中正路216巷131號","121.46052","25.0199333333333","6500100","板橋區"
"220106","075-UY","2019/09/16 19:19:28","新北市板橋區文化路二段417巷5號","121.47369","25.033685","6500100","板橋區"
"220069","AAD-861","2019/09/16 19:19:29","新北市板橋區稚暉街46巷1號","121.45638","25.0042766666667","6500100","板橋區"
"226004","312-R5","2019/09/16 19:19:42","新北市平溪區南山里南山坪58號","121.775891666667","25.039995","6502400","平溪區"
"228003","097-TW","2019/09/16 19:19:38","新北市貢寮區和美里和美街22-1號","121.912806666667","25.0826266666667","6502600","貢寮區"
"228002","663-BX","2019/09/16 19:19:34","新北市貢寮區龍門里復興街14號","121.926613333333","25.02625","6502600","貢寮區"
"228001","670-TC","2019/09/16 19:19:24","新北市貢寮區真理里新港街10號","121.925498333333","25.0543066666667","6502600","貢寮區"
"224008","273-VK","2019/09/16 19:19:40","新北市瑞芳區明燈路三段285號","121.798471666667","25.1122183333333","6501200","瑞芳區"
"227001","642-TC","2019/09/16 19:19:40","新北市雙溪區新基里新基北街40號","121.868543333333","25.0380483333333","6502500","雙溪區"
"227002","400-TW","2019/09/16 19:19:37","新北市雙溪區平林里梅竹蹊45號","121.859735","25.0357033333333","6502500","雙溪區"
"253005","032-BX","2019/09/16 19:19:37","新北市石門區阿里荖6-2號","121.609925","25.2798316666667","6502200","石門區"
"253006","295-VK","2019/09/16 19:19:27","新北市石門區崁子腳25-2號","121.535043333333","25.2908383333333","6502200","石門區"
"222001","KEA-2212","2019/09/16 19:19:36","新北市深坑區北深路二段97號","121.617653333333","25.0033783333333","6501800","深坑區"
"208002","KEA-2872","2019/09/16 19:19:41","新北市金山區中華路140號","121.633086666667","25.2211466666667","6502700","金山區"
"208003","665-BX","2019/09/16 19:19:29","新北市金山區中山路118-1號","121.639205","25.219985","6502700","金山區"
"251009","008-UM","2019/09/16 19:19:40","新北市淡水區清水街155號","121.44016","25.1718316666667","6501000","淡水區"
"251015","KEA-2871","2019/09/16 19:19:28","新北市淡水區山子邊16巷5號","121.485861666667","25.1826783333333","6501000","淡水區"
"251016","179-VK","2019/09/16 19:19:27","新北市淡水區淡金路三段350巷18號","121.450748333333","25.20833","6501000","淡水區"
"251008","181-VK","2019/09/16 19:19:40","新北市淡水區中正路二段397號","121.425545","25.1910966666667","6501000","淡水區"
"251013","182-VK","2019/09/16 19:19:37","新北市淡水區安子內12-1號","121.481508333333","25.2191116666667","6501000","淡水區"
"251010","413-VK","2019/09/16 19:19:26","新北市淡水區沙崙路131巷13弄18號","121.422391666667","25.1835383333333","6501000","淡水區"
"251007","442-VK","2019/09/16 19:19:28","新北市淡水區民生路145巷46號","121.466931666667","25.138945","6501000","淡水區"
"251005","443-VK","2019/09/16 19:19:34","新北市淡水區水源街一段34巷1號","121.443221666667","25.17225","6501000","淡水區"
"251001","559-UM","2019/09/16 19:19:30","新北市淡水區民權路92巷35-1號","121.461936666667","25.126795","6501000","淡水區"
"251014","577-R6","2019/09/16 19:19:31","新北市淡水區小中寮19-7號","121.484741666667","25.2296","6501000","淡水區"
"251002","672-BX","2019/09/16 19:19:28","新北市淡水區中山路137-1號","121.440935","25.1715166666667","6501000","淡水區"
"251003","673-BX","2019/09/16 19:19:44","新北市淡水區中山北路一段71號","121.442075","25.17593","6501000","淡水區"
"207003","550-UM","2019/09/16 19:19:34","新北市萬里區大鵬里萬里加投29-2號","121.646926666667","25.20834","6502800","萬里區"
"207004","291-VK","2019/09/16 19:19:29","新北市萬里區萬里里成功新村63號","121.688258333333","25.1745616666667","6502800","萬里區"
"252002","178-VK","2019/09/16 19:19:33","新北市三芝區淡金路二段18-1號","121.502688333333","25.2595366666667","6502100","三芝區"
"208001","170-UY","2019/09/16 19:19:35","新北市金山區民生路69號","121.640118333333","25.2196916666667","6502700","金山區"
"237004","KEA-2597","2019/09/16 19:19:32","新北市三峽區有木205-1號","121.439065","24.8515966666667","6500900","三峽區"
"237007","153-BY","2019/09/16 19:19:30","新北市三峽區麻園12-3號","121.362446666667","24.9160266666667","6500900","三峽區"
"237009","210-TH","2019/09/16 19:19:35","新北市三峽區民生街186號","121.370946666667","24.93491","6500900","三峽區"
"237013","252-BX","2019/09/16 19:19:41","新北市三峽區光明路75巷33-2號","121.377841666667","24.9284916666667","6500900","三峽區"
"237012","275-BY","2019/09/16 19:19:32","新北市三峽區三樹路222巷254弄15號","121.392155","24.9440533333333","6500900","三峽區"
"237008","302-VK","2019/09/16 19:19:25","新北市三峽區永安街183號","121.373153333333","24.9267583333333","6500900","三峽區"
"237006","5529-G3","2019/09/16 19:19:42","新北市三峽區介壽路三段107號","121.39553","24.9391766666667","6500900","三峽區"
"237011","KEA-2596","2019/09/16 19:19:38","新北市三峽區介壽路三段101-1號","121.395501666667","24.9390533333333","6500900","三峽區"
"237015","649-BX","2019/09/16 19:19:39","新北市三峽區安坑38-4號","121.454125","24.9318066666667","6500900","三峽區"
"237010","706-TV","2019/09/16 19:19:32","新北市三峽區國光街350巷13號","121.371613333333","24.9400716666667","6500900","三峽區"
"237005","AKY-6261","2019/09/16 19:19:37","新北市三峽區復興路553號","121.356758333333","24.940225","6500900","三峽區"
"236026","269-VK","2019/09/16 19:19:37","新北市土城區中央路二段177巷27號","121.444013333333","24.9762633333333","6501300","土城區"
"236014","270-VK","2019/09/16 19:19:25","新北市土城區學府路一段25號","121.458343333333","24.988305","6501300","土城區"
"236069","KEA-2877","2019/09/16 19:19:34","新北市土城區學成路134號","121.449046666667","24.9895666666667","6501300","土城區"
"252001","KED-0821","2019/09/16 19:19:41","新北市三芝區長勤街37巷25號","121.501656666667","25.2548533333333","6502100","三芝區"
"236020","401-BY","2019/09/16 19:19:39","新北市土城區峰廷街3號","121.469046666667","24.9873","6501300","土城區"
"236059","912-UM","2019/09/16 19:19:44","新北市土城區中央路二段252號","121.441785","24.9747233333333","6501300","土城區"
"238015","755-BX","2019/09/16 19:19:29","新北市樹林區光明街30號","121.411853333333","24.9908366666667","6500700","樹林區"
"238023","601-UM","2019/09/16 19:19:29","桃園市龜山區萬壽路一段351號","121.401676666667","25.0168983333333","6500700","樹林區"
"238019","599-UM","2019/09/16 19:19:38","新北市樹林區東華街39號","121.415236666667","24.9815583333333","6500700","樹林區"
"238018","KEA-2217","2019/09/16 19:19:39","新北市樹林區太元街2巷9號","121.417073333333","24.9809866666667","6500700","樹林區"
"238022","KEA-2213","2019/09/16 19:19:33","新北市樹林區中山路二段151巷8弄10號","121.406268333333","24.9778233333333","6500700","樹林區"
"238021","KEA-2539","2019/09/16 19:19:45","新北市樹林區柑園街二段203巷19號","121.376983333333","24.9512566666667","6500700","樹林區"
"238025","303-VK","2019/09/16 19:19:29","新北市樹林區中山路三段34號","121.39511","24.9726466666667","6500700","樹林區"
"238014","282-BY","2019/09/16 19:19:45","新北市樹林區中正路22-1號","121.427746666667","24.999435","6500700","樹林區"
"238020","268-VK","2019/09/16 19:19:37","新北市樹林區俊英街123巷2號","121.42431","25.0106533333333","6500700","樹林區"
"238026","172-UY","2019/09/16 19:19:34","新北市樹林區佳園路一段41巷18號","121.39389","24.9710416666667","6500700","樹林區"
"238016","169-UY","2019/09/16 19:19:45","新北市樹林區中山路一段306巷44號","121.418551666667","24.98624","6500700","樹林區"
"239007","AAC-297","2019/09/16 19:19:35","新北市鶯歌區中正一路345巷21號","121.35771","24.9577883333333","6500800","鶯歌區"
"239006","891-R6","2019/09/16 19:19:38","新北市鶯歌區鶯桃路296巷55弄24號","121.336326666667","24.961865","6500800","鶯歌區"
"239008","527-UM","2019/09/16 19:19:38","新北市鶯歌區國際二路20巷45號","121.337641666667","24.9758433333333","6500800","鶯歌區"
"239005","526-UM","2019/09/16 19:19:24","新北市鶯歌區鳳吉一街170號","121.328998333333","24.9755616666667","6500800","鶯歌區"
"239001","417-VK","2019/09/16 19:19:33","新北市鶯歌區鶯桃路70號","121.34043","24.9533466666667","6500800","鶯歌區"
"239003","360-BY","2019/09/16 19:19:37","新北市鶯歌區永和街60號","121.333515","24.96822","6500800","鶯歌區"
"239004","193-VK","2019/09/16 19:19:33","新北市鶯歌區中正三路318巷67號","121.326153333333","24.9379483333333","6500800","鶯歌區"
"221008","489-VK","2019/09/16 19:19:26","新北市汐止區康寧街310號","121.626771666667","25.06722","6501100","汐止區"
"221031","353-TW","2019/09/16 19:19:23","新北市汐止區汐萬路一段329號","121.649935","25.0756583333333","6501100","汐止區"
"221035","622-UM","2019/09/16 19:19:29","新北市汐止區汐萬路一段265巷2號","121.65062","25.0742216666667","6501100","汐止區"
"221002","707-TV","2019/09/16 19:19:33","新北市汐止區大同路一段341號","121.638681666667","25.0595","6501100","汐止區"
"220079","145-BY","2019/09/16 19:19:38","新北市板橋區民權路202巷7弄30號","121.458828333333","25.015045","6500100","板橋區"
"220082","610-BX","2019/09/16 19:19:31","新北市板橋區滿平街84巷118號","121.426971666667","24.986365","6500100","板橋區"
"220080","256-TC","2019/09/16 19:19:30","新北市板橋區大觀路二段3巷19號","121.448033333333","25.00388","6500100","板橋區"
"220056","276-BY","2019/09/16 19:19:43","新北市板橋區信義路279巷11-3號","121.462701666667","24.9898166666667","6500100","板橋區"
"220072","277-BY","2019/09/16 19:19:43","新北市板橋區金門街260巷2號","121.42974","24.986915","6500100","板橋區"
"220101","280-UM","2019/09/16 19:19:29","新北市板橋區縣民大道三段133巷9號","121.477411666667","25.023535","6500100","板橋區"
"220094","285-UM","2019/09/16 19:19:32","新北市板橋區吳鳳路50巷20號","121.469738333333","25.0303466666667","6500100","板橋區"
"220053","285-VK","2019/09/16 19:19:39","新北市板橋區富山街34號","121.47799","25.0219533333333","6500100","板橋區"
"220083","286-VK","2019/09/16 19:19:37","新北市板橋區大觀路二段174巷196弄16號","121.443063333333","25.0036333333333","6500100","板橋區"
"220081","287-VK","2019/09/16 19:19:37","新北市板橋區南雅西路一段63巷2號","121.452611666667","25.0076533333333","6500100","板橋區"
"220061","293-UM","2019/09/16 19:19:24","新北市板橋區中山路二段255巷7號","121.477005","25.0179716666667","6500100","板橋區"
"220084","296-UM","2019/09/16 19:19:30","新北市板橋區溪崑二街66巷13號","121.427441666667","24.9906366666667","6500100","板橋區"
"220075","303-R5","2019/09/16 19:15:46","新北市板橋區南雅西路一段51號","121.453721666667","25.0049016666667","6500100","板橋區"
"220062","305-R5","2019/09/16 19:19:35","新北市板橋區三民路二段153巷22號","121.480565","25.0150333333333","6500100","板橋區"
"220092","307-R5","2019/09/16 19:19:28","新北市板橋區松江街5號","121.469076666667","25.0261316666667","6500100","板橋區"
"220098","317-R6","2019/09/16 19:19:28","新北市板橋區四維路103巷9號","121.465043333333","25.0242916666667","6500100","板橋區"
"220089","487-VK","2019/09/16 19:19:36","新北市板橋區陽明街259號","121.462603333333","25.0254483333333","6500100","板橋區"
"220088","491-VK","2019/09/16 19:19:43","新北市板橋區雙十路二段85號","121.47563","25.0274033333333","6500100","板橋區"
"220035","560-BX","2019/09/16 19:19:37","新北市板橋區瑞安街31巷2號","121.455663333333","25.02278","6500100","板橋區"
"220103","561-BX","2019/09/16 19:19:27","新北市板橋區文化路一段298號","121.467618333333","25.0216133333333","6500100","板橋區"
"220071","568-UM","2019/09/16 19:19:34","新北市板橋區重慶路343-3號","121.463995","24.9981566666667","6500100","板橋區"
"220063","609-BX","2019/09/16 19:19:25","新北市板橋區三民路一段1巷42號","121.480305","25.0244383333333","6500100","板橋區"
"220091","637-BX","2019/09/16 19:19:42","新北市板橋區文聖街200號","121.480121666667","25.02585","6500100","板橋區"
"220057","686-BX","2019/09/16 19:19:31","新北市板橋區和平路69號","121.461216666667","24.99466","6500100","板橋區"
"220077","687-BX","2019/09/16 19:19:30","新北市板橋區大觀路二段125號","121.445916666667","25.0013116666667","6500100","板橋區"
"220093","689-BX","2019/09/16 19:19:35","新北市板橋區新海路115號","121.461073333333","25.0228083333333","6500100","板橋區"
"220054","741-BX","2019/09/16 19:19:40","新北市板橋區四川路一段223號","121.460065","25.0032383333333","6500100","板橋區"
"220102","KEA-2699","2019/09/16 19:19:23","新北市板橋區松柏街22巷41號","121.475101666667","25.0289466666667","6500100","板橋區"
"220055","827-TW","2019/09/16 19:19:43","新北市板橋區新民街2號","121.464435","25.0089133333333","6500100","板橋區"
"220067","829-TW","2019/09/16 19:19:38","新北市板橋區長安街138巷7弄62號","121.474205","25.00931","6500100","板橋區"
"220068","830-TW","2019/09/16 19:19:40","新北市板橋區萬安街161號","121.482795","25.026185","6500100","板橋區"
"220090","831-TW","2019/09/16 19:19:32","新北市板橋區裕民街92號","121.460325","25.02806","6500100","板橋區"
"220074","895-R6","2019/09/16 19:19:32","新北市板橋區中正路自強新村91-1號","121.454885","25.0131583333333","6500100","板橋區"
"220073","985-R7","2019/09/16 19:19:39","新北市板橋區新生街76號","121.45788","25.0212283333333","6500100","板橋區"
"220097","AAC-210","2019/09/16 19:19:37","新北市板橋區幸福路34號","121.461653333333","25.0202633333333","6500100","板橋區"
"220064","AAC-253","2019/09/16 19:19:35","新北市板橋區公園街64號","121.461955","25.007705","6500100","板橋區"
"235068","KEA-2873","2019/09/16 19:19:33","新北市中和區連勝街24號","121.498321666667","24.998045","6500300","中和區"
"235061","KEA-2875","2019/09/16 19:19:43","新北市中和區民利街7號","121.480771666667","24.999155","6500300","中和區"
