"lineid","car","time","location","longitude","latitude","cityid","cityname"
"234046","148-BY","2019/09/16 19:49:30","新北市永和區永利路358號","121.526163333333","25.003175","6500400","永和區"
"234081","298-R6","2019/09/16 19:49:26","新北市永和區國中路104巷8弄16號","121.525158333333","25.0064983333333","6500400","永和區"
"234064","337-UY","2019/09/16 19:49:27","新北市永和區中正路368巷18號","121.51845","25.000765","6500400","永和區"
"234086","338-UY","2019/09/16 19:49:37","新北市永和區永亨路122號","121.524431666667","25.0040783333333","6500400","永和區"
"234070","552-UM","2019/09/16 19:49:31","新北市永和區竹林路88號","121.519391666667","25.0125416666667","6500400","永和區"
"234038","553-UM","2019/09/16 19:49:37","新北市永和區環河東路四段8號","121.528355","25.0001633333333","6500400","永和區"
"234017","745-BX","2019/09/16 19:49:32","新北市永和區永和路二段299號","121.516061666667","25.0161233333333","6500400","永和區"
"234030","746-BX","2019/09/16 19:49:29","新北市永和區四維街89巷2弄3號","121.524371666667","24.997665","6500400","永和區"
"234054","KEA-2590","2019/09/16 19:49:35","新北市永和區竹林路75巷25弄3號","121.520205","25.0142783333333","6500400","永和區"
"234007","KED-0605","2019/09/16 19:49:25","新北市中和區水源路102號","121.506041666667","25.0034666666667","6500400","永和區"
"234013","KEA-2591","2019/09/16 19:49:27","新北市永和區仁愛路204號","121.509306666667","25.01231","6500400","永和區"
"234061","AAD-866","2019/09/16 19:49:29","新北市永和區中正路90號","121.513981666667","24.9954116666667","6500400","永和區"
"234042","862-TW","2019/09/16 19:49:39","新北市永和區中和路389巷24號","121.508166666667","25.0013366666667","6500400","永和區"
"234050","863-TW","2019/09/16 19:49:46","新北市永和區保安路144號","121.5086","25.0149383333333","6500400","永和區"
"234026","9371-KE","2019/09/16 19:49:28","新北市永和區雙和街25巷4號","121.508931666667","25.00194","6500400","永和區"
"234011","9373-KE","2019/09/16 19:49:34","新北市永和區仁愛路352巷92弄2號","121.501146666667","25.0078866666667","6500400","永和區"
"249005","172-UM","2019/09/16 19:49:34","新北市八里區中華路三段186號","121.390898333333","25.127565","6502300","八里區"
"249001","173-UM","2019/09/16 19:49:39","新北市八里區中華路二段199號","121.406291666667","25.1503983333333","6502300","八里區"
"249004","303-UY","2019/09/16 19:49:25","新北市八里區中山路一段268巷57號","121.4141","25.1608683333333","6502300","八里區"
"249002","305-UY","2019/09/16 19:49:39","新北市八里區頂寮三街18號","121.451588333333","25.1256133333333","6502300","八里區"
"249003","593-UM","2019/09/16 19:49:42","新北市八里區華峰三街37號","121.398585","25.1453783333333","6502300","八里區"
"248014","025-BX","2019/09/16 19:49:26","新北市五股區五福路22巷6號","121.434661666667","25.0890366666667","6501500","五股區"
"248016","026-BX","2019/09/16 19:49:26","","121.454678333333","25.107495","6501500","五股區"
"248008","KED-0815","2019/09/16 19:49:29","新北市五股區國道路三段7號","121.469601666667","25.0751916666667","6501500","五股區"
"248018","KED-0813","2019/09/16 19:49:33","","121.425868333333","25.076835","6501500","五股區"
"248012","247-BX","2019/09/16 19:49:39","新北市五股區蓬萊路8號","121.4355","25.079445","6501500","五股區"
"248004","677-BX","2019/09/16 19:49:36","新北市五股區成泰路一段106-1號","121.435696666667","25.071795","6501500","五股區"
"248002","678-BX","2019/09/16 19:49:43","新北市五股區成泰路3段651-1號","121.452901666667","25.105395","6501500","五股區"
"248010","682-TV","2019/09/16 19:49:25","","121.430508333333","25.0695466666667","6501500","五股區"
"234023","9380-KE","2019/09/16 19:49:39","新北市永和區仁愛路301號","121.503868333333","25.0080583333333","6500400","永和區"
"234077","969-R7","2019/09/16 19:49:40","新北市永和區民權路82號","121.519856666667","24.9971983333333","6500400","永和區"
"234074","AAC-211","2019/09/16 19:49:32","新北市永和區竹林路215號","121.520981666667","25.0088383333333","6500400","永和區"
"234067","AAC-212","2019/09/16 19:49:26","新北市永和區中山路一段255巷22號","121.508398333333","25.0070783333333","6500400","永和區"
"234003","AAC-295","2019/09/16 19:49:30","","121.516238333333","25.00754","6500400","永和區"
"243012","AAD-798","2019/09/16 19:49:34","新北市泰山區仁愛路100巷30號","121.433438333333","25.05501","6501600","泰山區"
"243014","KEA-2801","2019/09/16 19:49:33","新北市泰山區泰林路二段33-7號","121.435348333333","25.0565783333333","6501600","泰山區"
"243016","421-VK","2019/09/16 19:49:38","新北市泰山區明志路三段513號","121.421436666667","25.0321883333333","6501600","泰山區"
"243009","KEA-2215","2019/09/16 19:49:39","新北市泰山區美寧街64號","121.430986666667","25.0646633333333","6501600","泰山區"
"243011","KEA-2216","2019/09/16 19:49:31","新北市泰山區明志路三段196巷21弄24號","121.422625","25.03852","6501600","泰山區"
"222003","436-BY","2019/09/16 19:49:28","新北市深坑區深南路51-1號","121.621101666667","25.00985","6501800","深坑區"
"222002","659-BX","2019/09/16 19:49:33","新北市深坑區北深路一段355-1號","121.62295","25.0052033333333","6501800","深坑區"
"231061","002-UM","2019/09/16 19:49:28","新北市新店區安民街189號","121.516823333333","24.9709883333333","6500600","新店區"
"231044","046-UY","2019/09/16 19:49:38","新北市新店區復興路40-2號","121.538796666667","24.9867916666667","6500600","新店區"
"231060","106-UY","2019/09/16 19:49:26","新北市新店區安康路二段161號","121.51014","24.9592666666667","6500600","新店區"
"231049","108-UY","2019/09/16 19:49:44","新北市新店區民權路88-5號","121.536448333333","24.983595","6500600","新店區"
"231065","110-UY","2019/09/16 19:49:39","新北市新店區安祥路109巷151弄8號","121.478308333333","24.9589266666667","6500600","新店區"
"231068","187-VK","2019/09/16 19:49:41","新北市新店區安一路一段1-1號","121.519666666667","24.961355","6500600","新店區"
"231062","256-BX","2019/09/16 19:49:33","新北市新店區永業路53號","121.53187","24.954615","6500600","新店區"
"231054","260-TV","2019/09/16 19:49:42","新北市新店區光明街13號","121.538393333333","24.9593","6500600","新店區"
"231042","268-BY","2019/09/16 19:48:50","新北市新店區中興路一段268-1號","121.545283333333","24.9676116666667","6500600","新店區"
"231064","278-BY","2019/09/16 19:49:30","新北市新店區光華街5巷6號","121.517751666667","24.9687316666667","6500600","新店區"
"231050","AAD-862","2019/09/16 19:49:38","新北市新店區北宜路二段579巷8號","121.565196666667","24.9544266666667","6500600","新店區"
"231045","355-BY","2019/09/16 19:49:42","新北市新店區北宜路二段457號","121.561576666667","24.95413","6500600","新店區"
"231058","3713-VJ","2019/09/16 19:49:41","新北市新店區中正路102巷8弄8號","121.543718333333","24.9712333333333","6500600","新店區"
"231056","4715-K9","2019/09/16 19:49:42","新北市新店區民權路42巷32號","121.539186666667","24.9837133333333","6500600","新店區"
"231067","4772-VM","2019/09/16 19:49:40","新北市新店區精忠路10-1號","121.53241","24.9591283333333","6500600","新店區"
"231051","512-UM","2019/09/16 19:49:29","新北市新店區中央三街59號","121.527075","24.974925","6500600","新店區"
"231052","513-UM","2019/09/16 19:49:38","新北市新店區新烏路三段286號","121.549871666667","24.8987766666667","6500600","新店區"
"231041","618-UM","2019/09/16 19:49:38","新北市新店區中央路103號","121.530986666667","24.9748816666667","6500600","新店區"
"231063","641-BX","2019/09/16 19:49:30","新北市新店區車子路11號","121.503046666667","24.95203","6500600","新店區"
"231047","KED-0819","2019/09/16 19:49:31","新北市新店區中興路二段22-2號","121.547108333333","24.9702916666667","6500600","新店區"
"231046","719-UM","2019/09/16 19:49:05","新北市新店區福園街10巷3號","121.532695","24.9728333333333","6500600","新店區"
"231057","720-UM","2019/09/16 19:49:29","新北市新店區梅崗三路1號","121.558141666667","24.931155","6500600","新店區"
"231059","897-TW","2019/09/16 19:49:24","新北市新店區安和路三段33-1號","121.51682","24.9800066666667","6500600","新店區"
"231040","898-TW","2019/09/16 19:49:36","新北市新店區中正路75巷71號","121.54322","24.96873","6500600","新店區"
"231043","899-TW","2019/09/16 19:49:43","新北市新店區中正路263-2號","121.538448333333","24.9738266666667","6500600","新店區"
"231066","AKT-0513","2019/09/16 19:49:43","新北市新店區安康路三段130號","121.490996666667","24.95178","6500600","新店區"
"241011","013-R5","2019/09/16 19:49:39","新北市三重區介壽路39巷6號","121.498895","25.0701","6500200","三重區"
"241028","022-UY","2019/09/16 19:49:35","新北市三重區中正南路139號","121.493981666667","25.056775","6500200","三重區"
"241008","059-VK","2019/09/16 19:49:25","新北市三重區永福街147-8號","121.478735","25.0762383333333","6500200","三重區"
"241005","060-VK","2019/09/16 19:49:34","新北市三重區溪尾街325巷5弄1號","121.48844","25.0841183333333","6500200","三重區"
"241031","061-VK","2019/09/16 19:49:38","新北市三重區重新路四段218號","121.486066666667","25.0541966666667","6500200","三重區"
"241015","062-VK","2019/09/16 19:49:25","新北市三重區三和路一段2號","121.503853333333","25.0642933333333","6500200","三重區"
"241017","063-VK","2019/09/16 19:49:33","新北市三重區重陽路三段5巷8弄10號","121.489516666667","25.06645","6500200","三重區"
"241007","066-VK","2019/09/16 19:49:30","新北市三重區三和路四段135巷5號","121.48513","25.0780833333333","6500200","三重區"
"241003","091-VK","2019/09/16 19:49:36","新北市三重區仁義街238號","121.494313333333","25.0854383333333","6500200","三重區"
"241006","262-UM","2019/09/16 19:49:36","新北市三重區永福街287-1號","121.483221666667","25.0743883333333","6500200","三重區"
"241016","266-UM","2019/09/16 19:49:24","新北市三重區正義北路16巷31號","121.496498333333","25.0628633333333","6500200","三重區"
"241009","267-UM","2019/09/16 19:49:29","新北市三重區三和路四段396巷14號","121.480676666667","25.0789333333333","6500200","三重區"
"241032","269-UM","2019/09/16 19:49:42","新北市三重區三陽路3號","121.486331666667","25.0588483333333","6500200","三重區"
"241013","270-UM","2019/09/16 19:49:44","新北市三重區三和路三段99號","121.494386666667","25.072505","6500200","三重區"
"241025","271-UM","2019/09/16 19:49:32","新北市三重區頂崁街210巷16號","121.476515","25.0677466666667","6500200","三重區"
"241030","KED-0822","2019/09/16 19:49:22","新北市三重區環河南路240號","121.491778333333","25.0512016666667","6500200","三重區"
"241035","462-BY","2019/09/16 19:49:35","新北市三重區大榮街53號","121.499025","25.0635183333333","6500200","三重區"
"241004","475-VK","2019/09/16 19:49:40","新北市三重區五華街74號","121.493318333333","25.0819733333333","6500200","三重區"
"241020","478-VK","2019/09/16 19:49:39","新北市三重區三和路4段20巷26-1號","121.49019","25.073295","6500200","三重區"
"241026","480-VK","2019/09/16 19:49:40","新北市三重區文化南路38-1號","121.50026","25.0610133333333","6500200","三重區"
"241014","543-UM","2019/09/16 19:49:23","新北市三重區長元街98巷18弄29號","121.501798333333","25.0674733333333","6500200","三重區"
"241023","545-UM","2019/09/16 19:49:23","新北市三重區頂崁街172號","121.477556666667","25.06597","6500200","三重區"
"241019","KEA-2593","2019/09/16 19:49:37","新北市三重區自強路二段74巷25號","121.487723333333","25.0696933333333","6500200","三重區"
"241001","887-TS","2019/09/16 19:49:32","新北市三重區仁愛街325號","121.492385","25.0794816666667","6500200","三重區"
"241012","941-UM","2019/09/16 19:49:32","新北市三重區仁興街39巷2號","121.499178333333","25.07586","6500200","三重區"
"241029","942-UM","2019/09/16 19:49:35","新北市三重區光明路11號","121.490945","25.0586966666667","6500200","三重區"
"241033","AAC-255","2019/09/16 19:49:27","新北市三重區中興南街64號","121.47061","25.0440016666667","6500200","三重區"
"235066","003-UY","2019/09/16 19:49:29","新北市中和區南工路22巷2號","121.505495","25.00061","6500300","中和區"
"235063","006-UY","2019/09/16 19:49:34","新北市中和區中正路450號","121.490883333333","24.9942283333333","6500300","中和區"
"235056","096-UM","2019/09/16 19:49:28","新北市中和區中山路三段170巷25號","121.472566666667","25.0072133333333","6500300","中和區"
"235039","097-UM","2019/09/16 19:49:35","新北市中和區大勇街27巷11號","121.516945","24.9936483333333","6500300","中和區"
"235065","098-UM","2019/09/16 19:49:39","新北市中和區福祥路77號","121.49921","25.005565","6500300","中和區"
"235040","150-BY","2019/09/16 19:49:31","新北市中和區安平路59號","121.509641666667","24.9949266666667","6500300","中和區"
"235058","151-BY","2019/09/16 19:49:26","新北市中和區員山路150巷2弄1號","121.481686666667","24.99829","6500300","中和區"
"235038","185-VK","2019/09/16 19:49:33","新北市中和區更生街1號","121.521425","24.9963183333333","6500300","中和區"
"235049","186-VK","2019/09/16 19:49:40","新北市中和區景平路554號","121.502265","24.9948716666667","6500300","中和區"
"235067","255-BX","2019/09/16 19:49:37","新北市中和區中正路751巷3弄12號","121.484331666667","24.9993983333333","6500300","中和區"
"235044","293-VK","2019/09/16 19:49:41","新北市中和區景安路209號","121.504621666667","24.99177","6500300","中和區"
"235072","301-VK","2019/09/16 19:49:24","新北市板橋區中山路二段490號","121.485985","25.021265","6500300","中和區"
"235043","352-BY","2019/09/16 19:49:40","新北市中和區興南路二段159巷7號","121.505278333333","24.9830566666667","6500300","中和區"
"235042","KEA-2878","2019/09/16 19:49:41","新北市中和區成功路127巷12弄10號","121.527601666667","24.9897616666667","6500300","中和區"
"247016","KEA-2869","2019/09/16 19:49:37","新北市蘆洲區中正路259號","121.467591666667","25.0871083333333","6501400","蘆洲區"
"235070","558-UM","2019/09/16 19:49:35","新北市中和區圓通路128號","121.498578333333","24.9958666666667","6500300","中和區"
"235047","732-UM","2019/09/16 19:49:28","新北市中和區和平街82號","121.507633333333","24.991195","6500300","中和區"
"235046","733-UM","2019/09/16 19:49:25","新北市中和區仁愛街4號","121.51052","24.9892383333333","6500300","中和區"
"235071","783-BX","2019/09/16 19:49:31","新北市中和區中板路5巷9號","121.485295","25.0105733333333","6500300","中和區"
"235041","802-TS","2019/09/16 19:49:36","新北市中和區中安街124號","121.511091666667","25.00054","6500300","中和區"
"235052","805-TS","2019/09/16 19:49:35","新北市中和區華新街30巷13號","121.507243333333","24.9842683333333","6500300","中和區"
"235048","896-TW","2019/09/16 19:49:39","新北市中和區興南路一段12號","121.51146","24.9913166666667","6500300","中和區"
"235053","900-TW","2019/09/16 19:49:33","新北市中和區民德路216號","121.468155","24.9980833333333","6500300","中和區"
"235051","157-BY","2019/09/16 19:49:40","新北市中和區中興街274號","121.498618333333","24.9883083333333","6500300","中和區"
"235037","AAC-213","2019/09/16 19:49:28","","121.5234","24.9947233333333","6500300","中和區"
"235059","AAC-215","2019/09/16 19:49:33","新北市中和區圓通路305巷19號","121.494546666667","24.9892516666667","6500300","中和區"
"220065","072-UY","2019/09/16 19:49:28","新北市板橋區國泰街39巷3弄2號","121.468481666667","25.00631","6500100","板橋區"
"220086","073-UY","2019/09/16 19:49:28","新北市板橋區中正路236巷53號","121.45808","25.0194283333333","6500100","板橋區"
"220106","075-UY","2019/09/16 19:49:32","新北市板橋區民治街71巷27號","121.480566666667","25.032825","6500100","板橋區"
"220069","AAD-861","2019/09/16 19:49:29","新北市板橋區大明街13號","121.458951666667","25.0025066666667","6500100","板橋區"
"247004","336-TH","2019/09/16 19:49:37","新北市蘆洲區中原路61號","121.458881666667","25.0820716666667","6501400","蘆洲區"
"247014","056-VK","2019/09/16 19:49:24","新北市蘆洲區中央路89號","121.472746666667","25.0842516666667","6501400","蘆洲區"
"247002","001-UY","2019/09/16 19:49:26","新北市蘆洲區永樂街38巷71號","121.458653333333","25.0906133333333","6501400","蘆洲區"
"226004","312-R5","2019/09/16 19:49:22","新北市平溪區十分里十分街311號","121.775246666667","25.04366","6502400","平溪區"
"228003","097-TW","2019/09/16 19:49:38","新北市貢寮區真理里美艷山街3-1號","121.925635","25.0595166666667","6502600","貢寮區"
"228001","670-TC","2019/09/16 19:49:44","新北市貢寮區真理里新港街117號","121.926995","25.0563833333333","6502600","貢寮區"
"224010","AGQ-8101","2019/09/16 19:49:41","新北市瑞芳區汽車路2號","121.846731666667","25.1106616666667","6501200","瑞芳區"
"224002","639-TC","2019/09/16 19:49:40","新北市瑞芳區三爪子坑路13巷281-15號","121.815083333333","25.1062533333333","6501200","瑞芳區"
"227001","642-TC","2019/09/16 19:49:40","新北市雙溪區新基里中華路95號","121.865831666667","25.03871","6502500","雙溪區"
"227002","400-TW","2019/09/16 19:49:37","新北市雙溪區雙溪里內挖路36號","121.863203333333","25.0367516666667","6502500","雙溪區"
"222001","KEA-2212","2019/09/16 19:49:36","新北市深坑區北深路三段83號","121.60656","25.001515","6501800","深坑區"
"208002","KEA-2872","2019/09/16 19:49:41","新北市金山區中華路366-1號","121.633211666667","25.2245066666667","6502700","金山區"
"208003","665-BX","2019/09/16 19:49:29","新北市金山區清泉里清水路53號","121.629501666667","25.2354816666667","6502700","金山區"
"251009","008-UM","2019/09/16 19:49:31","新北市淡水區中山北路一段198巷15號","121.445418333333","25.1792533333333","6501000","淡水區"
"251004","009-UM","2019/09/16 19:49:34","新北市淡水區民權路185巷22號","121.460428333333","25.1337866666667","6501000","淡水區"
"251015","KEA-2871","2019/09/16 19:49:28","新北市淡水區山子頂24-1號","121.49139","25.187185","6501000","淡水區"
"251016","179-VK","2019/09/16 19:49:27","新北市淡水區三塊厝3-3號","121.456375","25.209545","6501000","淡水區"
"251008","181-VK","2019/09/16 19:49:40","新北市淡水區中正路二段24巷2-1號","121.42681","25.176965","6501000","淡水區"
"251013","182-VK","2019/09/16 19:49:37","新北市淡水區頂田寮路168號","121.459416666667","25.2158066666667","6501000","淡水區"
"251012","441-VK","2019/09/16 19:49:29","新北市淡水區淡金路三段36號","121.448153333333","25.199215","6501000","淡水區"
"251007","442-VK","2019/09/16 19:49:28","新北市淡水區竿蓁一街123號","121.455608333333","25.1657016666667","6501000","淡水區"
"251005","443-VK","2019/09/16 19:49:34","新北市淡水區中正東路6號","121.447031666667","25.1671516666667","6501000","淡水區"
"251001","559-UM","2019/09/16 19:49:30","新北市淡水區中正東路二段87-3號","121.459471666667","25.1528766666667","6501000","淡水區"
"251006","561-UM","2019/09/16 19:49:30","新北市淡水區水碓街3號","121.443116666667","25.1768833333333","6501000","淡水區"
"251014","577-R6","2019/09/16 19:49:31","新北市淡水區石頭厝17-6號","121.468486666667","25.2368783333333","6501000","淡水區"
"251011","650-BX","2019/09/16 19:49:30","新北市淡水區中正東路二段79號","121.460358333333","25.15418","6501000","淡水區"
"251002","672-BX","2019/09/16 19:49:08","新北市淡水區下圭柔山91-4號","121.429883333333","25.2089433333333","6501000","淡水區"
"207003","550-UM","2019/09/16 19:49:25","新北市萬里區大鵬里下社9-4號","121.647055","25.21727","6502800","萬里區"
"207004","291-VK","2019/09/16 19:49:29","新北市萬里區萬里里瑪鋉路122號","121.690643333333","25.1791033333333","6502800","萬里區"
"252002","178-VK","2019/09/16 19:49:33","新北市三芝區三民街24號","121.504631666667","25.25862","6502100","三芝區"
"208001","170-UY","2019/09/16 19:49:35","新北市金山區重和里六股林口47號","121.602145","25.2196483333333","6502700","金山區"
"237004","KEA-2597","2019/09/16 19:49:43","新北市三峽區添福263號","121.375521666667","24.8935216666667","6500900","三峽區"
"237007","153-BY","2019/09/16 19:49:30","新北市三峽區二鬮路136巷151號","121.357285","24.9106983333333","6500900","三峽區"
"237009","210-TH","2019/09/16 19:49:35","新北市三峽區清水街428號","121.368713333333","24.9259633333333","6500900","三峽區"
"237013","252-BX","2019/09/16 19:49:41","新北市三峽區橫溪路44號","121.396665","24.9354416666667","6500900","三峽區"
"237012","275-BY","2019/09/16 19:49:32","新北市三峽區中華路24號","121.373943333333","24.9324733333333","6500900","三峽區"
"237008","302-VK","2019/09/16 19:49:25","新北市三峽區安溪路345號","121.370035","24.9263916666667","6500900","三峽區"
"237014","433-BY","2019/09/16 19:49:23","新北市三峽區中山路299巷15弄9號","121.361358333333","24.9366583333333","6500900","三峽區"
"237006","5529-G3","2019/09/16 19:49:42","新北市三峽區中正路一段336巷15弄2號","121.369948333333","24.9249483333333","6500900","三峽區"
"237011","KEA-2596","2019/09/16 19:49:38","新北市三峽區中正路一段348號","121.37116","24.9244066666667","6500900","三峽區"
"237015","649-BX","2019/09/16 19:49:39","新北市三峽區成福路115號","121.419526666667","24.9297566666667","6500900","三峽區"
"237010","706-TV","2019/09/16 19:49:39","新北市三峽區復興路176-8號","121.370346666667","24.938515","6500900","三峽區"
"237005","AKY-6261","2019/09/16 19:49:37","新北市三峽區文化路22號","121.373271666667","24.93596","6500900","三峽區"
"236042","KED-0685","2019/09/16 19:49:38","新北市土城區裕民路233巷5號","121.454846666667","24.98353","6501300","土城區"
"236030","253-BX","2019/09/16 19:49:35","新北市土城區中央路一段294號","121.443273333333","24.9823916666667","6501300","土城區"
"236026","269-VK","2019/09/16 19:49:37","新北市土城區中央路二段61巷26號","121.443303333333","24.9787416666667","6501300","土城區"
"236069","KEA-2877","2019/09/16 19:49:34","新北市土城區中央路二段258號","121.441505","24.97474","6501300","土城區"
"252001","KED-0821","2019/09/16 19:49:41","新北市三芝區公正街66號","121.499778333333","25.2574416666667","6502100","三芝區"
"236020","401-BY","2019/09/16 19:49:39","新北市土城區峰廷街39號","121.469693333333","24.986255","6501300","土城區"
"236059","912-UM","2019/09/16 19:49:23","新北市土城區中央路一段116號","121.446601666667","24.9880733333333","6501300","土城區"
"236048","913-UM","2019/09/16 19:49:39","新北市土城區青雲路220號","121.458936666667","24.981305","6501300","土城區"
"236063","915-UM","2019/09/16 19:49:38","新北市土城區延平街33巷1號","121.46782","24.9916966666667","6501300","土城區"
"236055","AAC-216","2019/09/16 19:49:43","新北市土城區延和路115號","121.467968333333","24.99033","6501300","土城區"
"242060","986-R7","2019/09/16 19:49:30","新北市新莊區瓊林路96巷2號","121.444248333333","25.0275116666667","6500500","新莊區"
"242004","751-BX","2019/09/16 19:49:39","新北市新莊區化成路45號","121.465026666667","25.0446116666667","6500500","新莊區"
"242048","566-BX","2019/09/16 19:49:32","新北市新莊區後港一路28巷16弄2號","121.425495","25.0250433333333","6500500","新莊區"
"242013","413-TV","2019/09/16 19:49:30","新北市新莊區中誠街119號","121.449445","25.0475566666667","6500500","新莊區"
"242025","362-BY","2019/09/16 19:49:36","新北市新莊區五權一路12巷21弄5號","121.45786","25.0645716666667","6500500","新莊區"
"242023","353-BY","2019/09/16 19:49:40","新北市新莊區化成路69號","121.465526666667","25.0460666666667","6500500","新莊區"
"242039","135-UY","2019/09/16 19:49:31","新北市新莊區民安路299巷54號","121.429611666667","25.02382","6500500","新莊區"
"242056","172-VK","2019/09/16 19:49:44","新北市新莊區新泰路87號","121.44876","25.0343933333333","6500500","新莊區"
"242017","173-VK","2019/09/16 19:49:27","新北市新莊區公園路106號","121.45109","25.0398783333333","6500500","新莊區"
"242031","175-VK","2019/09/16 19:49:32","新北市新莊區仁愛街73號","121.444066666667","25.037865","6500500","新莊區"
"242021","KED-0687","2019/09/16 19:49:28","新北市新莊區新泰路131號","121.448218333333","25.0362916666667","6500500","新莊區"
"242036","348-TH","2019/09/16 19:49:42","新北市新莊區民安路207巷30弄3號","121.427915","25.0239066666667","6500500","新莊區"
"242034","350-TH","2019/09/16 19:49:33","新北市新莊區仁愛街54巷1號","121.44504","25.0371516666667","6500500","新莊區"
"242019","351-TH","2019/09/16 19:49:26","新北市新莊區中華路一段180號","121.452626666667","25.041935","6500500","新莊區"
"238015","755-BX","2019/09/16 19:49:29","新北市樹林區日新街72號","121.421686666667","24.9907633333333","6500700","樹林區"
"238023","601-UM","2019/09/16 19:49:29","新北市樹林區三寶街12號","121.406516666667","25.0154716666667","6500700","樹林區"
"238019","599-UM","2019/09/16 19:49:38","新北市樹林區八德街29號","121.418263333333","24.9839666666667","6500700","樹林區"
"238024","5061-A6","2019/09/16 19:49:40","新北市樹林區中山路三段155巷14弄1號","121.3961","24.972565","6500700","樹林區"
"238022","KEA-2213","2019/09/16 19:49:42","新北市樹林區名園街80號","121.420081666667","24.97774","6500700","樹林區"
"238021","KEA-2539","2019/09/16 19:49:45","新北市樹林區佳園路三段101巷101號","121.395918333333","24.949705","6500700","樹林區"
"238025","303-VK","2019/09/16 19:49:40","新北市樹林區中山路一段414號","121.417886666667","24.9852916666667","6500700","樹林區"
"238017","283-BY","2019/09/16 19:49:26","新北市樹林區保安街二段167巷6號","121.414785","25.0029416666667","6500700","樹林區"
"238014","282-BY","2019/09/16 19:49:25","新北市樹林區千歲街46巷2弄1號","121.426318333333","24.996745","6500700","樹林區"
"238020","268-VK","2019/09/16 19:49:26","新北市板橋區溪城路90-2號","121.428578333333","24.9794816666667","6500700","樹林區"
"238026","172-UY","2019/09/16 19:49:34","新北市樹林區佳園路三段23號","121.388245","24.9547316666667","6500700","樹林區"
"239007","AAC-297","2019/09/16 19:49:35","新北市鶯歌區大湖路145號","121.34328","24.9658883333333","6500800","鶯歌區"
"239006","891-R6","2019/09/16 19:49:38","新北市鶯歌區鶯桃路91巷19號","121.338008333333","24.9525866666667","6500800","鶯歌區"
"239005","526-UM","2019/09/16 19:49:35","新北市鶯歌區東湖路19-1號","121.357875","24.97356","6500800","鶯歌區"
"239001","417-VK","2019/09/16 19:49:33","新北市鶯歌區鶯桃路95巷30號","121.33824","24.953355","6500800","鶯歌區"
"239003","360-BY","2019/09/16 19:49:36","新北市鶯歌區德昌街21號","121.333425","24.959975","6500800","鶯歌區"
"239002","359-BY","2019/09/16 19:49:37","新北市鶯歌區西湖街曾厝巷2號","121.339378333333","24.9601633333333","6500800","鶯歌區"
"239004","193-VK","2019/09/16 19:49:33","新北市鶯歌區二甲路43-17號","121.337041666667","24.9345316666667","6500800","鶯歌區"
"221008","489-VK","2019/09/16 19:49:26","新北市汐止區康寧街61巷22弄5號","121.619583333333","25.06697","6501100","汐止區"
"221010","269-BY","2019/09/16 19:49:38","新北市汐止區汐萬路一段419號","121.649195","25.079595","6501100","汐止區"
"221012","278-VK","2019/09/16 19:49:25","新北市汐止區大同路三段334號","121.679656666667","25.0709516666667","6501100","汐止區"
"221023","279-VK","2019/09/16 19:49:39","新北市汐止區中興路250號","121.629158333333","25.0685133333333","6501100","汐止區"
"221021","299-VK","2019/09/16 19:49:36","新北市汐止區新興路83-6號","121.657971666667","25.061655","6501100","汐止區"
"221031","353-TW","2019/09/16 19:49:43","新北市汐止區康寧街753巷2弄24號","121.640258333333","25.074625","6501100","汐止區"
"221025","623-UM","2019/09/16 19:49:35","新北市汐止區秀峰路81巷17號","121.660898333333","25.06467","6501100","汐止區"
"221038","646-BX","2019/09/16 19:49:39","新北市汐止區忠孝東路407號","121.665635","25.0711866666667","6501100","汐止區"
"221033","647-BX","2019/09/16 19:49:34","新北市汐止區東勢街71號","121.632123333333","25.0401966666667","6501100","汐止區"
"220079","145-BY","2019/09/16 19:49:33","新北市板橋區民權路202巷17弄26號","121.459776666667","25.0166933333333","6500100","板橋區"
"220082","610-BX","2019/09/16 19:49:43","新北市板橋區溪崑一街45號","121.430166666667","24.9910383333333","6500100","板橋區"
"220080","256-TC","2019/09/16 19:49:31","新北市板橋區大觀路二段37巷49號","121.44914","25.002615","6500100","板橋區"
"220056","276-BY","2019/09/16 19:49:33","新北市板橋區四川路二段47巷2弄1號","121.454105","24.994915","6500100","板橋區"
"220072","277-BY","2019/09/16 19:49:23","新北市板橋區金門街175號","121.432586666667","24.9900133333333","6500100","板橋區"
"220101","280-UM","2019/09/16 19:49:29","新北市板橋區縣民大道三段79巷13號","121.475113333333","25.022","6500100","板橋區"
"220094","285-UM","2019/09/16 19:49:45","新北市板橋區雨農路19號","121.461978333333","25.0244033333333","6500100","板橋區"
"220053","285-VK","2019/09/16 19:49:39","新北市板橋區中山路二段90巷14號","121.475446666667","25.0158383333333","6500100","板橋區"
"220083","286-VK","2019/09/16 19:49:37","新北市板橋區龍興街63巷47號","121.44166","25.001805","6500100","板橋區"
"220081","287-VK","2019/09/16 19:49:39","新北市板橋區大觀路一段29巷131弄10號","121.450601666667","25.0051516666667","6500100","板橋區"
"220061","293-UM","2019/09/16 19:49:44","新北市板橋區觀光街1巷8號","121.471825","25.01536","6500100","板橋區"
"220084","296-UM","2019/09/16 19:49:30","新北市板橋區滿平二街2巷1弄24號","121.424918333333","24.9869116666667","6500100","板橋區"
"220075","303-R5","2019/09/16 19:49:41","新北市板橋區大勇街18號","121.454331666667","25.01725","6500100","板橋區"
"220062","305-R5","2019/09/16 19:49:35","新北市板橋區中山路二段416巷53號","121.48309","25.0192416666667","6500100","板橋區"
"220092","307-R5","2019/09/16 19:49:39","新北市板橋區幸福路32巷41號","121.46058","25.02167","6500100","板橋區"
"220098","317-R6","2019/09/16 19:49:28","新北市板橋區民生路三段299巷18號","121.462735","25.03017","6500100","板橋區"
"220089","487-VK","2019/09/16 19:49:36","新北市板橋區互助街86號","121.460448333333","25.0263166666667","6500100","板橋區"
"220088","491-VK","2019/09/16 19:49:22","新北市板橋區大同街79號","121.479801666667","25.0281766666667","6500100","板橋區"
"220035","560-BX","2019/09/16 19:49:37","新北市板橋區中正路411號","121.454011666667","25.022605","6500100","板橋區"
"220103","561-BX","2019/09/16 19:49:40","新北市板橋區英士路58巷13號","121.460528333333","25.02528","6500100","板橋區"
"220071","568-UM","2019/09/16 19:49:37","新北市板橋區和平路174巷12號","121.464151666667","24.9950166666667","6500100","板橋區"
"220063","609-BX","2019/09/16 19:49:33","新北市板橋區三民路一段31巷1號","121.47918","25.0231233333333","6500100","板橋區"
"220091","637-BX","2019/09/16 19:49:33","新北市板橋區民治街81巷15號","121.480411666667","25.032205","6500100","板橋區"
"220057","686-BX","2019/09/16 19:49:31","新北市板橋區德興街32號","121.453441666667","24.9938583333333","6500100","板橋區"
"220077","687-BX","2019/09/16 19:49:30","新北市板橋區僑中二街112巷1號","121.445853333333","25.0069666666667","6500100","板橋區"
"220093","689-BX","2019/09/16 19:49:35","新北市板橋區長江路二段275號","121.469928333333","25.0330783333333","6500100","板橋區"
"220054","741-BX","2019/09/16 19:49:32","新北市板橋區忠孝路239巷36號","121.467436666667","25.0036233333333","6500100","板橋區"
"220102","KEA-2699","2019/09/16 19:49:43","新北市板橋區仁化街56號","121.475731666667","25.0315733333333","6500100","板橋區"
"220055","827-TW","2019/09/16 19:49:23","新北市板橋區國慶路149巷27-4號","121.461056666667","24.997655","6500100","板橋區"
"220067","829-TW","2019/09/16 19:49:38","新北市板橋區民生路一段19號","121.47507","25.0114833333333","6500100","板橋區"
"220068","830-TW","2019/09/16 19:49:40","新北市板橋區光復街103號","121.484165","25.0192333333333","6500100","板橋區"
"220090","831-TW","2019/09/16 19:49:32","新北市板橋區英士路53號","121.460801666667","25.0245483333333","6500100","板橋區"
"220074","895-R6","2019/09/16 19:49:40","新北市板橋區東門街30-1號","121.458116666667","25.0083933333333","6500100","板橋區"
"220073","985-R7","2019/09/16 19:49:39","新北市板橋區國光路51號","121.458041666667","25.01791","6500100","板橋區"
"220097","AAC-210","2019/09/16 19:49:37","新北市板橋區光正街16巷1號","121.462968333333","25.01721","6500100","板橋區"
"220064","AAC-253","2019/09/16 19:49:35","新北市板橋區民族路215號","121.469466666667","25.007285","6500100","板橋區"
"235068","KEA-2873","2019/09/16 19:49:39","新北市中和區莊敬路16巷15弄7號","121.500455","25.00388","6500300","中和區"
"235026","KEA-2876","2019/09/16 19:43:21","新北市中和區員山路36巷16-3號","121.485013333333","24.9914266666667","6500300","中和區"
