"lineid","car","time","location","longitude","latitude","cityid","cityname"
"234081","298-R6","2019/09/16 20:49:26","新北市永和區永貞路78號","121.520255","25.0050533333333","6500400","永和區"
"249004","303-UY","2019/09/16 20:49:45","新北市八里區中山路一段157巷39號","121.412908333333","25.1580583333333","6502300","八里區"
"234074","AAC-211","2019/09/16 20:49:32","新北市永和區環河東路二段20號","121.522296666667","25.0131333333333","6500400","永和區"
"222003","436-BY","2019/09/16 20:49:28","新北市深坑區文山路三段48-1號","121.609941666667","24.9985033333333","6501800","深坑區"
"222002","659-BX","2019/09/16 20:49:33","新北市深坑區北深路三段93巷54號","121.603573333333","25.0012266666667","6501800","深坑區"
"231061","002-UM","2019/09/16 20:49:28","新北市新店區新和街93巷4號","121.520945","24.98665","6500600","新店區"
"231044","046-UY","2019/09/16 20:49:39","新北市新店區建國路122號","121.539118333333","24.9786616666667","6500600","新店區"
"231060","106-UY","2019/09/16 20:49:26","新北市新店區安康路三段738號","121.473883333333","24.94198","6500600","新店區"
"231049","108-UY","2019/09/16 20:49:44","新北市新店區永業路81巷1弄10號","121.530121666667","24.9499483333333","6500600","新店區"
"231065","110-UY","2019/09/16 20:49:39","新北市新店區安祥路69巷17號","121.481951666667","24.961385","6500600","新店區"
"231068","187-VK","2019/09/16 20:49:41","新北市新店區中興路三段228巷28號","121.544736666667","24.9834666666667","6500600","新店區"
"231062","256-BX","2019/09/16 20:49:33","新北市新店區和成街17巷1號","121.487696666667","24.9468133333333","6500600","新店區"
"231054","260-TV","2019/09/16 20:49:42","新北市新店區五峰路26號","121.543666666667","24.9689566666667","6500600","新店區"
"231042","268-BY","2019/09/16 20:49:29","新北市新店區寶興路49號","121.549118333333","24.9732266666667","6500600","新店區"
"231064","278-BY","2019/09/16 20:49:30","新北市新店區安民街322巷12號","121.518306666667","24.9741933333333","6500600","新店區"
"231050","AAD-862","2019/09/16 20:49:38","新北市新店區三民路20巷18號","121.537905","24.9710566666667","6500600","新店區"
"231058","3713-VJ","2019/09/16 20:49:41","新北市新店區中正路307巷15號","121.535963333333","24.97375","6500600","新店區"
"231067","4772-VM","2019/09/16 20:49:40","新北市新店區安德街148巷16號","121.50774","24.9601783333333","6500600","新店區"
"231051","512-UM","2019/09/16 20:49:29","新北市新店區民生路156巷117號","121.52682","24.9825533333333","6500600","新店區"
"231052","513-UM","2019/09/16 20:49:37","新北市新店區新烏路二段50巷5號","121.548568333333","24.9271016666667","6500600","新店區"
"231041","618-UM","2019/09/16 20:49:38","新北市新店區中正路707號","121.53386","24.9911083333333","6500600","新店區"
"231063","641-BX","2019/09/16 20:49:30","新北市新店區如意街17號","121.494701666667","24.9481383333333","6500600","新店區"
"231047","KED-0819","2019/09/16 20:49:31","新北市新店區文化路67號","121.544721666667","24.9818383333333","6500600","新店區"
"231057","720-UM","2019/09/16 20:49:29","新北市新店區新烏路一段127-1號","121.54697","24.936775","6500600","新店區"
"231059","897-TW","2019/09/16 20:49:24","新北市新店區僑愛七路20號","121.501625","24.9446016666667","6500600","新店區"
"231040","898-TW","2019/09/16 20:49:36","新北市新店區中正路255號","121.538903333333","24.9735333333333","6500600","新店區"
"231043","899-TW","2019/09/16 20:49:23","新北市新店區建國路97巷2號","121.54044","24.9769783333333","6500600","新店區"
"231066","AKT-0513","2019/09/16 20:49:23","新北市新店區安民街133巷26號","121.515345","24.9696033333333","6500600","新店區"
"241011","013-R5","2019/09/16 20:49:39","新北市三重區龍濱路205巷11號","121.502671666667","25.0718416666667","6500200","三重區"
"241028","022-UY","2019/09/16 20:49:36","新北市三重區中正南路40號","121.49379","25.0601316666667","6500200","三重區"
"241008","059-VK","2019/09/16 20:49:45","新北市三重區永福街72巷11號","121.479373333333","25.0767583333333","6500200","三重區"
"241005","060-VK","2019/09/16 20:49:34","新北市三重區五華街163號","121.49029","25.0850716666667","6500200","三重區"
"241031","061-VK","2019/09/16 20:49:23","新北市三重區重陽路一段113巷1弄1號","121.487493333333","25.0598166666667","6500200","三重區"
"241015","062-VK","2019/09/16 20:49:25","新北市三重區三和路二段164號","121.499075","25.0686516666667","6500200","三重區"
"241017","063-VK","2019/09/16 20:49:33","新北市三重區民生街14號","121.49202","25.0674383333333","6500200","三重區"
"241024","065-VK","2019/09/16 20:49:42","新北市三重區忠孝路三段99巷4號","121.480113333333","25.0642533333333","6500200","三重區"
"241007","066-VK","2019/09/16 20:49:34","新北市三重區三和路四段111-2號","121.485713333333","25.0772433333333","6500200","三重區"
"241002","090-VK","2019/09/16 20:49:38","新北市三重區仁義街157巷14號","121.497551666667","25.0812166666667","6500200","三重區"
"241003","091-VK","2019/09/16 20:49:35","新北市三重區集賢路87-1號","121.493623333333","25.0868166666667","6500200","三重區"
"241006","262-UM","2019/09/16 20:49:36","新北市三重區車路頭街137號","121.483916666667","25.0762233333333","6500200","三重區"
"241016","266-UM","2019/09/16 20:49:24","新北市三重區正義北路218號","121.496086666667","25.067555","6500200","三重區"
"241009","267-UM","2019/09/16 20:49:29","新北市三重區三和路四段388-2號","121.482098333333","25.079155","6500200","三重區"
"241018","268-UM","2019/09/16 20:49:26","新北市三重區雙園街57巷1號","121.49501","25.0675766666667","6500200","三重區"
"241032","269-UM","2019/09/16 20:49:42","新北市三重區三光街18號","121.48492","25.06039","6500200","三重區"
"241013","270-UM","2019/09/16 20:49:44","新北市三重區三和路三段140號","121.493516666667","25.0725833333333","6500200","三重區"
"241025","271-UM","2019/09/16 20:49:32","新北市三重區貴陽街14號","121.48421","25.0618633333333","6500200","三重區"
"241030","KED-0822","2019/09/16 20:49:42","新北市三重區昌隆街24號","121.492131666667","25.05233","6500200","三重區"
"241035","462-BY","2019/09/16 20:49:31","新北市三重區文化北路97號","121.497983333333","25.0681533333333","6500200","三重區"
"241004","475-VK","2019/09/16 20:49:40","新北市三重區仁愛街409號","121.490735","25.0811583333333","6500200","三重區"
"241020","478-VK","2019/09/16 20:49:39","新北市三重區忠孝路一段101號","121.48946","25.0721866666667","6500200","三重區"
"241026","480-VK","2019/09/16 20:49:40","新北市三重區和平街1號","121.500063333333","25.0623","6500200","三重區"
"241014","543-UM","2019/09/16 20:49:43","新北市三重區安和路107號","121.500803333333","25.0701366666667","6500200","三重區"
"241023","545-UM","2019/09/16 20:49:23","新北市三重區忠孝路三段84巷1號","121.480266666667","25.0646283333333","6500200","三重區"
"241019","KEA-2593","2019/09/16 20:49:37","新北市三重區大智街188號","121.489868333333","25.0705233333333","6500200","三重區"
"241022","KED-0820","2019/09/16 20:49:34","新北市三重區重陽路二段8號","121.486591666667","25.0620133333333","6500200","三重區"
"241001","887-TS","2019/09/16 20:49:32","新北市三重區自強路三段76巷22號","121.485726666667","25.07412","6500200","三重區"
"241012","941-UM","2019/09/16 20:49:32","新北市三重區仁信街29號","121.501243333333","25.0755433333333","6500200","三重區"
"241029","942-UM","2019/09/16 20:49:35","新北市三重區重安街99-2號","121.4937","25.0553016666667","6500200","三重區"
"241033","AAC-255","2019/09/16 20:49:27","新北市三重區光復路二段1號","121.472223333333","25.0533166666667","6500200","三重區"
"247016","KEA-2869","2019/09/16 20:49:38","新北市蘆洲區中正路71號","121.470435","25.0827816666667","6501400","蘆洲區"
"247010","KED-0682","2019/09/16 20:49:42","新北市蘆洲區鷺江街76號","121.477013333333","25.083805","6501400","蘆洲區"
"235069","4980-A6","2019/09/16 20:49:36","新北市中和區新生街168號","121.483683333333","25.0002216666667","6500300","中和區"
"247006","893-R6","2019/09/16 20:49:25","新北市蘆洲區九芎街82號","121.466293333333","25.07941","6501400","蘆洲區"
"247008","341-TH","2019/09/16 20:49:43","新北市蘆洲區集賢路269巷17號","121.482038333333","25.0833966666667","6501400","蘆洲區"
"247012","337-TH","2019/09/16 20:49:42","新北市蘆洲區復興路340巷6號","121.482361666667","25.0901533333333","6501400","蘆洲區"
"247004","336-TH","2019/09/16 20:49:37","新北市蘆洲區長安街100號","121.461626666667","25.08088","6501400","蘆洲區"
"247024","057-VK","2019/09/16 20:49:32","新北市蘆洲區長樂路140號","121.462195","25.0904266666667","6501400","蘆洲區"
"247014","056-VK","2019/09/16 20:49:24","新北市蘆洲區復興路56號","121.472998333333","25.0855","6501400","蘆洲區"
"247022","007-UY","2019/09/16 20:49:33","新北市蘆洲區忠孝路57號","121.471335","25.0868166666667","6501400","蘆洲區"
"247002","001-UY","2019/09/16 20:49:26","新北市蘆洲區長榮路309號","121.460003333333","25.0865416666667","6501400","蘆洲區"
"222001","KEA-2212","2019/09/16 20:49:36","新北市深坑區北深路三段133號","121.60393","25.00248","6501800","深坑區"
"251015","KEA-2871","2019/09/16 20:49:28","新北市淡水區興仁路161號","121.45067","25.2199766666667","6501000","淡水區"
"251016","179-VK","2019/09/16 20:49:27","新北市淡水區興仁路165號","121.451485","25.2201","6501000","淡水區"
"251013","182-VK","2019/09/16 20:49:37","新北市淡水區埤島41號","121.451951666667","25.1976916666667","6501000","淡水區"
"251010","413-VK","2019/09/16 20:49:26","新北市淡水區沙崙路126號","121.423455","25.18282","6501000","淡水區"
"251012","441-VK","2019/09/16 20:49:29","新北市淡水區淡金路四段514號","121.452061666667","25.2257066666667","6501000","淡水區"
"251007","442-VK","2019/09/16 20:49:28","新北市淡水區鄧公路29巷20號","121.452461666667","25.1701616666667","6501000","淡水區"
"251001","559-UM","2019/09/16 20:49:30","新北市淡水區淡金路73號","121.456038333333","25.1616383333333","6501000","淡水區"
"251006","561-UM","2019/09/16 20:49:30","新北市淡水區新市一路一段6號","121.429331666667","25.1877716666667","6501000","淡水區"
"251014","577-R6","2019/09/16 20:49:31","新北市淡水區公埔子32-8號","121.461655","25.2323783333333","6501000","淡水區"
"251011","650-BX","2019/09/16 20:49:30","新北市淡水區新市一路一段285號","121.434346666667","25.18637","6501000","淡水區"
"251002","672-BX","2019/09/16 20:49:28","新北市淡水區鼻頭街18-1號","121.446818333333","25.1666566666667","6501000","淡水區"
"251003","673-BX","2019/09/16 20:49:44","新北市淡水區中山北路一段247巷96號","121.442211666667","25.17946","6501000","淡水區"
"242042","AAC-296","2019/09/16 20:49:38","新北市新莊區天祥街47巷23號","121.416246666667","25.028095","6500500","新莊區"
"242060","986-R7","2019/09/16 20:49:30","新北市新莊區新樹路278號","121.432596666667","25.01272","6500500","新莊區"
"242029","615-BX","2019/09/16 20:49:40","新北市新莊區中華路三段88號","121.452225","25.057225","6500500","新莊區"
"242027","613-BX","2019/09/16 20:49:25","新北市新莊區環河路116-1號","121.460596666667","25.0380166666667","6500500","新莊區"
"242058","612-BX","2019/09/16 20:49:30","新北市新莊區後港一路141號","121.430533333333","25.0276083333333","6500500","新莊區"
"242048","566-BX","2019/09/16 20:49:32","新北市新莊區中正路606號","121.426653333333","25.0301383333333","6500500","新莊區"
"242053","497-BY","2019/09/16 20:49:29","新北市新莊區西盛街315號","121.428083333333","25.0150366666667","6500500","新莊區"
"242050","442-UM","2019/09/16 20:49:41","新北市新莊區民安西路50號","121.427461666667","25.0207483333333","6500500","新莊區"
"242002","441-UM","2019/09/16 20:49:26","新北市新莊區中港路五守新村8號","121.454878333333","25.0388066666667","6500500","新莊區"
"242007","440-UM","2019/09/16 20:49:28","新北市新莊區思源路38號","121.459861666667","25.0426716666667","6500500","新莊區"
"242044","415-TV","2019/09/16 20:49:29","新北市新莊區龍安路90號","121.417573333333","25.0207966666667","6500500","新莊區"
"242013","413-TV","2019/09/16 20:49:30","新北市新莊區中和街175巷11號","121.447265","25.0506666666667","6500500","新莊區"
"242025","362-BY","2019/09/16 20:49:36","新北市新莊區化成路579巷1號","121.464341666667","25.0661416666667","6500500","新莊區"
"242023","353-BY","2019/09/16 20:49:40","新北市新莊區化成路380號","121.46586","25.049965","6500500","新莊區"
"242015","132-UY","2019/09/16 20:49:32","新北市新莊區思源路157號","121.45964","25.0445416666667","6500500","新莊區"
"242031","175-VK","2019/09/16 20:49:32","新北市新莊區中正路508巷2號","121.43601","25.03313","6500500","新莊區"
"242009","346-TH","2019/09/16 20:49:40","新北市新莊區幸福路564巷2弄2號","121.454445","25.0495416666667","6500500","新莊區"
"242036","348-TH","2019/09/16 20:49:42","新北市新莊區後港一路207號","121.434643333333","25.0283383333333","6500500","新莊區"
"242034","350-TH","2019/09/16 20:49:33","新北市新莊區中正路318巷13號","121.44626","25.0357916666667","6500500","新莊區"
"242019","351-TH","2019/09/16 20:49:26","新北市三重區中興南街37號","121.468916666667","25.0422466666667","6500500","新莊區"
"221036","130-UY","2019/09/16 20:49:27","新北市汐止區忠孝東路297號","121.663993333333","25.0689016666667","6501100","汐止區"
"221015","131-UY","2019/09/16 20:49:36","新北市汐止區大同路二段623號","121.664315","25.0709966666667","6501100","汐止區"
"221012","278-VK","2019/09/16 20:49:25","新北市汐止區保新街21號","121.684221666667","25.0731166666667","6501100","汐止區"
"221023","279-VK","2019/09/16 20:49:39","新北市汐止區民族二街7-1號","121.635043333333","25.0717366666667","6501100","汐止區"
"221029","298-VK","2019/09/16 20:49:40","新北市汐止區工建路112號","121.638496666667","25.0634866666667","6501100","汐止區"
"221021","299-VK","2019/09/16 20:49:36","新北市汐止區莊敬街130號","121.654695","25.0610683333333","6501100","汐止區"
"221035","622-UM","2019/09/16 20:49:29","新北市汐止區長江街101-5號","121.658661666667","25.0731483333333","6501100","汐止區"
"221038","646-BX","2019/09/16 20:49:44","新北市汐止區汐萬路一段256巷3號","121.653355","25.07467","6501100","汐止區"
"221033","647-BX","2019/09/16 20:49:34","新北市汐止區合順街18巷8弄5號","121.620331666667","25.0419266666667","6501100","汐止區"
"220079","145-BY","2019/09/16 20:49:33","新北市五股區成洲五路52號","121.453661666667","25.1014633333333","6500100","板橋區"
"220083","286-VK","2019/09/16 20:49:37","新北市板橋區僑中二街106巷6號","121.44564","25.0076283333333","6500100","板橋區"
"242046","281-VK","2019/09/16 20:49:35","新北市泰山區貴子路41-1號","121.429565","25.0400366666667","6500500","新莊區"
"242011","280-VK","2019/09/16 20:49:34","新北市五股區成泰路一段8巷9-9號","121.437803333333","25.0674983333333","6500500","新莊區"
