"lineid","car","time","location","longitude","latitude","cityid","cityname"
"231061","002-UM","2019/09/16 20:59:28","新北市新店區永安街60號","121.518838333333","24.9869116666667","6500600","新店區"
"231044","046-UY","2019/09/16 20:59:39","新北市新店區光華街38巷3號","121.515566666667","24.9698366666667","6500600","新店區"
"231060","106-UY","2019/09/16 20:59:26","新北市新店區安康路三段527號","121.482006666667","24.9475333333333","6500600","新店區"
"231049","108-UY","2019/09/16 20:59:23","新北市新店區安康路一段266巷4號","121.520003333333","24.96396","6500600","新店區"
"231065","110-UY","2019/09/16 20:59:39","新北市新店區安祥路67巷50弄36號","121.484188333333","24.9588933333333","6500600","新店區"
"231068","187-VK","2019/09/16 20:59:41","新北市新店區寶元路二段43號","121.547093333333","24.9813183333333","6500600","新店區"
"231062","256-BX","2019/09/16 20:59:33","新北市新店區裕合街109號","121.490156666667","24.9493833333333","6500600","新店區"
"231054","260-TV","2019/09/16 20:59:42","新北市新店區大新街7巷26號","121.544078333333","24.9678966666667","6500600","新店區"
"231042","268-BY","2019/09/16 20:59:29","新北市新店區寶興路60巷4號","121.549841666667","24.9719366666667","6500600","新店區"
"231064","278-BY","2019/09/16 20:59:30","新北市新店區安民街193號","121.517061666667","24.9714683333333","6500600","新店區"
"231050","AAD-862","2019/09/16 20:59:38","新北市新店區三民路38號","121.536266666667","24.971465","6500600","新店區"
"231058","3713-VJ","2019/09/16 20:59:41","新北市新店區平等街65號","121.535971666667","24.972475","6500600","新店區"
"231051","512-UM","2019/09/16 20:59:29","新北市新店區中正路663巷1弄2號","121.53289","24.99001","6500600","新店區"
"231063","641-BX","2019/09/16 20:59:30","新北市新店區玫瑰路58巷2號","121.495416666667","24.9468283333333","6500600","新店區"
"231047","KED-0819","2019/09/16 20:59:31","新北市新店區寶強路17號","121.543083333333","24.9793016666667","6500600","新店區"
"231059","897-TW","2019/09/16 20:59:24","新北市新店區吉祥街11巷40號","121.498985","24.9463333333333","6500600","新店區"
"231040","898-TW","2019/09/16 20:59:36","新北市新店區中正路146號","121.5417","24.9715916666667","6500600","新店區"
"231043","899-TW","2019/09/16 20:59:23","新北市新店區中央路151號","121.529496666667","24.9723316666667","6500600","新店區"
"231066","AKT-0513","2019/09/16 20:59:23","新北市新店區安光路16號","121.51369","24.96471","6500600","新店區"
"241028","022-UY","2019/09/16 20:59:36","新北市三重區正義南路60-1號","121.49826","25.06064","6500200","三重區"
"241008","059-VK","2019/09/16 20:59:25","新北市三重區車路頭街135-1號","121.484288333333","25.0760916666667","6500200","三重區"
"241005","060-VK","2019/09/16 20:59:34","新北市三重區五華街237號","121.489351666667","25.0859483333333","6500200","三重區"
"241031","061-VK","2019/09/16 20:59:43","新北市三重區重陽路一段113巷2弄2號","121.48746","25.0598566666667","6500200","三重區"
"241015","062-VK","2019/09/16 20:59:36","新北市三重區福德北路70號","121.50172","25.0659833333333","6500200","三重區"
"241017","063-VK","2019/09/16 20:59:33","新北市三重區大仁街23號","121.492036666667","25.06461","6500200","三重區"
"241024","065-VK","2019/09/16 20:59:42","新北市三重區大勇街82巷15弄30號","121.481251666667","25.0719666666667","6500200","三重區"
"241007","066-VK","2019/09/16 20:59:30","新北市三重區慈愛街9號","121.48506","25.07869","6500200","三重區"
"241002","090-VK","2019/09/16 20:59:32","新北市三重區仁義街157巷23號","121.497868333333","25.0813","6500200","三重區"
"241003","091-VK","2019/09/16 20:59:35","新北市三重區集賢路87-1號","121.493611666667","25.0868183333333","6500200","三重區"
"241006","262-UM","2019/09/16 20:59:37","新北市三重區永福街176號","121.481158333333","25.0743366666667","6500200","三重區"
"241016","266-UM","2019/09/16 20:59:44","新北市三重區自強路一段125號","121.495351666667","25.0664433333333","6500200","三重區"
"241009","267-UM","2019/09/16 20:59:29","新北市三重區車路頭街135號","121.484178333333","25.075805","6500200","三重區"
"241018","268-UM","2019/09/16 20:59:26","新北市三重區雙園街57巷25號","121.4946","25.0683333333333","6500200","三重區"
"241032","269-UM","2019/09/16 20:59:42","新北市三重區興華街141號","121.483","25.0599116666667","6500200","三重區"
"241013","270-UM","2019/09/16 20:59:24","新北市三重區仁賢街12-1號","121.495661666667","25.07484","6500200","三重區"
"241025","271-UM","2019/09/16 20:59:32","新北市三重區貴陽街14號","121.484175","25.0618133333333","6500200","三重區"
"241030","KED-0822","2019/09/16 20:59:42","新北市三重區環河南路220-8號","121.4934","25.0527716666667","6500200","三重區"
"241004","475-VK","2019/09/16 20:59:40","新北市三重區溪尾街267號","121.487666666667","25.0820033333333","6500200","三重區"
"241020","478-VK","2019/09/16 20:59:39","新北市三重區忠孝路二段34號","121.485805","25.0710283333333","6500200","三重區"
"241026","480-VK","2019/09/16 20:59:40","新北市三重區文化南路46號","121.500435","25.06002","6500200","三重區"
"241014","543-UM","2019/09/16 20:59:23","新北市三重區長壽街120巷11號","121.502478333333","25.0691083333333","6500200","三重區"
"241023","545-UM","2019/09/16 20:59:43","新北市三重區洛陽街45巷11號","121.48237","25.0637616666667","6500200","三重區"
"241019","KEA-2593","2019/09/16 20:59:37","新北市三重區自強路二段74巷21號","121.487985","25.0698533333333","6500200","三重區"
"241022","KED-0820","2019/09/16 20:59:34","新北市三重區中正北路20巷12號","121.487935","25.0624516666667","6500200","三重區"
"241001","887-TS","2019/09/16 20:59:32","新北市三重區三和路四段118巷2號","121.488923333333","25.0747433333333","6500200","三重區"
"241012","941-UM","2019/09/16 20:59:32","新北市三重區龍門路274巷45號","121.50124","25.0755216666667","6500200","三重區"
"241029","942-UM","2019/09/16 20:59:35","新北市三重區電信街29號","121.497195","25.0584666666667","6500200","三重區"
"241033","AAC-255","2019/09/16 20:59:27","新北市三重區光復路二段96號","121.47211","25.0578466666667","6500200","三重區"
"247016","KEA-2869","2019/09/16 20:59:37","新北市蘆洲區正和街83號","121.468186666667","25.0807316666667","6501400","蘆洲區"
"247010","KED-0682","2019/09/16 20:59:42","新北市蘆洲區鷺江街91號","121.47693","25.0837183333333","6501400","蘆洲區"
"235069","4980-A6","2019/09/16 20:59:36","新北市中和區中正路637巷32號","121.48498","24.994565","6500300","中和區"
"235018","640-BX","2019/09/16 20:56:52","新北市中和區員山路36巷16-2號","121.485313333333","24.9915466666667","6500300","中和區"
"235010","733-UM","2019/09/16 20:59:25","新北市中和區員山路36巷13號","121.484136666667","24.990845","6500300","中和區"
"247006","893-R6","2019/09/16 20:59:44","新北市蘆洲區永安南路二段16巷8號","121.46779","25.07722","6501400","蘆洲區"
"247018","500-BY","2019/09/16 20:59:33","新北市蘆洲區民權路136-2號","121.473086666667","25.08888","6501400","蘆洲區"
"247008","341-TH","2019/09/16 20:59:43","新北市蘆洲區民生街76號","121.472808333333","25.079145","6501400","蘆洲區"
"247012","337-TH","2019/09/16 20:59:42","新北市蘆洲區信義路218號","121.478973333333","25.0851916666667","6501400","蘆洲區"
"247004","336-TH","2019/09/16 20:59:37","新北市蘆洲區永安南路二段260號","121.45947","25.0804033333333","6501400","蘆洲區"
"247024","057-VK","2019/09/16 20:59:32","新北市蘆洲區長興路213號","121.461113333333","25.0863833333333","6501400","蘆洲區"
"247014","056-VK","2019/09/16 20:59:24","新北市蘆洲區中山二路36巷19號","121.474241666667","25.082945","6501400","蘆洲區"
"247002","001-UY","2019/09/16 20:59:26","新北市蘆洲區永樂街38巷12號","121.45818","25.08889","6501400","蘆洲區"
"251015","KEA-2871","2019/09/16 20:59:28","新北市淡水區淡金路四段542巷17號","121.452831666667","25.227075","6501000","淡水區"
"251016","179-VK","2019/09/16 20:59:27","新北市淡水區牛埔子11-1號","121.450181666667","25.21845","6501000","淡水區"
"251013","182-VK","2019/09/16 20:59:37","新北市淡水區番子厝13號","121.46136","25.201425","6501000","淡水區"
"251010","413-VK","2019/09/16 20:59:26","新北市淡水區中正路一段118-3號","121.423873333333","25.1787566666667","6501000","淡水區"
"251012","441-VK","2019/09/16 20:59:29","新北市淡水區淡金路五段116-1號","121.456543333333","25.236895","6501000","淡水區"
"251007","442-VK","2019/09/16 20:59:28","新北市淡水區仁愛街2巷25號","121.446396666667","25.17099","6501000","淡水區"
"251001","559-UM","2019/09/16 20:59:41","新北市淡水區新市一路三段103號","121.446185","25.1831916666667","6501000","淡水區"
"251014","577-R6","2019/09/16 20:59:31","新北市淡水區溪口26號","121.455601666667","25.2365433333333","6501000","淡水區"
"251011","650-BX","2019/09/16 20:59:30","新北市淡水區新民街230號","121.436316666667","25.1808116666667","6501000","淡水區"
"251002","672-BX","2019/09/16 20:59:28","新北市淡水區英專路78號","121.445783333333","25.171285","6501000","淡水區"
"251003","673-BX","2019/09/16 20:59:40","新北市淡水區新春街146號","121.442113333333","25.18138","6501000","淡水區"
"242002","441-UM","2019/09/16 20:59:26","新北市新莊區中港路五守新村1巷7號","121.455283333333","25.03815","6500500","新莊區"
"242025","362-BY","2019/09/16 20:59:36","新北市五股區中興路三段2巷10號","121.448005","25.0842783333333","6500500","新莊區"
"242036","348-TH","2019/09/16 20:59:42","新北市新莊區中環路一段299號","121.442016666667","25.032405","6500500","新莊區"
"242034","350-TH","2019/09/16 20:59:41","新北市新莊區中正路317號","121.4479","25.0351416666667","6500500","新莊區"
"221035","622-UM","2019/09/16 20:59:29","新北市汐止區汐萬路一段144-2號","121.653073333333","25.0710633333333","6501100","汐止區"
"221038","646-BX","2019/09/16 20:59:24","新北市汐止區汐萬路一段256巷1號","121.65204","25.074725","6501100","汐止區"
"242046","281-VK","2019/09/16 20:59:35","新北市五股區新五路二段86號","121.437161666667","25.073955","6500500","新莊區"
