"lineid","car","time","location","longitude","latitude","cityid","cityname"
"231061","002-UM","2019/09/16 21:09:37","新北市新店區永平街32號","121.516323333333","24.9839116666667","6500600","新店區"
"231060","106-UY","2019/09/16 21:09:26","新北市新店區安康路三段25號","121.493246666667","24.9532266666667","6500600","新店區"
"231065","110-UY","2019/09/16 21:09:39","新北市新店區安祥路65號","121.483851666667","24.960245","6500600","新店區"
"231068","187-VK","2019/09/16 21:09:41","新北市新店區溪洲路123號","121.529795","24.9635066666667","6500600","新店區"
"231062","256-BX","2019/09/16 21:09:33","新北市新店區安康路三段58號","121.492345","24.9521666666667","6500600","新店區"
"231054","260-TV","2019/09/16 21:09:42","新北市新店區光明街314號","121.540573333333","24.9651833333333","6500600","新店區"
"231042","268-BY","2019/09/16 21:09:29","新北市新店區柴埕路47號","121.51421","24.965265","6500600","新店區"
"231064","278-BY","2019/09/16 21:09:30","新北市新店區薏仁坑路自強巷1號","121.497508333333","24.9577866666667","6500600","新店區"
"231050","AAD-862","2019/09/16 21:09:38","新北市新店區中華路83巷2弄20號","121.538403333333","24.9691783333333","6500600","新店區"
"231051","512-UM","2019/09/16 21:09:36","新北市新店區中正路700巷82號","121.536025","24.99311","6500600","新店區"
"231063","641-BX","2019/09/16 21:09:30","新北市新店區玫瑰路64巷2號","121.495861666667","24.945755","6500600","新店區"
"231059","897-TW","2019/09/16 21:09:24","新北市新店區僑信路100號","121.499941666667","24.9473816666667","6500600","新店區"
"231040","898-TW","2019/09/16 21:09:36","新北市新店區北新路一段187號","121.540183333333","24.96443","6500600","新店區"
"241028","022-UY","2019/09/16 21:09:35","新北市三重區正義南路169號","121.498966666667","25.057535","6500200","三重區"
"241008","059-VK","2019/09/16 21:09:25","新北市三重區自強路一段60號","121.497355","25.0666833333333","6500200","三重區"
"241005","060-VK","2019/09/16 21:09:34","新北市三重區仁華街118巷11號","121.486095","25.0832316666667","6500200","三重區"
"241031","061-VK","2019/09/16 21:09:43","新北市三重區重新路五段422-1號","121.475315","25.04755","6500200","三重區"
"241015","062-VK","2019/09/16 21:09:36","新北市三重區長元街100-6號","121.503076666667","25.0668233333333","6500200","三重區"
"241017","063-VK","2019/09/16 21:09:33","新北市三重區大同北路132巷8號","121.492225","25.0646083333333","6500200","三重區"
"241024","065-VK","2019/09/16 21:09:22","新北市三重區國道路一段58巷17號","121.481361666667","25.072","6500200","三重區"
"241007","066-VK","2019/09/16 21:09:30","新北市三重區三和路四段145巷81號","121.486356666667","25.078735","6500200","三重區"
"241002","090-VK","2019/09/16 21:09:32","新北市三重區五華街1巷96號","121.49733","25.08059","6500200","三重區"
"241003","091-VK","2019/09/16 21:09:36","新北市三重區仁義街224號","121.49495","25.0846933333333","6500200","三重區"
"241006","262-UM","2019/09/16 21:09:36","新北市三重區中正北路2號","121.489265","25.063165","6500200","三重區"
"241016","266-UM","2019/09/16 21:09:44","新北市三重區大智街12號","121.495266666667","25.0644983333333","6500200","三重區"
"241009","267-UM","2019/09/16 21:09:29","新北市三重區忠孝路二段124號","121.483048333333","25.068835","6500200","三重區"
"241018","268-UM","2019/09/16 21:09:26","新北市三重區正義北路340號","121.494315","25.0706616666667","6500200","三重區"
"241032","269-UM","2019/09/16 21:09:22","新北市三重區中興北街245號","121.469038333333","25.0592133333333","6500200","三重區"
"241013","270-UM","2019/09/16 21:09:42","新北市三重區仁愛街118號","121.495186666667","25.074615","6500200","三重區"
"241025","271-UM","2019/09/16 21:09:32","新北市三重區中正北路208巷10弄4號","121.48239","25.0669166666667","6500200","三重區"
"241030","KED-0822","2019/09/16 21:09:42","新北市三重區五谷王北街20巷15弄1號","121.475026666667","25.0484816666667","6500200","三重區"
"241004","475-VK","2019/09/16 21:09:40","新北市三重區仁愛街423-1號","121.490378333333","25.0814433333333","6500200","三重區"
"241026","480-VK","2019/09/16 21:09:40","新北市三重區大同南路218號","121.496725","25.056385","6500200","三重區"
"241014","543-UM","2019/09/16 21:09:23","新北市三重區長安街82-1號","121.501338333333","25.0677166666667","6500200","三重區"
"241023","545-UM","2019/09/16 21:09:23","新北市三重區忠孝路三段84巷63號","121.482333333333","25.0637683333333","6500200","三重區"
"241019","KEA-2593","2019/09/16 21:09:37","新北市三重區自強路二段74巷21號","121.488036666667","25.069855","6500200","三重區"
"241022","KED-0820","2019/09/16 21:09:34","新北市三重區中正北路64巷24號","121.48608","25.0636716666667","6500200","三重區"
"241001","887-TS","2019/09/16 21:09:32","新北市三重區自強路三段87巷22號","121.48849","25.0751633333333","6500200","三重區"
"241012","941-UM","2019/09/16 21:09:32","新北市三重區龍門路274巷45號","121.501221666667","25.07554","6500200","三重區"
"241029","942-UM","2019/09/16 21:09:35","新北市三重區正義南路111號","121.498186666667","25.0585333333333","6500200","三重區"
"241033","AAC-255","2019/09/16 21:09:27","新北市三重區新北大道二段65號","121.469625","25.0614466666667","6500200","三重區"
"247016","KEA-2869","2019/09/16 21:09:37","新北市蘆洲區中正路185巷60號","121.466675","25.0846166666667","6501400","蘆洲區"
"247010","KED-0682","2019/09/16 21:09:22","新北市蘆洲區鷺江街38號","121.47734","25.0830416666667","6501400","蘆洲區"
"235018","640-BX","2019/09/16 20:56:52","新北市中和區員山路36巷16-2號","121.485313333333","24.9915466666667","6500300","中和區"
"235010","733-UM","2019/09/16 21:09:25","新北市中和區員山路36巷13號","121.48414","24.990885","6500300","中和區"
"247006","893-R6","2019/09/16 21:09:44","新北市蘆洲區長安街22巷24號","121.464801666667","25.0797833333333","6501400","蘆洲區"
"247018","500-BY","2019/09/16 21:09:33","新北市蘆洲區民族路408巷1號","121.474598333333","25.091695","6501400","蘆洲區"
"247008","341-TH","2019/09/16 21:09:23","新北市蘆洲區民生街125號","121.47277","25.0790216666667","6501400","蘆洲區"
"247012","337-TH","2019/09/16 21:09:42","新北市蘆洲區三民路75號","121.474968333333","25.0839466666667","6501400","蘆洲區"
"247004","336-TH","2019/09/16 21:09:37","新北市蘆洲區永安南路二段322號","121.457025","25.0826716666667","6501400","蘆洲區"
"247024","057-VK","2019/09/16 21:09:32","新北市蘆洲區長興路50巷1號","121.463773333333","25.0837683333333","6501400","蘆洲區"
"247014","056-VK","2019/09/16 21:09:44","新北市蘆洲區中央路155號","121.47259","25.0847116666667","6501400","蘆洲區"
"247022","007-UY","2019/09/16 21:09:33","新北市蘆洲區三民路251號","121.468515","25.0893333333333","6501400","蘆洲區"
"247002","001-UY","2019/09/16 21:09:43","新北市蘆洲區永平街8號","121.459411666667","25.090455","6501400","蘆洲區"
"251009","008-UM","2019/09/16 21:09:31","新北市淡水區民族路112巷68號","121.461923333333","25.1339033333333","6501000","淡水區"
"251015","KEA-2871","2019/09/16 21:09:29","新北市淡水區淡金路四段542巷90號","121.454606666667","25.2253266666667","6501000","淡水區"
"251016","179-VK","2019/09/16 21:09:27","新北市淡水區前洲子3-1號","121.443811666667","25.2163866666667","6501000","淡水區"
"251008","181-VK","2019/09/16 21:09:40","新北市淡水區淡金路二段509-1號","121.447","25.1898716666667","6501000","淡水區"
"251013","182-VK","2019/09/16 21:09:37","新北市淡水區水汴頭12號","121.46974","25.20348","6501000","淡水區"
"251010","413-VK","2019/09/16 21:09:26","新北市淡水區中正路一段63巷5-3號","121.423318333333","25.1773683333333","6501000","淡水區"
"251012","441-VK","2019/09/16 21:09:29","新北市淡水區淡金路五段172號","121.45701","25.2400616666667","6501000","淡水區"
"251007","442-VK","2019/09/16 21:09:28","新北市淡水區學府路96號","121.449678333333","25.17152","6501000","淡水區"
"251005","443-VK","2019/09/16 21:09:34","新北市淡水區英專路2巷27號","121.44638","25.16937","6501000","淡水區"
"251001","559-UM","2019/09/16 21:09:30","新北市淡水區新市一路三段101巷16弄1號","121.446261666667","25.1837233333333","6501000","淡水區"
"251014","577-R6","2019/09/16 21:09:44","新北市淡水區六塊厝1-2號","121.45078","25.2426016666667","6501000","淡水區"
"251011","650-BX","2019/09/16 21:09:30","新北市淡水區新民街222巷16弄13號","121.437013333333","25.1799783333333","6501000","淡水區"
"251002","672-BX","2019/09/16 21:09:28","新北市淡水區水源街一段157號","121.44773","25.1717116666667","6501000","淡水區"
"251003","673-BX","2019/09/16 21:09:25","新北市淡水區新春街130號","121.440795","25.18177","6501000","淡水區"
"242025","362-BY","2019/09/16 21:09:36","新北市八里區下罟子17號","121.381943333333","25.14415","6500500","新莊區"
"221035","622-UM","2019/09/16 21:09:29","新北市汐止區汐萬路一段256巷3號","121.653376666667","25.0745316666667","6501100","汐止區"
