"lineid","car","time","location","longitude","latitude","cityid","cityname"
"231050","AAD-862","2019/09/16 21:19:38","新北市新店區中正路282-10號","121.537965","24.9743133333333","6500600","新店區"
"231051","512-UM","2019/09/16 21:19:29","新北市新店區溪園路247號","121.525436666667","24.9837183333333","6500600","新店區"
"231063","641-BX","2019/09/16 21:19:30","新北市新店區吉祥街13巷1號","121.497713333333","24.9460283333333","6500600","新店區"
"231059","897-TW","2019/09/16 21:19:24","新北市新店區僑義路6號","121.50037","24.9510333333333","6500600","新店區"
"241028","022-UY","2019/09/16 21:19:35","新北市三重區中正南路186號","121.494106666667","25.056275","6500200","三重區"
"241008","059-VK","2019/09/16 21:19:25","新北市三重區自強路一段179號","121.492348333333","25.067745","6500200","三重區"
"241005","060-VK","2019/09/16 21:19:34","新北市三重區永安北路二段25巷60號","121.48349","25.0820933333333","6500200","三重區"
"241031","061-VK","2019/09/16 21:19:43","新北市三重區五谷王南街46巷37號","121.475711666667","25.0455266666667","6500200","三重區"
"241015","062-VK","2019/09/16 21:19:25","新北市三重區長壽街136號","121.502626666667","25.0687683333333","6500200","三重區"
"241017","063-VK","2019/09/16 21:19:33","新北市三重區中正北路25巷2號","121.49325","25.062675","6500200","三重區"
"241024","065-VK","2019/09/16 21:19:42","新北市三重區中正北路145巷14號","121.484146666667","25.0677683333333","6500200","三重區"
"241007","066-VK","2019/09/16 21:19:30","新北市三重區正義北路268號","121.495901666667","25.068785","6500200","三重區"
"241002","090-VK","2019/09/16 21:19:32","新北市三重區自強路五段63號","121.49473","25.08193","6500200","三重區"
"241003","091-VK","2019/09/16 21:19:35","新北市三重區仁義街317號","121.49536","25.0842233333333","6500200","三重區"
"241006","262-UM","2019/09/16 21:19:36","新北市新莊區化成路585-1號","121.463573333333","25.0667266666667","6500200","三重區"
"241016","266-UM","2019/09/16 21:19:44","新北市三重區自強路一段95號","121.495898333333","25.06631","6500200","三重區"
"241009","267-UM","2019/09/16 21:19:29","新北市三重區仁華街5號","121.483506666667","25.0813633333333","6500200","三重區"
"241018","268-UM","2019/09/16 21:19:26","新北市三重區忠孝路三段84巷16號","121.480416666667","25.0648583333333","6500200","三重區"
"241032","269-UM","2019/09/16 21:19:42","新北市三重區光復路二段178-1號","121.472083333333","25.062125","6500200","三重區"
"241013","270-UM","2019/09/16 21:19:44","新北市三重區仁愛街66號","121.495748333333","25.0731216666667","6500200","三重區"
"241025","271-UM","2019/09/16 21:19:32","新北市三重區中正北路208巷10弄4號","121.482398333333","25.0669066666667","6500200","三重區"
"241030","KED-0822","2019/09/16 21:19:42","新北市三重區光復路二段152號","121.47213","25.0605033333333","6500200","三重區"
"241004","475-VK","2019/09/16 21:19:40","新北市三重區福隆路97號","121.492316666667","25.0782916666667","6500200","三重區"
"241026","480-VK","2019/09/16 21:19:40","新北市三重區大同南路111號","121.496218333333","25.058385","6500200","三重區"
"241014","543-UM","2019/09/16 21:19:43","新北市三重區萬全街9號","121.499291666667","25.06967","6500200","三重區"
"241023","545-UM","2019/09/16 21:19:43","新北市三重區中正北路176巷16號","121.482708333333","25.065955","6500200","三重區"
"241001","887-TS","2019/09/16 21:19:32","新北市三重區福隆路50號","121.492436666667","25.0784816666667","6500200","三重區"
"241033","AAC-255","2019/09/16 21:19:27","新北市三重區光復路二段88巷33號","121.470395","25.0578333333333","6500200","三重區"
"235018","640-BX","2019/09/16 20:56:52","新北市中和區員山路36巷16-2號","121.485313333333","24.9915466666667","6500300","中和區"
"235010","733-UM","2019/09/16 21:10:10","新北市中和區員山路36巷13號","121.484141666667","24.990885","6500300","中和區"
"247006","893-R6","2019/09/16 21:19:24","新北市蘆洲區長安街25號","121.464003333333","25.0791766666667","6501400","蘆洲區"
"247008","341-TH","2019/09/16 21:19:43","新北市蘆洲區信義路73巷17號","121.475921666667","25.0808183333333","6501400","蘆洲區"
"247012","337-TH","2019/09/16 21:19:42","新北市蘆洲區中興街113號","121.482206666667","25.0888983333333","6501400","蘆洲區"
"247022","007-UY","2019/09/16 21:19:40","新北市蘆洲區三民路128巷67號","121.469313333333","25.0908066666667","6501400","蘆洲區"
"247002","001-UY","2019/09/16 21:19:26","新北市蘆洲區永樂街57號","121.456691666667","25.0885666666667","6501400","蘆洲區"
"251009","008-UM","2019/09/16 21:19:31","新北市淡水區民族路112巷3號","121.462596666667","25.135155","6501000","淡水區"
"251004","009-UM","2019/09/16 21:19:34","新北市淡水區民族路33號","121.462278333333","25.1358333333333","6501000","淡水區"
"251015","KEA-2871","2019/09/16 21:19:28","新北市淡水區淡金路四段518號","121.451831666667","25.2261766666667","6501000","淡水區"
"251016","179-VK","2019/09/16 21:19:27","新北市淡水區前洲子11號","121.441128333333","25.2193016666667","6501000","淡水區"
"251008","181-VK","2019/09/16 21:19:40","新北市淡水區水源街二段346巷1弄1號","121.464156666667","25.17552","6501000","淡水區"
"251013","182-VK","2019/09/16 21:19:37","新北市淡水區行忠路330號","121.460673333333","25.19989","6501000","淡水區"
"251010","413-VK","2019/09/16 21:19:26","新北市淡水區中正路一段156巷12號","121.421838333333","25.1808466666667","6501000","淡水區"
"251012","441-VK","2019/09/16 21:19:29","新北市淡水區淡金路五段35巷46號","121.452485","25.234735","6501000","淡水區"
"251005","443-VK","2019/09/16 21:19:34","新北市淡水區仁愛街18巷4號","121.446995","25.1703916666667","6501000","淡水區"
"251001","559-UM","2019/09/16 21:19:30","新北市淡水區濱海路一段306巷60弄21號","121.441346666667","25.1916","6501000","淡水區"
"251014","577-R6","2019/09/16 21:19:31","新北市淡水區六塊厝2-1號","121.450128333333","25.240475","6501000","淡水區"
"251011","650-BX","2019/09/16 21:19:30","新北市淡水區新民街120巷29號","121.438876666667","25.178815","6501000","淡水區"
"251002","672-BX","2019/09/16 21:19:28","新北市淡水區學府路172巷21號","121.448318333333","25.1748933333333","6501000","淡水區"
"251003","673-BX","2019/09/16 21:19:24","新北市淡水區崁頂18號","121.439238333333","25.1854033333333","6501000","淡水區"
