"lineid","car","time","location","longitude","latitude","cityid","cityname"
"234068","552-UM","2019/07/11 12:09:44","新北市永和區福和路1號","121.525361666667","25.0093666666667","6500400","永和區"
"244023","483-VK","2019/07/11 12:04:50","新北市林口區粉寮69號","121.405075","25.0907616666667","6501700","林口區"
"228005","097-TW","2019/07/11 12:09:48","新北市貢寮區福隆里興隆街36號","121.942551666667","25.0165266666667","6502600","貢寮區"
"228004","212-TW","2019/07/11 12:09:45","新北市貢寮區貢寮里貢寮街11號","121.907876666667","25.0191766666667","6502600","貢寮區"
"207002","749-BX","2019/07/11 12:09:54","新北市萬里區中幅里大湖路6號","121.659848333333","25.1698183333333","6502800","萬里區"
"207001","662-BX","2019/07/11 12:09:40","新北市萬里區萬里里獅頭路15-1號","121.697343333333","25.1800166666667","6502800","萬里區"
