"lineid","car","time","location","longitude","latitude","cityid","cityname"
"234044","148-BY","2019/07/11 12:59:17","新北市永和區得和路373巷16弄1號","121.525091666667","25.000375","6500400","永和區"
"234078","298-R6","2019/07/11 12:59:07","新北市永和區永亨路70號","121.521128333333","25.0059033333333","6500400","永和區"
"234036","336-UY","2019/07/11 12:59:19","新北市中和區秀朗路三段38號","121.526471666667","24.9959783333333","6500400","永和區"
"234062","337-UY","2019/07/11 12:59:09","新北市永和區秀朗路一段146號","121.518188333333","25.00319","6500400","永和區"
"234084","338-UY","2019/07/11 12:59:21","新北市永和區永寧街121號","121.518113333333","25.0056866666667","6500400","永和區"
"234068","552-UM","2019/07/11 12:59:24","新北市永和區竹林路96巷7號","121.519233333333","25.0120766666667","6500400","永和區"
"234015","745-BX","2019/07/11 12:59:16","新北市永和區永和路二段297號","121.515978333333","25.0160266666667","6500400","永和區"
"234028","746-BX","2019/07/11 12:59:18","新北市永和區秀朗路二段269號","121.526173333333","24.9986333333333","6500400","永和區"
"234052","KEA-2590","2019/07/11 12:59:20","新北市永和區竹林路66巷2號","121.518303333333","25.01336","6500400","永和區"
"234005","KED-0605","2019/07/11 12:59:20","新北市永和區中山路一段10號","121.514091666667","25.0104733333333","6500400","永和區"
"234012","KEA-2591","2019/07/11 12:59:16","新北市永和區中山路一段67號","121.512743333333","25.0106083333333","6500400","永和區"
"234060","AAD-866","2019/07/11 12:59:23","新北市永和區福和路301號","121.516416666667","25.0071733333333","6500400","永和區"
"234040","862-TW","2019/07/11 12:59:19","新北市永和區永貞路265號","121.511773333333","25.0047416666667","6500400","永和區"
"234048","863-TW","2019/07/11 12:59:17","新北市永和區文化路194號","121.510753333333","25.01623","6500400","永和區"
"234025","9371-KE","2019/07/11 12:59:13","新北市永和區永和路一段1號","121.513013333333","25.0051433333333","6500400","永和區"
"234010","9373-KE","2019/07/11 12:59:10","新北市永和區文化路113巷21弄26號","121.51378","25.0139483333333","6500400","永和區"
"248013","025-BX","2019/07/11 12:59:18","新北市五股區中興路三段192號","121.442773333333","25.0816733333333","6501500","五股區"
"248015","026-BX","2019/07/11 12:59:12","新北市五股區中興路二段83巷26-6號","121.459408333333","25.07532","6501500","五股區"
"248005","077-UY","2019/07/11 12:59:12","新北市五股區中興路二段37巷28號","121.460221666667","25.0746766666667","6501500","五股區"
"248007","KED-0815","2019/07/11 12:59:19","新北市五股區中興路二段103巷16號","121.458641666667","25.07611","6501500","五股區"
"248017","KED-0813","2019/07/11 12:59:24","新北市五股區中興路二段57-6號","121.460415","25.075395","6501500","五股區"
"248009","272-BY","2019/07/11 12:59:11","新北市五股區中興路二段57-6號","121.460561666667","25.075355","6501500","五股區"
"234022","9380-KE","2019/07/11 12:59:09","新北市永和區竹林路75巷33弄3號","121.520548333333","25.0142883333333","6500400","永和區"
"234076","969-R7","2019/07/11 12:59:23","新北市永和區智光街126號","121.515058333333","24.9956","6500400","永和區"
"234072","AAC-211","2019/07/11 12:59:24","新北市永和區福和路1號","121.525625","25.0094183333333","6500400","永和區"
"234066","AAC-212","2019/07/11 12:59:13","新北市永和區自由街47號","121.513988333333","25.0059433333333","6500400","永和區"
"234001","AAC-295","2019/07/11 12:59:19","新北市永和區永和路一段129號","121.513803333333","25.0085833333333","6500400","永和區"
"244003","248-BX","2019/07/11 12:59:06","新北市林口區粉寮路二段167-1號","121.40447","25.08865","6501700","林口區"
"231029","106-UY","2019/07/11 12:59:16","新北市新店區安華路28-1號","121.519763333333","24.9608166666667","6500600","新店區"
"231018","107-UY","2019/07/11 12:59:21","新北市新店區安一路一段1-1號","121.51959","24.9611633333333","6500600","新店區"
"231013","108-UY","2019/07/11 12:59:16","新北市新店區安一路一段1-1號","121.519966666667","24.9616233333333","6500600","新店區"
"231017","KEA-2219","2019/07/11 12:59:21","新北市新店區安一路一段1-1號","121.51976","24.9612416666667","6500600","新店區"
"231023","260-TV","2019/07/11 12:59:16","新北市新店區安一路一段1-1號","121.519391666667","24.9611516666667","6500600","新店區"
"231003","268-BY","2019/07/11 12:59:23","新北市新店區安一路一段1-1號","121.519701666667","24.9613183333333","6500600","新店區"
"231035","278-BY","2019/07/11 12:58:44","新北市新店區安一路一段1-1號","121.519883333333","24.9611966666667","6500600","新店區"
"231006","355-BY","2019/07/11 12:59:14","新北市新店區安華路28-1號","121.519275","24.96091","6500600","新店區"
"231024","4716-K9","2019/07/11 12:59:24","新北市新店區安華路28-1號","121.519756666667","24.960615","6500600","新店區"
"231021","513-UM","2019/07/11 12:59:16","新北市新店區安一路一段1-1號","121.519733333333","24.961075","6500600","新店區"
"231034","641-BX","2019/07/11 12:59:21","新北市新店區安華路1-1號","121.519613333333","24.9604866666667","6500600","新店區"
"231011","KED-0819","2019/07/11 12:59:17","新北市新店區安一路一段1-1號","121.520016666667","24.9612066666667","6500600","新店區"
"231010","719-UM","2019/07/11 12:59:25","新北市新店區安一路一段1-1號","121.519505","24.96105","6500600","新店區"
"231026","720-UM","2019/07/11 12:59:13","新北市新店區安一路一段1-1號","121.519398333333","24.9612916666667","6500600","新店區"
"231028","897-TW","2019/07/11 12:59:09","新北市新店區安華路28-1號","121.519511666667","24.9609533333333","6500600","新店區"
"231004","899-TW","2019/07/11 12:59:10","新北市新店區安華路28-1號","121.519263333333","24.9608333333333","6500600","新店區"
"231037","AKT-0513","2019/07/11 12:59:16","新北市新店區安華路28-1號","121.519441666667","24.960615","6500600","新店區"
"235028","005-UY","2019/07/11 12:59:09","新北市中和區中正路637巷60弄61號","121.48554","24.9925216666667","6500300","中和區"
"235027","006-UY","2019/07/11 12:59:19","新北市中和區員山路36巷16-2號","121.485125","24.9915266666667","6500300","中和區"
"235029","098-UM","2019/07/11 12:59:08","新北市中和區中山路二段311-3號","121.49464","25.0020183333333","6500300","中和區"
"235004","150-BY","2019/07/11 12:59:12","新北市中和區和城路一段271巷1號","121.485453333333","24.9916166666667","6500300","中和區"
"235022","151-BY","2019/07/11 12:59:14","新北市中和區圓通路367巷33弄39號","121.495295","24.9855366666667","6500300","中和區"
"235002","185-VK","2019/07/11 12:59:15","新北市中和區秀朗路三段10巷14弄24-2號","121.525076666667","24.9970933333333","6500300","中和區"
"235036","301-VK","2019/07/11 12:59:26","新北市中和區員山路36巷13號","121.484041666667","24.9908983333333","6500300","中和區"
"235033","4980-A6","2019/07/11 12:59:24","新北市中和區員山路36巷16-2號","121.485248333333","24.9918383333333","6500300","中和區"
"235034","558-UM","2019/07/11 12:59:19","新北市中和區中正路637巷60弄61號","121.485428333333","24.992575","6500300","中和區"
"235009","565-BX","2019/07/11 12:59:21","新北市中和區員山路36巷13號","121.484121666667","24.9911033333333","6500300","中和區"
"235024","KED-0823","2019/07/11 12:59:26","新北市中和區和城路一段271巷1號","121.485623333333","24.9917016666667","6500300","中和區"
"235010","733-UM","2019/07/11 12:59:07","新北市中和區員山路36巷12號","121.484025","24.9908433333333","6500300","中和區"
"235035","783-BX","2019/07/11 12:59:10","新北市中和區新生街150號","121.483646666667","25.0006566666667","6500300","中和區"
"235021","801-TS","2019/07/11 12:59:16","新北市中和區中正路637巷52弄1號","121.485523333333","24.99335","6500300","中和區"
"235005","802-TS","2019/07/11 12:59:16","新北市中和區中正路561號","121.486981666667","24.994425","6500300","中和區"
"235017","900-TW","2019/07/11 12:59:13","新北市中和區員山路36巷16-2號","121.485301666667","24.9914666666667","6500300","中和區"
"235015","157-BY","2019/07/11 12:59:24","新北市中和區和城路一段271巷1號","121.485378333333","24.9918133333333","6500300","中和區"
"235001","AAC-213","2019/07/11 12:59:12","新北市中和區景平路151號","121.513698333333","24.991965","6500300","中和區"
"235023","AAC-215","2019/07/11 12:59:16","新北市中和區員山路36巷16-3號","121.485008333333","24.99136","6500300","中和區"
"228005","097-TW","2019/07/11 12:59:08","新北市貢寮區福隆里桂安街17號","121.963725","25.02121","6502600","貢寮區"
"228004","212-TW","2019/07/11 12:59:24","新北市貢寮區吉林里內寮街10號","121.888356666667","24.990255","6502600","貢寮區"
"253003","6232-TK","2019/07/11 12:59:18","新北市石門區中山路64-1號","121.567571666667","25.2904583333333","6502200","石門區"
"253001","KEC-0718","2019/07/11 12:59:19","新北市石門區中山路64-1號","121.567546666667","25.2904","6502200","石門區"
"207002","749-BX","2019/07/11 12:59:26","新北市萬里區雙興里大坪路34-6號","121.631418333333","25.1686616666667","6502800","萬里區"
"252005","073-UM","2019/07/11 12:59:21","新北市三芝區埔坪里埔頭坑41號","121.504393333333","25.264495","6502100","三芝區"
"207001","662-BX","2019/07/11 12:59:20","新北市萬里區萬里里獅頭路23號","121.693128333333","25.1782316666667","6502800","萬里區"
"221029","298-VK","2019/07/11 12:59:08","新北市汐止區康寧街399號","121.629755","25.0678766666667","6501100","汐止區"
"220025","687-BX","2019/07/11 12:59:08","新北市板橋區華東街1-10號","121.448373333333","24.994945","6500100","板橋區"
"235032","KEA-2873","2019/07/11 12:59:00","新北市中和區員山路36巷16-3號","121.484988333333","24.991295","6500300","中和區"
