"lineid","car","time","location","longitude","latitude","cityid","cityname"
"234044","148-BY","2019/07/11 13:29:17","新北市永和區成功路二段28號","121.526541666667","25.0005966666667","6500400","永和區"
"234078","298-R6","2019/07/11 13:29:07","新北市永和區環河東路三段52巷2弄2號","121.526565","25.0061283333333","6500400","永和區"
"234036","336-UY","2019/07/11 13:29:19","新北市永和區民樂街37巷1號","121.527591666667","25.0007816666667","6500400","永和區"
"234062","337-UY","2019/07/11 13:29:09","新北市永和區永元路17巷25弄10號","121.521033333333","25.0016183333333","6500400","永和區"
"234084","338-UY","2019/07/11 13:29:21","新北市永和區永亨路122號","121.52433","25.0041216666667","6500400","永和區"
"234068","552-UM","2019/07/11 13:29:24","新北市永和區警光街1號","121.519901666667","25.00951","6500400","永和區"
"234015","745-BX","2019/07/11 13:29:16","新北市永和區環河西路一段5號","121.515051666667","25.01799","6500400","永和區"
"234028","746-BX","2019/07/11 13:29:18","新北市永和區民生路53號","121.522683333333","24.9976816666667","6500400","永和區"
"234052","KEA-2590","2019/07/11 13:29:20","新北市永和區復興街27號","121.51626","25.0131166666667","6500400","永和區"
"234005","KED-0605","2019/07/11 13:29:08","新北市永和區中山路一段215-1號","121.508238333333","25.0080233333333","6500400","永和區"
"234012","KEA-2591","2019/07/11 13:29:16","新北市永和區信義路14-1號","121.514361666667","25.0120383333333","6500400","永和區"
"234060","AAD-866","2019/07/11 13:29:13","新北市永和區永貞路139號","121.516333333333","25.0041883333333","6500400","永和區"
"234040","862-TW","2019/07/11 13:29:19","新北市永和區中和路573號","121.5116","25.0034966666667","6500400","永和區"
"234048","863-TW","2019/07/11 13:29:17","新北市永和區信義路115號","121.512338333333","25.0147766666667","6500400","永和區"
"234025","9371-KE","2019/07/11 13:29:13","新北市永和區永和路二段26號","121.514895","25.0100416666667","6500400","永和區"
"234010","9373-KE","2019/07/11 13:29:10","新北市永和區仁愛路141巷30弄5號","121.511943333333","25.0115566666667","6500400","永和區"
"248013","025-BX","2019/07/11 13:29:18","新北市五股區成泰路一段197號","121.435108333333","25.076615","6501500","五股區"
"248015","026-BX","2019/07/11 13:29:12","新北市五股區凌雲路一段83巷8號","121.450405","25.1010166666667","6501500","五股區"
"248005","077-UY","2019/07/11 13:29:12","新北市五股區四維路38號","121.467228333333","25.071665","6501500","五股區"
"248007","KED-0815","2019/07/11 13:29:19","新北市五股區更洲路32巷8弄14號","121.459265","25.0796216666667","6501500","五股區"
"248017","KED-0813","2019/07/11 13:29:24","新北市五股區御史路300號","121.417523333333","25.10824","6501500","五股區"
"248011","247-BX","2019/07/11 13:29:22","新北市五股區御成路108號","121.441578333333","25.0935116666667","6501500","五股區"
"248009","272-BY","2019/07/11 13:29:10","新北市五股區水碓路16巷38號","121.433888333333","25.0727466666667","6501500","五股區"
"248003","677-BX","2019/07/11 13:29:21","新北市五股區民義路一段185-1號","121.431058333333","25.0884516666667","6501500","五股區"
"248001","678-BX","2019/07/11 13:29:15","新北市五股區西雲路148號","121.446145","25.0943266666667","6501500","五股區"
"234022","9380-KE","2019/07/11 13:29:09","新北市永和區豫溪街191巷7弄10號","121.523756666667","25.010985","6500400","永和區"
"234076","969-R7","2019/07/11 13:29:23","新北市永和區智光街53號","121.517223333333","24.9980316666667","6500400","永和區"
"234072","AAC-211","2019/07/11 13:29:24","新北市永和區永和路二段105號","121.514956666667","25.0118816666667","6500400","永和區"
"234066","AAC-212","2019/07/11 13:29:20","新北市永和區永貞路345號","121.509395","25.0073116666667","6500400","永和區"
"234001","AAC-295","2019/07/11 13:29:13","新北市永和區自強街2號","121.51412","25.007985","6500400","永和區"
"244003","248-BX","2019/07/11 13:29:26","新北市林口區瑞平里12鄰40-1號","121.337276666667","25.1178166666667","6501700","林口區"
"243002","297-R6","2019/07/11 13:29:17","新北市泰山區黎明路25號","121.421955","25.0606666666667","6501600","泰山區"
"243006","KEA-2801","2019/07/11 13:29:24","新北市泰山區犁頭窠3-1號","121.422215","25.0604683333333","6501600","泰山區"
"243003","KEA-2216","2019/07/11 13:29:26","新北市泰山區泰林路二段415號","121.42657","25.0641533333333","6501600","泰山區"
"243007","680-BX","2019/07/11 13:29:19","新北市泰山區美寧街57巷31號","121.43002","25.0648316666667","6501600","泰山區"
"231030","002-UM","2019/07/11 13:29:20","新北市新店區安華路28-1號","121.519576666667","24.96084","6500600","新店區"
"231027","0293-UT","2019/07/11 13:29:15","新北市新店區環河路19巷4號","121.537553333333","24.9608716666667","6500600","新店區"
"231005","046-UY","2019/07/11 13:29:17","新北市新店區北新路一段89號","121.538515","24.9617083333333","6500600","新店區"
"231029","106-UY","2019/07/11 13:29:16","新北市新店區安華路30巷3號","121.518831666667","24.95859","6500600","新店區"
"231018","107-UY","2019/07/11 13:29:21","新北市新店區中央路63號","121.532425","24.977205","6500600","新店區"
"231013","108-UY","2019/07/11 13:29:16","新北市新店區中央路145號","121.530081666667","24.9734716666667","6500600","新店區"
"231036","110-UY","2019/07/11 13:29:24","新北市新店區建業路102號","121.478778333333","24.9551616666667","6500600","新店區"
"231017","KEA-2219","2019/07/11 13:29:21","新北市新店區北宜路一段123-2號","121.540495","24.953425","6500600","新店區"
"231031","256-BX","2019/07/11 13:29:26","新北市新店區安豐路54-1號","121.499788333333","24.9541583333333","6500600","新店區"
"231023","260-TV","2019/07/11 13:29:16","新北市新店區北宜路一段154號","121.540318333333","24.9535983333333","6500600","新店區"
"231003","268-BY","2019/07/11 13:29:23","新北市新店區五峰路64號","121.545938333333","24.9683133333333","6500600","新店區"
"231035","278-BY","2019/07/11 13:29:24","新北市新店區安一路一段1-1號","121.519531666667","24.9612216666667","6500600","新店區"
"231006","355-BY","2019/07/11 13:29:14","新北市新店區安華路28-1號","121.519331666667","24.9606983333333","6500600","新店區"
"231038","3712-VJ","2019/07/11 13:29:21","新北市新店區安華路28-1號","121.519296666667","24.9606066666667","6500600","新店區"
"231024","4716-K9","2019/07/11 13:29:24","新北市新店區北新路二段29巷3弄1號","121.54223","24.9730333333333","6500600","新店區"
"231025","4715-K9","2019/07/11 13:29:06","新北市新店區中央五街46號","121.52806","24.9750933333333","6500600","新店區"
"231021","513-UM","2019/07/11 13:29:16","新北市新店區北宜路一段260號","121.54571","24.95283","6500600","新店區"
"231002","619-UM","2019/07/11 13:29:16","新北市新店區安康路一段81號","121.529741666667","24.961275","6500600","新店區"
"231034","641-BX","2019/07/11 13:29:21","新北市新店區安華路28-1號","121.519738333333","24.9604866666667","6500600","新店區"
"231011","KED-0819","2019/07/11 13:29:17","新北市新店區環河路1-2號","121.538226666667","24.9616233333333","6500600","新店區"
"231010","719-UM","2019/07/11 13:29:24","新北市新店區中央路15號","121.533341666667","24.9783483333333","6500600","新店區"
"231026","720-UM","2019/07/11 13:29:13","新北市新店區安一路一段1-1號","121.51936","24.9611983333333","6500600","新店區"
"231028","897-TW","2019/07/11 13:29:29","新北市新店區安華路28-1號","121.519743333333","24.960635","6500600","新店區"
"231001","898-TW","2019/07/11 13:29:17","新北市新店區安康路一段83-2號","121.529555","24.961305","6500600","新店區"
"231004","899-TW","2019/07/11 13:29:10","新北市新店區安華路28-1號","121.519093333333","24.9609466666667","6500600","新店區"
"231037","AKT-0513","2019/07/11 13:29:16","新北市新店區安豐路30-1號","121.500746666667","24.956825","6500600","新店區"
"235030","003-UY","2019/07/11 13:29:21","新北市中和區中山路二段120號","121.502768333333","25.00381","6500300","中和區"
"235028","005-UY","2019/07/11 13:29:09","新北市中和區連城路137號","121.495836666667","24.9988683333333","6500300","中和區"
"235027","006-UY","2019/07/11 13:29:19","新北市中和區連城路347巷2號","121.488033333333","24.99589","6500300","中和區"
"235020","096-UM","2019/07/11 13:29:10","新北市中和區員山路502-9號","121.480075","25.0080533333333","6500300","中和區"
"235003","097-UM","2019/07/11 13:29:18","新北市中和區大仁街19巷8號","121.517261666667","24.9932883333333","6500300","中和區"
"235029","098-UM","2019/07/11 13:29:28","新北市中和區中山路二段64巷14弄2號","121.503481666667","25.0055133333333","6500300","中和區"
"235004","150-BY","2019/07/11 13:29:12","新北市中和區安平路59號","121.509415","24.9951433333333","6500300","中和區"
"235022","151-BY","2019/07/11 13:29:14","新北市中和區圓通路369巷55弄10號","121.491001666667","24.9834333333333","6500300","中和區"
"235019","183-VK","2019/07/11 13:29:13","新北市中和區莒光路120巷54號","121.471655","25.001065","6500300","中和區"
"235002","185-VK","2019/07/11 13:29:15","新北市中和區立人街1號","121.521966666667","24.993905","6500300","中和區"
"235013","186-VK","2019/07/11 13:29:23","新北市中和區景安路80號","121.505701666667","24.99624","6500300","中和區"
"235031","255-BX","2019/07/11 13:29:08","新北市中和區員山路148巷46號","121.48258","24.9970716666667","6500300","中和區"
"235008","293-VK","2019/07/11 13:29:15","新北市中和區復興路302號","121.501388333333","24.990295","6500300","中和區"
"235036","301-VK","2019/07/11 13:29:06","新北市中和區連城路261-1號","121.492515","24.9966116666667","6500300","中和區"
"235007","352-BY","2019/07/11 13:29:21","新北市中和區景平路275號","121.507885","24.9929","6500300","中和區"
"235006","KEA-2878","2019/07/11 13:29:19","新北市中和區自立路56巷17號","121.522715","24.9915983333333","6500300","中和區"
"235014","4979-A6","2019/07/11 13:29:15","新北市中和區景新街362巷8號","121.512041666667","24.9901866666667","6500300","中和區"
"235033","4980-A6","2019/07/11 13:29:16","新北市中和區連城路127巷19-10號","121.496813333333","24.9980616666667","6500300","中和區"
"235034","558-UM","2019/07/11 13:29:19","新北市中和區南華路73號","121.50486","24.9973566666667","6500300","中和區"
"235009","565-BX","2019/07/11 13:29:21","新北市中和區南山路236號","121.506571666667","24.9895916666667","6500300","中和區"
"235024","KED-0823","2019/07/11 13:29:26","新北市中和區中山路二段543號","121.481131666667","25.00537","6500300","中和區"
"235011","732-UM","2019/07/11 13:29:07","新北市中和區圓通路205巷13號","121.497661666667","24.9941866666667","6500300","中和區"
"235010","733-UM","2019/07/11 13:29:07","新北市中和區板南路182號","121.500658333333","24.9927616666667","6500300","中和區"
"235035","783-BX","2019/07/11 13:29:10","新北市板橋區光環路二段30號","121.482301666667","25.0135366666667","6500300","中和區"
"235026","800-TS","2019/07/11 13:29:13","新北市中和區景平路726-2號","121.496733333333","25.00346","6500300","中和區"
"235021","801-TS","2019/07/11 13:29:16","新北市中和區員山路327巷31號","121.479798333333","25.0019666666667","6500300","中和區"
"235005","802-TS","2019/07/11 13:29:16","新北市中和區中和路382號","121.51076","25.0021816666667","6500300","中和區"
"235016","805-TS","2019/07/11 13:29:15","新北市中和區興南路二段96號","121.505218333333","24.984225","6500300","中和區"
"235017","900-TW","2019/07/11 13:27:33","新北市中和區員山路72-1號","121.48106","24.99345","6500300","中和區"
"235015","157-BY","2019/07/11 13:29:25","新北市中和區興南路二段142巷37弄1號","121.502198333333","24.9846383333333","6500300","中和區"
"235001","AAC-213","2019/07/11 13:29:12","新北市中和區景德街59號","121.517416666667","24.99147","6500300","中和區"
"235023","AAC-215","2019/07/11 13:29:16","新北市中和區員山路36巷16-2號","121.48524","24.9913866666667","6500300","中和區"
"220013","072-UY","2019/07/11 13:29:26","新北市板橋區南雅南路二段116號","121.453233333333","25.0001883333333","6500100","板橋區"
"220017","AAD-861","2019/07/11 13:29:17","新北市板橋區華東街1-10號","121.448388333333","24.99511","6500100","板橋區"
"247023","337-TH","2019/07/11 13:29:26","新北市五股區中興路三段2巷10號","121.44947","25.0810383333333","6501400","蘆洲區"
"247011","056-VK","2019/07/11 13:29:16","新北市五股區中興路三段163號","121.449206666667","25.08097","6501400","蘆洲區"
"228005","097-TW","2019/07/11 13:29:08","新北市貢寮區美豐里文秀坑8號","121.902586666667","25.0504","6502600","貢寮區"
"228004","212-TW","2019/07/11 13:29:24","新北市貢寮區龍崗里石壁坑街17號","121.910405","24.9895183333333","6502600","貢寮區"
"253003","6232-TK","2019/07/11 13:29:18","新北市石門區內石門50-1號","121.571788333333","25.26194","6502200","石門區"
"253004","6251-TK","2019/07/11 13:29:07","新北市石門區竹子湖11號","121.617746666667","25.258365","6502200","石門區"
"253002","637-UY","2019/07/11 13:29:21","新北市石門區九芎林5-2號","121.56081","25.2671883333333","6502200","石門區"
"253001","KEC-0718","2019/07/11 13:29:19","新北市石門區下員坑30-3號","121.519926666667","25.2825816666667","6502200","石門區"
"207002","749-BX","2019/07/11 13:29:14","新北市萬里區崁腳里崁腳路166號","121.645048333333","25.1558366666667","6502800","萬里區"
"252005","073-UM","2019/07/11 13:29:21","新北市三芝區福德里土地公埔67-1號","121.519716666667","25.2274433333333","6502100","三芝區"
"207001","662-BX","2019/07/11 13:28:00","新北市萬里區龜吼里海景路1號","121.683823333333","25.1914066666667","6502800","萬里區"
"221029","298-VK","2019/07/11 13:29:08","新北市汐止區南陽街81-1號","121.623965","25.0628683333333","6501100","汐止區"
"220027","145-BY","2019/07/11 13:29:15","新北市板橋區華東街1-10號","121.44832","24.9950566666667","6500100","板橋區"
"220030","610-BX","2019/07/11 13:29:24","新北市板橋區華東街1-9號","121.448266666667","24.9948883333333","6500100","板橋區"
"220004","276-BY","2019/07/11 13:29:09","新北市板橋區華東街1-9號","121.448195","24.99496","6500100","板橋區"
"220019","283-VK","2019/07/11 13:29:13","新北市板橋區華東街1-9號","121.448155","24.9948616666667","6500100","板橋區"
"220031","286-VK","2019/07/11 13:29:06","新北市板橋區華東街1-10號","121.44839","24.995105","6500100","板橋區"
"220029","287-VK","2019/07/11 13:29:22","新北市板橋區華東街1-10號","121.44834","24.995035","6500100","板橋區"
"220032","296-UM","2019/07/11 13:29:15","新北市板橋區華東街1-9號","121.44815","24.9949766666667","6500100","板橋區"
"220104","560-BX","2019/07/11 13:29:16","新北市板橋區南雅南路二段118號","121.453116666667","25.000015","6500100","板橋區"
"220022","630-UY","2019/07/11 13:29:06","新北市板橋區四川路二段130巷38號","121.449791666667","24.9947516666667","6500100","板橋區"
"220005","686-BX","2019/07/11 13:29:12","新北市板橋區華東街1-10號","121.448581666667","24.99488","6500100","板橋區"
"220025","687-BX","2019/07/11 13:29:08","新北市板橋區大觀路二段265巷7-7號","121.443973333333","24.9946266666667","6500100","板橋區"
"220003","827-TW","2019/07/11 13:29:12","新北市板橋區華東街1-10號","121.44827","24.99498","6500100","板橋區"
"220014","829-TW","2019/07/11 13:29:16","新北市板橋區民生路二段120號","121.470855","25.019635","6500100","板橋區"
"220021","985-R7","2019/07/11 13:29:26","新北市板橋區四川路二段140巷18號","121.44929","24.99344","6500100","板橋區"
"220046","AAC-210","2019/07/11 13:29:20","新北市板橋區民生路二段120號","121.470593333333","25.0196416666667","6500100","板橋區"
"220012","AAC-253","2019/07/11 13:29:24","新北市板橋區南雅南路二段120-7號","121.45216","24.9994966666667","6500100","板橋區"
"235032","KEA-2873","2019/07/11 13:28:59","新北市中和區中正路271-3號","121.495748333333","24.9934816666667","6500300","中和區"
"235025","KEA-2875","2019/07/11 13:29:19","新北市中和區民享街77號","121.4742","25.0019316666667","6500300","中和區"
