"lineid","car","time","location","longitude","latitude","cityid","cityname"
"234044","148-BY","2019/07/11 13:49:18","新北市永和區永利路125號","121.524046666667","25.0028383333333","6500400","永和區"
"234078","298-R6","2019/07/11 13:49:27","新北市永和區林森路49號","121.524583333333","25.0044016666667","6500400","永和區"
"234036","336-UY","2019/07/11 13:49:24","新北市永和區民樂街39巷18弄2號","121.528558333333","24.9994933333333","6500400","永和區"
"234062","337-UY","2019/07/11 13:49:20","新北市永和區中正路370號","121.517895","25.000905","6500400","永和區"
"234084","338-UY","2019/07/11 13:49:28","新北市永和區中正路560號","121.517261666667","25.0059266666667","6500400","永和區"
"234068","552-UM","2019/07/11 13:49:24","新北市永和區竹林路88號","121.519306666667","25.012535","6500400","永和區"
"234015","745-BX","2019/07/11 13:49:16","新北市永和區文化路9巷2號","121.515348333333","25.0150233333333","6500400","永和區"
"234028","746-BX","2019/07/11 13:49:18","新北市永和區民生路67巷10號","121.523171666667","24.9971683333333","6500400","永和區"
"234052","KEA-2590","2019/07/11 13:49:23","新北市永和區竹林路39巷28弄21號","121.51984","25.0144766666667","6500400","永和區"
"234005","KED-0605","2019/07/11 13:49:28","新北市永和區中和路625號","121.512955","25.004935","6500400","永和區"
"234012","KEA-2591","2019/07/11 13:49:18","新北市永和區仁愛路186巷2號","121.510021666667","25.0126483333333","6500400","永和區"
"234060","AAD-866","2019/07/11 13:49:13","新北市永和區中正路65號","121.514706666667","24.9967216666667","6500400","永和區"
"234040","862-TW","2019/07/11 13:49:24","新北市永和區中和路389巷18號","121.508101666667","25.00116","6500400","永和區"
"234048","863-TW","2019/07/11 13:49:17","新北市永和區保安路21-1號","121.510423333333","25.0167066666667","6500400","永和區"
"248015","026-BX","2019/07/11 13:49:12","新北市五股區成泰路三段543巷52號","121.449988333333","25.1028466666667","6501500","五股區"
"248007","KED-0815","2019/07/11 13:49:19","新北市五股區中興路一段151巷52號","121.465158333333","25.0723266666667","6501500","五股區"
"248017","KED-0813","2019/07/11 13:49:24","新北市五股區民義路二段22巷35-1號","121.424068333333","25.1009083333333","6501500","五股區"
"248011","247-BX","2019/07/11 13:49:22","新北市五股區成泰路二段195巷1號","121.440265","25.08732","6501500","五股區"
"248009","272-BY","2019/07/11 13:49:10","新北市五股區水碓九路35號","121.42881","25.0719833333333","6501500","五股區"
"248003","677-BX","2019/07/11 13:49:21","新北市五股區民義路二段52-3號","121.410113333333","25.10462","6501500","五股區"
"248001","678-BX","2019/07/11 13:49:15","新北市五股區成泰路三段454號","121.451431666667","25.1003783333333","6501500","五股區"
"234022","9380-KE","2019/07/11 13:49:09","新北市永和區中正路659號","121.514741666667","25.0101916666667","6500400","永和區"
"234076","969-R7","2019/07/11 13:49:23","新北市永和區民權路58巷2弄14號","121.51979","24.9988916666667","6500400","永和區"
"234072","AAC-211","2019/07/11 13:49:25","新北市永和區竹林路179巷37號","121.522313333333","25.0103","6500400","永和區"
"234066","AAC-212","2019/07/11 13:49:13","新北市永和區永貞路355巷3號","121.508868333333","25.0073033333333","6500400","永和區"
"234001","AAC-295","2019/07/11 13:49:20","新北市永和區永和路一段57號","121.512933333333","25.0067283333333","6500400","永和區"
"244003","248-BX","2019/07/11 13:49:06","新北市林口區瑞平里33-1號","121.348923333333","25.1282","6501700","林口區"
"243002","297-R6","2019/07/11 13:49:17","新北市泰山區辭修路24號","121.42901","25.0581533333333","6501600","泰山區"
"243006","KEA-2801","2019/07/11 13:49:24","新北市泰山區犁頭窠3-1號","121.422255","25.0605883333333","6501600","泰山區"
"243008","421-VK","2019/07/11 13:49:23","新北市泰山區明志路二段137號","121.427678333333","25.05064","6501600","泰山區"
"243003","KEA-2216","2019/07/11 13:49:18","新北市泰山區明志路二段246巷1號","121.426743333333","25.048105","6501600","泰山區"
"243007","680-BX","2019/07/11 13:49:19","新北市泰山區美寧街50號","121.43055","25.0643983333333","6501600","泰山區"
"231030","002-UM","2019/07/11 13:49:20","新北市新店區安康路一段139號","121.527786666667","24.96199","6500600","新店區"
"231027","0293-UT","2019/07/11 13:49:19","新北市新店區北宜路一段105巷2-1號","121.53988","24.9553983333333","6500600","新店區"
"231005","046-UY","2019/07/11 13:49:17","新北市新店區寶中路94號","121.548895","24.98012","6500600","新店區"
"231029","106-UY","2019/07/11 13:49:16","新北市新店區安康路二段125-1號","121.512371666667","24.9609033333333","6500600","新店區"
"231018","107-UY","2019/07/11 13:49:21","新北市新店區中正路382巷36號","121.535758333333","24.978255","6500600","新店區"
"231013","108-UY","2019/07/11 13:49:16","新北市新店區二十張路25巷14號","121.539055","24.98208","6500600","新店區"
"231036","110-UY","2019/07/11 13:49:24","新北市新店區安祥路147巷2號","121.475213333333","24.9554783333333","6500600","新店區"
"231017","KEA-2219","2019/07/11 13:49:21","新北市新店區竹林路63號","121.552985","24.9512766666667","6500600","新店區"
"231031","256-BX","2019/07/11 13:49:05","新北市新店區莒光路44巷21弄11-6號","121.518608333333","24.9522616666667","6500600","新店區"
"231023","260-TV","2019/07/11 13:49:17","新北市新店區國校路33號","121.538018333333","24.9560983333333","6500600","新店區"
"231003","268-BY","2019/07/11 13:49:23","新北市新店區中興路一段203號","121.543638333333","24.9656783333333","6500600","新店區"
"231035","278-BY","2019/07/11 13:49:24","新北市新店區安忠路57巷5-7號","121.513385","24.9587916666667","6500600","新店區"
"231006","355-BY","2019/07/11 13:49:20","新北市新店區北宜路一段140巷13號","121.539968333333","24.954395","6500600","新店區"
"231038","3712-VJ","2019/07/11 13:49:21","新北市新店區安華路30巷1號","121.519545","24.95927","6500600","新店區"
"231024","4716-K9","2019/07/11 13:49:24","新北市新店區力行路88號","121.538781666667","24.96692","6500600","新店區"
"231025","4715-K9","2019/07/11 13:49:26","新北市新店區中正路342號","121.53646","24.9750683333333","6500600","新店區"
"231021","513-UM","2019/07/11 13:49:16","新北市新店區新烏路一段130號","121.544321666667","24.933525","6500600","新店區"
"231002","619-UM","2019/07/11 13:49:16","新北市新店區溪園路393號","121.524303333333","24.9789916666667","6500600","新店區"
"231034","641-BX","2019/07/11 13:49:21","新北市新店區達觀路14巷3號","121.503188333333","24.9417766666667","6500600","新店區"
"231011","KED-0819","2019/07/11 13:49:17","新北市新店區德正街27巷29弄61號","121.545728333333","24.972245","6500600","新店區"
"231010","719-UM","2019/07/11 13:49:05","新北市新店區三民路60巷2號","121.535451666667","24.9724633333333","6500600","新店區"
"231026","720-UM","2019/07/11 13:49:13","新北市新店區中正路245號","121.539148333333","24.9733683333333","6500600","新店區"
"231028","897-TW","2019/07/11 13:49:09","新北市新店區安和路二段160號","121.519763333333","24.973465","6500600","新店區"
"231001","898-TW","2019/07/11 13:49:23","新北市新店區三民路122號","121.534483333333","24.9744366666667","6500600","新店區"
"231004","899-TW","2019/07/11 13:49:09","新北市新店區寶橋路88號","121.546776666667","24.9758733333333","6500600","新店區"
"231037","AKT-0513","2019/07/11 13:49:16","新北市新店區安康路三段359巷12弄2號","121.4845","24.95","6500600","新店區"
"235030","003-UY","2019/07/11 13:49:21","新北市中和區水源路18巷4弄1號","121.503993333333","25.0030783333333","6500300","中和區"
"235028","005-UY","2019/07/11 13:49:09","新北市中和區泰和街9號","121.499551666667","25.0002516666667","6500300","中和區"
"235027","006-UY","2019/07/11 13:49:19","新北市中和區錦和路196巷5號","121.489793333333","24.9948733333333","6500300","中和區"
"235020","096-UM","2019/07/11 13:49:10","新北市中和區中正路1206巷7號","121.48021","25.0111033333333","6500300","中和區"
"235003","097-UM","2019/07/11 13:49:18","新北市中和區大仁街20巷12號","121.518173333333","24.9932216666667","6500300","中和區"
"235029","098-UM","2019/07/11 13:49:08","新北市中和區莊敬路33巷21號","121.500523333333","25.007105","6500300","中和區"
"235004","150-BY","2019/07/11 13:49:12","新北市中和區保健路69號","121.509936666667","24.99704","6500300","中和區"
"235022","151-BY","2019/07/11 13:49:14","新北市中和區連城路508號","121.47676","24.992185","6500300","中和區"
"235019","183-VK","2019/07/11 13:49:13","新北市中和區民生街28巷13號","121.469653333333","25.0058183333333","6500300","中和區"
"235002","185-VK","2019/07/11 13:49:15","新北市中和區大勇街76號","121.518261666667","24.9948483333333","6500300","中和區"
"235013","186-VK","2019/07/11 13:49:23","新北市中和區景新街210巷2弄2號","121.507001666667","24.9943316666667","6500300","中和區"
"235031","255-BX","2019/07/11 13:49:08","新北市中和區新生街266號","121.483426666667","24.9972116666667","6500300","中和區"
"235008","293-VK","2019/07/11 13:49:16","新北市中和區中興街117號","121.499923333333","24.9920666666667","6500300","中和區"
"235036","301-VK","2019/07/11 13:49:26","新北市中和區連城路4號","121.499226666667","25.0023533333333","6500300","中和區"
"235007","352-BY","2019/07/11 13:49:21","新北市中和區景平路1號","121.525556666667","24.9901283333333","6500300","中和區"
"235006","KEA-2878","2019/07/11 13:49:19","新北市中和區秀朗路三段100巷3號","121.525398333333","24.9932666666667","6500300","中和區"
"247013","KEA-2869","2019/07/11 13:49:12","新北市蘆洲區三民路193號","121.470493333333","25.0877266666667","6501400","蘆洲區"
"247007","KED-0682","2019/07/11 13:49:17","新北市三重區三和路四段420-1號","121.480475","25.0798616666667","6501400","蘆洲區"
"235014","4979-A6","2019/07/11 13:49:15","新北市中和區忠孝街62巷9弄1號","121.513101666667","24.9839433333333","6500300","中和區"
"235033","4980-A6","2019/07/11 13:49:16","新北市中和區南山路111巷16號","121.502605","24.9977133333333","6500300","中和區"
"235034","558-UM","2019/07/11 13:49:19","新北市中和區中和路143號","121.502198333333","24.999825","6500300","中和區"
"235009","565-BX","2019/07/11 13:49:24","新北市中和區景新街467巷15弄1號","121.513911666667","24.98826","6500300","中和區"
"235024","KED-0823","2019/07/11 13:49:26","新北市中和區民治街5巷2號","121.475016666667","25.00501","6500300","中和區"
"235018","640-BX","2019/07/11 13:49:22","新北市中和區民享街6-4號","121.473991666667","25.0045516666667","6500300","中和區"
"235011","732-UM","2019/07/11 13:49:07","新北市中和區興南路二段34巷57弄2號","121.504933333333","24.9857416666667","6500300","中和區"
"235010","733-UM","2019/07/11 13:49:07","新北市中和區興南路一段85巷2號","121.509935","24.988675","6500300","中和區"
"235035","783-BX","2019/07/11 13:49:10","新北市中和區立德街13-9號","121.489541666667","25.00656","6500300","中和區"
"235026","800-TS","2019/07/11 13:49:13","新北市中和區中山路二段340巷30號","121.493445","25.0036366666667","6500300","中和區"
"235021","801-TS","2019/07/11 13:49:16","新北市中和區民利街58巷5號","121.478765","24.99932","6500300","中和區"
"235005","802-TS","2019/07/11 13:49:16","新北市中和區永貞路229號","121.513346666667","25.0037233333333","6500300","中和區"
"235016","805-TS","2019/07/11 13:49:15","新北市中和區興南路三段12號","121.49774","24.9796866666667","6500300","中和區"
"235017","900-TW","2019/07/11 13:49:13","新北市中和區民德路290巷9號","121.466951666667","24.99585","6500300","中和區"
"235012","911-UM","2019/07/11 13:49:08","新北市中和區南山路188號","121.505881666667","24.9906483333333","6500300","中和區"
"235015","157-BY","2019/07/11 13:49:25","新北市中和區華新街109巷5號","121.50898","24.98187","6500300","中和區"
"235001","AAC-213","2019/07/11 13:49:12","新北市中和區秀朗路三段10巷14弄108號","121.522928333333","24.99663","6500300","中和區"
"235023","AAC-215","2019/07/11 13:49:19","新北市中和區圓通路391-4號","121.489843333333","24.989175","6500300","中和區"
"220016","015-TV","2019/07/11 13:49:25","新北市板橋區大同街35巷21號","121.476928333333","25.0277183333333","6500100","板橋區"
"220013","072-UY","2019/07/11 13:49:06","新北市板橋區館前東路104號","121.462906666667","25.007655","6500100","板橋區"
"220034","073-UY","2019/07/11 13:49:16","新北市板橋區華東街302號","121.45277","25.0029233333333","6500100","板橋區"
"220105","075-UY","2019/07/11 13:49:11","新北市板橋區莒光路48-1號","121.47064","25.0243","6500100","板橋區"
"220017","AAD-861","2019/07/11 13:49:17","新北市板橋區大華街110號","121.458843333333","25.0051233333333","6500100","板橋區"
"220047","120-SR","2019/07/11 13:49:09","新北市板橋區民生路二段234巷67號","121.470116666667","25.02256","6500100","板橋區"
"247003","893-R6","2019/07/11 13:49:27","新北市蘆洲區中原路21巷7弄25號","121.461501666667","25.08309","6501400","蘆洲區"
"247023","337-TH","2019/07/11 13:49:26","新北市蘆洲區長興路21號","121.464015","25.0830766666667","6501400","蘆洲區"
"247011","056-VK","2019/07/11 13:49:16","新北市蘆洲區環堤大道365號","121.457243333333","25.09742","6501400","蘆洲區"
"247005","002-UY","2019/07/11 13:49:24","新北市蘆洲區和平路60號","121.470168333333","25.079105","6501400","蘆洲區"
"228005","097-TW","2019/07/11 13:49:08","新北市貢寮區美豐里土地公嶺10號","121.889686666667","25.0573366666667","6502600","貢寮區"
"228004","212-TW","2019/07/11 13:45:24","新北市貢寮區龍崗里嵩陽街8號","121.901808333333","25.0106416666667","6502600","貢寮區"
"253003","6232-TK","2019/07/11 13:49:18","新北市石門區中山路62-20號","121.571378333333","25.2873216666667","6502200","石門區"
"253004","6251-TK","2019/07/11 13:49:27","新北市石門區阿里荖60號","121.603293333333","25.27138","6502200","石門區"
"253002","637-UY","2019/07/11 13:49:21","新北市石門區九芎林51號","121.565981666667","25.2503283333333","6502200","石門區"
"253001","KEC-0718","2019/07/11 13:49:19","新北市石門區八甲58-2號","121.522735","25.273915","6502200","石門區"
"207002","749-BX","2019/07/11 13:49:14","新北市萬里區崁腳里崁腳路166號","121.645086666667","25.1558266666667","6502800","萬里區"
"252005","073-UM","2019/07/11 13:49:21","新北市三芝區圓山里內柑宅25號","121.538905","25.2188883333333","6502100","三芝區"
"207001","662-BX","2019/07/11 13:49:20","新北市萬里區磺潭里公館崙36號","121.63135","25.2098833333333","6502800","萬里區"
"236040","KED-0685","2019/07/11 13:49:06","新北市土城區城林路6巷80號","121.438526666667","24.9797316666667","6501300","土城區"
"236074","166-UM","2019/07/11 13:49:13","新北市土城區中華路二段201號","121.437878333333","24.9738","6501300","土城區"
"236029","253-BX","2019/07/11 13:49:21","新北市土城區城林路6巷80號","121.438536666667","24.9797216666667","6501300","土城區"
"236012","270-VK","2019/07/11 13:49:19","新北市土城區城林路6巷80號","121.438628333333","24.97975","6501300","土城區"
"236032","271-VK","2019/07/11 13:49:18","新北市土城區城林路6巷80號","121.438503333333","24.9797983333333","6501300","土城區"
"247009","KED-0683","2019/07/11 13:49:21","新北市蘆洲區環堤大道365號","121.458395","25.097655","6501400","蘆洲區"
"236068","KEA-2877","2019/07/11 13:49:14","新北市土城區城林路6巷80號","121.438716666667","24.9799433333333","6501300","土城區"
"236017","401-BY","2019/07/11 13:49:13","新北市土城區城林路6巷80號","121.438451666667","24.979655","6501300","土城區"
"236057","912-UM","2019/07/11 13:49:24","新北市土城區中央路三段142號","121.433028333333","24.9655033333333","6501300","土城區"
"236045","913-UM","2019/07/11 13:49:13","新北市土城區城林路6巷80號","121.438516666667","24.97972","6501300","土城區"
"236060","915-UM","2019/07/11 13:49:21","新北市土城區城林路6巷80號","121.438498333333","24.9797866666667","6501300","土城區"
"236054","AAC-216","2019/07/11 13:49:23","新北市土城區城林路6巷80號","121.438533333333","24.979775","6501300","土城區"
"221029","298-VK","2019/07/11 13:49:08","新北市汐止區福德二路81號","121.633483333333","25.0666033333333","6501100","汐止區"
"220027","145-BY","2019/07/11 13:49:19","新北市板橋區大智街71巷22弄35號","121.452453333333","25.01504","6500100","板橋區"
"220028","200-UY","2019/07/11 13:49:12","新北市板橋區大觀路二段265巷128號","121.442271666667","24.9962733333333","6500100","板橋區"
"220030","610-BX","2019/07/11 13:49:24","新北市板橋區篤行路三段玉平巷45號","121.428581666667","24.9867133333333","6500100","板橋區"
"220050","245-BX","2019/07/11 13:49:10","新北市板橋區莊敬路121號","121.472013333333","25.02549","6500100","板橋區"
"220004","276-BY","2019/07/11 13:49:25","新北市板橋區四川路一段249號","121.459861666667","25.0026266666667","6500100","板橋區"
"220020","277-BY","2019/07/11 13:49:23","新北市板橋區金門街25巷16號","121.43413","24.9942716666667","6500100","板橋區"
"220043","283-UM","2019/07/11 13:49:21","新北市板橋區莒光路6號","121.469525","25.0247683333333","6500100","板橋區"
"220019","283-VK","2019/07/11 13:49:13","新北市板橋區四川路一段76號","121.459638333333","25.0052933333333","6500100","板橋區"
"220001","285-VK","2019/07/11 13:49:14","新北市板橋區成功路48號","121.475008333333","25.017815","6500100","板橋區"
"220031","286-VK","2019/07/11 13:49:06","新北市板橋區大觀路二段22巷33號","121.444958333333","25.0036066666667","6500100","板橋區"
"220029","287-VK","2019/07/11 13:49:22","新北市板橋區南雅西路二段40號","121.452878333333","25.01005","6500100","板橋區"
"220039","288-VK","2019/07/11 13:49:09","新北市板橋區四維路177巷2弄1號","121.463978333333","25.0262416666667","6500100","板橋區"
"220009","295-UM","2019/07/11 13:49:07","新北市板橋區富山街109巷63弄31號","121.475223333333","25.0205166666667","6500100","板橋區"
"220032","296-UM","2019/07/11 13:49:23","新北市板橋區大觀路二段150巷27號","121.441561666667","24.9996783333333","6500100","板橋區"
"220023","303-R5","2019/07/11 13:49:27","新北市板橋區大觀路一段28巷98號","121.450703333333","25.010935","6500100","板橋區"
"220010","305-R5","2019/07/11 13:49:25","新北市板橋區中山路二段26號","121.472571666667","25.0150933333333","6500100","板橋區"
"220041","307-R5","2019/07/11 13:49:09","新北市板橋區文化路一段104巷1弄20號","121.465483333333","25.0179233333333","6500100","板橋區"
"220038","487-VK","2019/07/11 13:49:22","新北市板橋區文化路二段495號","121.475883333333","25.0339516666667","6500100","板橋區"
"220037","491-VK","2019/07/11 13:49:20","新北市板橋區民生路二段250號","121.468388333333","25.02334","6500100","板橋區"
"220104","560-BX","2019/07/11 13:49:16","新北市板橋區中正路275巷77號","121.452345","25.0180883333333","6500100","板橋區"
"220052","561-BX","2019/07/11 13:49:25","新北市板橋區文化路一段188巷11弄16號","121.469043333333","25.0187083333333","6500100","板橋區"
"220011","609-BX","2019/07/11 13:49:22","新北市板橋區中山路二段113-1號","121.474611666667","25.0162816666667","6500100","板橋區"
"220022","630-UY","2019/07/11 13:49:06","新北市板橋區府中路23號","121.459236666667","25.0090533333333","6500100","板橋區"
"220040","637-BX","2019/07/11 13:49:21","新北市板橋區雙十路二段47巷37號","121.47509","25.0253183333333","6500100","板橋區"
"220005","686-BX","2019/07/11 13:49:25","新北市板橋區重慶路198號","121.462585","25.002865","6500100","板橋區"
"220025","687-BX","2019/07/11 13:49:08","新北市板橋區大觀路三段133巷19號","121.432816666667","24.9943616666667","6500100","板橋區"
"220042","689-BX","2019/07/11 13:49:09","新北市板橋區民生路三段164號","121.465948333333","25.027735","6500100","板橋區"
"220002","741-BX","2019/07/11 13:49:20","新北市板橋區館前西路7號","121.459081666667","25.0069783333333","6500100","板橋區"
"220051","KEA-2699","2019/07/11 13:49:15","新北市板橋區田單街2巷32號","121.481473333333","25.027605","6500100","板橋區"
"220003","827-TW","2019/07/11 13:49:11","新北市板橋區實踐路132號","121.464396666667","25.00259","6500100","板橋區"
"220014","829-TW","2019/07/11 13:49:16","新北市板橋區中山路二段50-1號","121.473213333333","25.0153833333333","6500100","板橋區"
"220021","985-R7","2019/07/11 13:49:15","新北市板橋區府中路32號","121.45848","25.0096966666667","6500100","板橋區"
"220046","AAC-210","2019/07/11 13:49:20","新北市板橋區四維路137巷7號","121.464388333333","25.0249233333333","6500100","板橋區"
"220012","AAC-253","2019/07/11 13:49:24","新北市板橋區中山路一段272巷18-1號","121.46926","25.0136516666667","6500100","板橋區"
"235032","KEA-2873","2019/07/11 13:49:24","新北市中和區圓通路162巷33號","121.496695","24.9954533333333","6500300","中和區"
"235025","KEA-2875","2019/07/11 13:49:18","新北市中和區民有街61號","121.476301666667","25.00353","6500300","中和區"
