"lineid","car","time","location","longitude","latitude","cityid","cityname"
"234078","298-R6","2019/07/11 14:29:07","新北市永和區國中路146號","121.523116666667","25.0070716666667","6500400","永和區"
"234036","336-UY","2019/07/11 14:29:01","新北市永和區民樂街31巷19弄1號","121.528591666667","25.0022983333333","6500400","永和區"
"234062","337-UY","2019/07/11 14:29:09","新北市永和區中正路417號","121.517088333333","25.0048666666667","6500400","永和區"
"234084","338-UY","2019/07/11 14:29:21","新北市永和區永和路二段293號","121.516006666667","25.015955","6500400","永和區"
"234068","552-UM","2019/07/11 14:29:24","新北市永和區永亨路9號","121.519453333333","25.005775","6500400","永和區"
"234028","746-BX","2019/07/11 14:29:18","新北市永和區中正路105號","121.515591666667","24.9973583333333","6500400","永和區"
"234052","KEA-2590","2019/07/11 14:29:20","新北市永和區環河東路一段82號","121.519656666667","25.0164783333333","6500400","永和區"
"234005","KED-0605","2019/07/11 14:29:28","新北市永和區中正路553號","121.516818333333","25.00823","6500400","永和區"
"234060","AAD-866","2019/07/11 14:29:13","新北市永和區秀朗路一段175號","121.517063333333","25.003745","6500400","永和區"
"234040","862-TW","2019/07/11 14:29:19","新北市永和區秀朗路一段42號","121.514515","25.0065216666667","6500400","永和區"
"234048","863-TW","2019/07/11 14:29:17","新北市永和區新生路118巷1弄17號","121.506638333333","25.0144166666667","6500400","永和區"
"234025","9371-KE","2019/07/11 14:29:13","新北市中和區安平路220號","121.51399","24.999975","6500400","永和區"
"248013","025-BX","2019/07/11 14:29:17","新北市五股區民義路一段172巷11號","121.433538333333","25.0881066666667","6501500","五股區"
"248015","026-BX","2019/07/11 14:29:12","新北市五股區成泰路四段51-2號","121.456411666667","25.1100666666667","6501500","五股區"
"248007","KED-0815","2019/07/11 14:29:18","新北市五股區中興路二段37巷25-1號","121.460585","25.0745333333333","6501500","五股區"
"248017","KED-0813","2019/07/11 14:29:24","新北市五股區外寮路13-1號","121.424838333333","25.0812283333333","6501500","五股區"
"248011","247-BX","2019/07/11 14:29:22","新北市五股區蓬萊路8號","121.435483333333","25.0794933333333","6501500","五股區"
"248003","677-BX","2019/07/11 14:29:21","新北市五股區工商路134號","121.435636666667","25.086205","6501500","五股區"
"248001","678-BX","2019/07/11 14:29:15","新北市五股區成泰路三段557號","121.452006666667","25.102","6501500","五股區"
"234072","AAC-211","2019/07/11 14:29:24","新北市永和區環河東路一段124號","121.520675","25.0153783333333","6500400","永和區"
"234001","AAC-295","2019/07/11 14:29:13","新北市永和區永和路一段115-1號","121.513838333333","25.0080933333333","6500400","永和區"
"244003","248-BX","2019/07/11 14:29:06","新北市林口區瑞平里33-1號","121.348688333333","25.1286966666667","6501700","林口區"
"243004","AAD-798","2019/07/11 14:29:20","新北市泰山區明志路一段513號","121.430723333333","25.0540283333333","6501600","泰山區"
"243002","297-R6","2019/07/11 14:29:17","新北市泰山區民生路17巷5號","121.42992","25.05224","6501600","泰山區"
"243006","KEA-2801","2019/07/11 14:29:24","新北市泰山區中港西路422號","121.433791666667","25.0538616666667","6501600","泰山區"
"243008","421-VK","2019/07/11 14:29:23","新北市泰山區新北大道七段18號","121.420308333333","25.0322566666667","6501600","泰山區"
"243001","KEA-2215","2019/07/11 14:29:19","新北市泰山區半山雅38號","121.430865","25.067625","6501600","泰山區"
"243003","KEA-2216","2019/07/11 14:29:18","新北市泰山區貴子路67巷27號","121.431066666667","25.041","6501600","泰山區"
"243005","646-TV","2019/07/11 14:29:20","新北市泰山區貴子路28號","121.42586","25.0417116666667","6501600","泰山區"
"243007","680-BX","2019/07/11 14:29:19","新北市泰山區明志路二段55號","121.429286666667","25.0526266666667","6501600","泰山區"
"231030","002-UM","2019/07/11 14:29:20","新北市新店區安民街37號","121.515858333333","24.965405","6500600","新店區"
"231027","0293-UT","2019/07/11 14:29:14","新北市新店區北新路二段183號","121.542786666667","24.9774916666667","6500600","新店區"
"231005","046-UY","2019/07/11 14:29:17","新北市新店區中興路三段141號","121.544458333333","24.9798066666667","6500600","新店區"
"231029","106-UY","2019/07/11 14:29:16","新北市新店區安康路二段382號","121.500435","24.956985","6500600","新店區"
"231018","107-UY","2019/07/11 14:29:21","新北市新店區中央三街83號","121.525936666667","24.9755666666667","6500600","新店區"
"231013","108-UY","2019/07/11 14:29:16","新北市新店區民權路100-1號","121.536123333333","24.9831616666667","6500600","新店區"
"231036","110-UY","2019/07/11 14:29:24","新北市新店區安祥路109巷147號","121.477543333333","24.9585616666667","6500600","新店區"
"231017","KEA-2219","2019/07/11 14:29:20","新北市新店區北宜路三段108號","121.57984","24.9504266666667","6500600","新店區"
"231031","256-BX","2019/07/11 14:29:05","新北市新店區溪洲路184號","121.528326666667","24.9655216666667","6500600","新店區"
"231023","260-TV","2019/07/11 14:29:16","新北市新店區光明街185號","121.540026666667","24.963155","6500600","新店區"
"231003","268-BY","2019/07/11 14:29:23","新北市新店區中興路一段271號","121.545175","24.9680566666667","6500600","新店區"
"231035","278-BY","2019/07/11 14:29:24","新北市新店區吉安街18號","121.516521666667","24.9657966666667","6500600","新店區"
"231006","355-BY","2019/07/11 14:29:14","新北市新店區北宜路二段521號","121.563575","24.9536016666667","6500600","新店區"
"231038","3712-VJ","2019/07/11 14:29:21","新北市新店區溪洲路181號","121.529703333333","24.9651516666667","6500600","新店區"
"231021","513-UM","2019/07/11 14:29:22","新北市新店區新烏路三段69號","121.555203333333","24.9037883333333","6500600","新店區"
"231002","619-UM","2019/07/11 14:29:16","新北市新店區中央路103號","121.531028333333","24.974815","6500600","新店區"
"231034","641-BX","2019/07/11 14:29:21","新北市新店區車子路11號","121.50287","24.9516216666667","6500600","新店區"
"231011","KED-0819","2019/07/11 14:29:17","新北市新店區五峰路59-8號","121.547581666667","24.969975","6500600","新店區"
"231028","897-TW","2019/07/11 14:29:09","新北市新店區安和路二段29號","121.517971666667","24.967745","6500600","新店區"
"231001","898-TW","2019/07/11 14:29:17","新北市新店區中正路75巷71號","121.543103333333","24.96886","6500600","新店區"
"231004","899-TW","2019/07/11 14:29:09","新北市新店區中正路282號","121.538596666667","24.9738","6500600","新店區"
"231037","AKT-0513","2019/07/11 14:29:15","新北市新店區車子路64號","121.503913333333","24.9513566666667","6500600","新店區"
"235030","003-UY","2019/07/11 14:29:21","新北市中和區景新街51-1號","121.504458333333","24.9990533333333","6500300","中和區"
"235028","005-UY","2019/07/11 14:29:09","新北市中和區南山路127巷32弄1號","121.5041","24.9976883333333","6500300","中和區"
"235027","006-UY","2019/07/11 14:29:19","新北市中和區連城路211號","121.494658333333","24.997635","6500300","中和區"
"235020","096-UM","2019/07/11 14:29:10","新北市中和區員山路514巷2號","121.47937","25.0096466666667","6500300","中和區"
"235003","097-UM","2019/07/11 14:29:17","新北市中和區景平路320號","121.512238333333","24.992795","6500300","中和區"
"235029","098-UM","2019/07/11 14:29:28","新北市中和區永和路52號","121.499151666667","25.0040616666667","6500300","中和區"
"235004","150-BY","2019/07/11 14:29:12","新北市中和區保健路106巷20弄2號","121.511613333333","24.9950416666667","6500300","中和區"
"235022","151-BY","2019/07/11 14:29:14","新北市中和區員山路132巷10號","121.481791666667","24.9962583333333","6500300","中和區"
"235019","183-VK","2019/07/11 14:29:12","新北市中和區德光路38號","121.470355","25.0048733333333","6500300","中和區"
"235002","185-VK","2019/07/11 14:29:15","新北市中和區立人街3號","121.52181","24.9940516666667","6500300","中和區"
"235013","186-VK","2019/07/11 14:29:22","新北市中和區安平路21號","121.509165","24.9942483333333","6500300","中和區"
"235031","255-BX","2019/07/11 14:29:08","新北市中和區新生街218號","121.483801666667","24.998585","6500300","中和區"
"235008","293-VK","2019/07/11 14:29:15","新北市中和區捷運路191號","121.505296666667","24.991205","6500300","中和區"
"235036","301-VK","2019/07/11 14:29:26","新北市中和區莊敬路33巷20號","121.500108333333","25.005445","6500300","中和區"
"235007","352-BY","2019/07/11 14:29:21","新北市中和區景平路398號","121.50963","24.99296","6500300","中和區"
"235006","KEA-2878","2019/07/11 14:29:19","新北市中和區中和路262巷45號","121.510076666667","24.9998933333333","6500300","中和區"
"247013","KEA-2869","2019/07/11 14:29:12","新北市蘆洲區中山二路170號","121.47075","25.08079","6501400","蘆洲區"
"247007","KED-0682","2019/07/11 14:29:17","新北市蘆洲區信義路83號","121.47682","25.0796116666667","6501400","蘆洲區"
"235033","4980-A6","2019/07/11 14:29:16","新北市中和區連城路87號","121.496843333333","25.0004266666667","6500300","中和區"
"235034","558-UM","2019/07/11 14:29:19","新北市中和區南山路24號","121.50194","24.9983033333333","6500300","中和區"
"235009","565-BX","2019/07/11 14:29:21","新北市中和區景新街423巷33弄39號","121.513693333333","24.9899816666667","6500300","中和區"
"235024","KED-0823","2019/07/11 14:29:26","新北市中和區中山路二段523巷14號","121.481471666667","25.0044183333333","6500300","中和區"
"235018","640-BX","2019/07/11 14:29:22","新北市中和區莒光路96號","121.472266666667","25.0024","6500300","中和區"
"235011","732-UM","2019/07/11 14:29:07","新北市中和區景平路259巷17號","121.507393333333","24.9927116666667","6500300","中和區"
"235010","733-UM","2019/07/11 14:29:07","新北市中和區忠孝街37巷52號","121.511115","24.9849133333333","6500300","中和區"
"235035","783-BX","2019/07/11 14:29:10","新北市中和區中正路643號","121.485073333333","24.9956433333333","6500300","中和區"
"235026","800-TS","2019/07/11 14:29:23","新北市中和區中山路二段526巷29號","121.485801666667","25.0058416666667","6500300","中和區"
"235021","801-TS","2019/07/11 14:29:16","新北市中和區員山路257號","121.481181666667","24.9989416666667","6500300","中和區"
"235005","802-TS","2019/07/11 14:29:16","新北市中和區景安路50號","121.506581666667","24.9982216666667","6500300","中和區"
"235016","805-TS","2019/07/11 14:29:15","新北市中和區華新街143巷46號","121.506296666667","24.98003","6500300","中和區"
"235017","900-TW","2019/07/11 14:29:13","新北市中和區民德路189巷7號","121.468908333333","24.9987833333333","6500300","中和區"
"235012","911-UM","2019/07/11 14:29:08","新北市中和區忠孝街60巷7號","121.511683333333","24.9837666666667","6500300","中和區"
"235015","157-BY","2019/07/11 14:29:25","新北市中和區板南路168號","121.501391666667","24.9927733333333","6500300","中和區"
"235001","AAC-213","2019/07/11 14:29:23","新北市中和區秀朗路三段10巷21弄8號","121.525205","24.9960966666667","6500300","中和區"
"235023","AAC-215","2019/07/11 14:29:16","新北市中和區圓通路252巷1號","121.493546666667","24.9911183333333","6500300","中和區"
"220016","015-TV","2019/07/11 14:29:25","新北市板橋區萬安街10號","121.484741666667","25.0225116666667","6500100","板橋區"
"220013","072-UY","2019/07/11 14:29:26","新北市板橋區國泰街75巷29-1號","121.467951666667","25.0054766666667","6500100","板橋區"
"220034","073-UY","2019/07/11 14:29:16","新北市板橋區中正路216巷8號","121.456278333333","25.01838","6500100","板橋區"
"220105","075-UY","2019/07/11 14:29:11","新北市板橋區文化路二段548巷23-1號","121.476668333333","25.0338283333333","6500100","板橋區"
"220017","AAD-861","2019/07/11 14:29:17","新北市板橋區貴興路43號","121.457411666667","25.003615","6500100","板橋區"
"220047","120-SR","2019/07/11 14:29:09","新北市板橋區民有街105號","121.464351666667","25.0281333333333","6500100","板橋區"
"247003","893-R6","2019/07/11 14:29:13","新北市蘆洲區長安街220巷12號","121.459005","25.084855","6501400","蘆洲區"
"247017","546-UM","2019/07/11 14:29:13","新北市蘆洲區復興路227巷2弄2號","121.47995","25.0900166666667","6501400","蘆洲區"
"247001","500-BY","2019/07/11 14:29:13","新北市蘆洲區環堤大道174號","121.456288333333","25.0899216666667","6501400","蘆洲區"
"247023","337-TH","2019/07/11 14:29:26","新北市蘆洲區中正路263巷2號","121.467241666667","25.0875633333333","6501400","蘆洲區"
"247021","057-VK","2019/07/11 14:29:22","新北市蘆洲區三民路128巷34號","121.471111666667","25.08851","6501400","蘆洲區"
"247011","056-VK","2019/07/11 14:29:16","新北市蘆洲區復興路272號","121.480405","25.0897683333333","6501400","蘆洲區"
"247015","053-VK","2019/07/11 14:29:13","新北市蘆洲區中正路185巷68弄5號","121.466493333333","25.084735","6501400","蘆洲區"
"247019","007-UY","2019/07/11 14:29:10","新北市蘆洲區水湳街419號","121.470786666667","25.0943066666667","6501400","蘆洲區"
"247005","002-UY","2019/07/11 14:29:24","新北市蘆洲區長安街76號","121.462428333333","25.0802633333333","6501400","蘆洲區"
"228005","097-TW","2019/07/11 14:29:08","新北市貢寮區美豐里巫里岸9-1號","121.901946666667","25.07008","6502600","貢寮區"
"228004","212-TW","2019/07/11 14:29:04","新北市貢寮區雙玉里田寮洋街33-1號","121.93387","25.0142833333333","6502600","貢寮區"
"253003","6232-TK","2019/07/11 14:29:18","新北市石門區尖子鹿36號","121.581993333333","25.25643","6502200","石門區"
"253004","6251-TK","2019/07/11 14:29:07","新北市石門區阿里磅26號","121.589686666667","25.2593483333333","6502200","石門區"
"253002","637-UY","2019/07/11 14:29:21","新北市石門區楓林31號","121.544481666667","25.2851383333333","6502200","石門區"
"253001","KEC-0718","2019/07/11 14:29:19","新北市石門區崁子腳65-1號","121.532046666667","25.28603","6502200","石門區"
"207002","749-BX","2019/07/11 14:29:14","新北市萬里區溪底里瑞泉路5號","121.605716666667","25.1441133333333","6502800","萬里區"
"252005","073-UM","2019/07/11 14:29:21","新北市三芝區橫山里橫山8-1號","121.535523333333","25.2620333333333","6502100","三芝區"
"207001","662-BX","2019/07/11 14:29:00","新北市萬里區磺潭里清水18-3號","121.639048333333","25.1989366666667","6502800","萬里區"
"237014","760-BX","2019/07/11 14:04:10","新北市三峽區中山路459巷135號","121.348875","24.933015","6500900","三峽區"
"236040","KED-0685","2019/07/11 14:29:06","新北市土城區裕民路61巷8號","121.449471666667","24.9881016666667","6501300","土城區"
"236074","166-UM","2019/07/11 14:29:13","新北市土城區中央路四段27巷1號","121.424333333333","24.9624366666667","6501300","土城區"
"236029","253-BX","2019/07/11 14:29:25","新北市土城區水源街81巷3號","121.43964","24.9762883333333","6501300","土城區"
"236024","269-VK","2019/07/11 14:29:20","新北市土城區承天路67號","121.439588333333","24.9635066666667","6501300","土城區"
"236012","270-VK","2019/07/11 14:29:19","新北市土城區青雲路39巷7號","121.460338333333","24.98753","6501300","土城區"
"236032","271-VK","2019/07/11 14:29:18","新北市土城區明德路一段323號","121.458878333333","24.9765366666667","6501300","土城區"
"247009","KED-0683","2019/07/11 14:29:20","新北市蘆洲區三民路26巷20弄5號","121.477588333333","25.082745","6501400","蘆洲區"
"236068","KEA-2877","2019/07/11 14:29:14","新北市土城區永豐路211-2號","121.474571666667","24.9763116666667","6501300","土城區"
"236017","401-BY","2019/07/11 14:29:13","新北市土城區永豐路202巷14號","121.466306666667","24.983405","6501300","土城區"
"236057","912-UM","2019/07/11 14:29:24","新北市土城區中央路四段462號","121.410298333333","24.9507966666667","6501300","土城區"
"236045","913-UM","2019/07/11 14:29:13","新北市土城區青雲路388號","121.45872","24.9729866666667","6501300","土城區"
"236060","915-UM","2019/07/11 14:29:21","新北市土城區延壽路109巷19號","121.468303333333","24.993215","6501300","土城區"
"236054","AAC-216","2019/07/11 14:29:23","新北市土城區中華路二段1號","121.439706666667","24.9791883333333","6501300","土城區"
"221029","298-VK","2019/07/11 14:29:08","新北市新店區安豐路30-1號","121.500663333333","24.9568916666667","6501100","汐止區"
"220027","145-BY","2019/07/11 14:29:15","新北市板橋區民權路202巷18弄1-2號","121.460801666667","25.0165466666667","6500100","板橋區"
"220028","200-UY","2019/07/11 14:29:12","新北市板橋區大觀路二段19巷40號","121.447983333333","25.0030583333333","6500100","板橋區"
"220030","610-BX","2019/07/11 14:29:24","新北市板橋區溪城路115號","121.427448333333","24.982645","6500100","板橋區"
"220050","245-BX","2019/07/11 14:29:21","新北市板橋區莊敬路246號","121.473681666667","25.02147","6500100","板橋區"
"220004","276-BY","2019/07/11 14:29:29","新北市板橋區信義路188號","121.459681666667","24.99128","6500100","板橋區"
"220020","277-BY","2019/07/11 14:29:23","新北市板橋區篤行路二段161巷19號","121.430106666667","24.9873533333333","6500100","板橋區"
"220043","283-UM","2019/07/11 14:29:21","新北市板橋區吳鳳路50巷53弄7號","121.469158333333","25.0309133333333","6500100","板橋區"
"220019","283-VK","2019/07/11 14:29:12","新北市板橋區仁愛路73巷8號","121.46108","25.0001733333333","6500100","板橋區"
"220001","285-VK","2019/07/11 14:29:14","新北市板橋區富山街83號","121.476773333333","25.0217033333333","6500100","板橋區"
"220031","286-VK","2019/07/11 14:29:06","新北市板橋區大觀路一段38巷184號","121.44135","25.00458","6500100","板橋區"
"220029","287-VK","2019/07/11 14:29:21","新北市板橋區南雅南路一段106號","121.454976666667","25.0044016666667","6500100","板橋區"
"220039","288-VK","2019/07/11 14:29:16","新北市板橋區新海路431巷20號","121.457681666667","25.026875","6500100","板橋區"
"220009","295-UM","2019/07/11 14:29:07","新北市板橋區漢生東路170號","121.467158333333","25.0147816666667","6500100","板橋區"
"220032","296-UM","2019/07/11 14:29:20","新北市板橋區滿平街84巷120弄30號","121.426048333333","24.985495","6500100","板橋區"
"220023","303-R5","2019/07/11 14:29:26","新北市板橋區南雅西路一段51號","121.453721666667","25.004905","6500100","板橋區"
"220010","305-R5","2019/07/11 14:29:13","新北市板橋區三民路二段153巷2弄12-5號","121.479546666667","25.0143983333333","6500100","板橋區"
"220041","307-R5","2019/07/11 14:29:28","新北市板橋區四維路137巷13號","121.464456666667","25.0245983333333","6500100","板橋區"
"220038","487-VK","2019/07/11 14:29:22","新北市板橋區英士路55號","121.460758333333","25.024405","6500100","板橋區"
"220037","491-VK","2019/07/11 14:29:20","新北市板橋區雙十路一段22號","121.477943333333","25.024355","6500100","板橋區"
"220104","560-BX","2019/07/11 14:29:16","新北市板橋區中正路352號","121.454273333333","25.0237983333333","6500100","板橋區"
"220052","561-BX","2019/07/11 14:29:24","新北市板橋區陽明街29巷35號","121.463678333333","25.0226183333333","6500100","板橋區"
"220011","609-BX","2019/07/11 14:29:23","新北市板橋區三民路二段140號","121.47906","25.01603","6500100","板橋區"
"220022","630-UY","2019/07/11 14:29:06","新北市板橋區北門街23號","121.456736666667","25.0110183333333","6500100","板橋區"
"220040","637-BX","2019/07/11 14:29:15","新北市板橋區文聖街107號","121.477651666667","25.0292966666667","6500100","板橋區"
"220005","686-BX","2019/07/11 14:29:12","新北市板橋區和平路69號","121.461226666667","24.99463","6500100","板橋區"
"220025","687-BX","2019/07/11 14:29:21","新北市板橋區大觀路二段67號","121.446568333333","25.0024566666667","6500100","板橋區"
"220042","689-BX","2019/07/11 14:29:09","新北市板橋區英士路49號","121.461143333333","25.0246066666667","6500100","板橋區"
"220002","741-BX","2019/07/11 14:29:20","新北市板橋區光明街86號","121.461856666667","25.002715","6500100","板橋區"
"220051","KEA-2699","2019/07/11 14:29:15","新北市板橋區雙十路二段46巷20號","121.476243333333","25.0281766666667","6500100","板橋區"
"220003","827-TW","2019/07/11 14:29:11","新北市板橋區館前東路156巷44號","121.464526666667","25.0065833333333","6500100","板橋區"
"220014","829-TW","2019/07/11 14:29:16","新北市板橋區漢生東路342號","121.471948333333","25.0074983333333","6500100","板橋區"
"220021","985-R7","2019/07/11 14:29:26","新北市板橋區瑞安街2號","121.454325","25.0232983333333","6500100","板橋區"
"220046","AAC-210","2019/07/11 14:29:19","新北市板橋區文化路一段285巷2號","121.46455","25.0189816666667","6500100","板橋區"
"220012","AAC-253","2019/07/11 14:29:24","新北市板橋區四川路一段2號","121.459265","25.0069866666667","6500100","板橋區"
"235032","KEA-2873","2019/07/11 14:28:59","新北市中和區福祥路61號","121.49927","25.0047116666667","6500300","中和區"
"235025","KEA-2875","2019/07/11 14:29:18","新北市中和區員山路263號","121.481171666667","24.9991866666667","6500300","中和區"
