"lineid","car","time","location","longitude","latitude","cityid","cityname"
"231030","002-UM","2019/07/11 15:59:20","新北市新店區永平街51巷1號","121.516138333333","24.9840433333333","6500600","新店區"
"231018","107-UY","2019/07/11 15:59:21","新北市新店區中正路618巷7弄14號","121.53459","24.9895366666667","6500600","新店區"
"231017","KEA-2219","2019/07/11 15:59:20","新北市新店區中正路282-2號","121.538213333333","24.974015","6500600","新店區"
"231003","268-BY","2019/07/11 15:59:22","新北市新店區中興路二段248號","121.547558333333","24.9756883333333","6500600","新店區"
"231035","278-BY","2019/07/11 15:59:24","新北市新店區安民街251巷5號","121.516663333333","24.9727616666667","6500600","新店區"
"231021","513-UM","2019/07/11 15:59:22","新北市新店區新烏路一段85巷6號","121.549645","24.9427033333333","6500600","新店區"
"231034","641-BX","2019/07/11 15:59:21","新北市新店區吉祥街5巷1號","121.497255","24.9478566666667","6500600","新店區"
"231046","719-UM","2019/07/11 15:58:53","新北市新店區安華路28-1號","121.519943333333","24.9610666666667","6500600","新店區"
"231026","720-UM","2019/07/11 15:59:15","新北市新店區民生路14號","121.532035","24.98577","6500600","新店區"
"231037","AKT-0513","2019/07/11 15:59:20","新北市新店區吉安街10號","121.516801666667","24.9657716666667","6500600","新店區"
"241011","013-R5","2019/07/11 15:59:12","新北市三重區雙園街1巷1號","121.496936666667","25.0680483333333","6500200","三重區"
"241028","022-UY","2019/07/11 15:59:14","新北市三重區正義南路111號","121.498258333333","25.058585","6500200","三重區"
"241008","059-VK","2019/07/11 15:59:25","新北市三重區重新路四段121號","121.484473333333","25.0520033333333","6500200","三重區"
"241029","060-VK","2019/07/11 15:59:09","新北市三重區大同南路212巷32號","121.497638333333","25.0567016666667","6500200","三重區"
"241015","062-VK","2019/07/11 15:59:09","新北市三重區重新路四段121號","121.485231666667","25.0520616666667","6500200","三重區"
"241017","063-VK","2019/07/11 15:59:14","新北市三重區大仁街48巷21號","121.491266666667","25.0645683333333","6500200","三重區"
"241024","065-VK","2019/07/11 15:59:13","新北市三重區中正北路145巷14號","121.484246666667","25.0676833333333","6500200","三重區"
"241023","066-VK","2019/07/11 15:59:18","新北市三重區中正北路129號","121.4831","25.06709","6500200","三重區"
"241002","090-VK","2019/07/11 15:59:15","新北市三重區福德南路152號","121.501191666667","25.05794","6500200","三重區"
"241016","266-UM","2019/07/11 15:59:18","新北市三重區重新路四段121號","121.484963333333","25.0520233333333","6500200","三重區"
"241009","267-UM","2019/07/11 15:59:23","新北市三重區重新路四段121號","121.484568333333","25.0519166666667","6500200","三重區"
"241018","268-UM","2019/07/11 15:59:21","新北市三重區中正北路71巷7號","121.490868333333","25.0633466666667","6500200","三重區"
"241013","270-UM","2019/07/11 15:59:22","新北市三重區三和路三段16巷7號","121.496598333333","25.0700983333333","6500200","三重區"
"241025","271-UM","2019/07/11 15:59:25","新北市三重區三民街206號","121.48096","25.0662316666667","6500200","三重區"
"241007","398-BY","2019/07/11 15:59:23","新北市三重區慈愛街8號","121.484443333333","25.0783783333333","6500200","三重區"
"241004","475-VK","2019/07/11 15:59:07","新北市三重區五華街74號","121.49347","25.0819766666667","6500200","三重區"
"241020","478-VK","2019/07/11 15:59:21","新北市三重區力行路一段189號","121.483548333333","25.0699066666667","6500200","三重區"
"241026","480-VK","2019/07/11 15:59:12","新北市三重區重新路三段52號","121.494083333333","25.0612533333333","6500200","三重區"
"241014","543-UM","2019/07/11 15:59:22","新北市三重區重新路四段121號","121.485143333333","25.0520216666667","6500200","三重區"
"241006","AAD-863","2019/07/11 15:59:01","新北市三重區重新路三段157號","121.489571666667","25.05856","6500200","三重區"
"241012","941-UM","2019/07/11 15:59:26","新北市三重區文化北路118巷1號","121.498388333333","25.06647","6500200","三重區"
"241033","AAC-255","2019/07/11 15:59:23","新北市三重區重新路五段450號","121.474646666667","25.0472916666667","6500200","三重區"
"235019","183-VK","2019/07/11 15:59:12","新北市五股區孝義路14-1號","121.452035","25.1062883333333","6500300","中和區"
"235026","800-TS","2019/07/11 15:59:15","新北市中和區立業路70號","121.492096666667","25.0073483333333","6500300","中和區"
"247024","337-TH","2019/07/11 15:59:05","新北市五股區中興路三段163號","121.449125","25.0809183333333","6501400","蘆洲區"
"224007","285-BY","2019/07/11 15:59:14","新北市瑞芳區四腳亭埔路12-6號","121.775535","25.1011416666667","6501200","瑞芳區"
"224005","271-BY","2019/07/11 15:45:06","新北市瑞芳區明燈路二段66號","121.809511666667","25.10757","6501200","瑞芳區"
"227001","642-TC","2019/07/11 15:59:24","新北市雙溪區三港里雙澳路75號","121.883603333333","25.0539216666667","6502500","雙溪區"
"227002","400-TW","2019/07/11 15:59:19","新北市雙溪區上林里內平林27號","121.834078333333","25.03152","6502500","雙溪區"
"236074","166-UM","2019/07/11 15:59:12","新北市土城區民族街20號","121.418971666667","24.9630283333333","6501300","土城區"
"236057","912-UM","2019/07/11 15:59:24","新北市土城區中央路一段269-3號","121.444838333333","24.9851733333333","6501300","土城區"
"238002","755-BX","2019/07/11 15:59:11","新北市樹林區文德街2巷1號","121.419398333333","24.991315","6500700","樹林區"
"238010","601-UM","2019/07/11 15:59:11","新北市樹林區三福街67巷4號","121.40782","25.0159466666667","6500700","樹林區"
"238006","599-UM","2019/07/11 15:59:12","新北市樹林區國凱街134號","121.423346666667","24.9802516666667","6500700","樹林區"
"238008","571-TV","2019/07/11 15:59:18","新北市樹林區柑園街二段175號","121.380506666667","24.9529783333333","6500700","樹林區"
"238011","5061-A6","2019/07/11 15:59:15","新北市樹林區佳園路一段29號","121.39298","24.9710766666667","6500700","樹林區"
"238005","KEA-2217","2019/07/11 15:59:09","新北市樹林區博愛一街40號","121.42588","24.9906616666667","6500700","樹林區"
"238009","KEA-2213","2019/07/11 15:59:24","新北市樹林區太平路176號","121.41844","24.9767433333333","6500700","樹林區"
"238012","303-VK","2019/07/11 15:59:20","新北市樹林區中正路22-1號","121.427858333333","24.99933","6500700","樹林區"
"238001","282-BY","2019/07/11 15:59:25","新北市樹林區千歲街30巷23號","121.426403333333","24.9961866666667","6500700","樹林區"
"238007","268-VK","2019/07/11 15:59:10","新北市樹林區三俊街157號","121.419005","25.0156366666667","6500700","樹林區"
"238013","172-UY","2019/07/11 15:59:18","新北市樹林區佳園路一段77號","121.393256666667","24.9699083333333","6500700","樹林區"
"238003","169-UY","2019/07/11 15:59:02","新北市樹林區文化街7號","121.4201","24.987095","6500700","樹林區"
