"lineid","car","time","location","longitude","latitude","cityid","cityname"
"249005","172-UM","2019/07/11 16:39:17","新北市八里區大崁腳48-53號","121.424775","25.1592733333333","6502300","八里區"
"249003","593-UM","2019/07/11 16:39:27","新北市八里區中山路二段356巷43號","121.400691666667","25.1499016666667","6502300","八里區"
"244023","483-VK","2019/07/11 16:39:11","新北市林口區粉寮路二段160巷28號","121.405126666667","25.0907716666667","6501700","林口區"
"244009","656-BX","2019/07/11 16:39:15","新北市林口區粉寮69號","121.405036666667","25.0908366666667","6501700","林口區"
"231046","719-UM","2019/07/11 16:39:21","新北市新店區灣潭路3-5號","121.538051666667","24.9508216666667","6500600","新店區"
"241011","013-R5","2019/07/11 16:39:12","新北市三重區仁愛街39號","121.496556666667","25.0716366666667","6500200","三重區"
"241028","022-UY","2019/07/11 16:39:14","新北市三重區重新路三段58號","121.493748333333","25.0612733333333","6500200","三重區"
"241008","059-VK","2019/07/11 16:39:25","新北市三重區永安北路一段27巷28號","121.477338333333","25.0756016666667","6500200","三重區"
"241029","060-VK","2019/07/11 16:39:09","新北市三重區集美街112巷13號","121.489451666667","25.0541033333333","6500200","三重區"
"241031","061-VK","2019/07/11 16:39:16","新北市三重區重新路四段51號","121.487643333333","25.05744","6500200","三重區"
"241015","062-VK","2019/07/11 16:39:09","新北市三重區文化北路41-1號","121.498948333333","25.0652383333333","6500200","三重區"
"241017","063-VK","2019/07/11 16:39:14","新北市三重區中正北路25巷9號","121.492645","25.0621266666667","6500200","三重區"
"241024","065-VK","2019/07/11 16:39:13","新北市三重區中正北路315巷6弄38號","121.476533333333","25.072255","6500200","三重區"
"241023","066-VK","2019/07/11 16:39:18","新北市三重區忠孝路三段50巷45號","121.482878333333","25.064375","6500200","三重區"
"241002","090-VK","2019/07/11 16:39:15","新北市三重區仁義街241巷58號","121.49762","25.083425","6500200","三重區"
"241003","091-VK","2019/07/11 16:39:24","新北市三重區五華街71巷92號","121.494201666667","25.0839016666667","6500200","三重區"
"241030","742-BX","2019/07/11 16:39:20","新北市三重區環河南路286號","121.488871666667","25.048995","6500200","三重區"
"241005","262-UM","2019/07/11 16:39:10","新北市三重區仁華街118巷47號","121.48594","25.0840133333333","6500200","三重區"
"241016","266-UM","2019/07/11 16:39:18","新北市三重區大智街24號","121.494773333333","25.0648533333333","6500200","三重區"
"241009","267-UM","2019/07/11 16:39:23","新北市三重區三和路四段203巷82號","121.48383","25.0800016666667","6500200","三重區"
"241018","268-UM","2019/07/11 16:39:21","新北市三重區六張街83號","121.493108333333","25.070215","6500200","三重區"
"241032","269-UM","2019/07/11 16:39:09","新北市三重區過圳街75-1號","121.485083333333","25.0613566666667","6500200","三重區"
"241013","270-UM","2019/07/11 16:39:22","新北市三重區仁愛街73號","121.49615","25.0729516666667","6500200","三重區"
"241025","271-UM","2019/07/11 16:39:25","新北市三重區中正北路430-2號","121.47446","25.0708666666667","6500200","三重區"
"241007","398-BY","2019/07/11 16:39:23","新北市三重區仁美街83號","121.486098333333","25.0795066666667","6500200","三重區"
"241004","475-VK","2019/07/11 16:39:27","新北市三重區五福街7號","121.4929","25.0816716666667","6500200","三重區"
"241020","478-VK","2019/07/11 16:39:21","新北市三重區後竹圍街206號","121.486028333333","25.0717866666667","6500200","三重區"
"241026","480-VK","2019/07/11 16:39:12","新北市三重區中央南路17號","121.501233333333","25.0625183333333","6500200","三重區"
"241014","543-UM","2019/07/11 16:39:22","新北市三重區長安街120號","121.502958333333","25.0679266666667","6500200","三重區"
"241001","547-UM","2019/07/11 16:39:23","新北市三重區仁愛街257號","121.493128333333","25.0783833333333","6500200","三重區"
"241006","AAD-863","2019/07/11 16:39:13","新北市三重區力行路二段91巷21弄1號","121.483386666667","25.07593","6500200","三重區"
"241019","743-BX","2019/07/11 16:39:09","新北市三重區力行路一段48號","121.486078333333","25.068265","6500200","三重區"
"241022","KED-0820","2019/07/11 16:39:16","新北市三重區貴陽街20號","121.48413","25.06201","6500200","三重區"
"241012","941-UM","2019/07/11 16:39:17","新北市三重區仁興街4巷33號","121.499173333333","25.0736516666667","6500200","三重區"
"241033","AAC-255","2019/07/11 16:39:23","新北市三重區光復路二段131號","121.472205","25.0588816666667","6500200","三重區"
"235062","800-TS","2019/07/11 16:35:24","新北市中和區員山路36巷16-3號","121.485015","24.9914983333333","6500300","中和區"
"247024","337-TH","2019/07/11 16:39:21","新北市五股區凌雲路一段21號","121.45245","25.1003766666667","6501400","蘆洲區"
"247012","056-VK","2019/07/11 16:39:07","新北市五股區中興路三段163號","121.449275","25.0807233333333","6501400","蘆洲區"
"228002","663-BX","2019/07/11 16:39:22","新北市貢寮區貢寮里朝陽街1-2號","121.912348333333","25.0212433333333","6502600","貢寮區"
"224007","285-BY","2019/07/11 16:39:14","新北市瑞芳區中央路35號","121.76207","25.1031533333333","6501200","瑞芳區"
"224005","271-BY","2019/07/11 16:39:21","新北市瑞芳區洞頂路101巷80號","121.856708333333","25.1241233333333","6501200","瑞芳區"
"227001","642-TC","2019/07/11 16:39:24","新北市雙溪區牡丹里聖南1-1號","121.860381666667","25.050335","6502500","雙溪區"
"227002","400-TW","2019/07/11 16:39:20","新北市雙溪區長源里內柑腳11號","121.802708333333","25.015215","6502500","雙溪區"
"251015","KEA-2871","2019/07/11 16:39:27","新北市淡水區新民街一段117號","121.428728333333","25.187325","6501000","淡水區"
"251016","179-VK","2019/07/11 16:39:11","新北市淡水區新市一路三段55號","121.445816666667","25.1830766666667","6501000","淡水區"
"251008","181-VK","2019/07/11 16:39:16","新北市淡水區樹梅坑9號","121.472815","25.142745","6501000","淡水區"
"251013","182-VK","2019/07/11 16:39:19","新北市淡水區楓樹湖1-5號","121.494686666667","25.1906933333333","6501000","淡水區"
"251014","577-R6","2019/07/11 16:39:18","新北市淡水區淡金路四段478號","121.452413333333","25.223915","6501000","淡水區"
"252002","178-VK","2019/07/11 16:39:24","新北市三芝區晴光街1號","121.510361666667","25.2579166666667","6502100","三芝區"
"247010","KED-0683","2019/07/11 16:39:18","新北市五股區中興路三段163號","121.449346666667","25.0806933333333","6501400","蘆洲區"
"252001","KED-0821","2019/07/11 16:39:10","新北市三芝區茂長里陳厝坑3-5號","121.5105","25.264245","6502100","三芝區"
"238023","601-UM","2019/07/11 16:39:08","新北市樹林區大安路263號","121.419153333333","24.993835","6500700","樹林區"
"238025","303-VK","2019/07/11 16:39:20","新北市樹林區中正路22-1號","121.427898333333","24.9993766666667","6500700","樹林區"
"238001","282-BY","2019/07/11 16:39:25","新北市樹林區中正路22-1號","121.427753333333","24.999635","6500700","樹林區"
"233001","KEA-2870","2019/07/11 16:39:16","新北市烏來區啦卡路70-1號","121.565218333333","24.8559283333333","6502900","烏來區"
