"lineid","car","time","location","longitude","latitude","cityid","cityname"
"249005","172-UM","2019/07/11 17:09:17","新北市八里區華富山5-1號","121.418763333333","25.143365","6502300","八里區"
"249001","173-UM","2019/07/11 17:09:24","新北市八里區中華路二段249-1號","121.403995","25.14828","6502300","八里區"
"249002","305-UY","2019/07/11 17:09:25","新北市八里區米倉14-6號","121.438966666667","25.1498516666667","6502300","八里區"
"249003","593-UM","2019/07/11 17:09:07","新北市八里區中山路二段480號","121.398645","25.1472116666667","6502300","八里區"
"249004","759-BX","2019/07/11 17:09:17","新北市八里區忠孝路152號","121.423955","25.1607633333333","6502300","八里區"
"244007","080-UY","2019/07/11 17:09:11","新北市林口區菁埔路15號","121.378093333333","25.0963066666667","6501700","林口區"
"244019","402-UM","2019/07/11 17:09:16","新北市林口區公園路227-3號","121.374743333333","25.075035","6501700","林口區"
"244013","KEA-2802","2019/07/11 17:09:26","新北市林口區粉寮69號","121.4048","25.0907366666667","6501700","林口區"
"244023","483-VK","2019/07/11 17:09:11","新北市林口區仁愛路一段667巷9號","121.387746666667","25.0758466666667","6501700","林口區"
"244017","485-VK","2019/07/11 17:09:16","新北市林口區粉寮69號","121.405048333333","25.090825","6501700","林口區"
"244009","656-BX","2019/07/11 17:09:15","新北市林口區文化二路二段308號","121.382553333333","25.088095","6501700","林口區"
"244011","701-TV","2019/07/11 17:09:09","新北市林口區粉寮路二段160巷28號","121.405166666667","25.0907666666667","6501700","林口區"
"244025","837-TS","2019/07/11 17:09:08","新北市林口區中山路577號","121.380463333333","25.0822433333333","6501700","林口區"
"244021","838-TS","2019/07/11 17:09:17","新北市林口區粉寮路二段88巷11號","121.405385","25.0884733333333","6501700","林口區"
"231046","719-UM","2019/07/11 17:02:02","新北市新店區灣潭路15-2號","121.542421666667","24.9434333333333","6500600","新店區"
"241011","013-R5","2019/07/11 17:09:11","新北市三重區龍濱路190號","121.501138333333","25.0732816666667","6500200","三重區"
"241028","022-UY","2019/07/11 17:09:14","新北市三重區重新路三段108號","121.492398333333","25.0603916666667","6500200","三重區"
"241008","059-VK","2019/07/11 17:09:05","新北市三重區力行路二段134號","121.482071666667","25.0756783333333","6500200","三重區"
"241029","060-VK","2019/07/11 17:09:09","新北市三重區重新路三段150號","121.490866666667","25.05924","6500200","三重區"
"241031","061-VK","2019/07/11 17:09:22","新北市三重區重陽路一段113巷3號","121.487505","25.0596416666667","6500200","三重區"
"241015","062-VK","2019/07/11 17:09:08","新北市三重區文化北路69號","121.49852","25.0666883333333","6500200","三重區"
"241017","063-VK","2019/07/11 17:09:14","新北市三重區中正北路25巷2號","121.493285","25.062705","6500200","三重區"
"241024","065-VK","2019/07/11 17:09:13","新北市三重區大勇街82巷26弄31號","121.478316666667","25.0720366666667","6500200","三重區"
"241023","066-VK","2019/07/11 17:09:18","新北市三重區忠孝路三段84巷1號","121.480286666667","25.0646183333333","6500200","三重區"
"241002","090-VK","2019/07/11 17:09:15","新北市三重區自強路五段48號","121.493376666667","25.081165","6500200","三重區"
"241003","091-VK","2019/07/11 17:09:24","新北市三重區進安街198號","121.49386","25.0859633333333","6500200","三重區"
"241030","742-BX","2019/07/11 17:09:20","新北市三重區集成路13號","121.488771666667","25.0521083333333","6500200","三重區"
"241005","262-UM","2019/07/11 17:09:10","新北市三重區碧華街50號","121.483448333333","25.0812683333333","6500200","三重區"
"241016","266-UM","2019/07/11 17:09:18","新北市三重區中正北路25巷2號","121.493186666667","25.06265","6500200","三重區"
"241009","267-UM","2019/07/11 17:09:23","新北市三重區三和路四段211-14號","121.482208333333","25.0798383333333","6500200","三重區"
"241018","268-UM","2019/07/11 17:09:21","新北市三重區大智街109號","121.491715","25.0693583333333","6500200","三重區"
"241032","269-UM","2019/07/11 17:09:09","新北市三重區重陽路一段111號","121.486845","25.060015","6500200","三重區"
"241013","270-UM","2019/07/11 17:09:22","新北市三重區仁昌街10號","121.496208333333","25.0739166666667","6500200","三重區"
"241025","271-UM","2019/07/11 17:09:25","新北市三重區頂崁街210巷53號","121.47462","25.0682116666667","6500200","三重區"
"241007","398-BY","2019/07/11 17:09:23","新北市三重區仁美街67號","121.48648","25.07861","6500200","三重區"
"241004","475-VK","2019/07/11 17:09:06","新北市三重區五華街98巷4號","121.49234","25.0821466666667","6500200","三重區"
"241020","478-VK","2019/07/11 17:09:20","新北市三重區自強路三段23號","121.487056666667","25.07238","6500200","三重區"
"241026","480-VK","2019/07/11 17:09:12","新北市三重區重新路一段63號","121.501763333333","25.0636266666667","6500200","三重區"
"241014","543-UM","2019/07/11 17:09:22","新北市三重區龍濱路217號","121.501721666667","25.071935","6500200","三重區"
"241001","547-UM","2019/07/11 17:09:23","新北市三重區仁愛街245巷10號","121.493781666667","25.07818","6500200","三重區"
"241006","AAD-863","2019/07/11 17:09:13","新北市三重區三和路四段111號","121.485938333333","25.077095","6500200","三重區"
"241019","743-BX","2019/07/11 17:09:09","新北市三重區三張街128巷17號","121.486778333333","25.06931","6500200","三重區"
"241022","KED-0820","2019/07/11 17:09:22","新北市三重區三民街88號","121.485596666667","25.0629366666667","6500200","三重區"
"241012","941-UM","2019/07/11 17:09:17","新北市三重區河邊北街248巷13號","121.501356666667","25.0758183333333","6500200","三重區"
"241033","AAC-255","2019/07/11 17:09:23","新北市三重區中興北街271號","121.469121666667","25.060605","6500200","三重區"
"235064","005-UY","2019/07/11 17:09:09","新北市中和區員山路36巷16-3號","121.485036666667","24.9911983333333","6500300","中和區"
"247014","KEA-2869","2019/07/11 17:09:23","新北市蘆洲區中央路7-1號","121.473125","25.0824733333333","6501400","蘆洲區"
"247008","KED-0682","2019/07/11 17:09:25","新北市蘆洲區信義路30巷22號","121.474348333333","25.0786883333333","6501400","蘆洲區"
"235054","640-BX","2019/07/11 17:09:05","新北市中和區員山路36巷16-2號","121.48536","24.991525","6500300","中和區"
"247004","893-R6","2019/07/11 17:09:10","新北市蘆洲區長安街193巷1弄2號","121.459985","25.0816583333333","6501400","蘆洲區"
"247018","546-UM","2019/07/11 17:09:21","新北市蘆洲區復興路115號","121.477353333333","25.0881016666667","6501400","蘆洲區"
"247002","500-BY","2019/07/11 17:09:10","新北市蘆洲區永樂街62號","121.457263333333","25.0884983333333","6501400","蘆洲區"
"247024","337-TH","2019/07/11 17:09:21","新北市蘆洲區光復路16號","121.462911666667","25.0842633333333","6501400","蘆洲區"
"247022","057-VK","2019/07/11 17:09:07","新北市蘆洲區民族路494號","121.469816666667","25.0905383333333","6501400","蘆洲區"
"247012","056-VK","2019/07/11 17:09:27","新北市蘆洲區信義路294號","121.477946666667","25.087675","6501400","蘆洲區"
"247016","053-VK","2019/07/11 17:09:15","新北市蘆洲區光華路75號","121.468001666667","25.0825583333333","6501400","蘆洲區"
"247020","007-UY","2019/07/11 17:09:18","新北市蘆洲區民族路422巷116號","121.472463333333","25.0942783333333","6501400","蘆洲區"
"247006","002-UY","2019/07/11 17:09:09","新北市蘆洲區中華街6巷24號","121.462903333333","25.0821766666667","6501400","蘆洲區"
"228003","097-TW","2019/07/11 17:09:25","新北市貢寮區福隆里東興街6-14號","121.95211","25.0205516666667","6502600","貢寮區"
"228001","212-TW","2019/07/11 17:09:17","新北市貢寮區仁理村研海街20號","121.927963333333","25.0371116666667","6502600","貢寮區"
"228002","663-BX","2019/07/11 17:09:22","新北市貢寮區龍崗里嵩陽街55號","121.907641666667","25.0166166666667","6502600","貢寮區"
"224006","676-BX","2019/07/11 17:09:27","新北市瑞芳區大寮路101-2號","121.778526666667","25.0993183333333","6501200","瑞芳區"
"224007","285-BY","2019/07/11 17:09:14","新北市瑞芳區粗坑口路100-2號","121.760206666667","25.0992466666667","6501200","瑞芳區"
"224009","275-VK","2019/07/11 17:09:13","新北市瑞芳區濱二路30號","121.841166666667","25.1159616666667","6501200","瑞芳區"
"224008","273-VK","2019/07/11 17:09:21","新北市瑞芳區侯硐路93號","121.830623333333","25.0893666666667","6501200","瑞芳區"
"224005","271-BY","2019/07/11 17:09:21","新北市瑞芳區鼻頭路115-1號","121.916365","25.122475","6501200","瑞芳區"
"227001","642-TC","2019/07/11 17:09:04","新北市雙溪區三貂里政光路6-6號","121.850798333333","25.0709016666667","6502500","雙溪區"
"227002","400-TW","2019/07/11 17:09:19","新北市雙溪區上林里內平林13號","121.836716666667","25.0286983333333","6502500","雙溪區"
"251004","009-UM","2019/07/11 17:09:16","新北市淡水區中正東路二段88巷15號","121.45905","25.1504883333333","6501000","淡水區"
"251005","010-UM","2019/07/11 17:09:16","新北市淡水區學府路88號","121.44907","25.1710566666667","6501000","淡水區"
"251015","KEA-2871","2019/07/11 17:09:07","新北市淡水區忠愛街2號","121.455871666667","25.1721016666667","6501000","淡水區"
"251016","179-VK","2019/07/11 17:09:11","新北市淡水區社厝坑3-11號","121.475196666667","25.1888166666667","6501000","淡水區"
"251008","181-VK","2019/07/11 17:08:56","新北市淡水區樹梅坑6-9號","121.472873333333","25.1457733333333","6501000","淡水區"
"251013","182-VK","2019/07/11 17:09:19","新北市淡水區桂花樹1號","121.482938333333","25.19673","6501000","淡水區"
"251010","413-VK","2019/07/11 17:09:05","新北市淡水區中正路二段31號","121.419523333333","25.181475","6501000","淡水區"
"251012","441-VK","2019/07/11 17:09:10","新北市淡水區中山北路一段158號","121.444203333333","25.17786","6501000","淡水區"
"251007","442-VK","2019/07/11 17:09:11","新北市淡水區民權路20號","121.45988","25.1378316666667","6501000","淡水區"
"251006","561-UM","2019/07/11 17:09:26","新北市淡水區新生街20-5號","121.4389","25.1739716666667","6501000","淡水區"
"251009","575-R6","2019/07/11 17:09:12","新北市淡水區中正路一段132巷7弄19號","121.421356666667","25.1796066666667","6501000","淡水區"
"251014","577-R6","2019/07/11 17:09:18","新北市淡水區八里堆7號","121.459916666667","25.2249733333333","6501000","淡水區"
"251011","650-BX","2019/07/11 17:09:10","新北市淡水區坪頂路49號","121.457926666667","25.16264","6501000","淡水區"
"252002","178-VK","2019/07/11 17:09:12","新北市三芝區忠孝街1-13號","121.505481666667","25.25415","6502100","三芝區"
"233002","762-BX","2019/07/11 17:09:27","新北市烏來區野要街30-1號","121.548685","24.854235","6502900","烏來區"
"247010","KED-0683","2019/07/11 17:09:18","新北市蘆洲區民族路20號","121.476018333333","25.0841333333333","6501400","蘆洲區"
"252001","KED-0821","2019/07/11 17:09:10","新北市三芝區淡金路一段4-5號","121.497998333333","25.260005","6502100","三芝區"
"242039","AAC-296","2019/07/11 17:09:12","新北市新莊區三和路12-20號","121.442135","25.0378416666667","6500500","新莊區"
"242002","751-BX","2019/07/11 17:09:19","新北市泰山區磚雅厝3號","121.442058333333","25.04161","6500500","新莊區"
"242029","615-BX","2019/07/11 17:09:13","新北市新莊區新泰路357巷3弄57號","121.442065","25.039305","6500500","新莊區"
"242027","613-BX","2019/07/11 17:08:58","新北市新莊區三和路12-21號","121.441936666667","25.0383083333333","6500500","新莊區"
"242058","612-BX","2019/07/11 17:09:18","新北市新莊區新泰路357巷3弄57號","121.44208","25.0391366666667","6500500","新莊區"
"242046","566-BX","2019/07/11 17:09:06","新北市新莊區三和路12-21號","121.44222","25.038385","6500500","新莊區"
"242051","497-BY","2019/07/11 17:09:16","新北市新莊區中正路473-1號","121.442041666667","25.0332566666667","6500500","新莊區"
"242056","441-UM","2019/07/11 17:09:21","新北市新莊區三和路12-21號","121.442061666667","25.0383533333333","6500500","新莊區"
"242011","413-TV","2019/07/11 17:09:23","新北市新莊區三和路12-21號","121.44212","25.037925","6500500","新莊區"
"242048","400-BY","2019/07/11 17:09:19","新北市新莊區中正路418號","121.441013333333","25.0337583333333","6500500","新莊區"
"242025","362-BY","2019/07/11 17:09:17","新北市新莊區新泰路357巷3弄57號","121.441916666667","25.039055","6500500","新莊區"
"242023","353-BY","2019/07/11 17:09:14","新北市新莊區新泰路357巷3弄57號","121.441983333333","25.039175","6500500","新莊區"
"242013","132-UY","2019/07/11 17:09:24","新北市新莊區三和路12-21號","121.441821666667","25.0387783333333","6500500","新莊區"
"242036","135-UY","2019/07/11 17:09:13","新北市新莊區三和路12-21號","121.441975","25.038855","6500500","新莊區"
"242015","173-VK","2019/07/11 17:09:10","新北市新莊區三和路12-21號","121.442013333333","25.03869","6500500","新莊區"
"242019","KED-0687","2019/07/11 17:09:14","新北市新莊區公園一路75巷13號","121.442536666667","25.0378716666667","6500500","新莊區"
"242044","347-TH","2019/07/11 17:09:16","新北市新莊區三和路12-21號","121.442253333333","25.0382466666667","6500500","新莊區"
"242034","348-TH","2019/07/11 17:09:17","新北市新莊區三和路12-21號","121.442003333333","25.038785","6500500","新莊區"
"242031","350-TH","2019/07/11 17:09:08","新北市新莊區三和路12-21號","121.441973333333","25.0388616666667","6500500","新莊區"
"242017","351-TH","2019/07/11 17:09:21","新北市新莊區新泰路357巷3弄57號","121.442066666667","25.0395166666667","6500500","新莊區"
"238023","601-UM","2019/07/11 17:09:08","新北市樹林區中正路433-1號","121.414896666667","25.0079066666667","6500700","樹林區"
"238019","599-UM","2019/07/11 17:09:12","新北市樹林區育德街78-1號","121.38775","24.96811","6500700","樹林區"
"238018","KEA-2217","2019/07/11 17:09:06","新北市樹林區博愛街215號","121.424045","24.986695","6500700","樹林區"
"238022","KEA-2213","2019/07/11 17:09:24","新北市樹林區八德街437-1號","121.405335","24.969395","6500700","樹林區"
"238025","303-VK","2019/07/11 17:09:20","新北市樹林區中正路22-1號","121.427801666667","24.9993983333333","6500700","樹林區"
"238017","283-BY","2019/07/11 17:09:23","新北市樹林區光武街7-3號","121.415693333333","25.00525","6500700","樹林區"
"238014","282-BY","2019/07/11 17:09:25","新北市樹林區千歲街68號","121.426123333333","24.9974333333333","6500700","樹林區"
"238020","268-VK","2019/07/11 17:09:10","新北市樹林區中正路22-2號","121.428011666667","24.9992883333333","6500700","樹林區"
"238026","172-UY","2019/07/11 17:09:18","新北市樹林區中山路三段214號","121.379766666667","24.96777","6500700","樹林區"
"238016","169-UY","2019/07/11 17:09:22","新北市樹林區中山路二段34號","121.417451666667","24.9849766666667","6500700","樹林區"
"239007","AAC-297","2019/07/11 17:09:25","新北市鶯歌區信義街48號","121.353356666667","24.9552733333333","6500800","鶯歌區"
"239006","891-R6","2019/07/11 17:09:09","新北市鶯歌區八德路2巷18弄2號","121.336778333333","24.9470466666667","6500800","鶯歌區"
"239008","527-UM","2019/07/11 17:09:05","新北市鶯歌區尖山路101巷1-3號","121.347863333333","24.9472616666667","6500800","鶯歌區"
"239005","526-UM","2019/07/11 17:09:26","新北市鶯歌區鶯桃路301號","121.333635","24.9605933333333","6500800","鶯歌區"
"239001","417-VK","2019/07/11 17:09:11","新北市鶯歌區尖山路140巷6弄1號","121.346575","24.94897","6500800","鶯歌區"
"239003","360-BY","2019/07/11 17:09:25","新北市鶯歌區八德路16號","121.330618333333","24.95547","6500800","鶯歌區"
"239002","359-BY","2019/07/11 17:09:23","新北市鶯歌區建國路190號","121.349648333333","24.953455","6500800","鶯歌區"
"239004","193-VK","2019/07/11 17:09:08","新北市鶯歌區文化路324巷8弄1衖2號","121.349908333333","24.9450316666667","6500800","鶯歌區"
"233001","KEA-2870","2019/07/11 17:09:16","新北市烏來區環山路48-3號","121.548333333333","24.8645916666667","6502900","烏來區"
"242009","280-VK","2019/07/11 17:09:15","新北市新莊區三和路12-21號","121.441936666667","25.0383933333333","6500500","新莊區"
