"lineid","car","time","location","longitude","latitude","cityid","cityname"
"249005","172-UM","2019/07/11 17:19:17","新北市八里區荖阡坑路50-1號","121.41067","25.1211383333333","6502300","八里區"
"249001","173-UM","2019/07/11 17:19:24","新北市八里區中華路二段165巷2-1號","121.40761","25.15088","6502300","八里區"
"249002","305-UY","2019/07/11 17:19:05","新北市八里區龍米路二段117巷29-1號","121.44621","25.1428466666667","6502300","八里區"
"249003","593-UM","2019/07/11 17:19:27","新北市八里區中山路二段449號","121.396641666667","25.1456933333333","6502300","八里區"
"249004","759-BX","2019/07/11 17:19:13","新北市八里區賢三街79-1號","121.418091666667","25.1582516666667","6502300","八里區"
"244007","080-UY","2019/07/11 17:19:11","新北市林口區湖子10-1號","121.387201666667","25.0905","6501700","林口區"
"244019","402-UM","2019/07/11 17:19:16","新北市林口區公園路191號","121.37196","25.0722516666667","6501700","林口區"
"244013","KEA-2802","2019/07/11 17:19:06","新北市林口區粉寮69號","121.404788333333","25.0907766666667","6501700","林口區"
"244023","483-VK","2019/07/11 17:19:19","新北市林口區隆林街95號","121.38553","25.0750416666667","6501700","林口區"
"244017","485-VK","2019/07/11 17:19:16","新北市林口區中山路53號","121.394316666667","25.0784783333333","6501700","林口區"
"244009","656-BX","2019/07/11 17:19:15","新北市林口區松柏路31號","121.379725","25.0918583333333","6501700","林口區"
"244011","701-TV","2019/07/11 17:19:28","新北市林口區仁愛路一段285巷116號","121.39528","25.0758366666667","6501700","林口區"
"244025","837-TS","2019/07/11 17:19:08","新北市林口區仁愛二路96號","121.368555","25.0754533333333","6501700","林口區"
"244021","838-TS","2019/07/11 17:19:17","新北市林口區粉寮路二段281-2號","121.404643333333","25.0940716666667","6501700","林口區"
"231046","719-UM","2019/07/11 17:15:41","新北市新店區直潭六街64號","121.53223","24.9400116666667","6500600","新店區"
"241011","013-R5","2019/07/11 17:19:12","新北市三重區龍濱路183號","121.50213","25.070735","6500200","三重區"
"241028","022-UY","2019/07/11 17:19:14","新北市三重區中正南路108號","121.494318333333","25.058515","6500200","三重區"
"241008","059-VK","2019/07/11 17:19:25","新北市三重區永福街72巷31號","121.480126666667","25.0763583333333","6500200","三重區"
"241029","060-VK","2019/07/11 17:19:09","新北市三重區重新路四段43號","121.488006666667","25.0575233333333","6500200","三重區"
"241015","062-VK","2019/07/11 17:19:08","新北市三重區福德北路89號","121.502025","25.0661566666667","6500200","三重區"
"241017","063-VK","2019/07/11 17:19:14","新北市三重區大同北路91號","121.49473","25.06361","6500200","三重區"
"241024","065-VK","2019/07/11 17:19:13","新北市三重區中正北路193巷11弄30號","121.478113333333","25.0704866666667","6500200","三重區"
"241023","066-VK","2019/07/11 17:19:18","新北市三重區忠孝路三段52號","121.48071","25.0656716666667","6500200","三重區"
"241002","090-VK","2019/07/11 17:19:15","新北市三重區仁義街317號","121.495506666667","25.0841033333333","6500200","三重區"
"241003","091-VK","2019/07/11 17:19:24","新北市三重區富福街47號","121.491633333333","25.0842833333333","6500200","三重區"
"241030","742-BX","2019/07/11 17:19:20","新北市三重區成功路73巷11號","121.489553333333","25.0518183333333","6500200","三重區"
"241005","262-UM","2019/07/11 17:19:10","新北市三重區仁華街26號","121.483321666667","25.0819916666667","6500200","三重區"
"241016","266-UM","2019/07/11 17:19:18","新北市三重區中正北路25巷8號","121.493383333333","25.0628416666667","6500200","三重區"
"241009","267-UM","2019/07/11 17:19:23","新北市三重區仁愛街604號","121.483951666667","25.0807083333333","6500200","三重區"
"241018","268-UM","2019/07/11 17:19:21","新北市三重區安慶街123號","121.4948","25.0689783333333","6500200","三重區"
"241032","269-UM","2019/07/11 17:19:09","新北市三重區興華街135號","121.483085","25.0599166666667","6500200","三重區"
"241013","270-UM","2019/07/11 17:19:21","新北市三重區三和路三段107巷26號","121.495145","25.073145","6500200","三重區"
"241025","271-UM","2019/07/11 17:19:25","新北市三重區中正北路253號","121.47542","25.0707533333333","6500200","三重區"
"241007","398-BY","2019/07/11 17:19:23","新北市三重區三和路四段155巷33號","121.485015","25.0787","6500200","三重區"
"241004","475-VK","2019/07/11 17:19:14","新北市三重區仁愛街425巷76號","121.491851666667","25.0826583333333","6500200","三重區"
"241020","478-VK","2019/07/11 17:19:20","新北市三重區忠孝路一段107號","121.489085","25.0721366666667","6500200","三重區"
"241026","480-VK","2019/07/11 17:19:12","新北市三重區正義南路10號","121.498263333333","25.0615433333333","6500200","三重區"
"241014","543-UM","2019/07/11 17:19:22","新北市三重區三和路二段83號","121.500133333333","25.0683616666667","6500200","三重區"
"241001","547-UM","2019/07/11 17:19:23","新北市三重區仁愛街269巷32號","121.49398","25.0793066666667","6500200","三重區"
"241019","743-BX","2019/07/11 17:19:29","新北市三重區忠孝路二段68號","121.484693333333","25.07022","6500200","三重區"
"241022","KED-0820","2019/07/11 17:19:16","新北市三重區中正北路64巷24號","121.486071666667","25.06365","6500200","三重區"
"241024","887-TS","2019/07/11 17:19:21","新北市三重區中正北路254號","121.48142","25.06821","6500200","三重區"
"241012","941-UM","2019/07/11 17:19:21","新北市三重區仁福街66號","121.498096666667","25.07484","6500200","三重區"
"241033","AAC-255","2019/07/11 17:19:23","新北市三重區中興北街191號","121.469065","25.0564433333333","6500200","三重區"
"235064","005-UY","2019/07/11 17:19:09","新北市中和區員山路36巷16-3號","121.484911666667","24.99122","6500300","中和區"
"247014","KEA-2869","2019/07/11 17:19:23","新北市蘆洲區中正路73號","121.470405","25.0831133333333","6501400","蘆洲區"
"247008","KED-0682","2019/07/11 17:19:25","新北市蘆洲區永安北路一段72巷28號","121.476551666667","25.0770766666667","6501400","蘆洲區"
"235054","640-BX","2019/07/11 17:19:25","新北市中和區員山路36巷16-2號","121.485355","24.99167","6500300","中和區"
"247004","893-R6","2019/07/11 17:19:10","新北市蘆洲區永安南路二段286號","121.457688333333","25.0812216666667","6501400","蘆洲區"
"247018","546-UM","2019/07/11 17:19:12","新北市蘆洲區民權路66號","121.475","25.0872516666667","6501400","蘆洲區"
"247002","500-BY","2019/07/11 17:19:10","新北市蘆洲區永樂街38巷33弄6號","121.457891666667","25.089595","6501400","蘆洲區"
"247024","337-TH","2019/07/11 17:19:21","新北市蘆洲區光榮路2號","121.460293333333","25.086055","6501400","蘆洲區"
"247022","057-VK","2019/07/11 17:19:07","新北市蘆洲區水湳街36號","121.470656666667","25.0895533333333","6501400","蘆洲區"
"247012","056-VK","2019/07/11 17:19:27","新北市蘆洲區信義路319巷5號","121.478041666667","25.086225","6501400","蘆洲區"
"247016","053-VK","2019/07/11 17:19:15","新北市蘆洲區和平路188巷26號","121.467036666667","25.08194","6501400","蘆洲區"
"247020","007-UY","2019/07/11 17:19:18","新北市蘆洲區仁愛街35巷12號","121.471536666667","25.0926416666667","6501400","蘆洲區"
"247006","002-UY","2019/07/11 17:19:23","新北市蘆洲區長安街75號","121.462431666667","25.079835","6501400","蘆洲區"
"228003","097-TW","2019/07/11 17:19:26","新北市貢寮區福隆里興隆街16號","121.944966666667","25.0167466666667","6502600","貢寮區"
"228001","212-TW","2019/07/11 17:19:17","新北市貢寮區仁理村尖山腳街18-3號","121.925498333333","25.0483266666667","6502600","貢寮區"
"228002","663-BX","2019/07/11 17:19:22","新北市貢寮區雙玉里下雙溪街24號","121.923101666667","25.0098916666667","6502600","貢寮區"
"224006","676-BX","2019/07/11 17:19:13","新北市瑞芳區大寮路2-1號","121.785641666667","25.1010466666667","6501200","瑞芳區"
"224009","275-VK","2019/07/11 17:19:13","新北市瑞芳區汽車路116號","121.840041666667","25.1101816666667","6501200","瑞芳區"
"224008","273-VK","2019/07/11 17:19:21","新北市瑞芳區侯硐路154號","121.826931666667","25.0844366666667","6501200","瑞芳區"
"224005","271-BY","2019/07/11 17:19:21","新北市瑞芳區鼻頭路247號","121.912591666667","25.1237983333333","6501200","瑞芳區"
"227001","642-TC","2019/07/11 17:19:24","新北市雙溪區三貂里政光路3號","121.851371666667","25.0632","6502500","雙溪區"
"227002","400-TW","2019/07/11 17:19:19","新北市雙溪區平林里梅竹蹊60號","121.860716666667","25.0358966666667","6502500","雙溪區"
"251004","009-UM","2019/07/11 17:10:34","新北市淡水區中正東路二段88巷15號","121.459048333333","25.1504866666667","6501000","淡水區"
"251005","010-UM","2019/07/11 17:19:16","新北市淡水區鄧公路23巷2號","121.451418333333","25.1700783333333","6501000","淡水區"
"251015","KEA-2871","2019/07/11 17:19:07","新北市淡水區樹林口168號","121.474955","25.1681116666667","6501000","淡水區"
"251016","179-VK","2019/07/11 17:19:11","新北市淡水區鄒厝崙12-1號","121.465296666667","25.1901016666667","6501000","淡水區"
"251008","181-VK","2019/07/11 17:19:16","新北市淡水區大同路276號","121.467748333333","25.1411416666667","6501000","淡水區"
"251013","182-VK","2019/07/11 17:19:19","新北市淡水區演戲埔腳9-1號","121.472755","25.1963883333333","6501000","淡水區"
"251010","413-VK","2019/07/11 17:19:25","新北市淡水區淡海路100號","121.422791666667","25.18245","6501000","淡水區"
"251012","441-VK","2019/07/11 17:19:10","新北市淡水區中山北路一段158號","121.444318333333","25.1778166666667","6501000","淡水區"
"251007","442-VK","2019/07/11 17:19:11","新北市淡水區民生路56號","121.462033333333","25.1379366666667","6501000","淡水區"
"251006","561-UM","2019/07/11 17:19:26","新北市淡水區中山北路一段6號","121.441571666667","25.1746333333333","6501000","淡水區"
"251009","575-R6","2019/07/11 17:19:12","新北市淡水區三民街19號","121.438976666667","25.171855","6501000","淡水區"
"251014","577-R6","2019/07/11 17:18:58","新北市淡水區公埔子5-1號","121.464768333333","25.226755","6501000","淡水區"
"251011","650-BX","2019/07/11 17:19:10","新北市淡水區坪頂路103號","121.46357","25.162535","6501000","淡水區"
"251003","673-BX","2019/07/11 17:19:13","新北市淡水區中正路二段31號","121.419543333333","25.1815133333333","6501000","淡水區"
"207003","550-UM","2019/07/11 17:19:28","新北市萬里區萬里里獅頭路23號","121.693428333333","25.1782533333333","6502800","萬里區"
"252002","178-VK","2019/07/11 17:19:12","新北市三芝區忠孝街1-15號","121.505533333333","25.2539233333333","6502100","三芝區"
"233002","762-BX","2019/07/11 17:19:06","新北市烏來區環山路108巷13號","121.548163333333","24.8626666666667","6502900","烏來區"
"247010","KED-0683","2019/07/11 17:19:18","新北市蘆洲區鷺江街36號","121.47775","25.0825533333333","6501400","蘆洲區"
"252001","KED-0821","2019/07/11 17:19:10","新北市三芝區長安街119號","121.497995","25.2596366666667","6502100","三芝區"
"242039","AAC-296","2019/07/11 17:19:12","新北市新莊區新樹路138號","121.43561","25.02352","6500500","新莊區"
"242061","986-R7","2019/07/11 17:19:11","新北市新莊區中正路400號","121.441985","25.0343333333333","6500500","新莊區"
"242002","751-BX","2019/07/11 17:19:19","新北市新莊區瓊林路46-9號","121.447148333333","25.0290816666667","6500500","新莊區"
"242029","615-BX","2019/07/11 17:19:13","新北市新莊區幸福路602-1號","121.452181666667","25.0493833333333","6500500","新莊區"
"242027","613-BX","2019/07/11 17:19:18","新北市新莊區思源路159號","121.459443333333","25.0446183333333","6500500","新莊區"
"242058","612-BX","2019/07/11 17:19:18","新北市新莊區新泰路357巷3弄57號","121.44211","25.0391683333333","6500500","新莊區"
"242046","566-BX","2019/07/11 17:19:26","新北市新莊區新泰路357巷2號","121.441981666667","25.0414916666667","6500500","新莊區"
"242051","497-BY","2019/07/11 17:19:16","新北市新莊區瓊林南路12-3號","121.436256666667","25.01886","6500500","新莊區"
"242056","441-UM","2019/07/11 17:19:21","新北市新莊區新莊路658號","121.442418333333","25.0328983333333","6500500","新莊區"
"242004","440-UM","2019/07/11 17:19:12","新北市新莊區中港一街142號","121.446451666667","25.0450933333333","6500500","新莊區"
"242042","415-TV","2019/07/11 17:19:15","新北市新莊區新樹路52-5號","121.437156666667","25.02713","6500500","新莊區"
"242011","413-TV","2019/07/11 17:19:22","新北市新莊區中港路352號","121.451818333333","25.0467216666667","6500500","新莊區"
"242048","400-BY","2019/07/11 17:19:19","新北市新莊區龍安路249巷1號","121.419065","25.02068","6500500","新莊區"
"242025","362-BY","2019/07/11 17:19:17","新北市新莊區中港路301號","121.452886666667","25.0445116666667","6500500","新莊區"
"242023","353-BY","2019/07/11 17:19:14","新北市新莊區中和街12號","121.448368333333","25.0431866666667","6500500","新莊區"
"242013","132-UY","2019/07/11 17:19:24","新北市新莊區中環路二段392-1號","121.442363333333","25.0454533333333","6500500","新莊區"
"242036","135-UY","2019/07/11 17:19:13","新北市新莊區新樹路207-1號","121.435915","25.0240083333333","6500500","新莊區"
"242053","172-VK","2019/07/11 17:19:14","新北市新莊區中正路473-1號","121.442085","25.0331783333333","6500500","新莊區"
"242015","173-VK","2019/07/11 17:19:10","新北市新莊區三和路12-21號","121.442028333333","25.0387033333333","6500500","新莊區"
"242021","175-VK","2019/07/11 17:19:18","新北市新莊區中港路307號","121.452741666667","25.044625","6500500","新莊區"
"242019","KED-0687","2019/07/11 17:19:14","新北市新莊區公園路2號","121.447361666667","25.038525","6500500","新莊區"
"242044","347-TH","2019/07/11 17:19:16","新北市新莊區中正路400號","121.441578333333","25.033855","6500500","新莊區"
"242034","348-TH","2019/07/11 17:19:17","新北市新莊區中正路473-1號","121.442026666667","25.03308","6500500","新莊區"
"242007","349-TH","2019/07/11 17:19:19","新北市新莊區新泰路357巷3弄1號","121.442308333333","25.0412616666667","6500500","新莊區"
"242031","350-TH","2019/07/11 17:19:08","新北市新莊區新泰路421-1號","121.443106666667","25.0447616666667","6500500","新莊區"
"242017","351-TH","2019/07/11 17:19:21","新北市新莊區中環路二段392-1號","121.442431666667","25.0455383333333","6500500","新莊區"
"238015","755-BX","2019/07/11 17:19:27","新北市樹林區大安路267號","121.419046666667","24.9937666666667","6500700","樹林區"
"238023","601-UM","2019/07/11 17:19:08","新北市樹林區中正路648號","121.409813333333","25.0163183333333","6500700","樹林區"
"238019","599-UM","2019/07/11 17:19:12","新北市樹林區太平路235-1號","121.419166666667","24.9741333333333","6500700","樹林區"
"238024","5061-A6","2019/07/11 17:19:22","新北市樹林區保安街一段48巷16號","121.426308333333","24.9947966666667","6500700","樹林區"
"238018","KEA-2217","2019/07/11 17:19:13","新北市樹林區太平路1-5號","121.418693333333","24.9847116666667","6500700","樹林區"
"238022","KEA-2213","2019/07/11 17:19:24","新北市樹林區仁愛街74號","121.424335","24.9830883333333","6500700","樹林區"
"238025","303-VK","2019/07/11 17:19:20","新北市樹林區保安二街120號","121.422206666667","24.995675","6500700","樹林區"
"238017","283-BY","2019/07/11 17:19:23","新北市樹林區光武街34號","121.416665","25.00651","6500700","樹林區"
"238014","282-BY","2019/07/11 17:19:25","新北市樹林區長壽街70巷1弄2號","121.421176666667","24.9946833333333","6500700","樹林區"
"238020","268-VK","2019/07/11 17:19:09","新北市樹林區中正路22-1號","121.42777","24.9994516666667","6500700","樹林區"
"238026","172-UY","2019/07/11 17:19:18","新北市樹林區味王街46巷1號","121.403951666667","24.9737816666667","6500700","樹林區"
"238016","169-UY","2019/07/11 17:18:42","新北市樹林區後站街3巷10號","121.423345","24.9907283333333","6500700","樹林區"
"239007","AAC-297","2019/07/11 17:19:25","新北市鶯歌區光復街5號","121.351758333333","24.95486","6500800","鶯歌區"
"239006","891-R6","2019/07/11 17:19:09","新北市鶯歌區德昌二街127號","121.332923333333","24.9559083333333","6500800","鶯歌區"
"239008","527-UM","2019/07/11 17:19:25","新北市鶯歌區中山路11號","121.352566666667","24.95705","6500800","鶯歌區"
"239005","526-UM","2019/07/11 17:19:26","新北市鶯歌區福德五街21號","121.328973333333","24.9675733333333","6500800","鶯歌區"
"239001","417-VK","2019/07/11 17:19:11","新北市鶯歌區尖山路246號","121.342561666667","24.946465","6500800","鶯歌區"
"239003","360-BY","2019/07/11 17:19:24","新北市鶯歌區德昌二街71號","121.333423333333","24.9581566666667","6500800","鶯歌區"
"239002","359-BY","2019/07/11 17:19:23","新北市鶯歌區建國路280-2號","121.346485","24.9533083333333","6500800","鶯歌區"
"239004","193-VK","2019/07/11 17:19:08","新北市鶯歌區文化路417-5號","121.352985","24.9487883333333","6500800","鶯歌區"
"233001","KEA-2870","2019/07/11 17:19:16","新北市烏來區溫泉街142號","121.551555","24.859235","6502900","烏來區"
"242009","280-VK","2019/07/11 17:19:15","新北市新莊區新泰路488號","121.442386666667","25.0457933333333","6500500","新莊區"
"235061","KEA-2875","2019/07/11 17:14:23","新北市中和區員山路36巷16-2號","121.485368333333","24.991645","6500300","中和區"
