"lineid","car","time","location","longitude","latitude","cityid","cityname"
"234046","148-BY","2019/07/11 18:49:17","新北市永和區秀朗路二段148巷12弄16號","121.524756666667","25.0011133333333","6500400","永和區"
"234081","298-R6","2019/07/11 18:49:26","新北市永和區林森路112巷12弄2號","121.522415","25.0044016666667","6500400","永和區"
"234038","336-UY","2019/07/11 18:49:11","新北市永和區成功路一段62號","121.526943333333","25.0037883333333","6500400","永和區"
"234064","337-UY","2019/07/11 18:49:23","新北市永和區福和路1號","121.525625","25.0095016666667","6500400","永和區"
"234086","338-UY","2019/07/11 18:49:09","新北市永和區中正路75號","121.514998333333","24.9968366666667","6500400","永和區"
"234017","745-BX","2019/07/11 18:49:26","新北市永和區忠孝街26巷27弄1號","121.51522","25.0170166666667","6500400","永和區"
"234030","746-BX","2019/07/11 18:49:24","新北市永和區得和路326號","121.523281666667","24.999595","6500400","永和區"
"234054","KEA-2590","2019/07/11 18:49:22","新北市永和區豫溪街191巷1弄1號","121.523043333333","25.0103116666667","6500400","永和區"
"234007","KED-0605","2019/07/11 18:49:20","新北市永和區文化路50號","121.514531666667","25.0151016666667","6500400","永和區"
"234013","KEA-2591","2019/07/11 18:49:21","新北市永和區仁愛路202巷24號","121.508925","25.0129316666667","6500400","永和區"
"234061","AAD-866","2019/07/11 18:49:11","新北市永和區福和路307號","121.516198333333","25.0072433333333","6500400","永和區"
"234042","862-TW","2019/07/11 18:49:23","新北市永和區永貞路308號","121.511845","25.00491","6500400","永和區"
"234026","9371-KE","2019/07/11 18:49:11","新北市永和區自由街47號","121.514025","25.0059666666667","6500400","永和區"
"234011","9373-KE","2019/07/11 18:49:11","新北市永和區文化路126巷10弄1號","121.513123333333","25.01606","6500400","永和區"
"249005","172-UM","2019/07/11 18:49:17","新北市八里區長道坑16號","121.395508333333","25.1184266666667","6502300","八里區"
"249001","173-UM","2019/07/11 18:49:24","新北市八里區龍米路二段80號","121.447593333333","25.1424266666667","6502300","八里區"
"249002","305-UY","2019/07/11 18:49:25","新北市八里區龍形一街33巷6-2號","121.449296666667","25.12947","6502300","八里區"
"249004","759-BX","2019/07/11 18:49:13","新北市八里區中山路一段190號","121.415845","25.1593066666667","6502300","八里區"
"248016","026-BX","2019/07/11 18:49:20","新北市五股區成泰路三段543巷54號","121.449651666667","25.1030733333333","6501500","五股區"
"248006","077-UY","2019/07/11 18:49:16","新北市五股區四維路85號","121.467255","25.072505","6501500","五股區"
"248008","KED-0815","2019/07/11 18:49:18","新北市五股區中興路一段132號","121.465198333333","25.0735983333333","6501500","五股區"
"248020","KED-0813","2019/07/11 18:49:22","新北市五股區凌雲路三段35-1號","121.430661666667","25.1167283333333","6501500","五股區"
"248011","247-BX","2019/07/11 18:49:09","新北市五股區成泰路二段147巷19號","121.438778333333","25.0865416666667","6501500","五股區"
"248010","272-BY","2019/07/11 18:49:28","新北市五股區水碓七路81號","121.429675","25.0722316666667","6501500","五股區"
"248004","677-BX","2019/07/11 18:49:14","新北市五股區民義路二段50-5號","121.41102","25.1039033333333","6501500","五股區"
"248002","678-BX","2019/07/11 18:49:06","新北市五股區成泰路三段454號","121.451415","25.100345","6501500","五股區"
"234023","9380-KE","2019/07/11 18:49:22","新北市永和區竹林路119巷45號","121.521903333333","25.0118383333333","6500400","永和區"
"234077","969-R7","2019/07/11 18:49:23","新北市永和區中正路2巷29弄2-2號","121.513853333333","24.9938716666667","6500400","永和區"
"234067","AAC-212","2019/07/11 18:49:11","新北市永和區永和路一段2號","121.512598333333","25.00446","6500400","永和區"
"234003","AAC-295","2019/07/11 18:49:25","新北市永和區中正路659號","121.51465","25.0102616666667","6500400","永和區"
"232010","375-UM","2019/07/11 18:49:14","新北市坪林區坪碇路71號","121.711458333333","24.937645","6502000","坪林區"
"244007","080-UY","2019/07/11 18:49:11","新北市林口區太平里5鄰23號","121.376468333333","25.1158616666667","6501700","林口區"
"244019","402-UM","2019/07/11 18:49:16","新北市林口區麗園二街3巷6-3號","121.378655","25.0700766666667","6501700","林口區"
"244013","KEA-2802","2019/07/11 18:49:26","新北市林口區麗園二街1巷3-3號","121.377301666667","25.0702116666667","6501700","林口區"
"244023","483-VK","2019/07/11 18:49:11","新北市林口區文化二路二段112號","121.379265","25.0817966666667","6501700","林口區"
"244017","485-VK","2019/07/11 18:49:16","新北市林口區文化二路一段68巷24-2號","121.367046666667","25.068885","6501700","林口區"
"244009","656-BX","2019/07/11 18:49:15","新北市林口區竹林路448號","121.388201666667","25.0852866666667","6501700","林口區"
"244011","701-TV","2019/07/11 18:49:09","新北市林口區粉寮路一段7號","121.396273333333","25.0761316666667","6501700","林口區"
"244025","837-TS","2019/07/11 18:49:08","新北市林口區忠孝一路150號","121.359818333333","25.07386","6501700","林口區"
"243010","297-R6","2019/07/11 18:49:06","新北市泰山區泰林路二段280巷1號","121.43137","25.0624433333333","6501600","泰山區"
"243014","KEA-2801","2019/07/11 18:48:40","新北市泰山區犁頭窠3-1號","121.422453333333","25.0605683333333","6501600","泰山區"
"243016","421-VK","2019/07/11 18:49:11","新北市泰山區民權街2號","121.427701666667","25.050995","6501600","泰山區"
"243011","KEA-2216","2019/07/11 18:49:07","新北市泰山區明志路二段185號","121.427513333333","25.0498183333333","6501600","泰山區"
"243015","680-BX","2019/07/11 18:49:15","新北市泰山區美寧街54號","121.430483333333","25.0645216666667","6501600","泰山區"
"222002","016-RS","2019/07/11 18:49:28","新北市深坑區文山路一段69號","121.626968333333","25.00187","6501800","深坑區"
"222003","436-BY","2019/07/11 18:49:12","新北市深坑區深南路32號","121.62088","25.0084366666667","6501800","深坑區"
"231061","002-UM","2019/07/11 18:49:11","新北市新店區安華路28-1號","121.51982","24.9609266666667","6500600","新店區"
"231058","0293-UT","2019/07/11 18:49:22","新北市新店區新店路7號","121.540475","24.9528716666667","6500600","新店區"
"231044","046-UY","2019/07/11 18:49:19","新北市新店區中正路71號","121.543456666667","24.969725","6500600","新店區"
"231060","106-UY","2019/07/11 18:49:09","新北市新店區安華路28-1號","121.519638333333","24.9608083333333","6500600","新店區"
"231051","107-UY","2019/07/11 18:49:16","新北市新店區中央路81號","121.532326666667","24.9766216666667","6500600","新店區"
"231049","108-UY","2019/07/11 18:49:15","新北市新店區力行路15號","121.537031666667","24.9653533333333","6500600","新店區"
"231065","110-UY","2019/07/11 18:49:18","新北市新店區安一路一段1-1號","121.519278333333","24.96123","6500600","新店區"
"231050","KEA-2219","2019/07/11 18:49:11","新北市新店區安康路一段222-2號","121.523128333333","24.963665","6500600","新店區"
"221035","KEA-2785","2019/07/11 18:49:24","新北市汐止區大同路二段118號","121.650813333333","25.0638","6501100","汐止區"
"231062","256-BX","2019/07/11 18:49:08","新北市新店區安一路一段1-1號","121.519783333333","24.96108","6500600","新店區"
"231054","260-TV","2019/07/11 18:49:22","新北市新店區安一路一段1-1號","121.519136666667","24.9612583333333","6500600","新店區"
"231042","268-BY","2019/07/11 18:49:08","新北市新店區北新路一段126巷25號","121.54334","24.969705","6500600","新店區"
"231064","278-BY","2019/07/11 18:49:20","新北市新店區安華路28-1號","121.519948333333","24.9610383333333","6500600","新店區"
"231045","355-BY","2019/07/11 18:49:09","新北市新店區安華路28-1號","121.519121666667","24.9609016666667","6500600","新店區"
"231055","4716-K9","2019/07/11 18:49:17","新北市新店區北新路一段271巷33號","121.539735","24.9670483333333","6500600","新店區"
"231056","4715-K9","2019/07/11 18:49:17","新北市新店區大同街12號","121.539623333333","24.9798916666667","6500600","新店區"
"231067","4772-VM","2019/07/11 18:49:14","新北市新店區安華路3號","121.519153333333","24.9603716666667","6500600","新店區"
"231052","513-UM","2019/07/11 18:49:22","新北市新店區新烏路一段105巷33-2號","121.546788333333","24.9400766666667","6500600","新店區"
"231041","619-UM","2019/07/11 18:49:20","新北市新店區安華路28-1號","121.519673333333","24.96071","6500600","新店區"
"231063","641-BX","2019/07/11 18:49:26","新北市新店區安華路28-1號","121.519568333333","24.9606316666667","6500600","新店區"
"231047","KED-0819","2019/07/11 18:49:07","新北市新店區安康路一段79巷3號","121.52995","24.961165","6500600","新店區"
"231046","719-UM","2019/07/11 18:49:21","新北市新店區直潭路71號","121.53241","24.9422233333333","6500600","新店區"
"231057","720-UM","2019/07/11 18:49:21","新北市新店區新烏路一段215號","121.54931","24.9314133333333","6500600","新店區"
"231059","897-TW","2019/07/11 18:49:07","新北市新店區安華路28-1號","121.519721666667","24.96049","6500600","新店區"
"231040","898-TW","2019/07/11 18:49:07","新北市新店區安康路一段85號","121.529415","24.9613833333333","6500600","新店區"
"231043","899-TW","2019/07/11 18:49:23","新北市新店區安華路28-1號","121.519495","24.9609066666667","6500600","新店區"
"231066","AKT-0513","2019/07/11 18:49:20","新北市新店區安華路28-1號","121.519546666667","24.9605216666667","6500600","新店區"
"241033","AAC-255","2019/07/11 18:49:23","新北市八里區下罟子15-9號","121.380111666667","25.1393983333333","6500200","三重區"
"235066","003-UY","2019/07/11 18:49:21","新北市中和區水源路7巷23號","121.50391","25.0039433333333","6500300","中和區"
"235064","005-UY","2019/07/11 18:49:09","新北市中和區泰和街44巷25號","121.498266666667","25.0009616666667","6500300","中和區"
"235063","006-UY","2019/07/11 18:49:07","新北市中和區連城路319巷3弄1號","121.489156666667","24.99564","6500300","中和區"
"235056","096-UM","2019/07/11 18:49:19","新北市中和區員山路466巷17弄31號","121.480483333333","25.0074166666667","6500300","中和區"
"235039","097-UM","2019/07/11 18:49:17","新北市中和區安樂路217巷58號","121.513131666667","24.9977666666667","6500300","中和區"
"235065","098-UM","2019/07/11 18:49:08","新北市中和區莊敬路33巷48號","121.500601666667","25.0070266666667","6500300","中和區"
"235040","150-BY","2019/07/11 18:49:10","新北市中和區安平路36巷5號","121.510313333333","24.9948766666667","6500300","中和區"
"235058","151-BY","2019/07/11 18:49:13","新北市中和區連城路534巷10號","121.475218333333","24.9920716666667","6500300","中和區"
"235055","183-VK","2019/07/11 18:49:16","新北市中和區民生街85巷3弄2號","121.46917","25.0043216666667","6500300","中和區"
"235038","185-VK","2019/07/11 18:49:15","新北市中和區大仁街42號","121.51821","24.9938533333333","6500300","中和區"
"235049","186-VK","2019/07/11 18:49:20","新北市中和區景安路177巷6號","121.505603333333","24.9941166666667","6500300","中和區"
"235067","255-BX","2019/07/11 18:49:20","新北市中和區中正路803號","121.484618333333","25.0011816666667","6500300","中和區"
"235044","293-VK","2019/07/11 18:49:12","新北市中和區中興街204號","121.499921666667","24.9903066666667","6500300","中和區"
"235072","301-VK","2019/07/11 18:49:09","新北市中和區中山路二段201號","121.49975","25.0026783333333","6500300","中和區"
"235043","352-BY","2019/07/11 18:49:17","新北市中和區成功路48號","121.52613","24.9928733333333","6500300","中和區"
"235042","KEA-2878","2019/07/11 18:49:17","新北市中和區秀朗路三段70巷12號","121.525918333333","24.9945166666667","6500300","中和區"
"235050","4979-A6","2019/07/11 18:49:29","新北市中和區忠孝街79號","121.51219","24.98522","6500300","中和區"
"235069","4980-A6","2019/07/11 18:49:23","新北市中和區中和路139號","121.501941666667","24.9998016666667","6500300","中和區"
"235070","558-UM","2019/07/11 18:49:17","新北市中和區安和路163號","121.50616","24.997475","6500300","中和區"
"235045","565-BX","2019/07/11 18:49:21","新北市中和區景新街467巷6號","121.513688333333","24.98818","6500300","中和區"
"235060","KED-0823","2019/07/11 18:49:11","新北市中和區中山路三段206號","121.471565","25.0064383333333","6500300","中和區"
"235054","640-BX","2019/07/11 18:49:13","新北市中和區民享街91號","121.474328333333","25.001455","6500300","中和區"
"235047","732-UM","2019/07/11 18:49:13","新北市中和區興南路二段34巷57弄1號","121.504905","24.985905","6500300","中和區"
"235046","733-UM","2019/07/11 18:49:17","新北市中和區興南路一段85巷12號","121.510051666667","24.988345","6500300","中和區"
"235071","783-BX","2019/07/11 18:49:25","新北市中和區員山路36巷16-3號","121.48517","24.99119","6500300","中和區"
"235062","800-TS","2019/07/11 18:49:05","新北市中和區中山路二段466號","121.48846","25.0045883333333","6500300","中和區"
"235057","801-TS","2019/07/11 18:49:22","新北市中和區民安街65巷5號","121.478776666667","24.99936","6500300","中和區"
"235041","802-TS","2019/07/11 18:49:19","新北市中和區中安街178巷3弄5-2號","121.510995","24.9988666666667","6500300","中和區"
"235052","805-TS","2019/07/11 18:49:19","新北市中和區興南路二段399巷86號","121.500058333333","24.9783833333333","6500300","中和區"
"235053","900-TW","2019/07/11 18:49:15","新北市中和區民德路292號","121.467513333333","24.9956616666667","6500300","中和區"
"235048","911-UM","2019/07/11 18:49:09","新北市中和區華新街33號","121.507731666667","24.9847283333333","6500300","中和區"
"235051","157-BY","2019/07/11 18:49:15","新北市中和區忠孝街106巷9弄9號","121.51263","24.9844633333333","6500300","中和區"
"235037","AAC-213","2019/07/11 18:49:18","新北市中和區秀朗路三段10巷14弄39號","121.52413","24.9961166666667","6500300","中和區"
"235059","AAC-215","2019/07/11 18:49:12","新北市中和區圓通路393巷9號","121.489868333333","24.9886266666667","6500300","中和區"
"220068","015-TV","2019/07/11 18:49:25","新北市板橋區大同街35巷28號","121.477378333333","25.0278116666667","6500100","板橋區"
"220065","072-UY","2019/07/11 18:49:21","新北市板橋區民族路166號","121.464815","25.008445","6500100","板橋區"
"220086","073-UY","2019/07/11 18:49:20","新北市板橋區南雅西路二段145巷4號","121.451651666667","25.0116316666667","6500100","板橋區"
"220106","075-UY","2019/07/11 18:49:19","新北市板橋區文化路二段124巷26號","121.47117","25.02566","6500100","板橋區"
"220069","AAD-861","2019/07/11 18:49:20","新北市板橋區華興街83號","121.45685","25.00517","6500100","板橋區"
"220098","120-SR","2019/07/11 18:49:21","新北市板橋區民生路二段234巷26弄9號","121.470491666667","25.022165","6500100","板橋區"
"226004","312-R5","2019/07/11 18:49:09","新北市平溪區平溪里三坑路49-1號","121.731646666667","25.0342833333333","6502400","平溪區"
"228003","097-TW","2019/07/11 18:49:26","新北市貢寮區和美里龍洞街40-1號","121.91556","25.1116516666667","6502600","貢寮區"
"228001","212-TW","2019/07/11 18:49:17","新北市貢寮區仁理村研海街12-1號","121.923763333333","25.0516416666667","6502600","貢寮區"
"228002","663-BX","2019/07/11 18:49:22","新北市貢寮區福隆里東興街6-11號","121.950708333333","25.0210483333333","6502600","貢寮區"
"224006","676-BX","2019/07/11 18:49:13","新北市瑞芳區中正路65號","121.806058333333","25.1074633333333","6501200","瑞芳區"
"224007","285-BY","2019/07/11 18:49:14","新北市瑞芳區大埔路255號","121.76238","25.10113","6501200","瑞芳區"
"224009","275-VK","2019/07/11 18:49:13","新北市瑞芳區祈堂路53-1號","121.85956","25.1105116666667","6501200","瑞芳區"
"224008","273-VK","2019/07/11 18:49:21","新北市瑞芳區逢甲路284號","121.80355","25.111525","6501200","瑞芳區"
"224005","271-BY","2019/07/11 18:49:23","新北市瑞芳區濱二路40號","121.832841666667","25.1166883333333","6501200","瑞芳區"
"227001","642-TC","2019/07/11 18:49:14","新北市雙溪區牡丹里聖南34號","121.85351","25.0558416666667","6502500","雙溪區"
"227002","400-TW","2019/07/11 18:49:19","新北市雙溪區共和里中山路47號","121.866783333333","25.0320366666667","6502500","雙溪區"
"253006","032-BX","2019/07/11 18:49:18","新北市石門區下員坑15號","121.51149","25.284505","6502200","石門區"
"253005","295-VK","2019/07/11 18:49:13","新北市石門區中山路28-3號","121.565756666667","25.2899133333333","6502200","石門區"
"222001","KEA-2212","2019/07/11 18:49:10","新北市深坑區松柏街38號","121.638776666667","25.0115016666667","6501800","深坑區"
"208002","KEA-2872","2019/07/11 18:49:22","新北市金山區信義路62號","121.635698333333","25.2189416666667","6502700","金山區"
"208003","665-BX","2019/07/11 18:49:12","新北市金山區中山路393號","121.63337","25.22523","6502700","金山區"
"251001","011-UM","2019/07/11 18:49:20","新北市淡水區自強路108-17號","121.46168","25.13102","6501000","淡水區"
"251015","KEA-2871","2019/07/11 18:49:27","新北市淡水區興福寮100號","121.486891666667","25.1643166666667","6501000","淡水區"
"251016","179-VK","2019/07/11 18:49:11","新北市淡水區下圭柔山70-10號","121.44696","25.206305","6501000","淡水區"
"251008","181-VK","2019/07/11 18:49:16","新北市淡水區淡金路二段138號","121.446923333333","25.18765","6501000","淡水區"
"251013","182-VK","2019/07/11 18:49:19","新北市淡水區安子內3-2號","121.484338333333","25.214945","6501000","淡水區"
"251010","413-VK","2019/07/11 18:49:25","新北市淡水區沙崙路11號","121.421145","25.1812066666667","6501000","淡水區"
"251012","441-VK","2019/07/11 18:49:10","新北市淡水區北新路2號","121.444301666667","25.1776816666667","6501000","淡水區"
"251007","442-VK","2019/07/11 18:49:10","新北市淡水區中正東路二段143巷2弄1號","121.460621666667","25.1473","6501000","淡水區"
"251009","575-R6","2019/07/11 18:49:21","新北市淡水區中山北路一段24號","121.441621666667","25.1752366666667","6501000","淡水區"
"251014","577-R6","2019/07/11 18:49:21","新北市淡水區崙頂32號","121.48775","25.22301","6501000","淡水區"
"251011","650-BX","2019/07/11 18:49:10","新北市淡水區學府路32巷89號","121.448305","25.1676766666667","6501000","淡水區"
"251002","672-BX","2019/07/11 18:49:19","新北市淡水區學府路71號","121.448455","25.1698566666667","6501000","淡水區"
"251003","673-BX","2019/07/11 18:49:12","新北市淡水區中山北路一段212巷38號","121.44617","25.17908","6501000","淡水區"
"207003","550-UM","2019/07/11 18:49:08","新北市萬里區大鵬里頂社1號","121.657028333333","25.2097133333333","6502800","萬里區"
"207004","225-TW","2019/07/11 18:49:21","新北市萬里區萬里里獅頭路23號","121.693243333333","25.1782733333333","6502800","萬里區"
"252002","178-VK","2019/07/11 18:49:12","新北市三芝區中正路一段112號","121.504818333333","25.2564033333333","6502100","三芝區"
"252003","249-BX","2019/07/11 18:49:11","新北市三芝區後厝里大片頭83-4號","121.459016666667","25.244215","6502100","三芝區"
"208001","170-UY","2019/07/11 18:49:13","新北市金山區文化三路66巷1號","121.63417","25.2256383333333","6502700","金山區"
"237004","KEA-2597","2019/07/11 18:49:19","新北市三峽區有木111-1號","121.434968333333","24.8593416666667","6500900","三峽區"
"237007","153-BY","2019/07/11 18:49:14","新北市三峽區大埔路127號","121.366513333333","24.9064566666667","6500900","三峽區"
"237013","252-BX","2019/07/11 18:49:21","新北市三峽區光明路69巷24號","121.37661","24.9290633333333","6500900","三峽區"
"237012","275-BY","2019/07/11 18:49:24","新北市三峽區三樹路340號","121.38397","24.9433233333333","6500900","三峽區"
"237008","302-VK","2019/07/11 18:49:12","新北市三峽區正義街68號","121.369025","24.9182283333333","6500900","三峽區"
"237014","433-BY","2019/07/11 18:49:18","新北市三峽區復興路480巷51-1號","121.3607","24.9404866666667","6500900","三峽區"
"237006","5529-G3","2019/07/11 18:49:19","新北市三峽區溪東路313號","121.410486666667","24.9306416666667","6500900","三峽區"
"237015","649-BX","2019/07/11 18:49:14","新北市三峽區建安74-12號","121.45458","24.92323","6500900","三峽區"
"237011","078-UY","2019/07/11 18:49:19","新北市三峽區溪東路426-1號","121.415308333333","24.927645","6500900","三峽區"
"237010","706-TV","2019/07/11 18:49:07","新北市三峽區復興路449號","121.362581666667","24.9385383333333","6500900","三峽區"
"237005","AKY-6261","2019/07/11 18:49:18","新北市三峽區文化路242號","121.367473333333","24.9358083333333","6500900","三峽區"
"236042","KED-0685","2019/07/11 18:49:07","新北市土城區裕民路114巷27號","121.450331666667","24.98564","6501300","土城區"
"220089","KED-0812","2019/07/11 18:49:24","新北市板橋區文化路二段472號","121.475091666667","25.0326083333333","6500100","板橋區"
"236078","166-UM","2019/07/11 18:49:21","新北市土城區中央路四段67巷46號","121.418013333333","24.9570166666667","6501300","土城區"
"236030","253-BX","2019/07/11 18:49:24","新北市土城區忠義路26巷19號","121.439873333333","24.96986","6501300","土城區"
"236026","269-VK","2019/07/11 18:49:15","新北市土城區興城路20號","121.442173333333","24.973005","6501300","土城區"
"236038","271-VK","2019/07/11 18:49:25","新北市土城區明德路一段221巷11號","121.463758333333","24.9781033333333","6501300","土城區"
"236070","KEA-2877","2019/07/11 18:49:23","新北市土城區延和路21巷5號","121.464135","24.9886683333333","6501300","土城區"
"252001","KED-0821","2019/07/11 18:49:10","新北市三芝區中正路三段9號","121.502845","25.254015","6502100","三芝區"
"236021","401-BY","2019/07/11 18:49:21","新北市土城區延吉街253巷17號","121.467955","24.9841316666667","6501300","土城區"
"236014","752-BX","2019/07/11 18:49:01","新北市土城區金城路二段360-2號","121.46181","24.98512","6501300","土城區"
"236059","912-UM","2019/07/11 18:48:46","新北市土城區金城路二段8-1號","121.44881","24.9769383333333","6501300","土城區"
"236049","913-UM","2019/07/11 18:49:23","新北市土城區青雲路8號","121.460211666667","24.9892583333333","6501300","土城區"
"236063","915-UM","2019/07/11 18:49:20","新北市土城區金城路三段207巷6弄13號","121.470725","24.9902416666667","6501300","土城區"
"236055","AAC-216","2019/07/11 18:49:13","新北市土城區裕民路169號","121.453101666667","24.985165","6501300","土城區"
"242061","986-R7","2019/07/11 18:49:11","新北市新莊區民安路188巷1弄2號","121.425293333333","25.02347","6500500","新莊區"
"242056","441-UM","2019/07/11 18:49:21","新北市樹林區八德街262-1號","121.417496666667","24.97206","6500500","新莊區"
"242042","415-TV","2019/07/11 18:49:15","新北市新莊區天祥街82巷13號","121.415725","25.0300366666667","6500500","新莊區"
"242048","400-BY","2019/07/11 18:46:59","新北市樹林區中山路三段210-2號","121.380685","24.96762","6500500","新莊區"
"242044","347-TH","2019/07/11 18:49:16","新北市樹林區俊興街232號","121.41786","25.0154766666667","6500500","新莊區"
"238023","601-UM","2019/07/11 18:49:08","新北市樹林區工興街14巷1號","121.399023333333","25.0136433333333","6500700","樹林區"
"238019","599-UM","2019/07/11 18:49:12","新北市樹林區中華路190-16號","121.411698333333","24.98059","6500700","樹林區"
"238024","5061-A6","2019/07/11 18:49:22","新北市樹林區太平路247巷24號","121.419806666667","24.9745983333333","6500700","樹林區"
"238022","KEA-2213","2019/07/11 18:49:24","新北市樹林區東興街41號","121.41071","24.9777716666667","6500700","樹林區"
"238021","KEA-2539","2019/07/11 18:49:23","新北市樹林區西圳街二段43-2號","121.387843333333","24.960735","6500700","樹林區"
"238025","303-VK","2019/07/11 18:49:20","新北市樹林區中山路三段28號","121.395403333333","24.973035","6500700","樹林區"
"238020","268-VK","2019/07/11 18:49:09","新北市樹林區俊英街223巷2號","121.42372","25.013315","6500700","樹林區"
"238026","172-UY","2019/07/11 18:49:18","新北市樹林區信和街84號","121.390046666667","24.9730166666667","6500700","樹林區"
"238016","169-UY","2019/07/11 18:49:22","新北市樹林區中山路二段34號","121.417301666667","24.9851416666667","6500700","樹林區"
"239007","AAC-297","2019/07/11 18:49:25","新北市鶯歌區中正一路441號","121.362331666667","24.9568983333333","6500800","鶯歌區"
"239008","527-UM","2019/07/11 18:49:25","新北市鶯歌區朝陽街4號","121.33624","24.9765966666667","6500800","鶯歌區"
"239005","526-UM","2019/07/11 18:49:06","新北市鶯歌區鶯桃路670號","121.328806666667","24.9694","6500800","鶯歌區"
"239001","417-VK","2019/07/11 18:49:11","新北市鶯歌區尖山埔路二段23號","121.342473333333","24.9490016666667","6500800","鶯歌區"
"239003","360-BY","2019/07/11 18:49:24","新北市鶯歌區永和街47號","121.33257","24.9674516666667","6500800","鶯歌區"
"239004","193-VK","2019/07/11 18:49:28","新北市鶯歌區中正三路194巷46號","121.3311","24.9408383333333","6500800","鶯歌區"
"221036","130-UY","2019/07/11 18:49:23","新北市汐止區忠孝東路473巷24-1號","121.665238333333","25.073715","6501100","汐止區"
"221015","131-UY","2019/07/11 18:49:12","新北市汐止區吉祥街20號","121.66796","25.0806","6501100","汐止區"
"221012","278-VK","2019/07/11 18:49:16","新北市汐止區吉祥街12巷12號","121.668948333333","25.0803466666667","6501100","汐止區"
"221032","280-BY","2019/07/11 18:49:08","新北市汐止區橫科路322巷24弄6-1號","121.620528333333","25.0503716666667","6501100","汐止區"
"221029","298-VK","2019/07/11 18:49:06","新北市汐止區樟樹一路2巷36號","121.64158","25.062745","6501100","汐止區"
"221021","299-VK","2019/07/11 18:49:21","新北市汐止區新興路42號","121.657021666667","25.0631916666667","6501100","汐止區"
"221031","353-TW","2019/07/11 18:49:23","新北市汐止區福德一路272巷1號","121.63196","25.0641033333333","6501100","汐止區"
"221025","623-UM","2019/07/11 18:49:25","新北市汐止區福安街20巷22號","121.661931666667","25.06457","6501100","汐止區"
"221002","707-TV","2019/07/11 18:49:25","新北市汐止區大同路一段154-1號","121.632135","25.0560566666667","6501100","汐止區"
"221018","753-BX","2019/07/11 18:49:14","新北市汐止區茄苳路293號","121.672883333333","25.0674233333333","6501100","汐止區"
"220079","145-BY","2019/07/11 18:49:12","新北市板橋區大智街71巷22弄35號","121.4524","25.0150933333333","6500100","板橋區"
"220080","200-UY","2019/07/11 18:49:14","新北市板橋區大觀路二段265巷72弄1號","121.442506666667","24.9968016666667","6500100","板橋區"
"220082","610-BX","2019/07/11 18:49:08","新北市板橋區篤行路三段71號","121.427296666667","24.9854783333333","6500100","板橋區"
"220101","245-BX","2019/07/11 18:49:25","新北市板橋區文化路二段182巷17號","121.47222","25.0266166666667","6500100","板橋區"
"224002","257-TC","2019/07/11 18:49:15","新北市瑞芳區傑魚坑路4-1號","121.795035","25.1104383333333","6501200","瑞芳區"
"220056","276-BY","2019/07/11 18:49:18","新北市板橋區四川路一段239號","121.459925","25.0028116666667","6500100","板橋區"
"220072","277-BY","2019/07/11 18:49:19","新北市板橋區金門街23號","121.433465","24.994565","6500100","板橋區"
"220094","283-UM","2019/07/11 18:49:16","新北市板橋區文化路二段76號","121.469426666667","25.0250283333333","6500100","板橋區"
"220071","283-VK","2019/07/11 18:49:17","新北市板橋區四川路一段126號","121.459835","25.00402","6500100","板橋區"
"220053","285-VK","2019/07/11 18:49:14","新北市板橋區永豐街42號","121.474453333333","25.0177766666667","6500100","板橋區"
"220083","286-VK","2019/07/11 18:49:23","新北市板橋區僑中二街156號","121.444773333333","25.0041616666667","6500100","板橋區"
"220081","287-VK","2019/07/11 18:49:08","新北市板橋區南雅西路二段65號","121.452866666667","25.0098016666667","6500100","板橋區"
"220090","288-VK","2019/07/11 18:49:14","新北市板橋區四維路177巷1弄2號","121.464035","25.0261666666667","6500100","板橋區"
"220061","295-UM","2019/07/11 18:49:12","新北市板橋區永豐街159號","121.475411666667","25.0203","6500100","板橋區"
"220084","296-UM","2019/07/11 18:49:23","新北市板橋區大觀路二段150巷77號","121.4414","25.0011666666667","6500100","板橋區"
"220075","303-R5","2019/07/11 18:49:20","新北市板橋區館前西路257號","121.454206666667","25.0086666666667","6500100","板橋區"
"220062","305-R5","2019/07/11 18:49:19","新北市板橋區中山路二段40巷17號","121.473293333333","25.01485","6500100","板橋區"
"220092","307-R5","2019/07/11 18:49:20","新北市板橋區文化路一段104巷1弄11號","121.465441666667","25.0181","6500100","板橋區"
"220088","491-VK","2019/07/11 18:49:19","新北市板橋區文化路二段76號","121.469408333333","25.02501","6500100","板橋區"
"220035","560-BX","2019/07/11 18:49:18","新北市板橋區中正路275巷77號","121.45228","25.018115","6500100","板橋區"
"220103","561-BX","2019/07/11 18:49:26","新北市板橋區文化路一段188巷11弄16號","121.469008333333","25.0187083333333","6500100","板橋區"
"220063","609-BX","2019/07/11 18:49:23","新北市板橋區民生路一段72號","121.473758333333","25.0152733333333","6500100","板橋區"
"220074","630-UY","2019/07/11 18:49:11","新北市板橋區南門街44號","121.456875","25.008155","6500100","板橋區"
"220091","637-BX","2019/07/11 18:49:27","新北市板橋區雙十路二段47巷37號","121.474963333333","25.0253233333333","6500100","板橋區"
"220057","686-BX","2019/07/11 18:49:26","新北市板橋區重慶路153號","121.462483333333","25.0038016666667","6500100","板橋區"
"220077","687-BX","2019/07/11 18:49:19","新北市板橋區大觀路二段174巷157號","121.44155","25.0028983333333","6500100","板橋區"
"220093","689-BX","2019/07/11 18:49:27","新北市板橋區民生路三段120-2號","121.466451666667","25.026655","6500100","板橋區"
"220054","741-BX","2019/07/11 18:49:23","新北市板橋區館前東路20號","121.460106666667","25.0071583333333","6500100","板橋區"
"220102","KEA-2699","2019/07/11 18:49:09","新北市板橋區萬板路476號","121.479911666667","25.026015","6500100","板橋區"
"220055","827-TW","2019/07/11 18:49:08","新北市板橋區忠孝路118號","121.462901666667","25.0022783333333","6500100","板橋區"
"220067","829-TW","2019/07/11 18:49:22","新北市板橋區中山路二段90巷47弄2號","121.476665","25.0147083333333","6500100","板橋區"
"220073","985-R7","2019/07/11 18:49:12","新北市板橋區館前西路263號","121.453981666667","25.0087716666667","6500100","板橋區"
"220097","AAC-210","2019/07/11 18:49:21","新北市板橋區四維路137巷17號","121.464205","25.0248466666667","6500100","板橋區"
"220064","AAC-253","2019/07/11 18:49:19","新北市板橋區漢生東路125號","121.46768","25.0143933333333","6500100","板橋區"
"235068","KEA-2873","2019/07/11 18:49:11","新北市中和區中正路211巷32弄20號","121.496503333333","24.9923516666667","6500300","中和區"
"235061","KEA-2875","2019/07/11 18:49:02","新北市中和區民治街130巷9號","121.474825","25.0025683333333","6500300","中和區"
