"lineid","car","time","location","longitude","latitude","cityid","cityname"
"234046","148-BY","2019/07/11 19:09:17","新北市永和區永元路18巷39號","121.52419","25.0003283333333","6500400","永和區"
"234081","298-R6","2019/07/11 19:09:26","新北市永和區永貞路39巷9弄1號","121.521811666667","25.00658","6500400","永和區"
"234038","336-UY","2019/07/11 19:09:11","新北市永和區民樂街71巷2號","121.527348333333","24.9973233333333","6500400","永和區"
"234064","337-UY","2019/07/11 19:09:23","新北市永和區秀朗路二段32號","121.521043333333","25.0025616666667","6500400","永和區"
"234086","338-UY","2019/07/11 19:09:09","新北市永和區永貞路122號","121.518643333333","25.0044466666667","6500400","永和區"
"234070","552-UM","2019/07/11 19:09:16","新北市永和區豫溪街95巷9號","121.518096666667","25.0107283333333","6500400","永和區"
"234017","745-BX","2019/07/11 19:09:26","新北市永和區忠孝街27號","121.513951666667","25.01562","6500400","永和區"
"234030","746-BX","2019/07/11 19:09:24","新北市永和區民生路23號","121.522866666667","24.99885","6500400","永和區"
"234054","KEA-2590","2019/07/11 19:09:23","新北市永和區中興街133巷8號","121.518748333333","25.0127416666667","6500400","永和區"
"234007","KED-0605","2019/07/11 19:09:20","新北市永和區中山路一段212號","121.508578333333","25.0085483333333","6500400","永和區"
"234013","KEA-2591","2019/07/11 19:09:21","新北市永和區永和路二段97號","121.514851666667","25.0115866666667","6500400","永和區"
"234061","AAD-866","2019/07/11 19:09:11","新北市永和區安樂路306號","121.514395","25.0054566666667","6500400","永和區"
"234042","862-TW","2019/07/11 19:09:23","新北市永和區永貞路352號","121.510691666667","25.0059983333333","6500400","永和區"
"234050","863-TW","2019/07/11 19:09:17","新北市永和區文化路135巷22弄1號","121.510453333333","25.0147566666667","6500400","永和區"
"234026","9371-KE","2019/07/11 19:09:11","新北市永和區安樂路272巷9弄9號","121.515178333333","25.0046666666667","6500400","永和區"
"234011","9373-KE","2019/07/11 19:09:28","新北市永和區中山路一段58號","121.512916666667","25.01079","6500400","永和區"
"249005","172-UM","2019/07/11 19:09:17","新北市八里區中華路三段7巷1號","121.397185","25.1436866666667","6502300","八里區"
"249001","173-UM","2019/07/11 19:09:24","新北市八里區龍米路二段230-1號","121.431795","25.1585533333333","6502300","八里區"
"249003","593-UM","2019/07/11 19:09:16","新北市八里區博物館路83號","121.410226666667","25.1603416666667","6502300","八里區"
"248016","026-BX","2019/07/11 19:09:19","新北市五股區成泰路三段545號","121.451511666667","25.1018533333333","6501500","五股區"
"248008","KED-0815","2019/07/11 19:09:18","新北市五股區中興路二段11號","121.462961666667","25.074255","6501500","五股區"
"248020","KED-0813","2019/07/11 19:09:22","新北市五股區凌雲路三段57號","121.425271666667","25.12503","6501500","五股區"
"248011","247-BX","2019/07/11 19:09:09","新北市五股區中興路四段48巷16號","121.438573333333","25.0834416666667","6501500","五股區"
"248004","677-BX","2019/07/11 19:09:14","新北市五股區五福路11-6號","121.434221666667","25.0886783333333","6501500","五股區"
"248002","678-BX","2019/07/11 19:09:26","新北市五股區凌雲路一段158巷14號","121.447936666667","25.1033366666667","6501500","五股區"
"234023","9380-KE","2019/07/11 19:09:22","新北市永和區中興街10巷26號","121.51557","25.0111716666667","6500400","永和區"
"234077","969-R7","2019/07/11 19:09:23","新北市永和區民族街43巷17號","121.51935","24.9984","6500400","永和區"
"234074","AAC-211","2019/07/11 19:09:09","新北市永和區福和路12巷1弄1號","121.52426","25.00878","6500400","永和區"
"234067","AAC-212","2019/07/11 19:09:11","新北市永和區保平路25號","121.512568333333","25.0074566666667","6500400","永和區"
"234003","AAC-295","2019/07/11 19:09:05","新北市永和區保福路一段98號","121.511965","25.01057","6500400","永和區"
"244023","483-VK","2019/07/11 19:09:11","新北市林口區文林六街18號","121.370781666667","25.0802933333333","6501700","林口區"
"244011","701-TV","2019/07/11 19:09:28","新北市林口區竹林路56號","121.387456666667","25.07808","6501700","林口區"
"244025","837-TS","2019/07/11 19:09:08","新北市林口區忠孝路45號","121.364895","25.0751333333333","6501700","林口區"
"243012","AAD-798","2019/07/11 19:09:10","新北市泰山區辭修路34巷1號","121.428793333333","25.0580733333333","6501600","泰山區"
"243010","297-R6","2019/07/11 19:09:06","新北市泰山區仁愛路39巷21號","121.431136666667","25.055305","6501600","泰山區"
"243014","KEA-2801","2019/07/11 19:09:21","新北市泰山區泰林路二段405號","121.426898333333","25.06426","6501600","泰山區"
"243016","421-VK","2019/07/11 19:09:13","新北市泰山區明志路三段1號","121.424815","25.0434833333333","6501600","泰山區"
"243009","KEA-2215","2019/07/11 19:09:17","新北市泰山區明志路一段122巷31號","121.432501666667","25.063675","6501600","泰山區"
"243011","KEA-2216","2019/07/11 19:09:27","新北市泰山區明志路二段323號","121.426281666667","25.045915","6501600","泰山區"
"243013","646-TV","2019/07/11 19:09:23","新北市泰山區中山路二段768號","121.423948333333","25.0341983333333","6501600","泰山區"
"243015","680-BX","2019/07/11 19:09:15","新北市泰山區明志路一段361號","121.43082","25.058225","6501600","泰山區"
"222002","016-RS","2019/07/11 19:09:28","新北市深坑區紅葉街61號","121.632308333333","25.0138516666667","6501800","深坑區"
"222003","436-BY","2019/07/11 19:09:13","新北市深坑區深南路156號","121.624898333333","25.014585","6501800","深坑區"
"231061","002-UM","2019/07/11 19:09:11","新北市新店區安康路一段293號","121.522745","24.9637083333333","6500600","新店區"
"231058","0293-UT","2019/07/11 19:09:02","新北市新店區北宜路一段3號","121.538391666667","24.9583433333333","6500600","新店區"
"231044","046-UY","2019/07/11 19:09:19","新北市新店區中興路三段168號","121.544295","24.9808533333333","6500600","新店區"
"231060","106-UY","2019/07/11 19:09:09","新北市新店區車子路1-1號","121.504736666667","24.95796","6500600","新店區"
"231051","107-UY","2019/07/11 19:09:16","新北市新店區中正路382巷11號","121.535301666667","24.9777516666667","6500600","新店區"
"231049","108-UY","2019/07/11 19:09:15","新北市新店區二十張路25巷8號","121.538846666667","24.9819883333333","6500600","新店區"
"231065","110-UY","2019/07/11 19:09:18","新北市新店區安祥路145巷2號","121.474751666667","24.9554733333333","6500600","新店區"
"231050","KEA-2219","2019/07/11 19:09:11","新北市新店區竹林路2巷32號","121.550116666667","24.9503783333333","6500600","新店區"
"221035","KEA-2785","2019/07/11 19:09:24","新北市汐止區大同路二段353號","121.65683","25.067355","6501100","汐止區"
"231062","256-BX","2019/07/11 19:09:08","新北市新店區安平路52號","121.520611666667","24.96837","6500600","新店區"
"231054","260-TV","2019/07/11 19:09:22","新北市新店區新店路185號","121.537065","24.9560816666667","6500600","新店區"
"231042","268-BY","2019/07/11 19:09:28","新北市新店區中興路一段203號","121.543643333333","24.96571","6500600","新店區"
"231064","278-BY","2019/07/11 19:09:20","新北市新店區安忠路56巷6號","121.51292","24.9594483333333","6500600","新店區"
"231045","355-BY","2019/07/11 19:09:09","新北市新店區北宜路一段97號","121.539043333333","24.95547","6500600","新店區"
"231055","4716-K9","2019/07/11 19:09:11","新北市新店區環河路116號","121.537331666667","24.9669466666667","6500600","新店區"
"231056","4715-K9","2019/07/11 19:09:17","新北市新店區溪園路401號","121.52379","24.9780333333333","6500600","新店區"
"231067","4772-VM","2019/07/11 19:09:14","新北市新店區安康路一段281巷27號","121.523813333333","24.9622866666667","6500600","新店區"
"231052","513-UM","2019/07/11 19:09:12","新北市新店區自強路23巷1號","121.546116666667","24.92663","6500600","新店區"
"231041","619-UM","2019/07/11 19:09:19","新北市新店區環河路121-2號","121.53045","24.9714583333333","6500600","新店區"
"231063","641-BX","2019/07/11 19:09:26","新北市新店區車子路134號","121.505158333333","24.9492266666667","6500600","新店區"
"231047","KED-0819","2019/07/11 19:09:07","新北市新店區德正街27巷29弄20號","121.545778333333","24.9721116666667","6500600","新店區"
"231046","719-UM","2019/07/11 19:09:01","新北市新店區華潭街52號","121.528828333333","24.955045","6500600","新店區"
"231057","720-UM","2019/07/11 19:09:21","新北市新店區百齡一路12號","121.553033333333","24.93253","6500600","新店區"
"231059","897-TW","2019/07/11 19:09:07","新北市新店區安康路一段351-1號","121.519358333333","24.9640316666667","6500600","新店區"
"231040","898-TW","2019/07/11 19:09:27","新北市新店區三民路146號","121.53533","24.9752866666667","6500600","新店區"
"231043","899-TW","2019/07/11 19:09:23","新北市新店區中興路二段239號","121.54727","24.9756833333333","6500600","新店區"
"231066","AKT-0513","2019/07/11 19:09:20","新北市新店區安祥路28號","121.49328","24.95532","6500600","新店區"
"241029","060-VK","2019/07/11 19:09:11","新北市三重區集美街222號","121.491946666667","25.0552383333333","6500200","三重區"
"241035","462-BY","2019/07/11 19:09:24","新北市三重區大仁街94號","121.492956666667","25.0655383333333","6500200","三重區"
"241026","480-VK","2019/07/11 19:09:09","新北市三重區泉州街72號","121.494745","25.0549733333333","6500200","三重區"
"241022","KED-0820","2019/07/11 19:09:25","新北市三重區三民街155巷9號","121.484483333333","25.06484","6500200","三重區"
"235066","003-UY","2019/07/11 19:09:20","新北市中和區廣福路2號","121.506171666667","25.0032233333333","6500300","中和區"
"235064","005-UY","2019/07/11 19:09:09","新北市中和區連城路8號","121.499015","25.0022383333333","6500300","中和區"
"235063","006-UY","2019/07/11 19:09:07","新北市中和區連城路249巷5號","121.493645","24.99679","6500300","中和區"
"235056","096-UM","2019/07/11 19:09:22","新北市中和區中正路1163號","121.481603333333","25.0091283333333","6500300","中和區"
"235039","097-UM","2019/07/11 19:09:17","新北市中和區秀朗路三段179號","121.524458333333","24.99077","6500300","中和區"
"235065","098-UM","2019/07/11 19:09:18","新北市中和區中山路二段136巷6弄1號","121.502071666667","25.0039166666667","6500300","中和區"
"235040","150-BY","2019/07/11 19:09:10","新北市中和區宜安路62號","121.511545","24.9969566666667","6500300","中和區"
"235058","151-BY","2019/07/11 19:09:13","新北市中和區連城路477巷6弄18號","121.482538333333","24.9951033333333","6500300","中和區"
"235055","183-VK","2019/07/11 19:09:16","新北市中和區德光路93號","121.468838333333","25.0034933333333","6500300","中和區"
"235038","185-VK","2019/07/11 19:09:14","新北市中和區大仁街20巷22-3號","121.518723333333","24.9930983333333","6500300","中和區"
"235049","186-VK","2019/07/11 19:09:25","新北市中和區景新街214號","121.507093333333","24.995175","6500300","中和區"
"235067","255-BX","2019/07/11 19:09:20","新北市中和區新生街175號","121.483806666667","25.0007333333333","6500300","中和區"
"235044","293-VK","2019/07/11 19:09:12","新北市中和區中興街230巷11號","121.499583333333","24.98825","6500300","中和區"
"235072","301-VK","2019/07/11 19:09:09","新北市中和區連城路144巷4弄11號","121.49574","24.9989083333333","6500300","中和區"
"235043","352-BY","2019/07/11 19:09:17","新北市中和區景平路136號","121.518671666667","24.9918716666667","6500300","中和區"
"235042","KEA-2878","2019/07/11 19:09:17","新北市中和區自強路13巷1號","121.520563333333","24.9935083333333","6500300","中和區"
"235050","4979-A6","2019/07/11 19:09:09","新北市中和區復興路65號","121.503896666667","24.9901416666667","6500300","中和區"
"235069","4980-A6","2019/07/11 19:09:23","新北市中和區中和路217巷10號","121.5044","25.0004816666667","6500300","中和區"
"235070","558-UM","2019/07/11 19:09:17","新北市中和區中和路8號","121.499596666667","25.0022616666667","6500300","中和區"
"235045","565-BX","2019/07/11 19:09:21","新北市中和區景新街423巷35弄5號","121.514031666667","24.989925","6500300","中和區"
"235060","KED-0823","2019/07/11 19:09:20","新北市中和區民有街3號","121.475591666667","25.005705","6500300","中和區"
"235054","640-BX","2019/07/11 19:09:13","新北市中和區國光街109巷4-1號","121.469926666667","25.0003383333333","6500300","中和區"
"235047","732-UM","2019/07/11 19:09:13","新北市中和區興南路一段56巷1弄2號","121.51072","24.9907966666667","6500300","中和區"
"235046","733-UM","2019/07/11 19:09:17","新北市中和區華新街142號","121.50795","24.982475","6500300","中和區"
"235071","783-BX","2019/07/11 19:09:25","新北市中和區連城路360號","121.481986666667","24.9954433333333","6500300","中和區"
"235057","801-TS","2019/07/11 19:09:21","新北市中和區員山路283號","121.481288333333","24.999755","6500300","中和區"
"235041","802-TS","2019/07/11 19:09:19","新北市中和區中和路294號","121.508583333333","24.9998266666667","6500300","中和區"
"235052","805-TS","2019/07/11 19:09:19","新北市中和區興南路二段142巷23號","121.503088333333","24.9838333333333","6500300","中和區"
"235053","900-TW","2019/07/11 19:09:15","新北市中和區華福街57巷13號","121.46679","24.9970883333333","6500300","中和區"
"235048","911-UM","2019/07/11 19:09:08","新北市中和區忠孝街2-5號","121.509086666667","24.98295","6500300","中和區"
"235051","157-BY","2019/07/11 19:09:26","新北市中和區捷運路6號","121.510085","24.9894866666667","6500300","中和區"
"235037","AAC-213","2019/07/11 19:09:18","新北市中和區秀朗路三段10巷37弄14號","121.52351","24.99592","6500300","中和區"
"235059","AAC-215","2019/07/11 19:09:12","新北市中和區圓通路294巷17-5號","121.488596666667","24.9904416666667","6500300","中和區"
"220068","015-TV","2019/07/11 19:09:26","新北市板橋區中山路二段443巷61號","121.480803333333","25.02208","6500100","板橋區"
"220065","072-UY","2019/07/11 19:09:21","新北市板橋區民族路219巷8-1號","121.469621666667","25.0077516666667","6500100","板橋區"
"220086","073-UY","2019/07/11 19:09:23","新北市板橋區中正路250巷9號","121.455991666667","25.019375","6500100","板橋區"
"220106","075-UY","2019/07/11 19:09:19","新北市板橋區雙十路三段66巷1號","121.470575","25.0319316666667","6500100","板橋區"
"220069","AAD-861","2019/07/11 19:09:20","新北市板橋區貴興路8號","121.45766","25.0043283333333","6500100","板橋區"
"220098","120-SR","2019/07/11 19:09:21","新北市板橋區民有街31號","121.465963333333","25.0253883333333","6500100","板橋區"
"226004","312-R5","2019/07/11 19:09:17","新北市平溪區嶺腳里嶺腳寮9-1號","121.747758333333","25.0298116666667","6502400","平溪區"
"228003","097-TW","2019/07/11 19:09:06","新北市貢寮區和美里和美街37號","121.912195","25.0878966666667","6502600","貢寮區"
"228001","212-TW","2019/07/11 19:09:17","新北市貢寮區真理里新港街10號","121.925486666667","25.05439","6502600","貢寮區"
"228002","663-BX","2019/07/11 19:09:22","新北市貢寮區福隆里福隆街32-1號","121.945073333333","25.0173616666667","6502600","貢寮區"
"224006","676-BX","2019/07/11 19:09:13","新北市瑞芳區中山路203號","121.80142","25.1067266666667","6501200","瑞芳區"
"224009","275-VK","2019/07/11 19:09:13","新北市瑞芳區洞頂路166號","121.860695","25.1189116666667","6501200","瑞芳區"
"224008","273-VK","2019/07/11 19:09:21","新北市瑞芳區瑞芳街82-1號","121.802718333333","25.1100716666667","6501200","瑞芳區"
"224005","271-BY","2019/07/11 19:09:21","新北市瑞芳區傑魚坑路181-1號","121.788681666667","25.108375","6501200","瑞芳區"
"227001","642-TC","2019/07/11 19:09:14","新北市雙溪區牡丹里自強路8巷15號","121.86503","25.0382433333333","6502500","雙溪區"
"227002","400-TW","2019/07/11 19:09:19","新北市雙溪區平林里外平林9-5號","121.859135","25.0380183333333","6502500","雙溪區"
"253006","032-BX","2019/07/11 19:09:18","新北市石門區八甲1-10號","121.520815","25.2834033333333","6502200","石門區"
"253005","295-VK","2019/07/11 19:09:13","新北市石門區小坑12-8號","121.598786666667","25.28826","6502200","石門區"
"222001","KEA-2212","2019/07/11 19:09:10","新北市深坑區北深路一段300號","121.624296666667","25.0056216666667","6501800","深坑區"
"208002","KEA-2872","2019/07/11 19:09:22","新北市金山區中華路112巷13號","121.633973333333","25.220835","6502700","金山區"
"208003","665-BX","2019/07/11 19:09:12","新北市金山區中正路50號","121.634878333333","25.2220683333333","6502700","金山區"
"251001","011-UM","2019/07/11 19:07:13","新北市淡水區民權路94巷1號","121.4632","25.1249216666667","6501000","淡水區"
"251015","KEA-2871","2019/07/11 19:09:08","新北市淡水區南勢埔1號","121.48409","25.1803366666667","6501000","淡水區"
"251016","179-VK","2019/07/11 19:09:11","新北市淡水區淡金路三段331巷179號","121.448956666667","25.2038616666667","6501000","淡水區"
"251013","182-VK","2019/07/11 19:09:19","新北市淡水區安子內12-1號","121.481493333333","25.2191083333333","6501000","淡水區"
"251010","413-VK","2019/07/11 19:09:25","新北市淡水區中正路一段156巷3號","121.421136666667","25.18035","6501000","淡水區"
"251007","442-VK","2019/07/11 19:09:10","新北市淡水區民生路117巷1號","121.464833333333","25.1387566666667","6501000","淡水區"
"251009","575-R6","2019/07/11 19:09:11","新北市淡水區重建街38號","121.439951666667","25.1713116666667","6501000","淡水區"
"251014","577-R6","2019/07/11 19:09:21","新北市淡水區北勢子9號","121.482741666667","25.228205","6501000","淡水區"
"251002","672-BX","2019/07/11 19:09:19","新北市淡水區中山路18-1號","121.44457","25.1692766666667","6501000","淡水區"
"251003","673-BX","2019/07/11 19:09:12","新北市淡水區大義街5號","121.443543333333","25.178175","6501000","淡水區"
"207003","550-UM","2019/07/11 19:09:28","新北市萬里區大鵬里萬里加投24-2號","121.649143333333","25.2073333333333","6502800","萬里區"
"207004","225-TW","2019/07/11 19:09:21","新北市萬里區萬里里瑪鋉下街52號","121.691601666667","25.1795266666667","6502800","萬里區"
"252002","178-VK","2019/07/11 19:09:12","新北市三芝區中正路一段68號","121.50376","25.2576316666667","6502100","三芝區"
"252003","249-BX","2019/07/11 19:09:11","新北市三芝區錫板里海尾11-7號","121.478931666667","25.2611783333333","6502100","三芝區"
"208001","170-UY","2019/07/11 19:09:20","新北市金山區福德街14號","121.639276666667","25.221775","6502700","金山區"
"237004","KEA-2597","2019/07/11 19:09:19","新北市三峽區有木206號","121.439091666667","24.8515866666667","6500900","三峽區"
"237007","153-BY","2019/07/11 19:09:14","新北市三峽區中正路二段42巷50號","121.364255","24.9205933333333","6500900","三峽區"
"237013","252-BX","2019/07/11 19:09:21","新北市三峽區光明路69巷24號","121.37663","24.9290233333333","6500900","三峽區"
"237012","275-BY","2019/07/11 19:09:24","新北市三峽區三樹路222巷236弄2號","121.390966666667","24.9426566666667","6500900","三峽區"
"237008","302-VK","2019/07/11 19:09:12","新北市三峽區光明路106巷2號","121.376496666667","24.9275916666667","6500900","三峽區"
"237014","433-BY","2019/07/11 19:09:18","新北市鶯歌區三鶯路5號","121.356941666667","24.9406933333333","6500900","三峽區"
"237006","5529-G3","2019/07/11 19:09:09","新北市三峽區溪東路233巷47弄2號","121.411101666667","24.9349333333333","6500900","三峽區"
"237015","649-BX","2019/07/11 19:09:14","新北市三峽區安坑34-8號","121.451451666667","24.9300316666667","6500900","三峽區"
"237011","078-UY","2019/07/11 19:09:21","新北市三峽區介壽路三段26-1號","121.395933333333","24.9366816666667","6500900","三峽區"
"237010","706-TV","2019/07/11 19:09:07","新北市三峽區國光街362號","121.371018333333","24.9398233333333","6500900","三峽區"
"237005","AKY-6261","2019/07/11 19:09:18","新北市三峽區中山路459巷121號","121.352333333333","24.9353833333333","6500900","三峽區"
"236042","KED-0685","2019/07/11 19:09:27","新北市土城區學府路一段276號","121.450333333333","24.98333","6501300","土城區"
"220089","KED-0812","2019/07/11 19:09:24","新北市板橋區文化路一段162號","121.465478333333","25.0196916666667","6500100","板橋區"
"236078","166-UM","2019/07/11 19:06:41","新北市土城區龍泉路43號","121.417415","24.9433116666667","6501300","土城區"
"236026","269-VK","2019/07/11 19:09:15","新北市土城區中正路74巷3弄2號","121.444763333333","24.97483","6501300","土城區"
"236038","271-VK","2019/07/11 19:09:25","新北市土城區清水路32巷16號","121.457373333333","24.98109","6501300","土城區"
"236070","KEA-2877","2019/07/11 19:09:23","新北市土城區裕生路84巷12號","121.446731666667","24.985645","6501300","土城區"
"252001","KED-0821","2019/07/11 19:09:10","新北市三芝區長勤街45巷2號","121.500311666667","25.2550883333333","6502100","三芝區"
"236021","401-BY","2019/07/11 19:09:26","新北市土城區延峰街33巷1號","121.469711666667","24.98467","6501300","土城區"
"236014","752-BX","2019/07/11 19:09:21","新北市土城區學府路一段115巷5號","121.456375","24.9874666666667","6501300","土城區"
"236059","912-UM","2019/07/11 19:09:15","新北市土城區金城路一段3號","121.43916","24.9689583333333","6501300","土城區"
"236055","AAC-216","2019/07/11 19:09:13","新北市土城區學成路8號","121.453443333333","24.9865233333333","6501300","土城區"
"242048","400-BY","2019/07/11 19:09:19","新北市樹林區中正路421-1號","121.416696666667","25.0078933333333","6500500","新莊區"
"238015","755-BX","2019/07/11 19:09:23","新北市樹林區光明街54號","121.412561666667","24.99151","6500700","樹林區"
"238023","601-UM","2019/07/11 19:09:08","新北市樹林區三興路87巷8號","121.394646666667","25.012475","6500700","樹林區"
"238019","599-UM","2019/07/11 19:09:12","新北市樹林區東榮街91巷2弄6號","121.415821666667","24.982285","6500700","樹林區"
"238022","KEA-2213","2019/07/11 19:09:24","新北市樹林區中山路二段151巷8弄2號","121.406535","24.9780166666667","6500700","樹林區"
"238021","KEA-2539","2019/07/11 19:09:23","新北市樹林區柑園街二段445號","121.363596666667","24.946425","6500700","樹林區"
"238025","303-VK","2019/07/11 19:09:20","新北市樹林區中山路三段68號","121.393845","24.97238","6500700","樹林區"
"238017","283-BY","2019/07/11 19:09:23","新北市樹林區保安街一段220號","121.42063","24.996245","6500700","樹林區"
"238014","282-BY","2019/07/11 19:09:25","新北市樹林區千歲街63-1號","121.426715","24.9982716666667","6500700","樹林區"
"238020","268-VK","2019/07/11 19:09:09","新北市樹林區俊英街131號","121.424291666667","25.0114316666667","6500700","樹林區"
"238026","172-UY","2019/07/11 19:09:18","新北市樹林區佳園路一段68號","121.393181666667","24.9701966666667","6500700","樹林區"
"238016","169-UY","2019/07/11 19:09:22","新北市樹林區復興路335巷6弄15號","121.417901666667","24.98698","6500700","樹林區"
"239007","AAC-297","2019/07/11 19:09:25","新北市鶯歌區中山路138巷42號","121.352355","24.96069","6500800","鶯歌區"
"239006","891-R6","2019/07/11 19:09:09","新北市鶯歌區鶯桃路296巷93弄4號","121.33635","24.9619233333333","6500800","鶯歌區"
"239008","527-UM","2019/07/11 19:09:25","新北市鶯歌區國際二路38號","121.335765","24.9754133333333","6500800","鶯歌區"
"239005","526-UM","2019/07/11 19:09:06","新北市鶯歌區鳳吉二街2-1號","121.325416666667","24.97303","6500800","鶯歌區"
"239001","417-VK","2019/07/11 19:09:11","新北市鶯歌區鶯桃路149號","121.337578333333","24.95501","6500800","鶯歌區"
"239003","360-BY","2019/07/11 19:09:24","新北市鶯歌區鶯桃路423號","121.332646666667","24.9649366666667","6500800","鶯歌區"
"239002","359-BY","2019/07/11 19:09:23","新北市鶯歌區中山路259號","121.34544","24.9569983333333","6500800","鶯歌區"
"239004","193-VK","2019/07/11 19:09:28","新北市鶯歌區中正三路390號","121.326675","24.9346033333333","6500800","鶯歌區"
"221008","489-VK","2019/07/11 19:09:19","新北市汐止區康寧街426號","121.630676666667","25.068005","6501100","汐止區"
"221036","130-UY","2019/07/11 19:09:23","新北市汐止區水碓街7號","121.664076666667","25.0699566666667","6501100","汐止區"
"221015","131-UY","2019/07/11 19:09:12","新北市汐止區鄉長路一段55巷22號","121.664716666667","25.0763266666667","6501100","汐止區"
"221012","278-VK","2019/07/11 19:09:16","新北市汐止區康寧街901號","121.650798333333","25.07525","6501100","汐止區"
"221031","353-TW","2019/07/11 19:09:23","新北市汐止區中興路181巷29弄7號","121.629783333333","25.0659433333333","6501100","汐止區"
"221002","707-TV","2019/07/11 19:09:25","新北市汐止區大同路一段306-1號","121.636005","25.0581866666667","6501100","汐止區"
"220079","145-BY","2019/07/11 19:09:08","新北市板橋區中正路6號","121.45684","25.0123133333333","6500100","板橋區"
"220080","200-UY","2019/07/11 19:09:14","新北市板橋區大觀路二段153巷44弄11號","121.446986666667","24.99922","6500100","板橋區"
"220082","610-BX","2019/07/11 19:09:08","新北市板橋區溪崑二街85號","121.427338333333","24.9896483333333","6500100","板橋區"
"220101","245-BX","2019/07/11 19:09:25","新北市板橋區莊敬路25巷4弄14號","121.473915","25.02704","6500100","板橋區"
"220056","276-BY","2019/07/11 19:09:11","新北市土城區廣福街98號","121.456668333333","24.9922683333333","6500100","板橋區"
"220072","277-BY","2019/07/11 19:09:14","新北市板橋區金門街369巷57弄2號","121.429041666667","24.9841366666667","6500100","板橋區"
"220094","283-UM","2019/07/11 19:09:16","新北市板橋區吳鳳路23號","121.466996666667","25.031145","6500100","板橋區"
"220071","283-VK","2019/07/11 19:09:27","新北市板橋區忠孝路154巷21號","121.464291666667","25.00158","6500100","板橋區"
"220053","285-VK","2019/07/11 19:09:14","新北市板橋區富山街53巷3弄1號","121.477341666667","25.0202183333333","6500100","板橋區"
"220083","286-VK","2019/07/11 19:09:23","新北市板橋區龍興街99巷5號","121.444025","25.0029383333333","6500100","板橋區"
"220081","287-VK","2019/07/11 19:09:08","新北市板橋區光華街39巷4號","121.453538333333","25.0131416666667","6500100","板橋區"
"220090","288-VK","2019/07/11 19:09:18","新北市板橋區長江路一段106巷13弄18號","121.460761666667","25.0293583333333","6500100","板橋區"
"220061","295-UM","2019/07/11 19:09:08","新北市板橋區三民路二段21巷45號","121.480611666667","25.01829","6500100","板橋區"
"220084","296-UM","2019/07/11 19:09:23","新北市板橋區大觀路三段158-1號","121.431406666667","24.99315","6500100","板橋區"
"220075","303-R5","2019/07/11 19:09:11","新北市板橋區南雅南路一段5巷10號","121.456048333333","25.0054933333333","6500100","板橋區"
"220062","305-R5","2019/07/11 19:08:59","新北市板橋區三民路二段居仁巷1弄18號","121.479803333333","25.01357","6500100","板橋區"
"220092","307-R5","2019/07/11 19:09:20","新北市板橋區松江街72巷12號","121.469231666667","25.027855","6500100","板橋區"
"220088","491-VK","2019/07/11 19:09:21","新北市板橋區雙十路二段69號","121.476326666667","25.0267533333333","6500100","板橋區"
"220035","560-BX","2019/07/11 19:09:18","新北市板橋區中正路399巷13弄6號","121.453161666667","25.0224016666667","6500100","板橋區"
"220103","561-BX","2019/07/11 19:09:26","新北市板橋區文化路一段270巷3弄2號","121.467575","25.02086","6500100","板橋區"
"220063","609-BX","2019/07/11 19:09:23","新北市板橋區三民路二段136-2號","121.47916","25.0162183333333","6500100","板橋區"
"220074","630-UY","2019/07/11 19:09:18","新北市板橋區中正路自強新村36號","121.456308333333","25.0135583333333","6500100","板橋區"
"220091","637-BX","2019/07/11 19:09:24","新北市板橋區縣民大道三段213號","121.480265","25.0251933333333","6500100","板橋區"
"220057","686-BX","2019/07/11 19:09:06","新北市板橋區國慶路184號","121.46292","24.9963366666667","6500100","板橋區"
"220077","687-BX","2019/07/11 19:09:19","新北市板橋區大觀路二段64巷5號","121.445245","25.000565","6500100","板橋區"
"220093","689-BX","2019/07/11 19:09:17","新北市板橋區文化路一段311號","121.466108333333","25.0203483333333","6500100","板橋區"
"220054","741-BX","2019/07/11 19:09:22","新北市板橋區重慶路69巷20號","121.462813333333","25.0070316666667","6500100","板橋區"
"220102","KEA-2699","2019/07/11 19:09:09","新北市板橋區萬板路570號","121.481078333333","25.027085","6500100","板橋區"
"220055","827-TW","2019/07/11 19:09:08","新北市板橋區中山路一段146號","121.463766666667","25.011225","6500100","板橋區"
"220067","829-TW","2019/07/11 19:09:08","新北市板橋區三民路二段正隆巷42號","121.476973333333","25.0137816666667","6500100","板橋區"
"220073","985-R7","2019/07/11 19:09:12","新北市板橋區中正路221號","121.456138333333","25.0176416666667","6500100","板橋區"
"220097","AAC-210","2019/07/11 19:09:13","新北市板橋區幸福路60巷4號","121.460688333333","25.02095","6500100","板橋區"
"220064","AAC-253","2019/07/11 19:09:19","新北市板橋區板新路238號","121.468263333333","25.016075","6500100","板橋區"
"235068","KEA-2873","2019/07/11 19:09:11","新北市中和區連勝街38巷1號","121.497816666667","24.9977966666667","6500300","中和區"
"235061","KEA-2875","2019/07/11 19:09:02","新北市中和區員山路347號","121.481248333333","25.001705","6500300","中和區"
