"lineid","car","time","location","longitude","latitude","cityid","cityname"
"234046","148-BY","2019/07/11 19:39:17","新北市永和區永利路139號","121.524111666667","25.0034766666667","6500400","永和區"
"234081","298-R6","2019/07/11 19:39:26","新北市永和區國中路104巷8弄9號","121.525016666667","25.0067033333333","6500400","永和區"
"234038","336-UY","2019/07/11 19:39:11","新北市永和區民樂街20號","121.527538333333","25.0020033333333","6500400","永和區"
"234064","337-UY","2019/07/11 19:39:23","新北市永和區秀朗路一段192巷6弄14號","121.519076666667","25.0022316666667","6500400","永和區"
"234086","338-UY","2019/07/11 19:39:19","新北市永和區永亨路157號","121.52597","25.0039433333333","6500400","永和區"
"234070","552-UM","2019/07/11 19:39:16","新北市永和區永和路二段237-2號","121.515565","25.0145166666667","6500400","永和區"
"234017","745-BX","2019/07/11 19:39:26","新北市永和區永和路二段425巷51號","121.513793333333","25.0173516666667","6500400","永和區"
"234030","746-BX","2019/07/11 19:39:24","新北市永和區民生路37巷5號","121.523583333333","24.998115","6500400","永和區"
"234054","KEA-2590","2019/07/11 19:39:22","新北市永和區竹林路39巷17號","121.518618333333","25.014725","6500400","永和區"
"234007","KED-0605","2019/07/11 19:39:20","新北市永和區中和路435號","121.509536666667","25.0009383333333","6500400","永和區"
"234013","KEA-2591","2019/07/11 19:39:20","新北市永和區永平路220號","121.509075","25.0105316666667","6500400","永和區"
"234061","AAD-866","2019/07/11 19:39:11","新北市永和區中正路446號","121.517428333333","25.0028466666667","6500400","永和區"
"234042","862-TW","2019/07/11 19:39:23","新北市永和區中和路453號","121.509993333333","25.0015333333333","6500400","永和區"
"234050","863-TW","2019/07/11 19:39:17","新北市永和區保安路38號","121.510368333333","25.01701","6500400","永和區"
"234026","9371-KE","2019/07/11 19:39:11","新北市永和區中和路501巷2號","121.510511666667","25.002565","6500400","永和區"
"249002","305-UY","2019/07/11 19:39:25","新北市八里區頂寮二街48巷1-1號","121.450203333333","25.1253616666667","6502300","八里區"
"249003","593-UM","2019/07/11 19:37:56","新北市八里區華峰三街31號","121.39926","25.1458733333333","6502300","八里區"
"248014","025-BX","2019/07/11 19:39:28","新北市五股區五福路42巷27號","121.434948333333","25.0900383333333","6501500","五股區"
"248016","026-BX","2019/07/11 19:39:19","新北市五股區凌雲路一段41號","121.451746666667","25.1007066666667","6501500","五股區"
"248008","KED-0815","2019/07/11 19:39:18","新北市五股區四維路153號","121.467621666667","25.074585","6501500","五股區"
"248020","KED-0813","2019/07/11 19:39:22","新北市五股區中直路6號","121.429468333333","25.111095","6501500","五股區"
"248011","247-BX","2019/07/11 19:39:09","新北市五股區成泰路一段237-22號","121.435926666667","25.08059","6501500","五股區"
"248010","272-BY","2019/07/11 19:39:08","新北市五股區自強路115號","121.432258333333","25.070495","6501500","五股區"
"248004","677-BX","2019/07/11 19:39:14","新北市五股區成泰路一段198號","121.435846666667","25.0785483333333","6501500","五股區"
"248002","678-BX","2019/07/11 19:39:26","新北市五股區成泰路三段577巷81號","121.44966","25.1037083333333","6501500","五股區"
"234023","9380-KE","2019/07/11 19:39:22","新北市永和區保生路55-1號","121.504493333333","25.010925","6500400","永和區"
"234077","969-R7","2019/07/11 19:39:23","新北市永和區民權路82號","121.519873333333","24.9971983333333","6500400","永和區"
"234074","AAC-211","2019/07/11 19:39:18","新北市永和區竹林路225巷9號","121.521356666667","25.0086216666667","6500400","永和區"
"234067","AAC-212","2019/07/11 19:39:11","新北市永和區永貞路406巷26號","121.509686666667","25.0079533333333","6500400","永和區"
"234003","AAC-295","2019/07/11 19:39:25","新北市永和區自由街71號","121.513436666667","25.0052966666667","6500400","永和區"
"244023","483-VK","2019/07/11 19:39:11","新北市林口區仁愛路二段700號","121.369291666667","25.0807416666667","6501700","林口區"
"243012","AAD-798","2019/07/11 19:39:10","新北市泰山區中港西路388號","121.434961666667","25.0549166666667","6501600","泰山區"
"243016","421-VK","2019/07/11 19:39:24","新北市泰山區新北大道七段46號","121.419368333333","25.0321716666667","6501600","泰山區"
"243009","KEA-2215","2019/07/11 19:39:17","新北市泰山區美寧街60號","121.430936666667","25.0647016666667","6501600","泰山區"
"243011","KEA-2216","2019/07/11 19:39:07","新北市泰山區明志路三段145巷69號","121.428088333333","25.0387216666667","6501600","泰山區"
"243015","680-BX","2019/07/11 19:39:15","新北市泰山區民權街74號","121.428451666667","25.0496316666667","6501600","泰山區"
"222002","016-RS","2019/07/11 19:39:07","新北市深坑區北深路一段177號","121.632498333333","25.01082","6501800","深坑區"
"222003","436-BY","2019/07/11 19:39:13","新北市深坑區深南路51-1號","121.621235","25.0098083333333","6501800","深坑區"
"231061","002-UM","2019/07/11 19:39:11","新北市新店區安民街123號","121.516343333333","24.968705","6500600","新店區"
"231058","0293-UT","2019/07/11 19:39:22","新北市新店區寶橋路56號","121.546041666667","24.9754","6500600","新店區"
"231044","046-UY","2019/07/11 19:39:19","新北市新店區北新路三段141號","121.541255","24.98319","6500600","新店區"
"231060","106-UY","2019/07/11 19:39:09","新北市新店區安康路二段190號","121.511298333333","24.9600416666667","6500600","新店區"
"231051","107-UY","2019/07/11 19:39:16","新北市新店區中央四街36號","121.528318333333","24.9745783333333","6500600","新店區"
"231049","108-UY","2019/07/11 19:39:15","新北市新店區大豐路53號","121.539963333333","24.9797383333333","6500600","新店區"
"231065","110-UY","2019/07/11 19:39:18","新北市新店區安祥路109巷85弄39號","121.478628333333","24.9597616666667","6500600","新店區"
"231050","KEA-2219","2019/07/11 19:39:11","新北市新店區秀水路2號","121.555016666667","24.9538283333333","6500600","新店區"
"231062","256-BX","2019/07/11 19:39:08","新北市新店區秀山路11巷8號","121.531931666667","24.959415","6500600","新店區"
"231054","260-TV","2019/07/11 19:39:22","新北市新店區文中路45號","121.539538333333","24.9566983333333","6500600","新店區"
"231042","268-BY","2019/07/11 19:39:08","新北市新店區中興路一段204號","121.543806666667","24.9653416666667","6500600","新店區"
"231064","278-BY","2019/07/11 19:39:20","新北市新店區安和路一段52巷2-1號","121.517693333333","24.9663316666667","6500600","新店區"
"231045","355-BY","2019/07/11 19:39:09","新北市新店區北宜路二段205號","121.553028333333","24.9534233333333","6500600","新店區"
"231056","4715-K9","2019/07/11 19:39:17","新北市新店區中正路504號","121.533828333333","24.9824983333333","6500600","新店區"
"231067","4772-VM","2019/07/11 19:39:14","新北市新店區柴埕路38-8號","121.513218333333","24.9648933333333","6500600","新店區"
"231052","513-UM","2019/07/11 19:39:12","新北市新店區新烏路二段482號","121.552953333333","24.9079733333333","6500600","新店區"
"231041","619-UM","2019/07/11 19:39:19","新北市新店區中正路500號","121.533966666667","24.98223","6500600","新店區"
"231063","641-BX","2019/07/11 19:39:06","新北市新店區達觀路41號","121.502746666667","24.93822","6500600","新店區"
"231047","KED-0819","2019/07/11 19:39:07","新北市新店區五峰路63巷8弄106號","121.547938333333","24.968545","6500600","新店區"
"231046","719-UM","2019/07/11 19:39:21","新北市新店區中正路265號","121.538068333333","24.9740883333333","6500600","新店區"
"231057","720-UM","2019/07/11 19:39:20","新北市新店區橘園一路11號","121.547995","24.934045","6500600","新店區"
"231059","897-TW","2019/07/11 19:39:22","新北市新店區安和路三段119號","121.517585","24.9849833333333","6500600","新店區"
"231040","898-TW","2019/07/11 19:39:27","新北市新店區北新路一段40號","121.54101","24.9659883333333","6500600","新店區"
"231043","899-TW","2019/07/11 19:39:23","新北市新店區北新路二段8號","121.542918333333","24.971075","6500600","新店區"
"231066","AKT-0513","2019/07/11 19:39:20","新北市新店區安康路三段355巷45號","121.485041666667","24.9493316666667","6500600","新店區"
"241011","013-R5","2019/07/11 19:39:20","新北市三重區秀江街173號","121.498313333333","25.0717816666667","6500200","三重區"
"241028","022-UY","2019/07/11 19:39:23","新北市三重區中正南路115號","121.49394","25.057455","6500200","三重區"
"241008","059-VK","2019/07/11 19:39:15","新北市三重區永福街127號","121.478976666667","25.077015","6500200","三重區"
"241029","060-VK","2019/07/11 19:39:09","新北市三重區光明路102號","121.49255","25.0563866666667","6500200","三重區"
"241031","061-VK","2019/07/11 19:39:16","新北市三重區重新路四段244巷11號","121.48646","25.053515","6500200","三重區"
"241015","062-VK","2019/07/11 19:39:15","新北市三重區福德北路34號","121.50209","25.06516","6500200","三重區"
"241017","063-VK","2019/07/11 19:39:14","新北市三重區國隆路6號","121.493523333333","25.06366","6500200","三重區"
"241023","066-VK","2019/07/11 19:39:19","新北市三重區忠孝路三段99巷4號","121.479981666667","25.0640633333333","6500200","三重區"
"241030","742-BX","2019/07/11 19:39:20","新北市三重區新興路30-1號","121.491821666667","25.0530166666667","6500200","三重區"
"241009","267-UM","2019/07/11 19:39:22","新北市三重區三和路四段420號","121.480713333333","25.07993","6500200","三重區"
"241032","269-UM","2019/07/11 19:39:09","新北市三重區重陽路一段60巷73號","121.484285","25.0582783333333","6500200","三重區"
"241013","270-UM","2019/07/11 19:39:09","新北市三重區仁福街64巷38號","121.497235","25.0761033333333","6500200","三重區"
"241025","271-UM","2019/07/11 19:39:19","新北市三重區忠孝路三段99巷4號","121.480061666667","25.06428","6500200","三重區"
"241007","398-BY","2019/07/11 19:39:23","新北市三重區三和路四段125巷64號","121.486911666667","25.078475","6500200","三重區"
"241035","462-BY","2019/07/11 19:39:24","新北市三重區正義北路68號","121.497215","25.0644433333333","6500200","三重區"
"241026","480-VK","2019/07/11 19:39:29","新北市三重區光興街47號","121.499266666667","25.0602383333333","6500200","三重區"
"241014","543-UM","2019/07/11 19:39:22","新北市三重區長壽街196號","121.504241666667","25.069015","6500200","三重區"
"241006","AAD-863","2019/07/11 19:39:13","新北市三重區聯華街140號","121.484545","25.07493","6500200","三重區"
"241019","743-BX","2019/07/11 19:39:27","新北市三重區安慶街369號","121.487246666667","25.0678","6500200","三重區"
"241022","KED-0820","2019/07/11 19:39:25","新北市三重區中正北路66號","121.486588333333","25.0645883333333","6500200","三重區"
"241012","941-UM","2019/07/11 19:39:23","新北市三重區仁興街33巷11號","121.499476666667","25.075525","6500200","三重區"
"235066","003-UY","2019/07/11 19:39:20","新北市中和區中和路196巷21號","121.504951666667","24.9987033333333","6500300","中和區"
"235063","006-UY","2019/07/11 19:39:27","新北市中和區連城路263巷7弄2號","121.492243333333","24.995775","6500300","中和區"
"235056","096-UM","2019/07/11 19:38:58","新北市中和區中山路三段114巷2號","121.4761","25.0063733333333","6500300","中和區"
"235039","097-UM","2019/07/11 19:39:17","新北市中和區景平路160號","121.51742","24.992195","6500300","中和區"
"235065","098-UM","2019/07/11 19:39:28","新北市中和區永和路8巷4號","121.50011","25.0030316666667","6500300","中和區"
"235040","150-BY","2019/07/11 19:39:10","新北市中和區安平路38號","121.50989","24.99512","6500300","中和區"
"235058","151-BY","2019/07/11 19:39:13","新北市中和區員山路146巷19號","121.48239","24.99684","6500300","中和區"
"235055","183-VK","2019/07/11 19:39:16","新北市中和區中山路三段181巷30號","121.47313","25.0049466666667","6500300","中和區"
"235038","185-VK","2019/07/11 19:39:20","新北市中和區自立路141巷3號","121.522466666667","24.993585","6500300","中和區"
"235049","186-VK","2019/07/11 19:39:20","新北市中和區中正路2-1號","121.503328333333","24.993625","6500300","中和區"
"235067","255-BX","2019/07/11 19:39:20","新北市中和區新生街226號","121.483816666667","24.9983433333333","6500300","中和區"
"235044","293-VK","2019/07/11 19:39:12","新北市中和區南山路417號","121.507335","24.9895466666667","6500300","中和區"
"235072","301-VK","2019/07/11 19:39:09","新北市中和區錦和路91-1號","121.490113333333","24.9957933333333","6500300","中和區"
"235043","352-BY","2019/07/11 19:39:17","新北市中和區興南路一段64巷2號","121.51085","24.9902866666667","6500300","中和區"
"235042","KEA-2878","2019/07/11 19:39:17","新北市中和區景安路79巷5號","121.506781666667","24.9972516666667","6500300","中和區"
"235070","558-UM","2019/07/11 19:39:17","新北市中和區圓通路202號","121.496178333333","24.9941366666667","6500300","中和區"
"235045","565-BX","2019/07/11 19:39:21","新北市中和區景新街467巷35弄2號","121.514825","24.98913","6500300","中和區"
"235060","KED-0823","2019/07/11 19:39:11","新北市中和區中山路二段523巷1號","121.481645","25.0044466666667","6500300","中和區"
"235054","640-BX","2019/07/11 19:39:13","新北市中和區莒光路167號","121.472763333333","25.000005","6500300","中和區"
"235047","732-UM","2019/07/11 19:39:13","新北市中和區南山路263巷10號","121.5044","24.9927583333333","6500300","中和區"
"235046","733-UM","2019/07/11 19:39:17","新北市中和區景新街496巷8弄1號","121.513401666667","24.9867933333333","6500300","中和區"
"235071","783-BX","2019/07/11 19:39:04","新北市中和區民樂路71號","121.484198333333","25.0013","6500300","中和區"
"235057","801-TS","2019/07/11 19:39:21","新北市中和區員山路208號","121.481311666667","25.0007583333333","6500300","中和區"
"235041","802-TS","2019/07/11 19:39:19","新北市中和區永貞路244號","121.51442","25.003815","6500300","中和區"
"235052","805-TS","2019/07/11 19:39:19","新北市中和區華新街206巷18號","121.506271666667","24.982665","6500300","中和區"
"235053","900-TW","2019/07/11 19:39:15","新北市中和區國光街215巷10弄12號","121.466818333333","25.0004916666667","6500300","中和區"
"235048","911-UM","2019/07/11 19:39:08","新北市中和區忠孝街1巷2-1號","121.509126666667","24.9830566666667","6500300","中和區"
"235051","157-BY","2019/07/11 19:39:15","新北市中和區中興街132巷26號","121.498761666667","24.9916883333333","6500300","中和區"
"235037","AAC-213","2019/07/11 19:39:18","新北市中和區秀朗路三段138號","121.524356666667","24.991575","6500300","中和區"
"235059","AAC-215","2019/07/11 19:39:12","新北市中和區錦和路193號","121.490638333333","24.9907633333333","6500300","中和區"
"220068","015-TV","2019/07/11 19:39:25","新北市板橋區中山路二段420-1號","121.483223333333","25.0208666666667","6500100","板橋區"
"220065","072-UY","2019/07/11 19:39:21","新北市板橋區國泰街111巷17號","121.466185","25.0059066666667","6500100","板橋區"
"220086","073-UY","2019/07/11 19:39:20","新北市板橋區中正路216巷8號","121.45636","25.0184066666667","6500100","板橋區"
"220106","075-UY","2019/07/11 19:39:19","新北市板橋區民治街57巷32-1號","121.480166666667","25.0343266666667","6500100","板橋區"
"220069","AAD-861","2019/07/11 19:39:24","新北市板橋區南雅南路二段3號","121.45457","25.0029766666667","6500100","板橋區"
"220098","120-SR","2019/07/11 19:39:21","新北市板橋區四維路266巷5弄2-1號","121.463766666667","25.028635","6500100","板橋區"
"247004","893-R6","2019/07/11 19:39:23","新北市蘆洲區中華街6巷12號","121.463133333333","25.0819583333333","6501400","蘆洲區"
"226004","312-R5","2019/07/11 19:39:09","新北市平溪區靜安路三段388號","121.781093333333","25.0477783333333","6502400","平溪區"
"228003","097-TW","2019/07/11 19:39:26","新北市貢寮區真理里美艷山街15-3號","121.923721666667","25.0680116666667","6502600","貢寮區"
"228001","212-TW","2019/07/11 19:39:17","新北市貢寮區真理里延平街67巷1號","121.924351666667","25.0556833333333","6502600","貢寮區"
"224010","AGQ-8101","2019/07/11 19:39:10","新北市瑞芳區豎崎路18號","121.843556666667","25.1086966666667","6501200","瑞芳區"
"227001","642-TC","2019/07/11 19:39:14","新北市雙溪區新基里新基北街22號","121.867226666667","25.0389216666667","6502500","雙溪區"
"227002","400-TW","2019/07/11 19:39:19","新北市雙溪區雙溪里勝利街16號","121.865501666667","25.0357733333333","6502500","雙溪區"
"222001","KEA-2212","2019/07/11 19:39:10","新北市深坑區北深路二段204號","121.612923333333","25.0015233333333","6501800","深坑區"
"208002","KEA-2872","2019/07/11 19:39:22","新北市金山區中山路313巷16號","121.635203333333","25.2232466666667","6502700","金山區"
"208003","665-BX","2019/07/11 19:39:12","新北市金山區中山路174-1號","121.63833","25.2211016666667","6502700","金山區"
"251005","010-UM","2019/07/11 19:38:36","新北市淡水區原德路108巷2號","121.443483333333","25.1734883333333","6501000","淡水區"
"251001","011-UM","2019/07/11 19:39:14","新北市淡水區民權路59號","121.459785","25.1388533333333","6501000","淡水區"
"251015","KEA-2871","2019/07/11 19:39:07","新北市淡水區山子頂24-1號","121.491366666667","25.1871483333333","6501000","淡水區"
"251016","179-VK","2019/07/11 19:39:11","新北市淡水區淡金路三段350巷18號","121.450758333333","25.2083466666667","6501000","淡水區"
"251008","181-VK","2019/07/11 19:39:09","新北市淡水區中正路32巷1號","121.430956666667","25.175405","6501000","淡水區"
"251013","182-VK","2019/07/11 19:39:19","新北市淡水區店子後9號","121.460115","25.218965","6501000","淡水區"
"251010","413-VK","2019/07/11 19:39:25","新北市淡水區沙崙路二段112號","121.433735","25.1984416666667","6501000","淡水區"
"251007","442-VK","2019/07/11 19:39:10","新北市淡水區中正東路一段127巷21號","121.455996666667","25.1605416666667","6501000","淡水區"
"251006","561-UM","2019/07/11 19:39:26","新北市淡水區中山北路一段207巷52號","121.442418333333","25.17914","6501000","淡水區"
"251009","575-R6","2019/07/11 19:39:11","新北市淡水區中山北路一段184巷9號","121.445363333333","25.1786466666667","6501000","淡水區"
"251014","577-R6","2019/07/11 19:39:21","新北市淡水區中和里13-2號","121.47835","25.2308866666667","6501000","淡水區"
"251002","672-BX","2019/07/11 19:39:19","新北市淡水區下圭柔山91-3號","121.430931666667","25.209595","6501000","淡水區"
"207003","550-UM","2019/07/11 19:39:08","新北市萬里區大鵬里下社27號","121.648971666667","25.2172133333333","6502800","萬里區"
"207004","225-TW","2019/07/11 19:39:22","新北市萬里區萬里里瑪鋉路35號","121.687613333333","25.1757116666667","6502800","萬里區"
"252002","178-VK","2019/07/11 19:39:12","新北市三芝區中正路一段18巷21號","121.503905","25.2590316666667","6502100","三芝區"
"208001","170-UY","2019/07/11 19:39:15","新北市金山區六股里下六股51-1號","121.617303333333","25.2216483333333","6502700","金山區"
"237004","KEA-2597","2019/07/11 19:39:19","新北市三峽區插角218-2號","121.415043333333","24.86805","6500900","三峽區"
"237007","153-BY","2019/07/11 19:39:14","新北市三峽區二鬮路136巷151號","121.357285","24.9106516666667","6500900","三峽區"
"237009","210-TH","2019/07/11 19:39:08","新北市三峽區中園街20-1號","121.368238333333","24.9268316666667","6500900","三峽區"
"237013","252-BX","2019/07/11 19:39:21","新北市三峽區介壽路一段390號","121.383325","24.9308216666667","6500900","三峽區"
"237012","275-BY","2019/07/11 19:39:24","新北市三峽區民生街3號","121.374553333333","24.9353916666667","6500900","三峽區"
"237008","302-VK","2019/07/11 19:39:12","新北市三峽區大同路168號","121.37275","24.92672","6500900","三峽區"
"237014","433-BY","2019/07/11 19:39:17","新北市三峽區中園街73號","121.36808","24.9254916666667","6500900","三峽區"
"237006","5529-G3","2019/07/11 19:39:09","新北市三峽區中正路一段336巷15弄2號","121.369958333333","24.92493","6500900","三峽區"
"237015","649-BX","2019/07/11 19:39:14","新北市三峽區成福路249號","121.426748333333","24.9246066666667","6500900","三峽區"
"237011","078-UY","2019/07/11 19:39:19","新北市三峽區介壽路二段91-3號","121.391835","24.93546","6500900","三峽區"
"237010","706-TV","2019/07/11 19:39:27","新北市三峽區復興路77號","121.372658333333","24.937465","6500900","三峽區"
"237005","AKY-6261","2019/07/11 19:39:18","新北市三峽區中山路169巷9號","121.364348333333","24.9360066666667","6500900","三峽區"
"236042","KED-0685","2019/07/11 19:39:07","新北市土城區裕民路256巷1弄2號","121.454175","24.9825833333333","6501300","土城區"
"220089","KED-0812","2019/07/11 19:39:24","新北市板橋區新海路385巷32號","121.457496666667","25.0254283333333","6500100","板橋區"
"236078","166-UM","2019/07/11 19:39:21","新北市土城區中州路27巷53號","121.413023333333","24.957","6501300","土城區"
"236030","253-BX","2019/07/11 19:39:24","新北市土城區福祥街36號","121.441261666667","24.980675","6501300","土城區"
"236038","271-VK","2019/07/11 19:39:18","新北市土城區青雲路269巷11號","121.459743333333","24.9806366666667","6501300","土城區"
"236070","KEA-2877","2019/07/11 19:39:23","新北市土城區學府路2段185巷37-1號","121.447458333333","24.9770416666667","6501300","土城區"
"252001","KED-0821","2019/07/11 19:39:10","新北市三芝區公正街66號","121.499823333333","25.2574716666667","6502100","三芝區"
"236021","401-BY","2019/07/11 19:39:21","新北市土城區峰廷街18號","121.46901","24.98729","6501300","土城區"
"236059","912-UM","2019/07/11 19:39:06","新北市土城區中央路二段17號","121.442955","24.98044","6501300","土城區"
"236049","913-UM","2019/07/11 19:39:25","新北市土城區明德路一段51號","121.465315","24.98483","6501300","土城區"
"236063","915-UM","2019/07/11 19:39:24","新北市土城區延平街68號","121.467841666667","24.9928866666667","6501300","土城區"
"236055","AAC-216","2019/07/11 19:39:13","新北市土城區學府路一段66號","121.456951666667","24.988425","6501300","土城區"
"242002","751-BX","2019/07/11 19:39:06","新北市新莊區瓊林路51-3號","121.44521","25.0275666666667","6500500","新莊區"
"242004","440-UM","2019/07/11 19:39:15","新北市新莊區化成路11巷10號","121.464615","25.0434616666667","6500500","新莊區"
"242048","400-BY","2019/07/11 19:39:19","新北市新莊區後港一路3號","121.42411","25.0262166666667","6500500","新莊區"
"242023","353-BY","2019/07/11 19:39:20","新北市新莊區復興路三段115號","121.464281666667","25.04451","6500500","新莊區"
"242036","135-UY","2019/07/11 19:39:10","新北市新莊區民安路207巷3號","121.426656666667","25.022915","6500500","新莊區"
"242034","348-TH","2019/07/11 19:39:17","新北市新莊區仁愛街2號","121.444333333333","25.03479","6500500","新莊區"
"242031","350-TH","2019/07/11 19:39:24","新北市新莊區新泰路225巷43弄1號","121.444148333333","25.0386483333333","6500500","新莊區"
"238015","755-BX","2019/07/11 19:39:23","新北市樹林區中山路一段135-4號","121.422535","24.9897533333333","6500700","樹林區"
"238023","601-UM","2019/07/11 19:39:08","新北市樹林區三寶街1號","121.406511666667","25.0159283333333","6500700","樹林區"
"238019","599-UM","2019/07/11 19:39:12","新北市樹林區東榮街8號","121.418081666667","24.98386","6500700","樹林區"
"238024","5061-A6","2019/07/11 19:39:22","新北市樹林區育德街78-1號","121.387548333333","24.96813","6500700","樹林區"
"238022","KEA-2213","2019/07/11 19:39:24","新北市樹林區國凱街50巷37號","121.42112","24.9782316666667","6500700","樹林區"
"238021","KEA-2539","2019/07/11 19:39:23","新北市樹林區佳園路三段147號","121.385951666667","24.949355","6500700","樹林區"
"238025","303-VK","2019/07/11 19:39:20","新北市樹林區中山路二段162號","121.4121","24.9828333333333","6500700","樹林區"
"238017","283-BY","2019/07/11 19:39:05","新北市樹林區光興街18號","121.412366666667","25.0029466666667","6500700","樹林區"
"238014","282-BY","2019/07/11 19:39:05","新北市樹林區千歲街28巷17號","121.426155","24.9956633333333","6500700","樹林區"
"238020","268-VK","2019/07/11 19:39:15","新北市樹林區俊英街3-2號","121.4298","24.9999116666667","6500700","樹林區"
"238026","172-UY","2019/07/11 19:39:18","新北市樹林區佳園路三段23號","121.388238333333","24.9547266666667","6500700","樹林區"
"238016","169-UY","2019/07/11 19:39:22","新北市樹林區東和街46號","121.400101666667","24.983605","6500700","樹林區"
"239007","AAC-297","2019/07/11 19:39:25","新北市鶯歌區大湖路338巷15號","121.34666","24.968975","6500800","鶯歌區"
"239006","891-R6","2019/07/11 19:39:09","新北市鶯歌區鶯桃路67巷9號","121.340956666667","24.952105","6500800","鶯歌區"
"239005","526-UM","2019/07/11 19:39:06","新北市鶯歌區中湖街58號","121.34764","24.9727366666667","6500800","鶯歌區"
"239001","417-VK","2019/07/11 19:39:11","新北市鶯歌區中山路247-1號","121.345805","24.9569466666667","6500800","鶯歌區"
"239002","359-BY","2019/07/11 19:39:23","新北市鶯歌區國際二路6巷15號","121.338795","24.9739616666667","6500800","鶯歌區"
"239004","193-VK","2019/07/11 19:39:08","新北市鶯歌區二甲路50-4號","121.337436666667","24.9347133333333","6500800","鶯歌區"
"221008","489-VK","2019/07/11 19:39:19","新北市汐止區康寧街145號","121.621881666667","25.0667166666667","6501100","汐止區"
"221010","269-BY","2019/07/11 19:39:20","新北市汐止區連峰街3巷2號","121.646688333333","25.0766966666667","6501100","汐止區"
"221027","281-BY","2019/07/11 19:39:23","新北市汐止區忠孝東路9號","121.65827","25.0659333333333","6501100","汐止區"
"221033","297-VK","2019/07/11 19:39:19","新北市汐止區南勢街1巷1號","121.627051666667","25.0374033333333","6501100","汐止區"
"221021","299-VK","2019/07/11 19:39:21","新北市汐止區連興街149號","121.65415","25.061365","6501100","汐止區"
"221031","353-TW","2019/07/11 19:39:23","新北市汐止區康寧街901號","121.650756666667","25.07531","6501100","汐止區"
"221025","623-UM","2019/07/11 19:39:16","新北市汐止區福安街20巷1號","121.662675","25.064995","6501100","汐止區"
"221038","646-BX","2019/07/11 19:39:06","新北市汐止區忠孝東路227號","121.662328333333","25.0671083333333","6501100","汐止區"
"220079","145-BY","2019/07/11 19:39:23","新北市板橋區民權路324號","121.457006666667","25.0164633333333","6500100","板橋區"
"220080","200-UY","2019/07/11 19:39:14","新北市板橋區大觀路二段37巷132號","121.449383333333","25.0019783333333","6500100","板橋區"
"220082","610-BX","2019/07/11 19:39:28","新北市板橋區溪崑一街11-3號","121.430846666667","24.9922816666667","6500100","板橋區"
"220101","245-BX","2019/07/11 19:39:25","新北市板橋區縣民大道三段91號","121.475821666667","25.0220133333333","6500100","板橋區"
"224002","257-TC","2019/07/11 19:39:14","新北市瑞芳區三爪子坑路67號","121.812598333333","25.107355","6501200","瑞芳區"
"220056","276-BY","2019/07/11 19:39:11","新北市板橋區國慶路49巷1號","121.459525","24.99551","6500100","板橋區"
"220072","277-BY","2019/07/11 19:39:14","新北市板橋區金門街253巷6弄1號","121.432543333333","24.9885166666667","6500100","板橋區"
"220094","283-UM","2019/07/11 19:39:16","新北市板橋區吳鳳路91-4號","121.466418333333","25.03169","6500100","板橋區"
"220071","283-VK","2019/07/11 19:39:07","新北市板橋區四川路一段281號","121.459543333333","25.001895","6500100","板橋區"
"220053","285-VK","2019/07/11 19:39:14","新北市板橋區中山路二段148巷30號","121.477081666667","25.016175","6500100","板橋區"
"220083","286-VK","2019/07/11 19:39:28","新北市板橋區龍興街71巷33-2號","121.442368333333","25.0024383333333","6500100","板橋區"
"220081","287-VK","2019/07/11 19:39:08","新北市板橋區大觀路一段29巷131弄33-16號","121.450538333333","25.0040616666667","6500100","板橋區"
"220090","288-VK","2019/07/11 19:39:14","新北市板橋區龍泉街54巷7弄14號","121.45648","25.026485","6500100","板橋區"
"220061","295-UM","2019/07/11 19:39:08","新北市板橋區漢生東路131巷7號","121.468283333333","25.01437","6500100","板橋區"
"220084","296-UM","2019/07/11 19:39:23","新北市板橋區滿平街84巷120弄30號","121.42606","24.98548","6500100","板橋區"
"220075","303-R5","2019/07/11 19:39:11","新北市板橋區中正路253巷18號","121.454878333333","25.01809","6500100","板橋區"
"220062","305-R5","2019/07/11 19:39:25","新北市板橋區三民路二段29巷2號","121.481383333333","25.018045","6500100","板橋區"
"220092","307-R5","2019/07/11 19:39:20","新北市板橋區四維路259巷62號","121.460595","25.0268166666667","6500100","板橋區"
"220088","491-VK","2019/07/11 19:39:19","新北市板橋區仁化街94號","121.4765","25.03215","6500100","板橋區"
"220035","560-BX","2019/07/11 19:39:18","新北市板橋區中正路399巷9號","121.453591666667","25.0223666666667","6500100","板橋區"
"220103","561-BX","2019/07/11 19:39:26","新北市板橋區自由路40號","121.465623333333","25.0231233333333","6500100","板橋區"
"220063","609-BX","2019/07/11 19:39:26","新北市板橋區中山路二段431號","121.481201666667","25.0200566666667","6500100","板橋區"
"220074","630-UY","2019/07/11 19:39:09","新北市板橋區府中路32號","121.45805","25.0097766666667","6500100","板橋區"
"220091","637-BX","2019/07/11 19:39:27","新北市板橋區懷德街139巷20弄10號","121.48016","25.0306833333333","6500100","板橋區"
"220057","686-BX","2019/07/11 19:39:26","新北市板橋區廣權路9號","121.460788333333","24.9914233333333","6500100","板橋區"
"220077","687-BX","2019/07/11 19:39:19","新北市板橋區僑中二街116巷1號","121.445723333333","25.0061966666667","6500100","板橋區"
"220093","689-BX","2019/07/11 19:39:17","新北市板橋區長江路二段153號","121.466086666667","25.0319233333333","6500100","板橋區"
"220054","741-BX","2019/07/11 19:39:22","新北市板橋區忠孝路239巷9號","121.466108333333","25.0031516666667","6500100","板橋區"
"220102","KEA-2699","2019/07/11 19:39:09","新北市板橋區文化路二段410巷31號","121.474885","25.03063","6500100","板橋區"
"220055","827-TW","2019/07/11 19:39:08","新北市板橋區國慶路149巷2弄2號","121.461323333333","24.996525","6500100","板橋區"
"220067","829-TW","2019/07/11 19:39:21","新北市板橋區長安街138巷1弄5號","121.473016666667","25.009845","6500100","板橋區"
"220073","985-R7","2019/07/11 19:39:12","新北市板橋區國光路49巷17號","121.458915","25.018825","6500100","板橋區"
"220097","AAC-210","2019/07/11 19:39:23","新北市板橋區文化路一段219-1號","121.463586666667","25.0171416666667","6500100","板橋區"
"220064","AAC-253","2019/07/11 19:39:26","新北市板橋區實踐路108號","121.464171666667","25.0045833333333","6500100","板橋區"
"235068","KEA-2873","2019/07/11 19:39:11","新北市中和區永和路1號","121.499846666667","25.0028033333333","6500300","中和區"
"235061","KEA-2875","2019/07/11 19:39:02","新北市中和區員山路170號","121.481566666667","24.9999033333333","6500300","中和區"
