"lineid","car","time","location","longitude","latitude","cityid","cityname"
"234046","148-BY","2019/07/11 19:49:17","新北市永和區永利路228號","121.523673333333","25.0025133333333","6500400","永和區"
"234081","298-R6","2019/07/11 19:49:26","新北市永和區國中路4號","121.52441","25.00433","6500400","永和區"
"234038","336-UY","2019/07/11 19:49:17","新北市永和區民樂街39巷18弄42號","121.528453333333","24.999045","6500400","永和區"
"234064","337-UY","2019/07/11 19:49:23","新北市永和區中正路368巷18號","121.518433333333","25.0007666666667","6500400","永和區"
"234086","338-UY","2019/07/11 19:49:09","新北市永和區永利路2號","121.517363333333","25.0059216666667","6500400","永和區"
"234070","552-UM","2019/07/11 19:49:16","新北市永和區竹林路88號","121.51941","25.0125033333333","6500400","永和區"
"234017","745-BX","2019/07/11 19:49:26","新北市永和區永和路二段289號","121.51604","25.015925","6500400","永和區"
"234030","746-BX","2019/07/11 19:49:04","新北市永和區民生路67巷27號","121.524168333333","24.99743","6500400","永和區"
"234054","KEA-2590","2019/07/11 19:49:22","新北市永和區竹林路72巷6號","121.518696666667","25.01305","6500400","永和區"
"234007","KED-0605","2019/07/11 19:49:20","新北市中和區水源路102號","121.506171666667","25.003365","6500400","永和區"
"234013","KEA-2591","2019/07/11 19:49:21","新北市永和區仁愛路222號","121.508816666667","25.011965","6500400","永和區"
"234061","AAD-866","2019/07/11 19:49:26","新北市永和區中正路106號","121.514473333333","24.9959633333333","6500400","永和區"
"234042","862-TW","2019/07/11 19:49:23","新北市永和區中和路389巷22號","121.508151666667","25.001255","6500400","永和區"
"234050","863-TW","2019/07/11 19:49:17","新北市永和區保安路166號","121.508083333333","25.01448","6500400","永和區"
"234026","9371-KE","2019/07/11 19:49:11","新北市永和區雙和街25巷4號","121.508845","25.002","6500400","永和區"
"234011","9373-KE","2019/07/11 19:49:11","新北市永和區仁愛路310號","121.50302","25.0076233333333","6500400","永和區"
"249005","172-UM","2019/07/11 19:49:17","新北市八里區中華路三段185號","121.39211","25.128395","6502300","八里區"
"249001","173-UM","2019/07/11 19:49:09","新北市八里區中華路二段177號","121.40675","25.15074","6502300","八里區"
"249002","305-UY","2019/07/11 19:49:25","新北市八里區頂寮五街17號","121.451506666667","25.1260016666667","6502300","八里區"
"249003","593-UM","2019/07/11 19:47:36","新北市八里區荖阡坑路4-89號","121.399248333333","25.1433816666667","6502300","八里區"
"249004","759-BX","2019/07/11 19:49:20","新北市八里區中山路一段268巷57號","121.413981666667","25.1610666666667","6502300","八里區"
"248014","025-BX","2019/07/11 19:49:08","新北市五股區五福路22巷5號","121.434483333333","25.089075","6501500","五股區"
"248016","026-BX","2019/07/11 19:49:19","新北市五股區成泰路四段22巷19號","121.454698333333","25.1074916666667","6501500","五股區"
"248008","KED-0815","2019/07/11 19:49:18","新北市五股區國道路三段18號","121.468715","25.0752083333333","6501500","五股區"
"248020","KED-0813","2019/07/11 19:49:22","新北市五股區中直路33-1號","121.420485","25.1137533333333","6501500","五股區"
"248011","247-BX","2019/07/11 19:49:09","新北市五股區蓬萊路4號","121.435603333333","25.079405","6501500","五股區"
"248010","272-BY","2019/07/11 19:49:08","新北市五股區登林路貿商巷3弄13號","121.429843333333","25.0698466666667","6501500","五股區"
"248004","677-BX","2019/07/11 19:49:14","新北市五股區成泰路一段8巷2-3號","121.43484","25.0669116666667","6501500","五股區"
"248002","678-BX","2019/07/11 19:49:26","新北市五股區成泰路三段625-2號","121.452906666667","25.104255","6501500","五股區"
"234023","9380-KE","2019/07/11 19:49:22","新北市永和區中山路一段16號","121.514033333333","25.0105966666667","6500400","永和區"
"234077","969-R7","2019/07/11 19:49:23","新北市永和區民治街97巷8號","121.516808333333","24.9981","6500400","永和區"
"234074","AAC-211","2019/07/11 19:49:09","新北市永和區竹林路213巷7號","121.521346666667","25.00891","6500400","永和區"
"234067","AAC-212","2019/07/11 19:49:11","新北市永和區永貞路418號","121.50881","25.0080166666667","6500400","永和區"
"234003","AAC-295","2019/07/11 19:49:25","新北市永和區福和路313號","121.516111666667","25.0072283333333","6500400","永和區"
"244019","402-UM","2019/07/11 19:49:16","新北市林口區粉寮69號","121.405038333333","25.0908483333333","6501700","林口區"
"243012","AAD-798","2019/07/11 19:49:10","新北市泰山區仁愛路100巷31號","121.433603333333","25.054875","6501600","泰山區"
"243016","421-VK","2019/07/11 19:49:11","新北市泰山區明志路三段513號","121.421368333333","25.032275","6501600","泰山區"
"243009","KEA-2215","2019/07/11 19:49:17","新北市泰山區美寧街60號","121.43093","25.0647033333333","6501600","泰山區"
"243011","KEA-2216","2019/07/11 19:49:27","新北市泰山區明志路三段196巷21弄24號","121.422585","25.0385433333333","6501600","泰山區"
"222002","016-RS","2019/07/11 19:49:28","新北市深坑區北深路二段20號","121.620755","25.0044466666667","6501800","深坑區"
"222003","436-BY","2019/07/11 19:49:12","新北市深坑區深南路51-1號","121.621233333333","25.0097933333333","6501800","深坑區"
"231061","002-UM","2019/07/11 19:49:11","新北市新店區安民街230號","121.5175","24.972645","6500600","新店區"
"231058","0293-UT","2019/07/11 19:49:22","新北市新店區北新路二段2號","121.542828333333","24.970755","6500600","新店區"
"231044","046-UY","2019/07/11 19:49:19","新北市新店區復興路76號","121.537446666667","24.9868983333333","6500600","新店區"
"231060","106-UY","2019/07/11 19:49:28","新北市新店區安康路二段163號","121.51005","24.9592766666667","6500600","新店區"
"231051","107-UY","2019/07/11 19:49:16","新北市新店區中央三街54號","121.527296666667","24.97468","6500600","新店區"
"231049","108-UY","2019/07/11 19:49:15","新北市新店區民權路88號","121.536796666667","24.9829583333333","6500600","新店區"
"231065","110-UY","2019/07/11 19:49:17","新北市新店區安祥路109巷151弄16號","121.477736666667","24.9587966666667","6500600","新店區"
"231050","KEA-2219","2019/07/11 19:49:11","新北市新店區北宜路二段150-1號","121.557686666667","24.9539283333333","6500600","新店區"
"231062","256-BX","2019/07/11 19:49:08","新北市新店區永業路6號","121.53392","24.95622","6500600","新店區"
"231054","260-TV","2019/07/11 19:49:22","新北市新店區北宜路一段39巷22號","121.539086666667","24.9581416666667","6500600","新店區"
"231042","268-BY","2019/07/11 19:49:08","新北市新店區中興路一段268-3號","121.545246666667","24.9679216666667","6500600","新店區"
"231064","278-BY","2019/07/11 19:49:20","新北市新店區光華街8巷17號","121.517998333333","24.9693866666667","6500600","新店區"
"231045","355-BY","2019/07/11 19:49:29","新北市新店區北宜路二段437號","121.561168333333","24.9542066666667","6500600","新店區"
"231056","4715-K9","2019/07/11 19:49:17","新北市新店區民權路72號","121.538166666667","24.983185","6500600","新店區"
"231067","4772-VM","2019/07/11 19:49:14","新北市新店區精忠路10-1號","121.532528333333","24.9591466666667","6500600","新店區"
"231052","513-UM","2019/07/11 19:49:12","新北市新店區新烏路三段266號","121.55013","24.89977","6500600","新店區"
"231041","619-UM","2019/07/11 19:49:19","新北市新店區中央路200號","121.530556666667","24.974215","6500600","新店區"
"231063","641-BX","2019/07/11 19:49:06","新北市新店區車子路11號","121.503061666667","24.952045","6500600","新店區"
"231047","KED-0819","2019/07/11 19:49:07","新北市新店區五峰路61巷2-2號","121.547423333333","24.970045","6500600","新店區"
"231046","719-UM","2019/07/11 19:47:21","新北市新店區福園街10巷5號","121.532566666667","24.97287","6500600","新店區"
"231057","720-UM","2019/07/11 19:49:21","新北市新店區梅崗三路1號","121.558273333333","24.9312433333333","6500600","新店區"
"231059","897-TW","2019/07/11 19:49:07","新北市新店區安和路二段221號","121.517386666667","24.97574","6500600","新店區"
"231040","898-TW","2019/07/11 19:49:27","新北市新店區中正路75巷71號","121.543158333333","24.9688133333333","6500600","新店區"
"231043","899-TW","2019/07/11 19:49:23","新北市新店區中正路251號","121.538938333333","24.973375","6500600","新店區"
"231066","AKT-0513","2019/07/11 19:49:20","新北市新店區安康路三段165巷5號","121.489688333333","24.95128","6500600","新店區"
"241011","013-R5","2019/07/11 19:49:11","新北市三重區三和路三段1號","121.49712","25.0704366666667","6500200","三重區"
"241028","022-UY","2019/07/11 19:49:23","新北市三重區中正南路158號","121.49411","25.0572166666667","6500200","三重區"
"241008","059-VK","2019/07/11 19:49:14","新北市三重區永福街96號","121.478806666667","25.07594","6500200","三重區"
"241029","060-VK","2019/07/11 19:49:09","新北市三重區光明路56號","121.491738333333","25.05795","6500200","三重區"
"241031","061-VK","2019/07/11 19:49:16","新北市三重區重新路四段214巷13號","121.486923333333","25.0543033333333","6500200","三重區"
"241015","062-VK","2019/07/11 19:49:16","新北市三重區三和路一段2號","121.503893333333","25.0641966666667","6500200","三重區"
"241017","063-VK","2019/07/11 19:49:14","新北市三重區重陽路三段15號","121.489528333333","25.0667616666667","6500200","三重區"
"241024","065-VK","2019/07/11 19:49:13","新北市三重區大勇街82巷15弄30號","121.481223333333","25.0719466666667","6500200","三重區"
"241023","066-VK","2019/07/11 19:49:19","新北市三重區頂崁街166號","121.477648333333","25.0658683333333","6500200","三重區"
"241003","091-VK","2019/07/11 19:49:27","新北市三重區五華街93巷64號","121.494041666667","25.0851433333333","6500200","三重區"
"241030","742-BX","2019/07/11 19:49:20","新北市三重區環河南路254巷33號","121.489783333333","25.051345","6500200","三重區"
"241016","266-UM","2019/07/11 19:48:58","新北市三重區正義北路16巷31-5號","121.496435","25.0627783333333","6500200","三重區"
"241009","267-UM","2019/07/11 19:49:22","新北市三重區三和路四段396巷2-1號","121.481405","25.0791916666667","6500200","三重區"
"241018","268-UM","2019/07/11 19:49:08","新北市三重區雙園街57巷34弄3號","121.494275","25.0684416666667","6500200","三重區"
"241032","269-UM","2019/07/11 19:49:09","新北市三重區重陽路一段79號","121.486795","25.05896","6500200","三重區"
"241013","270-UM","2019/07/11 19:49:09","新北市三重區仁愛街141巷17號","121.496176666667","25.075545","6500200","三重區"
"241025","271-UM","2019/07/11 19:49:19","新北市三重區頂崁街210巷3號","121.47678","25.067675","6500200","三重區"
"241007","398-BY","2019/07/11 19:49:23","新北市三重區三和路四段135巷6號","121.484875","25.0781233333333","6500200","三重區"
"241035","462-BY","2019/07/11 19:49:24","新北市三重區文化北路6-3號","121.499615","25.0636516666667","6500200","三重區"
"241004","475-VK","2019/07/11 19:49:11","新北市三重區五華街74號","121.493421666667","25.082005","6500200","三重區"
"241020","478-VK","2019/07/11 19:49:15","新北市三重區三和路四段8號","121.491411666667","25.0737016666667","6500200","三重區"
"241026","480-VK","2019/07/11 19:49:09","新北市三重區文化南路42號","121.500475","25.0601683333333","6500200","三重區"
"241014","543-UM","2019/07/11 19:49:22","新北市三重區長安街84號","121.501606666667","25.0674583333333","6500200","三重區"
"241001","547-UM","2019/07/11 19:49:15","新北市三重區仁愛街327巷34號","121.493073333333","25.0800383333333","6500200","三重區"
"241006","AAD-863","2019/07/11 19:49:13","新北市三重區永福街287-1號","121.48305","25.074475","6500200","三重區"
"241019","743-BX","2019/07/11 19:49:27","新北市三重區自強路二段47巷53號","121.490736666667","25.0702366666667","6500200","三重區"
"241022","KED-0820","2019/07/11 19:49:25","新北市三重區新北大道一段9號","121.488808333333","25.0606166666667","6500200","三重區"
"241012","941-UM","2019/07/11 19:49:23","新北市三重區仁興街41號","121.4992","25.075805","6500200","三重區"
"241033","AAC-255","2019/07/11 19:49:09","新北市三重區中興南街66號","121.470678333333","25.0439666666667","6500200","三重區"
"235066","003-UY","2019/07/11 19:49:20","新北市中和區南工路26號","121.50555","25.0009","6500300","中和區"
"235056","096-UM","2019/07/11 19:49:19","新北市中和區漢民路423號","121.472421666667","25.0067266666667","6500300","中和區"
"235039","097-UM","2019/07/11 19:49:17","新北市中和區大勇街27巷31號","121.51609","24.9939033333333","6500300","中和區"
"235065","098-UM","2019/07/11 19:49:08","新北市中和區福祥路90巷5號","121.499555","25.0058716666667","6500300","中和區"
"235040","150-BY","2019/07/11 19:49:10","新北市中和區安和路43號","121.509631666667","24.9948683333333","6500300","中和區"
"235058","151-BY","2019/07/11 19:49:13","新北市中和區員山路150巷2弄37號","121.481691666667","24.9975266666667","6500300","中和區"
"235055","183-VK","2019/07/11 19:49:16","新北市中和區德光路27巷23號","121.471098333333","25.003215","6500300","中和區"
"235038","185-VK","2019/07/11 19:49:14","新北市中和區自立路6號","121.522473333333","24.9965916666667","6500300","中和區"
"235049","186-VK","2019/07/11 19:49:20","新北市中和區景平路385-2號","121.502935","24.9941766666667","6500300","中和區"
"235067","255-BX","2019/07/11 19:49:20","新北市中和區中正路751巷14弄1號","121.484071666667","24.9997183333333","6500300","中和區"
"235044","293-VK","2019/07/11 19:49:12","新北市中和區板南路132號","121.502428333333","24.992515","6500300","中和區"
"235072","301-VK","2019/07/11 19:49:09","新北市中和區永和路103巷15弄4號","121.495215","25.0075183333333","6500300","中和區"
"235043","352-BY","2019/07/11 19:49:17","新北市中和區華新街232巷10號","121.505786666667","24.9822316666667","6500300","中和區"
"235042","KEA-2878","2019/07/11 19:49:17","新北市永和區中正路2巷23號","121.513686666667","24.9933383333333","6500300","中和區"
"247014","KEA-2869","2019/07/11 19:49:20","新北市蘆洲區中央路103-1號","121.472071666667","25.0840183333333","6501400","蘆洲區"
"247008","KED-0682","2019/07/11 19:49:26","新北市蘆洲區中山一路1號","121.478673333333","25.0800733333333","6501400","蘆洲區"
"235050","4979-A6","2019/07/11 19:49:18","新北市中和區景平路241巷84弄54號","121.506101666667","24.9923533333333","6500300","中和區"
"235060","KED-0823","2019/07/11 19:49:11","新北市中和區員山路427號","121.480913333333","25.003585","6500300","中和區"
"235054","640-BX","2019/07/11 19:49:13","新北市中和區中山路二段552號","121.483745","25.0051","6500300","中和區"
"235047","732-UM","2019/07/11 19:49:13","新北市中和區捷運路8號","121.50975","24.9894616666667","6500300","中和區"
"235046","733-UM","2019/07/11 19:49:17","新北市中和區仁愛街29號","121.510871666667","24.98875","6500300","中和區"
"235041","802-TS","2019/07/11 19:49:19","新北市中和區中安街58號","121.512628333333","25.0021533333333","6500300","中和區"
"235052","805-TS","2019/07/11 19:49:19","新北市中和區華新街30巷16號","121.506823333333","24.9844383333333","6500300","中和區"
"235053","900-TW","2019/07/11 19:49:18","新北市中和區民德路204號","121.468275","24.99849","6500300","中和區"
"235048","911-UM","2019/07/11 19:49:08","新北市中和區南山路320巷1號","121.50785","24.98645","6500300","中和區"
"235051","157-BY","2019/07/11 19:49:15","新北市中和區中興街180巷45號","121.49825","24.9895183333333","6500300","中和區"
"235037","AAC-213","2019/07/11 19:49:18","新北市中和區自立路143號","121.522435","24.99322","6500300","中和區"
"235059","AAC-215","2019/07/11 19:49:12","新北市中和區圓通路305巷13弄2號","121.494138333333","24.98973","6500300","中和區"
"220068","015-TV","2019/07/11 19:49:25","新北市板橋區光復街192巷16弄20號","121.486276666667","25.0194883333333","6500100","板橋區"
"220065","072-UY","2019/07/11 19:49:21","新北市板橋區國泰街39巷2弄2號","121.46841","25.0063983333333","6500100","板橋區"
"220086","073-UY","2019/07/11 19:49:20","新北市板橋區中正路236巷37號","121.457471666667","25.0194366666667","6500100","板橋區"
"220106","075-UY","2019/07/11 19:49:25","新北市板橋區民治街52巷19號","121.478503333333","25.0325266666667","6500100","板橋區"
"220069","AAD-861","2019/07/11 19:49:28","新北市板橋區貴興路49號","121.45725","25.0032883333333","6500100","板橋區"
"220098","120-SR","2019/07/11 19:49:21","新北市板橋區四維路326巷10號","121.462651666667","25.030505","6500100","板橋區"
"247004","893-R6","2019/07/11 19:49:23","新北市蘆洲區中原路32號","121.459963333333","25.0828516666667","6501400","蘆洲區"
"247002","336-TH","2019/07/11 19:49:06","新北市蘆洲區永樂街38巷71號","121.458641666667","25.090675","6501400","蘆洲區"
"226004","312-R5","2019/07/11 19:49:09","新北市平溪區靜安路三段392巷3號","121.784525","25.0495883333333","6502400","平溪區"
"228003","097-TW","2019/07/11 19:49:06","新北市貢寮區真理里美艷山街5-1號","121.92641","25.0596466666667","6502600","貢寮區"
"228001","212-TW","2019/07/11 19:49:17","新北市貢寮區真理里新港街92號","121.92764","25.056475","6502600","貢寮區"
"227001","642-TC","2019/07/11 19:49:14","新北市雙溪區新基里中華路44號","121.865886666667","25.037475","6502500","雙溪區"
"227002","400-TW","2019/07/11 19:49:19","新北市雙溪區雙溪里內挖路36號","121.863208333333","25.0367466666667","6502500","雙溪區"
"222001","KEA-2212","2019/07/11 19:49:10","新北市深坑區北深路三段83號","121.606533333333","25.0015933333333","6501800","深坑區"
"208002","KEA-2872","2019/07/11 19:49:22","新北市金山區八德街14號","121.63491","25.22363","6502700","金山區"
"208003","665-BX","2019/07/11 19:49:12","新北市金山區海興路176號","121.632953333333","25.2400533333333","6502700","金山區"
"251004","009-UM","2019/07/11 19:49:25","新北市淡水區民權路177巷55號","121.460495","25.1337366666667","6501000","淡水區"
"251005","010-UM","2019/07/11 19:49:16","新北市淡水區中正東路6號","121.447008333333","25.16718","6501000","淡水區"
"251001","011-UM","2019/07/11 19:49:14","新北市淡水區中正東路二段37號","121.459218333333","25.1562533333333","6501000","淡水區"
"251015","KEA-2871","2019/07/11 19:49:07","新北市淡水區山子頂24-1號","121.491391666667","25.187125","6501000","淡水區"
"251016","179-VK","2019/07/11 19:49:11","新北市淡水區三塊厝3-2號","121.456255","25.2092966666667","6501000","淡水區"
"251008","181-VK","2019/07/11 19:49:09","新北市淡水區中正路二段24巷2-1號","121.426768333333","25.17696","6501000","淡水區"
"251013","182-VK","2019/07/11 19:49:19","新北市淡水區頂田寮路109號","121.457965","25.2161483333333","6501000","淡水區"
"251012","441-VK","2019/07/11 19:49:10","新北市淡水區淡金路三段56號","121.448198333333","25.1996666666667","6501000","淡水區"
"251007","442-VK","2019/07/11 19:49:10","新北市淡水區中正東路一段3巷23號","121.451583333333","25.16528","6501000","淡水區"
"251006","561-UM","2019/07/11 19:49:26","新北市淡水區水碓街7號","121.443401666667","25.176925","6501000","淡水區"
"251009","575-R6","2019/07/11 19:49:11","新北市淡水區中正路38-1號","121.443746666667","25.1692466666667","6501000","淡水區"
"251014","577-R6","2019/07/11 19:49:21","新北市淡水區番社前3-3號","121.471598333333","25.2372383333333","6501000","淡水區"
"251011","650-BX","2019/07/11 19:49:21","新北市淡水區紅樹林路175號","121.460668333333","25.1574733333333","6501000","淡水區"
"251002","672-BX","2019/07/11 19:49:19","新北市淡水區下圭柔山90-8號","121.43128","25.2102583333333","6501000","淡水區"
"207003","550-UM","2019/07/11 19:49:08","新北市萬里區大鵬里萬里加投68-8號","121.642463333333","25.21507","6502800","萬里區"
"207004","225-TW","2019/07/11 19:49:21","新北市萬里區萬里里瑪鋉路120號","121.690623333333","25.1789966666667","6502800","萬里區"
"252002","178-VK","2019/07/11 19:49:12","新北市三芝區三民街33-1號","121.504598333333","25.25859","6502100","三芝區"
"208001","170-UY","2019/07/11 19:49:13","新北市金山區重和里六股林口13-1號","121.602823333333","25.2181216666667","6502700","金山區"
"237004","KEA-2597","2019/07/11 19:49:19","新北市三峽區添福285-5號","121.376438333333","24.89128","6500900","三峽區"
"237007","153-BY","2019/07/11 19:49:14","新北市三峽區二鬮路110巷50號","121.357775","24.909965","6500900","三峽區"
"237009","210-TH","2019/07/11 19:49:08","新北市三峽區中園街13-1號","121.368636666667","24.92705","6500900","三峽區"
"237013","252-BX","2019/07/11 19:49:21","新北市三峽區橫溪路52號","121.396745","24.9353483333333","6500900","三峽區"
"237012","275-BY","2019/07/11 19:49:24","新北市三峽區中華路9號","121.373618333333","24.9319816666667","6500900","三峽區"
"237008","302-VK","2019/07/11 19:49:12","新北市三峽區中華路138號","121.370758333333","24.9271283333333","6500900","三峽區"
"237014","433-BY","2019/07/11 19:49:17","新北市三峽區添福2-4號","121.370533333333","24.9093966666667","6500900","三峽區"
"237006","5529-G3","2019/07/11 19:49:08","新北市三峽區中正路一段336巷15弄2號","121.369951666667","24.924925","6500900","三峽區"
"237015","649-BX","2019/07/11 19:49:14","新北市三峽區成福路3號","121.416645","24.9281666666667","6500900","三峽區"
"237011","078-UY","2019/07/11 19:49:19","新北市三峽區中正路一段168號","121.37296","24.928545","6500900","三峽區"
"237010","706-TV","2019/07/11 19:49:07","新北市三峽區復興路19號","121.374075","24.93628","6500900","三峽區"
"237005","AKY-6261","2019/07/11 19:49:18","新北市三峽區長泰街76號","121.376736666667","24.9331333333333","6500900","三峽區"
"236042","KED-0685","2019/07/11 19:49:07","新北市土城區金城路二段214號","121.455841666667","24.982505","6501300","土城區"
"220089","KED-0812","2019/07/11 19:49:24","新北市板橋區互助街84號","121.460451666667","25.0263883333333","6500100","板橋區"
"236078","166-UM","2019/07/11 19:49:21","新北市土城區中央路四段418-2號","121.411088333333","24.9529933333333","6501300","土城區"
"236030","253-BX","2019/07/11 19:49:04","新北市土城區中央路一段290號","121.443286666667","24.9824","6501300","土城區"
"236026","269-VK","2019/07/11 19:49:14","新北市土城區中央路二段61巷26號","121.443265","24.9787333333333","6501300","土城區"
"236038","271-VK","2019/07/11 19:49:08","新北市土城區國際路158巷38號","121.468176666667","24.975495","6501300","土城區"
"236070","KEA-2877","2019/07/11 19:49:23","新北市土城區水源街32巷14號","121.441246666667","24.975875","6501300","土城區"
"252001","KED-0821","2019/07/11 19:49:10","新北市三芝區公正街66號","121.49983","25.2574233333333","6502100","三芝區"
"236021","401-BY","2019/07/11 19:49:21","新北市土城區延吉街137巷10號","121.470855","24.985615","6501300","土城區"
"236059","912-UM","2019/07/11 19:49:26","新北市土城區中央路一段191號","121.446075","24.9871716666667","6501300","土城區"
"236049","913-UM","2019/07/11 19:49:23","新北市土城區青雲路303號","121.459061666667","24.97937","6501300","土城區"
"236063","915-UM","2019/07/11 19:49:20","新北市土城區延和路105巷5弄1號","121.467316666667","24.9910633333333","6501300","土城區"
"236055","AAC-216","2019/07/11 19:49:13","新北市土城區延和路107號","121.467753333333","24.9902483333333","6501300","土城區"
"242039","AAC-296","2019/07/11 19:49:08","新北市新莊區民安路299巷24號","121.429325","25.0231983333333","6500500","新莊區"
"242061","986-R7","2019/07/11 19:49:17","新北市新莊區瓊林路89-32號","121.443241666667","25.0261783333333","6500500","新莊區"
"242002","751-BX","2019/07/11 19:49:26","新北市新莊區新泰路2-11號","121.450073333333","25.032425","6500500","新莊區"
"242029","615-BX","2019/07/11 19:49:20","新北市新莊區中平路183號","121.444838333333","25.0493916666667","6500500","新莊區"
"242004","440-UM","2019/07/11 19:49:15","新北市新莊區化成路63巷24弄13號","121.462741666667","25.045885","6500500","新莊區"
"242048","400-BY","2019/07/11 19:49:19","新北市新莊區後港一路28巷12號","121.425556666667","25.025135","6500500","新莊區"
"242025","362-BY","2019/07/11 19:49:17","新北市新莊區五權一路12巷21弄2號","121.457785","25.0643316666667","6500500","新莊區"
"242023","353-BY","2019/07/11 19:49:23","新北市新莊區化成路172號","121.465558333333","25.0455616666667","6500500","新莊區"
"242013","132-UY","2019/07/11 19:49:09","新北市新莊區中泰街86號","121.449581666667","25.046855","6500500","新莊區"
"242036","135-UY","2019/07/11 19:49:24","新北市新莊區民安路207巷30弄6號","121.427858333333","25.0237166666667","6500500","新莊區"
"242011","176-VK","2019/07/11 19:49:08","新北市新莊區中和街195號","121.448188333333","25.051995","6500500","新莊區"
"242034","348-TH","2019/07/11 19:49:17","新北市新莊區公園一路112-1號","121.4449","25.0373766666667","6500500","新莊區"
"242031","350-TH","2019/07/11 19:49:20","新北市新莊區仁愛街73號","121.443963333333","25.037905","6500500","新莊區"
"238015","755-BX","2019/07/11 19:49:23","新北市樹林區八德街862-1號","121.391778333333","24.9685883333333","6500700","樹林區"
"238023","601-UM","2019/07/11 19:49:08","新北市樹林區中正路217號","121.422921666667","25.0037166666667","6500700","樹林區"
"238019","599-UM","2019/07/11 19:49:12","新北市樹林區中華路188號","121.413448333333","24.9803416666667","6500700","樹林區"
"238024","5061-A6","2019/07/11 19:49:22","新北市樹林區中山路三段204號","121.387088333333","24.9684316666667","6500700","樹林區"
"238021","KEA-2539","2019/07/11 19:49:23","新北市樹林區佳園路三段101巷80弄12號","121.394045","24.9495466666667","6500700","樹林區"
"238025","303-VK","2019/07/11 19:49:20","新北市樹林區中山路三段214號","121.380396666667","24.9679883333333","6500700","樹林區"
"238017","283-BY","2019/07/11 19:49:23","新北市樹林區保安街二段107巷1弄2號","121.415135","25.000775","6500700","樹林區"
"238014","282-BY","2019/07/11 19:49:25","新北市樹林區中正路21號","121.427515","24.9991483333333","6500700","樹林區"
"238026","172-UY","2019/07/11 19:49:18","新北市樹林區佳園路二段15巷11號","121.393606666667","24.962845","6500700","樹林區"
"239006","891-R6","2019/07/11 19:49:09","新北市鶯歌區永昌街136號","121.33991","24.95034","6500800","鶯歌區"
"239005","526-UM","2019/07/11 19:49:26","新北市鶯歌區東湖路15-1號","121.355011666667","24.9718866666667","6500800","鶯歌區"
"239001","417-VK","2019/07/11 19:49:11","新北市樹林區中山路三段210-2號","121.38073","24.96672","6500800","鶯歌區"
"239002","359-BY","2019/07/11 19:49:23","新北市鶯歌區湖山路30巷2號","121.340323333333","24.9742416666667","6500800","鶯歌區"
"221008","489-VK","2019/07/11 19:49:19","新北市汐止區康寧街61巷22弄7號","121.619666666667","25.0669583333333","6501100","汐止區"
"221010","269-BY","2019/07/11 19:49:18","新北市汐止區汐萬路二段23巷1號","121.649496666667","25.0807766666667","6501100","汐止區"
"221012","278-VK","2019/07/11 19:49:16","新北市汐止區茄安路231號","121.678735","25.0706533333333","6501100","汐止區"
"221023","279-VK","2019/07/11 19:49:16","新北市汐止區明峰街190號","121.628103333333","25.0697683333333","6501100","汐止區"
"221027","281-BY","2019/07/11 19:49:23","新北市汐止區水碓街2號","121.663738333333","25.06983","6501100","汐止區"
"221021","299-VK","2019/07/11 19:49:21","新北市汐止區復興路58巷11弄10號","121.656273333333","25.06167","6501100","汐止區"
"221031","353-TW","2019/07/11 19:49:23","新北市汐止區伯爵街2巷25號","121.642903333333","25.0755933333333","6501100","汐止區"
"221025","623-UM","2019/07/11 19:49:16","新北市汐止區秀峰路81巷15弄13號","121.660921666667","25.06479","6501100","汐止區"
"221038","646-BX","2019/07/11 19:49:06","新北市汐止區忠孝東路357號","121.6656","25.0706666666667","6501100","汐止區"
"220079","145-BY","2019/07/11 19:49:09","新北市板橋區民權路202巷32號","121.460685","25.0174333333333","6500100","板橋區"
"220080","200-UY","2019/07/11 19:49:16","新北市板橋區大觀路二段37巷340號","121.45027","25.00233","6500100","板橋區"
"220082","610-BX","2019/07/11 19:49:08","新北市板橋區溪崑一街43號","121.430205","24.9911183333333","6500100","板橋區"
"220101","245-BX","2019/07/11 19:49:25","新北市板橋區莒光路180巷4號","121.473828333333","25.0228966666667","6500100","板橋區"
"224002","257-TC","2019/07/11 19:49:17","新北市瑞芳區三爪子坑路13巷281-16號","121.815233333333","25.1062083333333","6501200","瑞芳區"
"220056","276-BY","2019/07/11 19:49:11","新北市板橋區信義路1巷4號","121.45733","24.9970183333333","6500100","板橋區"
"220072","277-BY","2019/07/11 19:49:14","新北市板橋區金門街215號","121.432541666667","24.989965","6500100","板橋區"
"220094","283-UM","2019/07/11 19:49:16","新北市板橋區雨農路10號","121.462153333333","25.0250083333333","6500100","板橋區"
"220071","283-VK","2019/07/11 19:49:13","新北市板橋區和平路174巷12號","121.464171666667","24.9949866666667","6500100","板橋區"
"220053","285-VK","2019/07/11 19:49:14","新北市板橋區中山路二段90巷30號","121.475758333333","25.0155033333333","6500100","板橋區"
"220083","286-VK","2019/07/11 19:49:23","新北市板橋區大觀路二段174巷137號","121.441225","25.0021083333333","6500100","板橋區"
"220081","287-VK","2019/07/11 19:49:28","新北市板橋區大觀路一段29巷179弄20號","121.44905","25.004775","6500100","板橋區"
"220090","288-VK","2019/07/11 19:49:14","新北市板橋區漢生西路159號","121.462978333333","25.0235083333333","6500100","板橋區"
"220061","295-UM","2019/07/11 19:49:08","新北市板橋區板新路128號","121.471011666667","25.01578","6500100","板橋區"
"220084","296-UM","2019/07/11 19:49:25","新北市板橋區滿平二街2巷1弄6號","121.425143333333","24.98634","6500100","板橋區"
"220075","303-R5","2019/07/11 19:49:11","新北市板橋區大勇街12巷8號","121.45353","25.016915","6500100","板橋區"
"220062","305-R5","2019/07/11 19:49:19","新北市板橋區中山路二段416巷56號","121.483048333333","25.0191433333333","6500100","板橋區"
"220092","307-R5","2019/07/11 19:49:20","新北市板橋區幸福路32巷38號","121.460646666667","25.02172","6500100","板橋區"
"220088","491-VK","2019/07/11 19:49:19","新北市板橋區懷德街189號","121.479786666667","25.0296166666667","6500100","板橋區"
"220035","560-BX","2019/07/11 19:49:18","新北市板橋區金華街85巷42號","121.459218333333","25.0214216666667","6500100","板橋區"
"220103","561-BX","2019/07/11 19:49:26","新北市板橋區英士路58巷3號","121.46074","25.0250616666667","6500100","板橋區"
"220063","609-BX","2019/07/11 19:49:26","新北市板橋區三民路一段35號","121.47944","25.0229066666667","6500100","板橋區"
"220074","630-UY","2019/07/11 19:49:08","新北市板橋區館前西路137號","121.456461666667","25.0077733333333","6500100","板橋區"
"220091","637-BX","2019/07/11 19:49:15","新北市板橋區懷德街127巷23弄31號","121.480258333333","25.0322066666667","6500100","板橋區"
"220057","686-BX","2019/07/11 19:49:26","新北市板橋區四川路二段47巷4弄17號","121.453451666667","24.9943533333333","6500100","板橋區"
"220077","687-BX","2019/07/11 19:49:19","新北市板橋區僑中二街124巷2號","121.445556666667","25.0056116666667","6500100","板橋區"
"220093","689-BX","2019/07/11 19:49:17","新北市板橋區文化路二段604號","121.477143333333","25.03498","6500100","板橋區"
"220054","741-BX","2019/07/11 19:49:22","新北市板橋區實踐路93巷40號","121.465566666667","25.0050616666667","6500100","板橋區"
"220102","KEA-2699","2019/07/11 19:49:09","新北市板橋區松柏街19號","121.474611666667","25.02988","6500100","板橋區"
"220055","827-TW","2019/07/11 19:49:08","新北市板橋區國慶路149巷29弄15號","121.460211666667","24.9975716666667","6500100","板橋區"
"220067","829-TW","2019/07/11 19:49:28","新北市板橋區長安街140號","121.47275","25.0100016666667","6500100","板橋區"
"220073","985-R7","2019/07/11 19:49:12","新北市板橋區國光路53號","121.458231666667","25.0178566666667","6500100","板橋區"
"220097","AAC-210","2019/07/11 19:49:13","新北市板橋區光正街43號","121.461866666667","25.0171833333333","6500100","板橋區"
"220064","AAC-253","2019/07/11 19:49:24","新北市板橋區民族路183-2號","121.468865","25.007445","6500100","板橋區"
"235068","KEA-2873","2019/07/11 19:49:11","新北市中和區福美路269號","121.498105","25.005","6500300","中和區"
