"lineid","car","time","location","longitude","latitude","cityid","cityname"
"234081","298-R6","2019/07/11 20:19:26","新北市永和區國中路109巷5弄1號","121.523718333333","25.0052933333333","6500400","永和區"
"234038","336-UY","2019/07/11 20:19:11","新北市永和區成功路一段93巷9號","121.52736","25.0027333333333","6500400","永和區"
"234064","337-UY","2019/07/11 20:19:23","新北市永和區得和路120號","121.518663333333","25.0000483333333","6500400","永和區"
"234086","338-UY","2019/07/11 20:19:16","新北市永和區永和路二段190號","121.515476666667","25.013545","6500400","永和區"
"234070","552-UM","2019/07/11 20:19:16","新北市永和區福和路263巷7弄1號","121.517971666667","25.0069283333333","6500400","永和區"
"234017","745-BX","2019/07/11 20:19:26","新北市永和區仁愛路46號","121.51411","25.0134033333333","6500400","永和區"
"234030","746-BX","2019/07/11 20:19:23","新北市永和區民有街25巷6號","121.51736","24.9963166666667","6500400","永和區"
"234054","KEA-2590","2019/07/11 20:19:22","新北市永和區光復街2巷26弄1號","121.51764","25.0165616666667","6500400","永和區"
"234013","KEA-2591","2019/07/11 20:19:20","新北市永和區中山路一段236號","121.507298333333","25.0074516666667","6500400","永和區"
"234061","AAD-866","2019/07/11 20:19:12","新北市永和區得和路9號","121.51512","25.00067","6500400","永和區"
"234042","862-TW","2019/07/11 20:19:23","新北市中和區中安街168號","121.510836666667","24.9998966666667","6500400","永和區"
"234050","863-TW","2019/07/11 20:19:17","新北市永和區文化路187號","121.509698333333","25.017015","6500400","永和區"
"234011","9373-KE","2019/07/11 20:19:11","新北市永和區保生路55-1號","121.50452","25.010875","6500400","永和區"
"249005","172-UM","2019/07/11 20:19:17","新北市八里區下罟子2-13號","121.388403333333","25.1412783333333","6502300","八里區"
"249001","173-UM","2019/07/11 20:19:09","新北市八里區中華路二段538-1號","121.39907","25.144985","6502300","八里區"
"249002","305-UY","2019/07/11 20:19:25","新北市八里區龍米路一段77-3號","121.454506666667","25.1234533333333","6502300","八里區"
"249003","593-UM","2019/07/11 20:19:16","新北市八里區訊埔路12號","121.397586666667","25.145575","6502300","八里區"
"249004","759-BX","2019/07/11 20:19:20","新北市八里區中山路一段332號","121.412681666667","25.1589983333333","6502300","八里區"
"248016","026-BX","2019/07/11 20:19:19","新北市五股區凌雲路一段158巷39弄10號","121.4466","25.10395","6501500","五股區"
"248011","247-BX","2019/07/11 20:19:09","新北市五股區民義路一段112-9號","121.43509","25.0854","6501500","五股區"
"248010","272-BY","2019/07/11 20:19:08","新北市五股區新五路二段24號","121.438018333333","25.06535","6501500","五股區"
"248002","678-BX","2019/07/11 20:19:06","新北市五股區成泰路三段173號","121.445318333333","25.0919466666667","6501500","五股區"
"234023","9380-KE","2019/07/11 20:19:22","新北市永和區勵行街31號","121.51641","25.01389","6500400","永和區"
"234077","969-R7","2019/07/11 20:19:23","新北市永和區民享街2巷1號","121.514858333333","24.9956933333333","6500400","永和區"
"234074","AAC-211","2019/07/11 20:19:09","新北市永和區豫溪街160巷2-1號","121.52304","25.009445","6500400","永和區"
"234067","AAC-212","2019/07/11 20:19:11","新北市永和區保平路236巷1弄16號","121.50845","25.00544","6500400","永和區"
"234003","AAC-295","2019/07/11 20:19:25","新北市永和區自強街6巷1弄2號","121.514416666667","25.00785","6500400","永和區"
"243012","AAD-798","2019/07/11 20:19:10","新北市泰山區中港西路136-巷91-18號","121.440535","25.0654466666667","6501600","泰山區"
"243010","297-R6","2019/07/11 20:19:27","新北市泰山區明志路二段254號","121.426833333333","25.0475666666667","6501600","泰山區"
"243014","KEA-2801","2019/07/11 20:19:26","新北市泰山區明志路一段189號","121.433028333333","25.06189","6501600","泰山區"
"243016","421-VK","2019/07/11 20:19:14","新北市泰山區明志路二段418號","121.425031666667","25.043905","6501600","泰山區"
"243009","KEA-2215","2019/07/11 20:19:17","新北市泰山區泰林路二段117號","121.434281666667","25.05941","6501600","泰山區"
"243011","KEA-2216","2019/07/11 20:19:07","新北市新莊區壽山路160巷21號","121.417408333333","25.03184","6501600","泰山區"
"243013","646-TV","2019/07/11 20:19:19","新北市泰山區民國街56號","121.425948333333","25.0437833333333","6501600","泰山區"
"243015","680-BX","2019/07/11 20:19:16","新北市泰山區明志路一段312號","121.431663333333","25.059505","6501600","泰山區"
"222002","016-RS","2019/07/11 20:19:07","新北市深坑區萬福路75巷8-1號","121.600041666667","25.0095583333333","6501800","深坑區"
"222003","436-BY","2019/07/11 20:19:12","新北市深坑區文化街43號","121.617581666667","25.0018516666667","6501800","深坑區"
"231061","002-UM","2019/07/11 20:19:11","新北市新店區安興路33-1號","121.515823333333","24.9704066666667","6500600","新店區"
"231058","0293-UT","2019/07/11 20:19:22","新北市新店區薏仁坑路自強巷6號","121.496475","24.9584183333333","6500600","新店區"
"231044","046-UY","2019/07/11 20:19:27","新北市新店區北新路三段148號","121.54155","24.98241","6500600","新店區"
"231060","106-UY","2019/07/11 20:19:08","新北市新店區安康路三段578-1號","121.481028333333","24.9487566666667","6500600","新店區"
"231051","107-UY","2019/07/11 20:19:16","新北市新店區中央六街80號","121.526846666667","24.9764633333333","6500600","新店區"
"231049","108-UY","2019/07/11 20:19:15","新北市新店區北新路二段97巷9弄25號","121.542481666667","24.9735083333333","6500600","新店區"
"231065","110-UY","2019/07/11 20:19:18","新北市新店區安祥路104巷6弄24號","121.482328333333","24.962355","6500600","新店區"
"231068","187-VK","2019/07/11 20:19:19","新北市新店區寶安街31號","121.541963333333","24.9823466666667","6500600","新店區"
"231050","KEA-2219","2019/07/11 20:19:11","新北市新店區博愛街6巷2號","121.540968333333","24.9731283333333","6500600","新店區"
"221035","KEA-2785","2019/07/11 20:19:28","新北市汐止區長江街57巷26號","121.656208333333","25.07242","6501100","汐止區"
"231062","256-BX","2019/07/11 20:19:08","新北市新店區安康路二段341巷3號","121.49724","24.955395","6500600","新店區"
"231054","260-TV","2019/07/11 20:19:22","新北市新店區檳榔路109號","121.544458333333","24.9615883333333","6500600","新店區"
"231042","268-BY","2019/07/11 20:19:08","新北市新店區寶橋路78巷19號","121.547373333333","24.9747583333333","6500600","新店區"
"231064","278-BY","2019/07/11 20:19:20","新北市新店區安和路二段220號","121.518518333333","24.9765516666667","6500600","新店區"
"231045","355-BY","2019/07/11 20:19:09","新北市新店區中興路一段94號","121.540045","24.960495","6500600","新店區"
"231055","4716-K9","2019/07/11 20:19:11","新北市新店區北新路一段297巷18號","121.540876666667","24.9678583333333","6500600","新店區"
"231056","4715-K9","2019/07/11 20:19:18","新北市新店區中正路304號","121.537478333333","24.9745366666667","6500600","新店區"
"231067","4772-VM","2019/07/11 20:19:14","新北市新店區安康路一段323-3號","121.5214","24.96382","6500600","新店區"
"231052","513-UM","2019/07/11 20:19:12","新北市新店區新烏路二段351號","121.550403333333","24.9104283333333","6500600","新店區"
"231041","619-UM","2019/07/11 20:19:20","新北市新店區民權路70號","121.538235","24.98307","6500600","新店區"
"231063","641-BX","2019/07/11 20:19:06","新北市新店區車子路2-1號","121.504631666667","24.9565416666667","6500600","新店區"
"231047","KED-0819","2019/07/11 20:19:07","新北市新店區北新路二段230-7號","121.543953333333","24.977165","6500600","新店區"
"231057","720-UM","2019/07/11 20:19:20","新北市新店區花園十二路1號","121.554848333333","24.9347433333333","6500600","新店區"
"231059","897-TW","2019/07/11 20:19:07","新北市新店區安德街62號","121.510671666667","24.962015","6500600","新店區"
"231040","898-TW","2019/07/11 20:19:27","新北市新店區中正路106號","121.543138333333","24.9706516666667","6500600","新店區"
"231043","899-TW","2019/07/11 20:19:23","新北市新店區建國路133號","121.539298333333","24.9782233333333","6500600","新店區"
"231066","AKT-0513","2019/07/11 20:19:20","新北市新店區柴埕路29號","121.513945","24.9657733333333","6500600","新店區"
"241011","013-R5","2019/07/11 20:19:11","新北市三重區龍門路244號","121.50082","25.0737516666667","6500200","三重區"
"241028","022-UY","2019/07/11 20:19:23","新北市三重區大同南路95號","121.496208333333","25.058855","6500200","三重區"
"241008","059-VK","2019/07/11 20:19:14","新北市三重區永福街156號","121.480431666667","25.0745166666667","6500200","三重區"
"241029","060-VK","2019/07/11 20:19:09","新北市三重區重安街98號","121.492683333333","25.056175","6500200","三重區"
"241031","061-VK","2019/07/11 20:19:17","新北市三重區三寧街15號","121.489483333333","25.0598133333333","6500200","三重區"
"241015","062-VK","2019/07/11 20:19:16","新北市三重區重新路一段148號","121.500461666667","25.0628333333333","6500200","三重區"
"241017","063-VK","2019/07/11 20:19:14","新北市三重區長壽西街125號","121.493616666667","25.0665516666667","6500200","三重區"
"241024","065-VK","2019/07/11 20:19:13","新北市三重區中正北路274號","121.480863333333","25.0684816666667","6500200","三重區"
"241023","066-VK","2019/07/11 20:19:19","新北市三重區忠孝路三段84巷1號","121.48037","25.0647516666667","6500200","三重區"
"241002","090-VK","2019/07/11 20:19:15","新北市三重區仁義街101巷40號","121.499126666667","25.0807383333333","6500200","三重區"
"241003","091-VK","2019/07/11 20:19:27","新北市三重區仁愛街476號","121.489593333333","25.0823883333333","6500200","三重區"
"241030","742-BX","2019/07/11 20:12:40","新北市三重區集美街166巷3號","121.490151666667","25.0533766666667","6500200","三重區"
"241016","266-UM","2019/07/11 20:19:18","新北市三重區大同北路54巷5號","121.494011666667","25.063365","6500200","三重區"
"241009","267-UM","2019/07/11 20:19:22","新北市三重區三和路四段382巷46弄1號","121.48099","25.0783416666667","6500200","三重區"
"241018","268-UM","2019/07/11 20:19:08","新北市三重區正義北路195號","121.496171666667","25.0683483333333","6500200","三重區"
"241032","269-UM","2019/07/11 20:19:09","新北市三重區捷運路19巷6弄14號","121.484566666667","25.05673","6500200","三重區"
"241013","270-UM","2019/07/11 20:19:29","新北市三重區三和路三段167巷2號","121.491971666667","25.0741066666667","6500200","三重區"
"241025","271-UM","2019/07/11 20:19:19","新北市三重區頂崁街201巷1號","121.477326666667","25.066975","6500200","三重區"
"241007","398-BY","2019/07/11 20:19:23","新北市三重區仁美街54號","121.486921666667","25.0779833333333","6500200","三重區"
"241035","462-BY","2019/07/11 20:19:24","新北市三重區正義北路33巷52號","121.499125","25.0639566666667","6500200","三重區"
"241004","475-VK","2019/07/11 20:19:11","新北市三重區慈愛街201號","121.490933333333","25.0807166666667","6500200","三重區"
"241020","478-VK","2019/07/11 20:19:15","新北市三重區三和路三段170巷9號","121.492223333333","25.0730166666667","6500200","三重區"
"241026","480-VK","2019/07/11 20:19:09","新北市三重區中央南路111號","121.501466666667","25.0600883333333","6500200","三重區"
"241014","543-UM","2019/07/11 20:19:22","新北市三重區河邊北街96-1號","121.504053333333","25.069975","6500200","三重區"
"241001","547-UM","2019/07/11 20:19:15","新北市三重區三和路四段89巷18號","121.489763333333","25.076065","6500200","三重區"
"241006","AAD-863","2019/07/11 20:19:13","新北市三重區車路頭街135-1號","121.484281666667","25.07616","6500200","三重區"
"241019","743-BX","2019/07/11 20:19:27","新北市三重區忠孝路一段31號","121.491618333333","25.0719716666667","6500200","三重區"
"241022","KED-0820","2019/07/11 20:19:25","新北市三重區新北大道一段48號","121.487813333333","25.0614283333333","6500200","三重區"
"241012","941-UM","2019/07/11 20:19:23","新北市三重區河邊北街379-1號","121.50174","25.07643","6500200","三重區"
"241033","AAC-255","2019/07/11 20:19:09","新北市三重區五谷王北街50巷34號","121.475275","25.0513683333333","6500200","三重區"
"235066","003-UY","2019/07/11 20:19:20","新北市中和區光華街59-1號","121.506415","25.0034083333333","6500300","中和區"
"235039","097-UM","2019/07/11 20:19:17","新北市中和區大勇街27巷24號","121.516288333333","24.9941166666667","6500300","中和區"
"235065","098-UM","2019/07/11 20:19:28","新北市中和區永和路128巷47號","121.497673333333","25.0068766666667","6500300","中和區"
"235040","150-BY","2019/07/11 20:19:10","新北市中和區安和路31號","121.510276666667","24.9944816666667","6500300","中和區"
"235055","183-VK","2019/07/11 20:19:16","新北市八里區荖阡坑路16-8號","121.398616666667","25.1389733333333","6500300","中和區"
"247014","KEA-2869","2019/07/11 20:19:20","新北市蘆洲區中山二路141號","121.471755","25.081525","6501400","蘆洲區"
"247008","KED-0682","2019/07/11 20:19:06","新北市蘆洲區集賢路300號","121.4816","25.0852133333333","6501400","蘆洲區"
"235050","4979-A6","2019/07/11 20:19:09","新北市中和區景平路221巷10號","121.51014","24.9923083333333","6500300","中和區"
"235069","4980-A6","2019/07/11 20:19:17","新北市中和區圓通路198巷2號","121.496186666667","24.9945183333333","6500300","中和區"
"235059","AAC-215","2019/07/11 20:19:12","新北市中和區圓通路367巷7號","121.492241666667","24.9880533333333","6500300","中和區"
"220065","072-UY","2019/07/11 20:19:21","新北市板橋區三民路一段1巷58號","121.480826666667","25.0246866666667","6500100","板橋區"
"247004","893-R6","2019/07/11 20:19:23","新北市蘆洲區長榮路269巷32號","121.459476666667","25.0858633333333","6501400","蘆洲區"
"247024","337-TH","2019/07/11 20:19:12","新北市蘆洲區光榮路120巷8弄41號","121.464538333333","25.0878983333333","6501400","蘆洲區"
"247002","336-TH","2019/07/11 20:19:26","新北市蘆洲區長安街331巷34號","121.455916666667","25.0867433333333","6501400","蘆洲區"
"247022","057-VK","2019/07/11 20:19:17","新北市蘆洲區民族路538號","121.468036666667","25.0892066666667","6501400","蘆洲區"
"247012","056-VK","2019/07/11 20:19:07","新北市蘆洲區中興街17號","121.480611666667","25.08704","6501400","蘆洲區"
"247016","053-VK","2019/07/11 20:19:16","新北市蘆洲區光華路132巷41號","121.465861666667","25.0838666666667","6501400","蘆洲區"
"247006","002-UY","2019/07/11 20:19:18","新北市蘆洲區九芎街153巷5號","121.465443333333","25.078875","6501400","蘆洲區"
"222001","KEA-2212","2019/07/11 20:19:10","新北市深坑區北深路三段253號","121.59918","25.00438","6501800","深坑區"
"251005","010-UM","2019/07/11 20:19:16","新北市淡水區淡金路二段393號","121.446978333333","25.1863416666667","6501000","淡水區"
"251001","011-UM","2019/07/11 20:19:13","新北市淡水區淡金路二段15號","121.44638","25.1890983333333","6501000","淡水區"
"251015","KEA-2871","2019/07/11 20:19:07","新北市淡水區埤島80-2號","121.449458333333","25.189495","6501000","淡水區"
"251016","179-VK","2019/07/11 20:19:11","新北市淡水區番子田43號","121.459453333333","25.2292733333333","6501000","淡水區"
"251008","181-VK","2019/07/11 20:19:09","新北市淡水區淡海路180巷22號","121.421538333333","25.1845216666667","6501000","淡水區"
"251013","182-VK","2019/07/11 20:19:19","新北市淡水區相公山1-3號","121.474133333333","25.206695","6501000","淡水區"
"251010","413-VK","2019/07/11 20:19:05","新北市淡水區新民街一段155號","121.427471666667","25.188885","6501000","淡水區"
"251012","441-VK","2019/07/11 20:19:10","新北市淡水區下圭柔山431-1號","121.449841666667","25.2102016666667","6501000","淡水區"
"251006","561-UM","2019/07/11 20:19:26","新北市淡水區北新路169巷69弄22號","121.44768","25.179995","6501000","淡水區"
"251009","575-R6","2019/07/11 20:19:11","新北市淡水區清水街56巷1號","121.444168333333","25.170305","6501000","淡水區"
"251014","577-R6","2019/07/11 20:19:21","新北市淡水區石頭厝2-1號","121.458103333333","25.2357683333333","6501000","淡水區"
"251002","672-BX","2019/07/11 20:19:19","新北市淡水區中正路143號","121.438991666667","25.170695","6501000","淡水區"
"251003","673-BX","2019/07/11 20:19:12","新北市淡水區中山北路一段229號","121.44445","25.1795016666667","6501000","淡水區"
"207003","550-UM","2019/07/11 20:19:08","新北市萬里區野柳里八斗60號","121.667201666667","25.204055","6502800","萬里區"
"207004","225-TW","2019/07/11 20:19:21","新北市萬里區北基里仁七街2號","121.681166666667","25.17497","6502800","萬里區"
"252002","178-VK","2019/07/11 20:19:12","新北市三芝區中正路一段23號","121.502948333333","25.2585733333333","6502100","三芝區"
"237006","5529-G3","2019/07/11 20:19:08","新北市三峽區中正路二段41號","121.36672","24.9187183333333","6500900","三峽區"
"236030","253-BX","2019/07/11 20:19:24","新北市土城區中央路一段45巷2弄1號","121.448468333333","24.990215","6501300","土城區"
"236026","269-VK","2019/07/11 20:19:15","新北市土城區裕生路67巷16號","121.448538333333","24.9841266666667","6501300","土城區"
"247010","KED-0683","2019/07/11 20:19:21","新北市蘆洲區信義路222巷32弄16號","121.480466666667","25.0846766666667","6501400","蘆洲區"
"236070","KEA-2877","2019/07/11 20:19:23","新北市土城區亞洲路59號","121.433196666667","24.97087","6501300","土城區"
"252001","KED-0821","2019/07/11 20:19:10","新北市三芝區中山路一段14號","121.500633333333","25.2580766666667","6502100","三芝區"
"236014","752-BX","2019/07/11 20:16:01","新北市土城區廣明街90巷23號","121.455461666667","24.9945983333333","6501300","土城區"
"236059","912-UM","2019/07/11 20:19:26","新北市土城區中央路三段130-2號","121.434616666667","24.9658983333333","6501300","土城區"
"236049","913-UM","2019/07/11 20:19:23","新北市土城區中正路75號","121.444821666667","24.9756283333333","6501300","土城區"
"242039","AAC-296","2019/07/11 20:19:08","新北市新莊區成功街62號","121.424421666667","25.0194866666667","6500500","新莊區"
"242061","986-R7","2019/07/11 20:19:13","新北市新莊區新樹路234巷12號","121.432105","25.019625","6500500","新莊區"
"242002","751-BX","2019/07/11 20:19:06","新北市新莊區化成路33號","121.46521","25.0440083333333","6500500","新莊區"
"242029","615-BX","2019/07/11 20:19:20","新北市新莊區中原路112號","121.450508333333","25.0543933333333","6500500","新莊區"
"242027","613-BX","2019/07/11 20:19:24","新北市新莊區中和街174號","121.447448333333","25.0492416666667","6500500","新莊區"
"242058","612-BX","2019/07/11 20:19:17","新北市新莊區龍安路278巷14號","121.421955","25.018715","6500500","新莊區"
"242046","566-BX","2019/07/11 20:19:06","新北市新莊區裕民街110號","121.418231666667","25.0229833333333","6500500","新莊區"
"242051","497-BY","2019/07/11 20:19:22","新北市新莊區民安西路240號","121.42587","25.01421","6500500","新莊區"
"242056","441-UM","2019/07/11 20:19:21","新北市新莊區新莊路649巷13弄2號","121.445001666667","25.03189","6500500","新莊區"
"242004","440-UM","2019/07/11 20:19:15","新北市新莊區頭前路2巷6號","121.468556666667","25.0529066666667","6500500","新莊區"
"242042","415-TV","2019/07/11 20:19:09","新北市新莊區壽山路45號","121.414805","25.031035","6500500","新莊區"
"242048","400-BY","2019/07/11 20:19:19","新北市新莊區萬安街165巷34號","121.421181666667","25.0206866666667","6500500","新莊區"
"242025","362-BY","2019/07/11 20:19:27","新北市新莊區五工三路68號","121.459261666667","25.0646866666667","6500500","新莊區"
"242023","353-BY","2019/07/11 20:19:20","新北市新莊區化成路337號","121.465846666667","25.0561733333333","6500500","新莊區"
"242013","132-UY","2019/07/11 20:19:09","新北市新莊區幸福路690號","121.450285","25.0493983333333","6500500","新莊區"
"242036","135-UY","2019/07/11 20:19:09","新北市新莊區建安街76巷1弄2號","121.426355","25.0246766666667","6500500","新莊區"
"242053","172-VK","2019/07/11 20:19:19","新北市新莊區民安西路261巷20號","121.426881666667","25.0129133333333","6500500","新莊區"
"242021","175-VK","2019/07/11 20:19:09","新北市新莊區和興街49號","121.446515","25.0406433333333","6500500","新莊區"
"242011","176-VK","2019/07/11 20:19:28","新北市新莊區幸福路670巷14弄1號","121.451063333333","25.0504","6500500","新莊區"
"242019","KED-0687","2019/07/11 20:19:14","新北市新莊區博愛路9巷1號","121.455993333333","25.044","6500500","新莊區"
"242044","347-TH","2019/07/11 20:19:24","新北市新莊區中正路新建巷28弄71號","121.41366","25.021","6500500","新莊區"
"242034","348-TH","2019/07/11 20:19:17","新北市新莊區建中街116巷3弄19號","121.445101666667","25.03708","6500500","新莊區"
"242007","349-TH","2019/07/11 20:19:18","新北市新莊區福壽街124巷34弄5號","121.459373333333","25.0511116666667","6500500","新莊區"
"242031","350-TH","2019/07/11 20:19:19","新北市新莊區義豐街29號","121.441166666667","25.0353","6500500","新莊區"
"242017","351-TH","2019/07/11 20:19:21","新北市新莊區中港一街70號","121.449851666667","25.0454883333333","6500500","新莊區"
"221008","489-VK","2019/07/11 20:19:19","新北市汐止區忠三街9巷34號","121.624098333333","25.0803316666667","6501100","汐止區"
"221036","130-UY","2019/07/11 20:19:23","新北市汐止區福安街59巷3號","121.664198333333","25.0637","6501100","汐止區"
"221015","131-UY","2019/07/11 20:19:12","新北市汐止區建成路160巷16號","121.661858333333","25.0739833333333","6501100","汐止區"
"221010","269-BY","2019/07/11 20:19:18","新北市汐止區八連路一段206號","121.642348333333","25.0809583333333","6501100","汐止區"
"221012","278-VK","2019/07/11 20:19:16","新北市汐止區汐平路一段45-1號","121.681998333333","25.0706566666667","6501100","汐止區"
"221023","279-VK","2019/07/11 20:19:16","新北市汐止區明峰街298巷10弄1號","121.625001666667","25.0688416666667","6501100","汐止區"
"221032","280-BY","2019/07/11 20:19:07","新北市汐止區弘道街53巷2號","121.618641666667","25.0483866666667","6501100","汐止區"
"221033","297-VK","2019/07/11 20:19:19","新北市汐止區東勢街201巷36號","121.634978333333","25.0435866666667","6501100","汐止區"
"221029","298-VK","2019/07/11 20:19:26","新北市汐止區樟樹一路99巷7弄5號","121.64121","25.06348","6501100","汐止區"
"221021","299-VK","2019/07/11 20:19:21","新北市汐止區水源路一段284號","121.654125","25.0582766666667","6501100","汐止區"
"221031","353-TW","2019/07/11 20:19:23","新北市汐止區原興路73巷1號","121.632093333333","25.0660833333333","6501100","汐止區"
"221025","623-UM","2019/07/11 20:19:16","新北市汐止區水源路二段34號","121.654963333333","25.057165","6501100","汐止區"
"221038","646-BX","2019/07/11 20:19:08","新北市汐止區忠孝東路462巷25號","121.666371666667","25.0734566666667","6501100","汐止區"
"221002","707-TV","2019/07/11 20:19:25","新北市汐止區福德一路86巷18號","121.637366666667","25.0692716666667","6501100","汐止區"
"221018","753-BX","2019/07/11 20:19:14","新北市汐止區茄安路1號","121.672578333333","25.067855","6501100","汐止區"
"220101","245-BX","2019/07/11 20:19:25","新北市五股區新城三路61號","121.449376666667","25.0942966666667","6500100","板橋區"
"224002","257-TC","2019/07/11 20:19:14","新北市瑞芳區蛇子形路3-5號","121.824193333333","25.1033266666667","6501200","瑞芳區"
"220083","286-VK","2019/07/11 20:19:23","新北市板橋區僑中二街86號","121.44652","25.009515","6500100","板橋區"
"220081","287-VK","2019/07/11 20:19:08","新北市板橋區僑中一街124巷18弄45號","121.448041666667","25.0135883333333","6500100","板橋區"
"220061","295-UM","2019/07/11 20:19:08","新北市板橋區四川路一段318號","121.458411666667","25.0001533333333","6500100","板橋區"
"242009","280-VK","2019/07/11 20:19:15","新北市新莊區昌隆街31號","121.45495","25.051225","6500500","新莊區"
"220035","560-BX","2019/07/11 20:19:18","新北市板橋區新生街37號","121.456708333333","25.02115","6500100","板橋區"
"220074","630-UY","2019/07/11 20:19:08","新北市板橋區南門街73號","121.457006666667","25.0080616666667","6500100","板橋區"
"220055","827-TW","2019/07/11 20:19:08","新北市板橋區重慶路290巷3號","121.461476666667","24.998695","6500100","板橋區"
"235068","KEA-2873","2019/07/11 20:19:11","新北市中和區勝利路35巷22號","121.499055","25.0070583333333","6500300","中和區"
