"lineid","car","time","location","longitude","latitude","cityid","cityname"
"251004","009-UM","2019/07/11 21:49:25","新北市淡水區自強路201巷39號","121.462266666667","25.1267716666667","6501000","淡水區"
"251005","010-UM","2019/07/11 21:49:15","新北市淡水區鄧公路30巷2弄3號","121.452621666667","25.1693533333333","6501000","淡水區"
"251001","011-UM","2019/07/11 21:49:13","新北市淡水區新市二路三段152號","121.435468333333","25.19486","6501000","淡水區"
"251008","181-VK","2019/07/11 21:49:09","新北市淡水區學府路88號","121.449195","25.170945","6501000","淡水區"
"251010","413-VK","2019/07/11 21:49:25","新北市淡水區中正路二段206號","121.42628","25.189035","6501000","淡水區"
"251012","441-VK","2019/07/11 21:49:10","新北市淡水區淡金路三段254號","121.448975","25.2063066666667","6501000","淡水區"
"251007","442-VK","2019/07/11 21:49:10","新北市淡水區水源街二段177巷77號","121.452373333333","25.1768733333333","6501000","淡水區"
"251006","561-UM","2019/07/11 21:42:11","新北市淡水區中正路11巷3號","121.437785","25.170765","6501000","淡水區"
"251011","650-BX","2019/07/11 21:49:21","新北市淡水區新民街322巷3弄2號","121.436173333333","25.1831666666667","6501000","淡水區"
"251002","672-BX","2019/07/11 21:49:19","新北市淡水區大忠街117號","121.447156666667","25.1771916666667","6501000","淡水區"
"251003","673-BX","2019/07/11 21:49:12","新北市淡水區新春街94號","121.438963333333","25.1824683333333","6501000","淡水區"
"242027","613-BX","2019/07/11 21:49:23","新北市五股區新五路二段130-1號","121.438135","25.0781966666667","6500500","新莊區"
