"lineid","car","time","location","longitude","latitude","cityid","cityname"
"251004","009-UM","2019/07/11 22:09:25","新北市淡水區民族路33號","121.462321666667","25.1358783333333","6501000","淡水區"
"251005","010-UM","2019/07/11 22:09:15","新北市淡水區鄧公路19號","121.451383333333","25.1700516666667","6501000","淡水區"
"251008","181-VK","2019/07/11 22:09:09","新北市淡水區學府路104號","121.449823333333","25.171745","6501000","淡水區"
"251010","413-VK","2019/07/11 22:09:24","新北市淡水區沙崙路200號","121.424615","25.1838716666667","6501000","淡水區"
"251006","561-UM","2019/07/11 21:42:11","新北市淡水區中正路11巷3號","121.437785","25.170765","6501000","淡水區"
"251011","650-BX","2019/07/11 22:09:21","新北市淡水區水碓街7號","121.443161666667","25.1771716666667","6501000","淡水區"
"220021","259-TC","2019/07/11 21:52:23","新北市板橋區大觀路268號","121.447533333333","24.99702","6500100","板橋區"
