"lineid","car","time","location","longitude","latitude","cityid","cityname"
"244001","658-BX","2019/08/10 09:39:47","新北市林口區後坑1-1號","121.357603333333","25.1322333333333","6501700","林口區"
"222007","289-BY","2019/08/10 09:39:47","新北市深坑區阿柔洋63-2號","121.607025","24.9954983333333","6501800","深坑區"
"231008","192-VK","2019/08/10 09:37:00","新北市新店區平廣路一段273號","121.505745","24.8866166666667","6500600","新店區"
"223004","437-BY","2019/08/10 09:39:51","新北市石碇區碇坪路二段19號","121.681835","24.9758866666667","6501900","石碇區"
"223001","592-UM","2019/08/10 09:39:45","新北市石碇區北宜路四段6號","121.613286666667","24.9595433333333","6501900","石碇區"
"227004","282-VK","2019/08/10 09:39:48","新北市雙溪區長源里內柑腳16號","121.803195","25.0175266666667","6502500","雙溪區"
"252007","178-VK","2019/08/10 09:40:03","新北市三芝區新庄里新庄子101-8號","121.516395","25.2666733333333","6502100","三芝區"
"252004","249-BX","2019/08/10 09:39:53","新北市三芝區圓山里石曹子坑44號","121.519476666667","25.21558","6502100","三芝區"
"233003","KEA-2870","2019/08/10 09:39:51","新北市烏來區信福路171-1號","121.523611666667","24.8330783333333","6502900","烏來區"
