"lineid","car","time","location","longitude","latitude","cityid","cityname"
"244001","658-BX","2019/08/10 10:29:27","新北市林口區中山路572-1號","121.37681","25.0846","6501700","林口區"
"222007","289-BY","2019/08/10 10:28:47","新北市新店區寶高路102巷20號","121.553495","24.973305","6501800","深坑區"
"231008","192-VK","2019/08/10 10:29:18","新北市新店區松林路16巷41號","121.545506666667","24.907155","6500600","新店區"
"227004","282-VK","2019/08/10 10:29:28","新北市雙溪區外柑里外柑腳32號","121.815473333333","25.0226833333333","6502500","雙溪區"
"252007","178-VK","2019/08/10 10:29:23","新北市三芝區埔坪里埔頭坑33號","121.501551666667","25.2616433333333","6502100","三芝區"
