"lineid","car","time","location","longitude","latitude","cityid","cityname"
"234015","745-BX","2019/08/10 12:09:36","新北市永和區福和路1號","121.526408333333","25.0095783333333","6500400","永和區"
"231024","0291-UT","2019/08/10 11:48:08","新北市新店區安華路28-1號","121.519591666667","24.9608033333333","6500600","新店區"
"228005","097-TW","2019/08/10 12:09:23","新北市貢寮區福隆里興隆街100巷7號","121.936223333333","25.018145","6502600","貢寮區"
"228004","212-TW","2019/08/10 12:09:25","新北市貢寮區貢寮里貢寮街2號","121.907586666667","25.0187866666667","6502600","貢寮區"
"207002","749-BX","2019/08/10 12:09:17","新北市萬里區崁腳里內中福路14-1號","121.663075","25.1657566666667","6502800","萬里區"
