"lineid","car","time","location","longitude","latitude","cityid","cityname"
"234044","148-BY","2019/08/10 14:09:29","新北市永和區得和路415號","121.525655","24.999235","6500400","永和區"
"241031","209-UY","2019/08/10 14:09:23","新北市永和區保生路55號","121.504621666667","25.0107866666667","6500200","三重區"
"234078","298-R6","2019/08/10 14:09:37","新北市永和區國中路38號","121.524775","25.0056583333333","6500400","永和區"
"234036","336-UY","2019/08/10 14:09:25","新北市永和區成功路一段70號","121.526723333333","25.0036316666667","6500400","永和區"
"234062","337-UY","2019/08/10 14:09:36","新北市永和區林森路108號","121.522701666667","25.0035066666667","6500400","永和區"
"234084","338-UY","2019/08/10 14:09:35","新北市永和區中正路610-1號","121.517093333333","25.007255","6500400","永和區"
"234068","552-UM","2019/08/10 14:09:35","新北市永和區福和路183巷1號","121.520041666667","25.0073533333333","6500400","永和區"
"234015","745-BX","2019/08/10 14:09:16","新北市永和區仁愛路55號","121.51367","25.0132783333333","6500400","永和區"
"234028","746-BX","2019/08/10 14:09:36","新北市永和區民權路49巷5弄35號","121.521741666667","24.9979066666667","6500400","永和區"
"234052","KEA-2590","2019/08/10 14:09:18","新北市永和區博愛街20巷2號","121.517851666667","25.0157833333333","6500400","永和區"
"234005","KED-0605","2019/08/10 14:09:27","新北市永和區中和路309號","121.506765","24.9996683333333","6500400","永和區"
"234012","KEA-2591","2019/08/10 14:09:28","新北市永和區仁愛路273號","121.506016666667","25.0098966666667","6500400","永和區"
"234060","AAD-866","2019/08/10 14:09:36","新北市中和區安平路222號","121.514031666667","25.0001116666667","6500400","永和區"
"234040","862-TW","2019/08/10 14:09:38","新北市永和區雙和街35號","121.508916666667","25.002265","6500400","永和區"
"234048","863-TW","2019/08/10 14:09:29","新北市永和區環河西路二段103號","121.506416666667","25.0147166666667","6500400","永和區"
"234025","9371-KE","2019/08/10 14:09:38","新北市永和區安樂路272巷9弄7號","121.51496","25.0045516666667","6500400","永和區"
"234010","9373-KE","2019/08/10 14:09:32","新北市永和區保生路55號","121.504705","25.0106816666667","6500400","永和區"
"248017","KED-0813","2019/08/10 14:09:18","新北市五股區民義路一段255-6號","121.426071666667","25.0914233333333","6501500","五股區"
"234022","9380-KE","2019/08/10 14:09:28","新北市永和區博愛街32巷17-1號","121.518868333333","25.0152083333333","6500400","永和區"
"234076","969-R7","2019/08/10 14:09:29","新北市永和區民族街67巷6號","121.518768333333","24.9972083333333","6500400","永和區"
"234072","AAC-211","2019/08/10 14:09:40","新北市永和區竹林路201巷24弄14號","121.522685","25.0096616666667","6500400","永和區"
"234066","AAC-212","2019/08/10 14:09:21","新北市永和區保平路232號","121.509353333333","25.0054766666667","6500400","永和區"
"234001","AAC-295","2019/08/10 14:09:34","新北市永和區中正路631號","121.515505","25.0100116666667","6500400","永和區"
"253001","140-BX","2019/08/10 14:09:23","新北市石門區八甲70-1號","121.531086666667","25.2693433333333","6502200","石門區"
"231030","002-UM","2019/08/10 14:09:38","新北市新店區安民街121巷19號","121.515105","24.9685183333333","6500600","新店區"
"231024","0291-UT","2019/08/10 14:09:21","新北市新店區安和路三段4巷3號","121.520368333333","24.980855","6500600","新店區"
"231027","0293-UT","2019/08/10 14:09:26","新北市新店區北宜路一段3號","121.538431666667","24.9583933333333","6500600","新店區"
"231005","046-UY","2019/08/10 14:09:24","新北市新店區中興路三段330號","121.542061666667","24.9864233333333","6500600","新店區"
"231029","106-UY","2019/08/10 14:09:35","新北市新店區安康路二段161號","121.510131666667","24.959305","6500600","新店區"
"231018","107-UY","2019/08/10 14:09:36","新北市新店區中央路97號","121.531205","24.9750016666667","6500600","新店區"
"231013","108-UY","2019/08/10 14:09:19","新北市新店區二十張路1巷2弄6-1號","121.540115","24.98213","6500600","新店區"
"231033","256-BX","2019/08/10 14:09:37","新北市新店區太平路28巷36號","121.533246666667","24.9591833333333","6500600","新店區"
"231023","260-TV","2019/08/10 14:09:24","新北市新店區文中路40號","121.539661666667","24.9565883333333","6500600","新店區"
"231003","268-BY","2019/08/10 14:09:34","新北市新店區中興路一段168號","121.542876666667","24.9643016666667","6500600","新店區"
"231035","278-BY","2019/08/10 14:09:36","新北市新店區安和路一段52巷2號","121.517625","24.9660783333333","6500600","新店區"
"231017","AAD-862","2019/08/10 14:09:21","新北市新店區北宜路二段417號","121.560073333333","24.9544683333333","6500600","新店區"
"231006","355-BY","2019/08/10 14:09:38","新北市新店區北宜路二段207號","121.553103333333","24.9532483333333","6500600","新店區"
"231038","3712-VJ","2019/08/10 14:09:23","新北市新店區安康路一段83-1號","121.529625","24.9613066666667","6500600","新店區"
"231025","4715-K9","2019/08/10 14:09:21","新北市新店區自立街88號","121.537138333333","24.979945","6500600","新店區"
"231020","513-UM","2019/08/10 14:09:28","新北市新店區屈尺路83-1號","121.544495","24.92241","6500600","新店區"
"231002","619-UM","2019/08/10 14:09:23","新北市新店區中正路558號","121.533675","24.9872616666667","6500600","新店區"
"231034","641-BX","2019/08/10 14:09:32","新北市新店區車子路16號","121.5049","24.9538116666667","6500600","新店區"
"231012","KED-0819","2019/08/10 14:09:29","新北市新店區五峰路63巷8弄44號","121.54802","24.9685766666667","6500600","新店區"
"231036","718-UY","2019/08/10 14:09:37","新北市新店區安祥路109巷3弄96號","121.479066666667","24.9606583333333","6500600","新店區"
"231010","719-UM","2019/08/10 14:01:48","新北市新店區安康路一段266巷4號","121.51985","24.9639516666667","6500600","新店區"
"231028","897-TW","2019/08/10 14:09:39","新北市新店區安和路三段114號","121.517038333333","24.98543","6500600","新店區"
"231001","898-TW","2019/08/10 14:09:32","新北市新店區三民路39號","121.53726","24.9708483333333","6500600","新店區"
"231004","899-TW","2019/08/10 14:09:31","新北市新店區北新路二段172號","121.543031666667","24.9758216666667","6500600","新店區"
"231037","AKT-0513","2019/08/10 14:09:36","新北市新店區安康路三段165巷2弄2號","121.489623333333","24.9513683333333","6500600","新店區"
"235030","003-UY","2019/08/10 14:09:34","新北市中和區廣福路50號","121.504033333333","25.0020266666667","6500300","中和區"
"235028","005-UY","2019/08/10 14:09:32","新北市中和區中和路139號","121.502016666667","24.9997516666667","6500300","中和區"
"235027","006-UY","2019/08/10 14:09:26","新北市中和區連城路249巷28弄1號","121.494793333333","24.9949366666667","6500300","中和區"
"235020","096-UM","2019/08/10 14:09:30","新北市中和區中山路三段106號","121.476845","25.0062166666667","6500300","中和區"
"235003","097-UM","2019/08/10 14:09:33","新北市中和區秀峰街119巷4弄1號","121.51979","24.9902283333333","6500300","中和區"
"235029","098-UM","2019/08/10 14:09:31","新北市中和區中山路二段2巷3弄4號","121.504621666667","25.00602","6500300","中和區"
"235004","150-BY","2019/08/10 14:09:13","新北市中和區宜安路121號","121.510036666667","24.9979533333333","6500300","中和區"
"235022","151-BY","2019/08/10 14:09:14","新北市中和區連城路631-2號","121.475566666667","24.9912816666667","6500300","中和區"
"235019","183-VK","2019/08/10 14:09:30","新北市中和區中山路三段177號","121.472861666667","25.00612","6500300","中和區"
"235013","186-VK","2019/08/10 14:09:21","新北市中和區景新街235號","121.508086666667","24.9944683333333","6500300","中和區"
"235031","255-BX","2019/08/10 14:09:24","新北市中和區中正路740號","121.485368333333","24.99789","6500300","中和區"
"235008","293-VK","2019/08/10 14:09:28","新北市中和區中興街263巷8號","121.500181666667","24.9888033333333","6500300","中和區"
"235036","301-VK","2019/08/10 14:09:26","新北市中和區中山路二段276號","121.496673333333","25.002495","6500300","中和區"
"235007","352-BY","2019/08/10 14:09:18","新北市中和區景平路148號","121.518345","24.9920116666667","6500300","中和區"
"235006","KEA-2878","2019/08/10 14:09:28","新北市中和區自強路17號","121.52057","24.9934833333333","6500300","中和區"
"247013","KEA-2869","2019/08/10 14:09:24","新北市蘆洲區忠孝路45號","121.471341666667","25.08634","6501400","蘆洲區"
"247007","KED-0682","2019/08/10 14:09:35","新北市蘆洲區中山一路230號","121.47294","25.0803516666667","6501400","蘆洲區"
"235014","4979-A6","2019/08/10 14:09:30","新北市中和區復興路280巷3弄1號","121.502231666667","24.9908616666667","6500300","中和區"
"235033","4980-A6","2019/08/10 14:09:24","新北市中和區中山路二段181巷5號","121.501165","25.0020216666667","6500300","中和區"
"235034","558-UM","2019/08/10 14:09:31","新北市中和區連城路63號","121.497631666667","25.00137","6500300","中和區"
"235009","565-BX","2019/08/10 14:09:29","新北市中和區景新街467巷36號","121.51556","24.98858","6500300","中和區"
"235024","KED-0823","2019/08/10 14:09:29","新北市中和區中山路三段35巷3號","121.479061666667","25.0055583333333","6500300","中和區"
"235011","732-UM","2019/08/10 14:09:23","新北市中和區興南路一段88號","121.509988333333","24.9891883333333","6500300","中和區"
"235010","733-UM","2019/08/10 14:09:22","新北市中和區華新街134號","121.508091666667","24.98265","6500300","中和區"
"235074","783-BX","2019/08/10 14:09:32","新北市中和區中正路998號","121.482538333333","25.0089033333333","6500300","中和區"
"235073","800-TS","2019/08/10 14:09:29","新北市中和區建六路67巷18號","121.486685","25.0028316666667","6500300","中和區"
"235021","801-TS","2019/08/10 14:09:35","新北市中和區員山路423巷4號","121.480521666667","25.0032633333333","6500300","中和區"
"235016","805-TS","2019/08/10 14:09:21","新北市中和區興南路二段142巷31弄83號","121.501611666667","24.9836983333333","6500300","中和區"
"235012","896-TW","2019/08/10 14:09:30","新北市中和區工專路143號","121.508616666667","24.9789666666667","6500300","中和區"
"235017","900-TW","2019/08/10 14:09:37","新北市中和區華安街30巷16-1號","121.466866666667","24.9973566666667","6500300","中和區"
"235018","911-UM","2019/08/10 14:09:35","新北市中和區國光街112巷1弄1號","121.469825","25.000995","6500300","中和區"
"235015","157-BY","2019/08/10 14:09:39","新北市中和區和平街2巷1號","121.510115","24.990295","6500300","中和區"
"235001","AAC-213","2019/08/10 14:09:31","新北市中和區秀朗路三段10巷37弄15號","121.524063333333","24.9955316666667","6500300","中和區"
"235023","AAC-215","2019/08/10 14:09:29","新北市中和區圓通路294巷17-5號","121.48863","24.9904416666667","6500300","中和區"
"220013","072-UY","2019/08/10 14:09:32","新北市板橋區民族路219巷8-1號","121.46958","25.00773","6500100","板橋區"
"220034","073-UY","2019/08/10 14:09:25","新北市板橋區中正路228號","121.455806666667","25.0186916666667","6500100","板橋區"
"220105","075-UY","2019/08/10 14:09:20","新北市板橋區雙十路三段66巷1號","121.470581666667","25.031965","6500100","板橋區"
"220017","AAD-861","2019/08/10 14:09:28","新北市板橋區華興街21巷23號","121.458743333333","25.0036866666667","6500100","板橋區"
"247003","893-R6","2019/08/10 14:09:22","新北市蘆洲區長安街144號","121.460046666667","25.082205","6501400","蘆洲區"
"247017","546-UM","2019/08/10 14:09:28","新北市蘆洲區民族路201巷26號","121.477635","25.089015","6501400","蘆洲區"
"247001","500-BY","2019/08/10 14:09:22","新北市蘆洲區永平街62號","121.457378333333","25.0915983333333","6501400","蘆洲區"
"247023","337-TH","2019/08/10 14:09:23","新北市蘆洲區光榮路78號","121.463498333333","25.0887766666667","6501400","蘆洲區"
"247021","057-VK","2019/08/10 14:09:27","新北市蘆洲區保和街24號","121.470545","25.0865616666667","6501400","蘆洲區"
"247011","056-VK","2019/08/10 14:09:25","新北市蘆洲區信義路262號","121.478221666667","25.0867983333333","6501400","蘆洲區"
"247015","053-VK","2019/08/10 14:09:35","新北市蘆洲區光華路46巷51號","121.467396666667","25.0847116666667","6501400","蘆洲區"
"247019","007-UY","2019/08/10 14:09:39","新北市蘆洲區仁愛街62巷12號","121.472098333333","25.094215","6501400","蘆洲區"
"247005","002-UY","2019/08/10 14:09:34","新北市蘆洲區九芎街39號","121.468076666667","25.0783433333333","6501400","蘆洲區"
"235005","251-BX","2019/08/10 14:09:24","新北市中和區中安街130號","121.51103","25.0003766666667","6500300","中和區"
"228005","097-TW","2019/08/10 14:09:23","新北市貢寮區美豐里土地公嶺10號","121.889841666667","25.057545","6502600","貢寮區"
"228004","212-TW","2019/08/10 14:09:25","新北市貢寮區雙玉里下雙溪街6-2號","121.914641666667","25.0159533333333","6502600","貢寮區"
"253003","6232-TK","2019/08/10 14:09:31","新北市石門區阿里磅80號","121.584163333333","25.26731","6502200","石門區"
"253004","6251-TK","2019/08/10 14:09:22","新北市石門區坪林24號","121.594375","25.267695","6502200","石門區"
"253002","637-UY","2019/08/10 14:09:34","新北市石門區七股33-1號","121.55268","25.2612766666667","6502200","石門區"
"207002","749-BX","2019/08/10 14:09:36","新北市萬里區溪底里溪底路10號","121.617275","25.148585","6502800","萬里區"
"252005","073-UM","2019/08/10 14:09:31","新北市三芝區橫山里大坑43號","121.535145","25.2470466666667","6502100","三芝區"
"207001","662-BX","2019/08/10 14:09:26","新北市萬里區磺潭里清水18-2號","121.6383","25.1980883333333","6502800","萬里區"
"236040","KED-0685","2019/08/10 14:09:28","新北市土城區城林路6巷80號","121.438521666667","24.979705","6501300","土城區"
"220038","KED-0812","2019/08/10 14:09:37","新北市板橋區文化路一段325號","121.46635","25.020465","6500100","板橋區"
"236074","166-UM","2019/08/10 14:09:21","新北市土城區永寧路35號","121.43019","24.9621416666667","6501300","土城區"
"236029","253-BX","2019/08/10 14:09:31","新北市土城區城林路6巷80號","121.438415","24.9797533333333","6501300","土城區"
"236024","269-VK","2019/08/10 14:09:19","新北市土城區承天路18號","121.439385","24.9635816666667","6501300","土城區"
"236013","270-VK","2019/08/10 14:09:35","新北市土城區青雲路39巷7號","121.46036","24.9875816666667","6501300","土城區"
"236032","271-VK","2019/08/10 14:09:21","新北市土城區青雲路449-1號","121.458953333333","24.97464","6501300","土城區"
"247009","KED-0683","2019/08/10 14:09:21","新北市蘆洲區三民路50號","121.475511666667","25.0832133333333","6501400","蘆洲區"
"236068","KEA-2877","2019/08/10 14:09:33","新北市土城區明德路一段130號","121.463638333333","24.9790833333333","6501300","土城區"
"236017","401-BY","2019/08/10 14:09:23","新北市土城區中華路二段2號","121.439283333333","24.9796833333333","6501300","土城區"
"236057","912-UM","2019/08/10 14:09:26","新北市土城區中央路四段168號","121.416818333333","24.9580866666667","6501300","土城區"
"236045","913-UM","2019/08/10 14:09:26","新北市土城區明德路一段365-1號","121.453533333333","24.9790416666667","6501300","土城區"
"236060","915-UM","2019/08/10 14:09:28","新北市土城區金城路三段188號","121.468238333333","24.9880033333333","6501300","土城區"
"236054","AAC-216","2019/08/10 14:09:34","新北市土城區中華路二段92號","121.438243333333","24.974715","6501300","土城區"
"221029","298-VK","2019/08/10 14:09:24","新北市汐止區福德一路216號","121.63432","25.06509","6501100","汐止區"
"220027","145-BY","2019/08/10 14:09:34","新北市板橋區中正路35號","121.456358333333","25.0130916666667","6500100","板橋區"
"220030","610-BX","2019/08/10 14:09:28","新北市板橋區大觀路三段273號","121.428545","24.9923733333333","6500100","板橋區"
"220050","245-BX","2019/08/10 14:09:28","新北市板橋區莊敬路65-2號","121.474133333333","25.0268933333333","6500100","板橋區"
"220032","256-TC","2019/08/10 14:09:32","新北市板橋區篤行路一段16號","121.431358333333","24.995505","6500100","板橋區"
"220040","267-BY","2019/08/10 14:09:24","新北市板橋區大同街53號","121.478581666667","25.0274966666667","6500100","板橋區"
"220004","276-BY","2019/08/10 14:09:27","新北市板橋區信義路110巷2弄6號","121.457841666667","24.9924683333333","6500100","板橋區"
"220020","277-BY","2019/08/10 14:09:26","新北市板橋區篤行路一段10號","121.43214","24.995345","6500100","板橋區"
"220019","283-VK","2019/08/10 14:09:37","新北市板橋區重慶路220號","121.462728333333","25.0020083333333","6500100","板橋區"
"220043","285-UM","2019/08/10 14:09:32","新北市板橋區吳鳳路19巷20號","121.46679","25.030735","6500100","板橋區"
"220001","285-VK","2019/08/10 14:09:17","新北市板橋區懷仁街35巷2弄2號","121.476788333333","25.0196183333333","6500100","板橋區"
"220031","286-VK","2019/08/10 14:09:33","新北市板橋區大觀路二段174巷178號","121.442018333333","25.0035533333333","6500100","板橋區"
"220029","287-VK","2019/08/10 14:09:27","新北市板橋區南雅西路二段203號","121.451681666667","25.0134066666667","6500100","板橋區"
"220039","288-VK","2019/08/10 14:09:26","新北市板橋區長江路一段106巷13弄5號","121.460276666667","25.0292233333333","6500100","板橋區"
"220009","293-UM","2019/08/10 14:09:34","新北市板橋區中山路二段318巷20弄2號","121.480513333333","25.0187616666667","6500100","板橋區"
"220010","295-UM","2019/08/10 14:09:33","新北市板橋區三民路二段居仁巷1弄7號","121.479531666667","25.0136083333333","6500100","板橋區"
"220047","299-UM","2019/08/10 14:09:23","新北市板橋區民生路三段103號","121.466586666667","25.02503","6500100","板橋區"
"220023","303-R5","2019/08/10 14:09:29","新北市板橋區南雅西路二段69號","121.452776666667","25.0100033333333","6500100","板橋區"
"220041","307-R5","2019/08/10 14:09:29","新北市板橋區松江街51號","121.468591666667","25.0274983333333","6500100","板橋區"
"220037","491-VK","2019/08/10 14:09:30","新北市板橋區文化路二段182巷7弄9號","121.47224","25.0273333333333","6500100","板橋區"
"220104","560-BX","2019/08/10 14:08:04","新北市板橋區中正路379巷1弄17號","121.453136666667","25.0215883333333","6500100","板橋區"
"220052","561-BX","2019/08/10 14:09:29","新北市板橋區文化路一段268號","121.46714","25.0209833333333","6500100","板橋區"
"220028","568-UM","2019/08/10 14:09:20","新北市板橋區大觀路二段37巷302號","121.450281666667","25.0021066666667","6500100","板橋區"
"220011","609-BX","2019/08/10 14:09:29","新北市板橋區三民路二段203-4號","121.47922","25.0135533333333","6500100","板橋區"
"220003","630-UY","2019/08/10 14:09:32","新北市板橋區中山路一段143號","121.46468","25.01148","6500100","板橋區"
"220005","686-BX","2019/08/10 14:09:30","新北市板橋區國慶路182巷20號","121.462985","24.9958816666667","6500100","板橋區"
"220025","687-BX","2019/08/10 14:09:30","新北市板橋區大觀路二段174巷193弄2號","121.442231666667","25.004045","6500100","板橋區"
"220042","689-BX","2019/08/10 14:09:23","新北市板橋區新海路14號","121.462505","25.0209683333333","6500100","板橋區"
"220002","741-BX","2019/08/10 14:09:39","新北市板橋區重慶路69巷18號","121.4628","25.0069433333333","6500100","板橋區"
"220051","KEA-2699","2019/08/10 14:09:27","新北市板橋區田單街35號","121.482408333333","25.02859","6500100","板橋區"
"220014","829-TW","2019/08/10 14:09:26","新北市板橋區中山路二段90巷43弄23號","121.477146666667","25.015435","6500100","板橋區"
"220016","831-TW","2019/08/10 14:09:24","新北市板橋區翠華街6巷12-2號","121.480766666667","25.0239533333333","6500100","板橋區"
"220022","895-R6","2019/08/10 14:09:39","新北市板橋區林園街56號","121.453766666667","25.0107783333333","6500100","板橋區"
"220021","985-R7","2019/08/10 14:09:37","新北市板橋區民權路258-2號","121.458065","25.0150383333333","6500100","板橋區"
"220046","AAC-210","2019/08/10 14:09:23","新北市板橋區漢生西路89巷3弄19號","121.461203333333","25.019825","6500100","板橋區"
"220012","AAC-253","2019/08/10 14:09:34","新北市板橋區觀光街3巷15號","121.471348333333","25.015335","6500100","板橋區"
"235032","KEA-2873","2019/08/10 14:09:35","新北市中和區連勝街57巷9號","121.49806","24.9969983333333","6500300","中和區"
"235025","KEA-2875","2019/08/10 14:09:17","新北市中和區連城路428巷5弄4號","121.479681666667","24.99525","6500300","中和區"
"235002","KEA-2876","2019/08/10 14:09:30","新北市中和區大仁街10巷29號","121.519206666667","24.9925533333333","6500300","中和區"
