"lineid","car","time","location","longitude","latitude","cityid","cityname"
"234048","863-TW","2019/08/10 15:09:29","新北市林口區太平里180號","121.367293333333","25.1351266666667","6500400","永和區"
"248017","KED-0813","2019/08/10 15:09:38","新北市五股區登林路91-9號","121.420528333333","25.0722533333333","6501500","五股區"
"231030","002-UM","2019/08/10 15:09:38","新北市新店區安民街339號","121.51697","24.9747966666667","6500600","新店區"
"231024","0291-UT","2019/08/10 15:09:40","新北市新店區中華路42巷26號","121.540888333333","24.9689183333333","6500600","新店區"
"231005","046-UY","2019/08/10 15:09:24","新北市新店區順安街2-1號","121.541105","24.984735","6500600","新店區"
"231029","106-UY","2019/08/10 15:09:35","新北市新店區錦秀路1-1號","121.479016666667","24.9456583333333","6500600","新店區"
"231018","107-UY","2019/08/10 15:09:35","新北市新店區中央六街127號","121.524696666667","24.9779233333333","6500600","新店區"
"231013","108-UY","2019/08/10 15:09:39","新北市新店區永業路81巷1弄1-1號","121.529495","24.9493816666667","6500600","新店區"
"231039","187-VK","2019/08/10 15:09:31","新北市新店區寶安街10號","121.542121666667","24.98138","6500600","新店區"
"231033","256-BX","2019/08/10 15:09:25","新北市新店區安泰路60巷134弄114號","121.484048333333","24.94345","6500600","新店區"
"231023","260-TV","2019/08/10 15:09:24","新北市新店區檳榔路111號","121.544585","24.9615516666667","6500600","新店區"
"231003","268-BY","2019/08/10 15:09:34","新北市新店區寶橋路230號","121.551498333333","24.9789233333333","6500600","新店區"
"231035","278-BY","2019/08/10 15:09:36","新北市新店區永安街56巷6號","121.518501666667","24.98641","6500600","新店區"
"231017","AAD-862","2019/08/10 15:09:41","新北市新店區銀河路68-1號","121.5801","24.9585133333333","6500600","新店區"
"231006","355-BY","2019/08/10 15:09:38","新北市新店區新坡一街72號","121.548928333333","24.9645483333333","6500600","新店區"
"231038","3712-VJ","2019/08/10 15:09:23","新北市新店區安華路28-1號","121.519595","24.9608333333333","6500600","新店區"
"231025","4715-K9","2019/08/10 15:09:21","新北市新店區民權路107-3號","121.536353333333","24.9820466666667","6500600","新店區"
"231020","513-UM","2019/08/10 15:09:28","新北市新店區新烏路二段9號","121.544518333333","24.929275","6500600","新店區"
"231002","619-UM","2019/08/10 15:09:25","新北市新店區中正路558號","121.533625","24.9872033333333","6500600","新店區"
"231034","641-BX","2019/08/10 15:09:32","新北市新店區玫瑰路4-1號","121.493615","24.9513783333333","6500600","新店區"
"231012","KED-0819","2019/08/10 15:09:29","新北市新店區寶元路一段65號","121.542216666667","24.9857966666667","6500600","新店區"
"231036","718-UY","2019/08/10 15:09:37","新北市新店區安祥路102巷42弄79號","121.486508333333","24.9631233333333","6500600","新店區"
"231026","720-UM","2019/08/10 15:09:31","新北市新店區建興街9巷1號","121.53997","24.97626","6500600","新店區"
"231028","897-TW","2019/08/10 15:09:39","新北市新店區安豐路54號","121.499503333333","24.9544183333333","6500600","新店區"
"231001","898-TW","2019/08/10 15:09:32","新北市新店區中正路272號","121.538935","24.9736733333333","6500600","新店區"
"231004","899-TW","2019/08/10 15:09:28","新北市新店區建國路47號","121.540603333333","24.975455","6500600","新店區"
"231037","AKT-0513","2019/08/10 15:09:35","新北市新店區安興路85-2號","121.515241666667","24.9750783333333","6500600","新店區"
"235030","003-UY","2019/08/10 15:09:34","新北市中和區中山路二段3巷32號","121.50719","25.0050366666667","6500300","中和區"
"235004","150-BY","2019/08/10 15:09:33","新北市中和區保健路19巷23號","121.508521666667","24.9986816666667","6500300","中和區"
"235019","183-VK","2019/08/10 15:09:09","新北市五股區中直路13-7號","121.423978333333","25.1108033333333","6500300","中和區"
"235036","301-VK","2019/08/10 15:09:39","新北市中和區中山路二段3巷22弄1號","121.506365","25.005305","6500300","中和區"
"235007","352-BY","2019/08/10 15:09:37","新北市中和區興南路二段159巷7號","121.505301666667","24.983095","6500300","中和區"
"235014","4979-A6","2019/08/10 15:09:30","新北市中和區景新街274巷3號","121.51061","24.992245","6500300","中和區"
"235033","4980-A6","2019/08/10 15:09:22","新北市中和區景新街64巷7弄17號","121.504563333333","24.99855","6500300","中和區"
"235034","558-UM","2019/08/10 15:09:21","新北市中和區中正路358號","121.493543333333","24.994185","6500300","中和區"
"235073","800-TS","2019/08/10 15:09:29","新北市中和區中正路571巷1弄4號","121.486856666667","24.9937866666667","6500300","中和區"
"235012","896-TW","2019/08/10 15:09:30","新北市中和區興南路一段113號","121.509235","24.9880283333333","6500300","中和區"
"235001","AAC-213","2019/08/10 15:09:31","新北市板橋區民生路二段210-1號","121.46925","25.02123","6500300","中和區"
"235023","AAC-215","2019/08/10 15:09:29","新北市中和區圓通路367巷13弄19號","121.492938333333","24.9884483333333","6500300","中和區"
"220013","072-UY","2019/08/10 15:09:30","新北市板橋區民族路69巷16弄2號","121.465751666667","25.00967","6500100","板橋區"
"220034","073-UY","2019/08/10 15:09:33","新北市板橋區林園街4-1號","121.454233333333","25.009495","6500100","板橋區"
"228005","097-TW","2019/08/10 15:09:23","新北市貢寮區仁理村研海街20號","121.92847","25.037925","6502600","貢寮區"
"228004","212-TW","2019/08/10 15:09:25","新北市貢寮區雙玉里田寮洋街17號","121.921846666667","25.0247216666667","6502600","貢寮區"
"253004","6251-TK","2019/08/10 15:09:22","新北市石門區小坑24號","121.594805","25.27732","6502200","石門區"
"253002","637-UY","2019/08/10 15:09:34","新北市石門區中山路63-1號","121.567451666667","25.2917133333333","6502200","石門區"
"207002","749-BX","2019/08/10 15:09:36","新北市萬里區崁腳里內中福路87號","121.655721666667","25.165945","6502800","萬里區"
"252005","073-UM","2019/08/10 15:09:31","新北市三芝區埔坪里埔頭坑164-1號","121.508446666667","25.2486366666667","6502100","三芝區"
"207001","662-BX","2019/08/10 15:09:26","新北市萬里區雙興里麗水路8號","121.649846666667","25.1872983333333","6502800","萬里區"
"236040","KED-0685","2019/08/10 15:09:34","新北市土城區裕民路280號","121.45542","24.98214","6501300","土城區"
"220038","KED-0812","2019/08/10 15:09:30","新北市板橋區四維路171號","121.464636666667","25.026135","6500100","板橋區"
"236074","166-UM","2019/08/10 15:09:20","新北市土城區中州路3巷42弄1號","121.413761666667","24.9567283333333","6501300","土城區"
"236029","253-BX","2019/08/10 15:09:31","新北市土城區中央路二段80巷4弄1號","121.442046666667","24.9790216666667","6501300","土城區"
"236024","269-VK","2019/08/10 15:09:39","新北市土城區中央路二段189巷4號","121.442421666667","24.9757233333333","6501300","土城區"
"236013","270-VK","2019/08/10 15:09:35","新北市土城區學府路一段99巷27號","121.457043333333","24.9866466666667","6501300","土城區"
"236032","271-VK","2019/08/10 15:09:40","新北市土城區青雲路281巷13弄6號","121.459818333333","24.9803783333333","6501300","土城區"
"236068","KEA-2877","2019/08/10 15:09:33","新北市土城區學成路147號","121.448666666667","24.9895183333333","6501300","土城區"
"236017","401-BY","2019/08/10 15:09:24","新北市土城區延峰街29巷1號","121.469448333333","24.9851183333333","6501300","土城區"
"236057","912-UM","2019/08/10 15:09:26","新北市土城區金城路一段53號","121.441238333333","24.9697516666667","6501300","土城區"
"236045","913-UM","2019/08/10 15:09:28","新北市土城區清水路163號","121.458853333333","24.9816333333333","6501300","土城區"
"236060","915-UM","2019/08/10 15:09:28","新北市土城區延平街17號","121.468241666667","24.99113","6501300","土城區"
"236054","AAC-216","2019/08/10 15:09:34","新北市土城區學府路一段276號","121.450236666667","24.9833083333333","6501300","土城區"
"220027","145-BY","2019/08/10 15:09:39","新北市板橋區建國街56號","121.458838333333","25.0169483333333","6500100","板橋區"
"220030","610-BX","2019/08/10 15:09:28","新北市板橋區金門街182-3號","121.432665","24.9909033333333","6500100","板橋區"
"220050","245-BX","2019/08/10 15:09:35","新北市板橋區雙十路二段47巷2弄4號","121.47596","25.02634","6500100","板橋區"
"220040","267-BY","2019/08/10 15:09:24","新北市板橋區民治街121號","121.47821","25.0310116666667","6500100","板橋區"
"220020","277-BY","2019/08/10 15:09:26","新北市板橋區金門街153號","121.432765","24.990525","6500100","板橋區"
"220031","286-VK","2019/08/10 15:09:32","新北市板橋區大觀路一段38巷156弄154號","121.443846666667","25.00895","6500100","板橋區"
"220029","287-VK","2019/08/10 15:09:27","新北市板橋區僑中一街124巷18弄21號","121.447071666667","25.0136483333333","6500100","板橋區"
"220010","295-UM","2019/08/10 15:09:33","新北市板橋區萬安街85巷1弄11號","121.484421666667","25.0250216666667","6500100","板橋區"
"220023","303-R5","2019/08/10 15:09:29","新北市板橋區金華街1號","121.45553","25.0200666666667","6500100","板橋區"
"220041","307-R5","2019/08/10 15:09:29","新北市板橋區文化路一段45巷2號","121.460355","25.0133833333333","6500100","板橋區"
"220037","491-VK","2019/08/10 15:09:34","新北市板橋區懷德街119號","121.478698333333","25.0311866666667","6500100","板橋區"
"220104","560-BX","2019/08/10 15:09:26","新北市板橋區新生街39號","121.456878333333","25.0211916666667","6500100","板橋區"
"220052","561-BX","2019/08/10 15:09:29","新北市板橋區漢生東路73巷26號","121.46723","25.016975","6500100","板橋區"
"220028","568-UM","2019/08/10 15:09:40","新北市板橋區大觀路二段187巷1號","121.44499","24.999725","6500100","板橋區"
"220011","609-BX","2019/08/10 15:09:28","新北市板橋區中山路二段268號","121.47897","25.0184566666667","6500100","板橋區"
"220003","630-UY","2019/08/10 15:09:32","新北市板橋區仁愛路78號","121.46059","24.999575","6500100","板橋區"
"220025","687-BX","2019/08/10 15:09:22","新北市板橋區僑中一街102巷7弄20號","121.446026666667","25.013045","6500100","板橋區"
"220042","689-BX","2019/08/10 15:09:23","新北市板橋區長江路一段30號","121.457996666667","25.0287983333333","6500100","板橋區"
"220002","741-BX","2019/08/10 15:09:39","新北市板橋區忠孝路忠義巷9弄21號","121.465045","25.0051233333333","6500100","板橋區"
"220051","KEA-2699","2019/08/10 15:09:27","新北市板橋區莒光路79巷2-1號","121.471961666667","25.024315","6500100","板橋區"
"220022","895-R6","2019/08/10 15:09:38","新北市板橋區明德街22號","121.46012","25.0108616666667","6500100","板橋區"
"220021","985-R7","2019/08/10 15:09:37","新北市板橋區大觀路一段24號","121.450201666667","25.00852","6500100","板橋區"
"220012","AAC-253","2019/08/10 15:09:30","新北市板橋區民族路63號","121.465245","25.0087766666667","6500100","板橋區"
