"lineid","car","time","location","longitude","latitude","cityid","cityname"
"234046","148-BY","2019/08/10 19:19:40","新北市永和區永元路22號","121.522173333333","25.0005683333333","6500400","永和區"
"234081","298-R6","2019/08/10 19:19:39","新北市永和區福和路38號","121.523745","25.0083","6500400","永和區"
"234038","336-UY","2019/08/10 19:19:28","新北市永和區民樂街55巷2號","121.527553333333","24.998425","6500400","永和區"
"234064","337-UY","2019/08/10 19:19:34","新北市永和區永元路17巷4號","121.521641666667","25.00046","6500400","永和區"
"234086","338-UY","2019/08/10 19:19:33","新北市永和區永利路72-1號","121.520166666667","25.0043216666667","6500400","永和區"
"234070","552-UM","2019/08/10 19:19:35","新北市永和區豫溪街55號","121.51715","25.0098983333333","6500400","永和區"
"234017","745-BX","2019/08/10 19:19:42","新北市永和區文化路144巷19弄12號","121.512338333333","25.0166783333333","6500400","永和區"
"234030","746-BX","2019/08/10 19:19:31","新北市永和區厚德街71號","121.524811666667","24.9986366666667","6500400","永和區"
"234054","KEA-2590","2019/08/10 19:19:40","新北市永和區中興街68巷1號","121.51761","25.01168","6500400","永和區"
"234007","KED-0605","2019/08/10 19:19:28","新北市永和區中山路一段159號","121.509773333333","25.009285","6500400","永和區"
"234013","KEA-2591","2019/08/10 19:19:36","新北市永和區仁愛路152號","121.510675","25.0128966666667","6500400","永和區"
"234061","AAD-866","2019/08/10 19:19:44","新北市永和區中正路381號","121.517186666667","25.0036283333333","6500400","永和區"
"234042","862-TW","2019/08/10 19:19:26","新北市永和區保平路203巷33號","121.509665","25.0050466666667","6500400","永和區"
"234050","863-TW","2019/08/10 19:19:47","新北市永和區仁愛路104巷1號","121.51203","25.013415","6500400","永和區"
"234026","9371-KE","2019/08/10 19:19:37","新北市永和區安樂路144巷29號","121.515111666667","24.9997916666667","6500400","永和區"
"234011","9373-KE","2019/08/10 19:19:33","新北市永和區保福路二段23巷19號","121.51013","25.01124","6500400","永和區"
"249005","172-UM","2019/08/10 19:19:33","新北市八里區中華路三段35號","121.396195","25.1428833333333","6502300","八里區"
"249001","173-UM","2019/08/10 19:19:39","新北市八里區中山路一段1號","121.42289","25.1586383333333","6502300","八里區"
"249003","593-UM","2019/08/10 19:19:42","新北市八里區中山路二段462號","121.39904","25.1472283333333","6502300","八里區"
"248008","KED-0815","2019/08/10 19:19:24","新北市五股區中興路二段83巷26-6號","121.45988","25.0752366666667","6501500","五股區"
"248020","KED-0813","2019/08/10 19:19:27","新北市五股區凌雲路三段57號","121.425243333333","25.124985","6501500","五股區"
"248012","247-BX","2019/08/10 19:19:37","新北市五股區中興路四段48巷16號","121.438638333333","25.0834483333333","6501500","五股區"
"248014","261-SL","2019/08/10 19:19:23","新北市五股區民義路一段181號","121.432323333333","25.0881883333333","6501500","五股區"
"248004","677-BX","2019/08/10 19:19:25","新北市五股區五福路85號","121.432346666667","25.09025","6501500","五股區"
"248002","678-BX","2019/08/10 19:19:31","新北市五股區凌雲路一段158巷6號","121.447816666667","25.102945","6501500","五股區"
"234023","9380-KE","2019/08/10 19:19:24","新北市永和區竹林路112-1號","121.519721666667","25.0116816666667","6500400","永和區"
"234077","969-R7","2019/08/10 19:19:28","新北市永和區民治街72巷10號","121.518118333333","24.99847","6500400","永和區"
"234074","AAC-211","2019/08/10 19:19:35","新北市永和區竹林路104號","121.519681666667","25.0119066666667","6500400","永和區"
"234067","AAC-212","2019/08/10 19:19:43","新北市永和區永平路81巷1號","121.511745","25.0081183333333","6500400","永和區"
"234003","AAC-295","2019/08/10 19:19:36","新北市永和區永平路181號","121.51028","25.0092516666667","6500400","永和區"
"244023","402-UM","2019/08/10 19:19:29","新北市林口區文林六街32號","121.371588333333","25.08109","6501700","林口區"
"244025","837-TS","2019/08/10 19:19:29","新北市林口區文化北路一段542巷13弄65號","121.369573333333","25.0796966666667","6501700","林口區"
"243012","AAD-798","2019/08/10 19:19:38","新北市泰山區同義街15號","121.431495","25.0567333333333","6501600","泰山區"
"243010","297-R6","2019/08/10 19:19:40","新北市泰山區明志路一段488號","121.430508333333","25.0545433333333","6501600","泰山區"
"243014","KEA-2801","2019/08/10 19:19:34","新北市泰山區泰林路二段204號","121.433305","25.0613333333333","6501600","泰山區"
"243016","421-VK","2019/08/10 19:19:26","新北市泰山區明志路三段155號","121.424648333333","25.0397183333333","6501600","泰山區"
"243009","KEA-2215","2019/08/10 19:19:46","新北市泰山區和平街9-2號","121.434166666667","25.0645783333333","6501600","泰山區"
"243011","KEA-2216","2019/08/10 19:19:29","新北市泰山區中央路11巷1號","121.426218333333","25.0428333333333","6501600","泰山區"
"243013","646-TV","2019/08/10 19:19:33","新北市泰山區明志路三段145巷2弄11號","121.42513","25.039545","6501600","泰山區"
"243015","680-BX","2019/08/10 19:19:41","新北市泰山區公園路71號","121.426296666667","25.05544","6501600","泰山區"
"222003","436-BY","2019/08/10 19:19:40","新北市深坑區深南路91號","121.626533333333","25.0159516666667","6501800","深坑區"
"222002","659-BX","2019/08/10 19:19:30","新北市深坑區北深路一段177號","121.632543333333","25.0108916666667","6501800","深坑區"
"231061","002-UM","2019/08/10 19:19:34","新北市新店區安康路一段42號","121.530953333333","24.9610516666667","6500600","新店區"
"231058","0293-UT","2019/08/10 19:19:28","新北市新店區光明街286巷6-2號","121.54062","24.9636766666667","6500600","新店區"
"231044","046-UY","2019/08/10 19:19:27","新北市新店區中興路三段247-1號","121.542728333333","24.9839216666667","6500600","新店區"
"231060","106-UY","2019/08/10 19:19:31","新北市新店區安康路二段111號","121.51266","24.9618016666667","6500600","新店區"
"231051","107-UY","2019/08/10 19:19:36","新北市新店區百忍街90號","121.532673333333","24.9771783333333","6500600","新店區"
"231049","108-UY","2019/08/10 19:19:26","新北市新店區明德路62號","121.541668333333","24.97939","6500600","新店區"
"231062","256-BX","2019/08/10 19:19:32","新北市新店區莒光路38巷3號","121.522288333333","24.95879","6500600","新店區"
"231054","260-TV","2019/08/10 19:19:46","新北市新店區國校路44號","121.538276666667","24.9542","6500600","新店區"
"231042","268-BY","2019/08/10 19:19:36","新北市新店區中興路一段24-2號","121.538556666667","24.9584","6500600","新店區"
"231064","278-BY","2019/08/10 19:19:39","新北市新店區安忠路57巷26弄28號","121.512256666667","24.9581033333333","6500600","新店區"
"231050","AAD-862","2019/08/10 19:19:30","新北市新店區竹林路30巷1號","121.552291666667","24.9513116666667","6500600","新店區"
"231045","355-BY","2019/08/10 19:19:30","新北市新店區北宜路一段260號","121.545705","24.9527683333333","6500600","新店區"
"231066","3712-VJ","2019/08/10 19:19:29","新北市新店區安祥路35-2號","121.490461666667","24.95689","6500600","新店區"
"231056","4715-K9","2019/08/10 19:19:37","新北市新店區安康路二段414巷2號","121.495975","24.9578166666667","6500600","新店區"
"231067","4772-VM","2019/08/10 19:19:36","新北市新店區安康路一段169-5號","121.526958333333","24.9618816666667","6500600","新店區"
"231052","513-UM","2019/08/10 19:19:27","新北市新店區自強路229號","121.54713","24.9187","6500600","新店區"
"231041","619-UM","2019/08/10 19:19:32","新北市新店區溪園路255巷9弄21號","121.52377","24.980875","6500600","新店區"
"231063","641-BX","2019/08/10 19:19:32","新北市新店區達觀路10號","121.503403333333","24.9436916666667","6500600","新店區"
"231048","KED-0819","2019/08/10 19:19:27","新北市新店區中興路二段67巷15號","121.54594","24.9711583333333","6500600","新店區"
"231065","718-UY","2019/08/10 19:19:43","新北市新店區安祥路116號","121.474778333333","24.9565233333333","6500600","新店區"
"231046","719-UM","2019/08/10 19:19:27","新北市新店區秀山路68-1號","121.531046666667","24.9609633333333","6500600","新店區"
"231057","720-UM","2019/08/10 19:19:31","新北市新店區百齡一路12號","121.553088333333","24.9324766666667","6500600","新店區"
"231059","897-TW","2019/08/10 19:19:44","新北市新店區安業街1號","121.516745","24.9789266666667","6500600","新店區"
"231040","898-TW","2019/08/10 19:19:30","新北市新店區三民路98-3號","121.533935","24.973435","6500600","新店區"
"231043","899-TW","2019/08/10 19:19:40","新北市新店區北新路二段107號","121.542966666667","24.9744933333333","6500600","新店區"
"241028","022-UY","2019/08/10 19:19:44","新北市三重區中正北路13號","121.49226","25.0612933333333","6500200","三重區"
"241022","060-VK","2019/08/10 19:19:42","新北市三重區重陽路二段53號","121.487291666667","25.0634333333333","6500200","三重區"
"241031","061-VK","2019/08/10 19:19:31","新北市三重區重新路四段230號","121.485843333333","25.0539416666667","6500200","三重區"
"241017","063-VK","2019/08/10 19:19:39","新北市三重區大同北路172巷2號","121.491813333333","25.0656066666667","6500200","三重區"
"241009","267-UM","2019/08/10 19:19:39","新北市三重區溪尾街230巷63號","121.486326666667","25.0812383333333","6500200","三重區"
"241032","269-UM","2019/08/10 19:19:37","新北市三重區新生街78號","121.484178333333","25.0593383333333","6500200","三重區"
"241007","398-BY","2019/08/10 19:19:43","新北市三重區慈愛街75號","121.487015","25.079425","6500200","三重區"
"241030","KED-0822","2019/08/10 19:19:37","新北市三重區成功路41巷99號","121.491445","25.053255","6500200","三重區"
"241035","462-BY","2019/08/10 19:19:28","新北市三重區大智街17號","121.49445","25.065285","6500200","三重區"
"241020","478-VK","2019/08/10 19:19:25","新北市三重區大智街181號","121.489656666667","25.07274","6500200","三重區"
"241026","480-VK","2019/08/10 19:19:25","新北市三重區正義南路86巷2號","121.498945","25.0577716666667","6500200","三重區"
"241029","942-UM","2019/08/10 19:19:30","新北市三重區重安街15號","121.490528333333","25.0575066666667","6500200","三重區"
"235066","003-UY","2019/08/10 19:19:33","新北市中和區中和路155號","121.502688333333","24.99991","6500300","中和區"
"235064","005-UY","2019/08/10 19:19:26","新北市中和區南山路68號","121.50251","24.9961933333333","6500300","中和區"
"235063","006-UY","2019/08/10 19:19:38","新北市中和區板南路335號","121.494205","24.9976916666667","6500300","中和區"
"235056","096-UM","2019/08/10 19:19:30","新北市中和區員山路478號","121.479873333333","25.00677","6500300","中和區"
"235039","097-UM","2019/08/10 19:19:32","新北市中和區秀峰街117號","121.52007","24.9906883333333","6500300","中和區"
"235065","098-UM","2019/08/10 19:19:31","新北市中和區中山路二段64巷12弄14號","121.503991666667","25.0052383333333","6500300","中和區"
"235040","150-BY","2019/08/10 19:19:34","新北市中和區保健路50巷13號","121.510148333333","24.996385","6500300","中和區"
"235058","151-BY","2019/08/10 19:19:39","新北市中和區連城路469巷24號","121.483436666667","24.99505","6500300","中和區"
"235055","183-VK","2019/08/10 19:19:35","新北市中和區莒光路120巷13弄2號","121.471631666667","25.0014316666667","6500300","中和區"
"235049","186-VK","2019/08/10 19:19:44","新北市中和區景新街293號","121.510058333333","24.9932133333333","6500300","中和區"
"235067","255-BX","2019/08/10 19:19:41","新北市中和區連城路340巷8弄1號","121.482751666667","24.99631","6500300","中和區"
"235044","293-VK","2019/08/10 19:19:33","新北市中和區復興路277-1號","121.502315","24.9902983333333","6500300","中和區"
"235072","301-VK","2019/08/10 19:19:40","新北市中和區連城路265巷3號","121.49147","24.9960416666667","6500300","中和區"
"235043","352-BY","2019/08/10 19:19:35","新北市中和區景平路466號","121.505606666667","24.993455","6500300","中和區"
"235042","KEA-2878","2019/08/10 19:19:35","新北市中和區安樂路217巷21弄16號","121.513955","24.99779","6500300","中和區"
"235050","4979-A6","2019/08/10 19:19:41","新北市中和區景安路208巷17號","121.503138333333","24.991445","6500300","中和區"
"235069","4980-A6","2019/08/10 19:19:31","新北市中和區福祥路85巷6弄1號","121.498445","25.00564","6500300","中和區"
"235070","558-UM","2019/08/10 19:19:34","新北市中和區中和路2號","121.49952","25.002385","6500300","中和區"
"235045","565-BX","2019/08/10 19:19:28","新北市中和區景新街423巷35弄34號","121.513925","24.99046","6500300","中和區"
"235060","KED-0823","2019/08/10 19:19:35","新北市中和區員山路266巷23號","121.48198","25.0018183333333","6500300","中和區"
"235047","732-UM","2019/08/10 19:19:27","新北市中和區景平路239巷53弄2號","121.508816666667","24.992145","6500300","中和區"
"235046","733-UM","2019/08/10 19:19:42","新北市中和區忠孝街20巷7號","121.510721666667","24.9824766666667","6500300","中和區"
"235071","783-BX","2019/08/10 19:19:34","新北市中和區中正路637巷52弄1號","121.485463333333","24.9937033333333","6500300","中和區"
"235057","801-TS","2019/08/10 19:19:30","新北市中和區員山路467號","121.480388333333","25.004485","6500300","中和區"
"235052","805-TS","2019/08/10 19:19:30","新北市中和區興南路二段122號","121.504543333333","24.983655","6500300","中和區"
"235048","896-TW","2019/08/10 19:19:38","新北市中和區四維街22號","121.512875","24.9871233333333","6500300","中和區"
"235053","900-TW","2019/08/10 19:19:41","新北市中和區民德路197號","121.468303333333","24.9981083333333","6500300","中和區"
"235054","911-UM","2019/08/10 19:19:28","新北市中和區國光街112巷22弄20號","121.470598333333","25.0022166666667","6500300","中和區"
"235051","157-BY","2019/08/10 19:19:32","新北市中和區景平路221巷47號","121.5095","24.9920983333333","6500300","中和區"
"235037","AAC-213","2019/08/10 19:19:26","新北市中和區秀朗路三段10巷14弄14號","121.524991666667","24.9965966666667","6500300","中和區"
"235059","AAC-215","2019/08/10 19:19:42","新北市中和區圓通路286巷10號","121.491516666667","24.9911716666667","6500300","中和區"
"220072","015-TV","2019/08/10 19:19:30","新北市板橋區金門街288-5號","121.429193333333","24.9857016666667","6500100","板橋區"
"220065","072-UY","2019/08/10 19:19:30","新北市板橋區民族路129巷10號","121.467638333333","25.0084666666667","6500100","板橋區"
"220086","073-UY","2019/08/10 19:19:39","新北市板橋區幸福路70巷1號","121.460658333333","25.019985","6500100","板橋區"
"220106","075-UY","2019/08/10 19:19:42","新北市板橋區江寧路三段103號","121.472861666667","25.0327133333333","6500100","板橋區"
"220069","AAD-861","2019/08/10 19:19:33","新北市板橋區大明街29號","121.45827","25.0026083333333","6500100","板橋區"
"226004","312-R5","2019/08/10 19:19:42","新北市平溪區南山里南山坪58號","121.775946666667","25.0400383333333","6502400","平溪區"
"235041","251-BX","2019/08/10 19:19:32","新北市中和區中和路298號","121.508731666667","24.999835","6500300","中和區"
"228003","097-TW","2019/08/10 19:19:37","新北市貢寮區和美里和美街22-1號","121.912803333333","25.082645","6502600","貢寮區"
"228001","212-TW","2019/08/10 19:19:39","新北市貢寮區真理里新港街10號","121.92551","25.0543683333333","6502600","貢寮區"
"228002","663-BX","2019/08/10 19:19:39","新北市貢寮區雙玉里田寮洋街21號","121.927548333333","25.0237966666667","6502600","貢寮區"
"224010","AGQ-8101","2019/08/10 19:19:39","新北市瑞芳區基山街157號","121.843678333333","25.1081266666667","6501200","瑞芳區"
"224009","275-VK","2019/08/10 19:19:41","新北市瑞芳區海濱路3巷1-11號","121.842493333333","25.1269233333333","6501200","瑞芳區"
"224008","273-VK","2019/08/10 19:19:42","新北市瑞芳區瑞芳街164號","121.800961666667","25.1107383333333","6501200","瑞芳區"
"227002","642-TC","2019/08/10 19:19:28","新北市雙溪區平林里梅竹蹊43號","121.860131666667","25.0358116666667","6502500","雙溪區"
"227001","400-TW","2019/08/10 19:19:31","新北市雙溪區新基里新基北街40-1號","121.867331666667","25.03708","6502500","雙溪區"
"253006","032-BX","2019/08/10 19:19:25","新北市石門區崁子腳44號","121.53384","25.28812","6502200","石門區"
"222001","KEA-2212","2019/08/10 19:19:32","新北市深坑區北深路二段103號","121.617538333333","25.0034433333333","6501800","深坑區"
"208002","KEA-2872","2019/08/10 19:19:37","新北市金山區環金路376巷1號","121.632003333333","25.2222266666667","6502700","金山區"
"208003","665-BX","2019/08/10 19:19:30","新北市金山區忠孝一路27號","121.638471666667","25.2193783333333","6502700","金山區"
"251009","008-UM","2019/08/10 19:19:34","新北市淡水區中正路118號","121.44169","25.1696316666667","6501000","淡水區"
"251001","011-UM","2019/08/10 19:19:30","新北市淡水區自強路201巷43號","121.462123333333","25.1268733333333","6501000","淡水區"
"251010","012-UM","2019/08/10 19:19:38","新北市淡水區沙崙路181巷27號","121.423085","25.1849283333333","6501000","淡水區"
"251015","KEA-2871","2019/08/10 19:19:42","新北市淡水區南勢埔7號","121.482275","25.1805416666667","6501000","淡水區"
"251016","179-VK","2019/08/10 19:19:24","新北市淡水區淡金路三段350巷18號","121.450796666667","25.20832","6501000","淡水區"
"251008","181-VK","2019/08/10 19:19:27","新北市淡水區新民街一段119號","121.42809","25.1879866666667","6501000","淡水區"
"251013","182-VK","2019/08/10 19:19:37","新北市淡水區安子內12-1號","121.481526666667","25.219105","6501000","淡水區"
"251007","442-VK","2019/08/10 19:19:31","新北市淡水區民生路145巷28號","121.466511666667","25.138755","6501000","淡水區"
"251005","443-VK","2019/08/10 19:19:36","新北市淡水區水源街一段29號","121.443205","25.1722883333333","6501000","淡水區"
"251014","577-R6","2019/08/10 19:19:42","新北市淡水區小中寮19-7號","121.484793333333","25.2296133333333","6501000","淡水區"
"251002","672-BX","2019/08/10 19:19:38","新北市淡水區重建街永興巷2號","121.439641666667","25.172525","6501000","淡水區"
"251003","766-UM","2019/08/10 19:19:37","新北市淡水區中山北路一段95號","121.442398333333","25.17636","6501000","淡水區"
"207004","681-TV","2019/08/10 19:19:27","新北市萬里區萬里里成功新村65號","121.68833","25.17456","6502800","萬里區"
"207003","550-UM","2019/08/10 19:19:45","新北市萬里區大鵬里萬里加投29-1號","121.646843333333","25.2087616666667","6502800","萬里區"
"252002","178-VK","2019/08/10 19:19:39","新北市三芝區淡金路二段18-1號","121.502685","25.25952","6502100","三芝區"
"252001","292-VK","2019/08/10 19:19:36","新北市三芝區長勤街9巷14號","121.501731666667","25.254985","6502100","三芝區"
"208001","170-UY","2019/08/10 19:19:37","新北市金山區慈護街21號","121.639621666667","25.2202283333333","6502700","金山區"
"237004","KEA-2597","2019/08/10 19:19:37","新北市三峽區有木205-1號","121.439045","24.8516266666667","6500900","三峽區"
"237007","153-BY","2019/08/10 19:19:24","新北市三峽區二鬮路178號","121.359088333333","24.9068766666667","6500900","三峽區"
"237009","210-TH","2019/08/10 19:19:41","新北市三峽區民生街227號","121.371258333333","24.934685","6500900","三峽區"
"237013","252-BX","2019/08/10 19:19:40","新北市三峽區大同路39巷7號","121.37705","24.927895","6500900","三峽區"
"237012","275-BY","2019/08/10 19:19:38","新北市三峽區三樹路222巷236弄23號","121.391446666667","24.9430366666667","6500900","三峽區"
"237008","302-VK","2019/08/10 19:19:44","新北市三峽區永安街183號","121.373221666667","24.92679","6500900","三峽區"
"237014","433-BY","2019/08/10 19:19:36","新北市三峽區中山路257巷39號","121.362143333333","24.9363783333333","6500900","三峽區"
"237006","5529-G3","2019/08/10 19:19:34","新北市三峽區大同路1-5號","121.37806","24.929585","6500900","三峽區"
"237011","KEA-2596","2019/08/10 19:19:44","新北市三峽區介壽路三段27號","121.395841666667","24.93674","6500900","三峽區"
"237015","649-BX","2019/08/10 19:19:30","新北市三峽區安坑62號","121.463976666667","24.9312933333333","6500900","三峽區"
"237010","706-TV","2019/08/10 19:19:33","新北市三峽區國光街41號","121.374793333333","24.93771","6500900","三峽區"
"237005","AKY-6261","2019/08/10 19:19:41","新北市三峽區中山路459巷50-3號","121.356013333333","24.9377583333333","6500900","三峽區"
"236042","KED-0685","2019/08/10 19:19:28","新北市土城區學府路一段239號","121.450415","24.9833966666667","6501300","土城區"
"236079","166-UM","2019/08/10 19:19:42","新北市土城區中央路四段321巷46號","121.412228333333","24.9510433333333","6501300","土城區"
"236026","269-VK","2019/08/10 19:19:28","新北市土城區中央路二段149巷30弄12號","121.443165","24.9767066666667","6501300","土城區"
"236014","270-VK","2019/08/10 19:19:32","新北市土城區學府路一段23巷21-2號","121.45813","24.9873883333333","6501300","土城區"
"236070","KEA-2877","2019/08/10 19:19:39","新北市土城區學成路33巷2號","121.452681666667","24.9871083333333","6501300","土城區"
"236021","401-BY","2019/08/10 19:19:31","新北市土城區峰廷街3號","121.469073333333","24.9873366666667","6501300","土城區"
"236059","912-UM","2019/08/10 19:19:32","新北市土城區光明街28巷30號","121.441418333333","24.9740966666667","6501300","土城區"
"236055","AAC-216","2019/08/10 19:19:45","新北市土城區學府路一段276號","121.450246666667","24.9832983333333","6501300","土城區"
"238015","755-BX","2019/08/10 19:19:27","新北市樹林區備內街1巷21號","121.413161666667","24.9866683333333","6500700","樹林區"
"238023","601-UM","2019/08/10 19:19:31","新北市樹林區中正路865號","121.408773333333","25.0181516666667","6500700","樹林區"
"238019","599-UM","2019/08/10 19:19:41","新北市樹林區東榮街91巷1弄2號","121.416248333333","24.982325","6500700","樹林區"
"238024","5061-A6","2019/08/10 19:19:39","新北市樹林區福德街20號","121.40107","24.975995","6500700","樹林區"
"238018","KEA-2217","2019/08/10 19:19:39","新北市樹林區太元街2巷7號","121.41714","24.9810466666667","6500700","樹林區"
"238022","KEA-2213","2019/08/10 19:19:36","新北市樹林區中山路二段151巷6弄3號","121.406598333333","24.9782183333333","6500700","樹林區"
"238021","KEA-2539","2019/08/10 19:19:45","新北市樹林區柑園街二段203巷21號","121.377251666667","24.9510583333333","6500700","樹林區"
"238025","303-VK","2019/08/10 19:19:33","新北市樹林區中山路三段311號","121.391138333333","24.971645","6500700","樹林區"
"238017","283-BY","2019/08/10 19:19:41","新北市樹林區光興街248號","121.407233333333","25.0050966666667","6500700","樹林區"
"238014","282-BY","2019/08/10 19:19:39","新北市樹林區中正路22-1號","121.427756666667","24.9994433333333","6500700","樹林區"
"238020","268-VK","2019/08/10 19:19:24","新北市樹林區俊英街125號","121.424428333333","25.0109283333333","6500700","樹林區"
"238026","172-UY","2019/08/10 19:19:29","新北市樹林區佳園路二段77號","121.390758333333","24.9599766666667","6500700","樹林區"
"238016","169-UY","2019/08/10 19:19:43","新北市樹林區備前街34-2號","121.417401666667","24.9859283333333","6500700","樹林區"
"239007","AAC-297","2019/08/10 19:19:31","新北市鶯歌區鶯桃路182巷96弄13號","121.340635","24.9579683333333","6500800","鶯歌區"
"239006","891-R6","2019/08/10 19:19:39","新北市鶯歌區鶯桃路296巷70號","121.336528333333","24.961695","6500800","鶯歌區"
"239008","527-UM","2019/08/10 19:19:28","新北市鶯歌區國際二路10巷24號","121.338515","24.9744316666667","6500800","鶯歌區"
"239005","526-UM","2019/08/10 19:19:29","新北市鶯歌區中湖街34號","121.347138333333","24.9728433333333","6500800","鶯歌區"
"239001","417-VK","2019/08/10 19:19:35","新北市鶯歌區鶯桃路165號","121.337215","24.9552033333333","6500800","鶯歌區"
"239003","360-BY","2019/08/10 19:19:33","新北市鶯歌區八德路5-4號","121.337476666667","24.94902","6500800","鶯歌區"
"239002","359-BY","2019/08/10 19:19:25","新北市鶯歌區中正一路323號","121.356973333333","24.9570933333333","6500800","鶯歌區"
"239004","193-VK","2019/08/10 19:19:38","新北市鶯歌區中正三路322號","121.328166666667","24.9353633333333","6500800","鶯歌區"
"221008","489-VK","2019/08/10 19:19:45","新北市汐止區康寧街310號","121.626765","25.0672633333333","6501100","汐止區"
"221032","280-BY","2019/08/10 19:19:35","新北市汐止區新江北路1號","121.652788333333","25.0708883333333","6501100","汐止區"
"221031","353-TW","2019/08/10 19:19:33","新北市汐止區康寧街753巷2弄16號","121.640283333333","25.0736366666667","6501100","汐止區"
"221035","622-UM","2019/08/10 19:19:41","新北市汐止區康寧街901號","121.651165","25.0750883333333","6501100","汐止區"
"221002","707-TV","2019/08/10 19:19:38","新北市汐止區中興路3號","121.637278333333","25.0591233333333","6501100","汐止區"
"220079","145-BY","2019/08/10 19:19:43","新北市板橋區民權路254號","121.458306666667","25.0150516666667","6500100","板橋區"
"220082","610-BX","2019/08/10 19:19:40","新北市板橋區溪崑二街134號","121.425953333333","24.98784","6500100","板橋區"
"220101","245-BX","2019/08/10 19:19:32","新北市板橋區縣民大道三段121巷17號","121.476531666667","25.0233566666667","6500100","板橋區"
"220084","256-TC","2019/08/10 19:19:35","新北市板橋區溪北路73巷5號","121.42834","24.98989","6500100","板橋區"
"220091","267-BY","2019/08/10 19:19:35","新北市板橋區縣民大道三段247巷7號","121.481575","25.0262033333333","6500100","板橋區"
"220056","276-BY","2019/08/10 19:19:36","新北市板橋區廣權路2號","121.460408333333","24.990395","6500100","板橋區"
"220071","283-VK","2019/08/10 19:19:33","新北市板橋區重慶路265號","121.463233333333","25.0001383333333","6500100","板橋區"
"220094","285-UM","2019/08/10 19:19:32","新北市板橋區吳鳳路50巷41號","121.468985","25.0302933333333","6500100","板橋區"
"220053","285-VK","2019/08/10 19:19:39","新北市板橋區富山街66號","121.477136666667","25.021915","6500100","板橋區"
"220083","286-VK","2019/08/10 19:19:26","新北市板橋區大觀路二段174巷196弄15號","121.443145","25.0036383333333","6500100","板橋區"
"220081","287-VK","2019/08/10 19:19:36","新北市板橋區南雅東路89號","121.453296666667","25.0085716666667","6500100","板橋區"
"220090","288-VK","2019/08/10 19:19:42","新北市板橋區長江路一段48巷13號","121.459291666667","25.0282933333333","6500100","板橋區"
"220061","293-UM","2019/08/10 19:19:40","新北市板橋區中山路二段255巷9號","121.476945","25.01801","6500100","板橋區"
"220075","303-R5","2019/08/10 19:19:42","新北市板橋區南雅西路一段10巷12號","121.454601666667","25.0047783333333","6500100","板橋區"
"220062","305-R5","2019/08/10 19:19:39","新北市板橋區三民路二段153巷16號","121.480128333333","25.0149783333333","6500100","板橋區"
"220092","307-R5","2019/08/10 19:19:43","新北市板橋區文化路二段75號","121.469055","25.0259466666667","6500100","板橋區"
"220098","317-R6","2019/08/10 19:19:30","新北市板橋區自由路51巷14弄5號","121.464621666667","25.0237266666667","6500100","板橋區"
"220089","487-VK","2019/08/10 19:19:28","新北市板橋區雨農路32號","121.461223333333","25.0243033333333","6500100","板橋區"
"220088","491-VK","2019/08/10 19:19:43","新北市板橋區雙十路二段52號","121.475541666667","25.02773","6500100","板橋區"
"220035","560-BX","2019/08/10 19:19:36","新北市板橋區瑞安街31巷8-1號","121.455951666667","25.0226633333333","6500100","板橋區"
"220103","561-BX","2019/08/10 19:19:41","新北市板橋區文化路一段280-3號","121.467415","25.021375","6500100","板橋區"
"220080","568-UM","2019/08/10 19:19:43","新北市板橋區大觀路二段1巷50號","121.450318333333","25.00359","6500100","板橋區"
"220063","609-BX","2019/08/10 19:19:29","新北市板橋區三民路一段1巷28號","121.480241666667","25.0244666666667","6500100","板橋區"
"220055","630-UY","2019/08/10 19:19:31","新北市板橋區新民街2號","121.464215","25.009005","6500100","板橋區"
"220057","686-BX","2019/08/10 19:19:34","新北市板橋區和平路16號","121.45981","24.99446","6500100","板橋區"
"220077","687-BX","2019/08/10 19:19:32","新北市板橋區大觀路二段123號","121.44593","25.0013483333333","6500100","板橋區"
"220093","689-BX","2019/08/10 19:19:34","新北市板橋區漢生西路102號","121.462628333333","25.0199483333333","6500100","板橋區"
"220054","741-BX","2019/08/10 19:19:45","新北市板橋區校前街42號","121.461186666667","25.0032633333333","6500100","板橋區"
"220102","KEA-2699","2019/08/10 19:19:36","新北市板橋區雙十路二段130巷2弄15號","121.47456","25.0289183333333","6500100","板橋區"
"220067","829-TW","2019/08/10 19:19:37","新北市板橋區長安街138巷1弄50號","121.473955","25.0099983333333","6500100","板橋區"
"220068","831-TW","2019/08/10 19:19:45","新北市板橋區萬安街115號","121.483496666667","25.0249633333333","6500100","板橋區"
"220074","895-R6","2019/08/10 19:19:32","新北市板橋區中正路自強新村56號","121.454773333333","25.0135083333333","6500100","板橋區"
"220073","985-R7","2019/08/10 19:19:45","新北市板橋區新生街89巷12號","121.457718333333","25.0223566666667","6500100","板橋區"
"220097","AAC-210","2019/08/10 19:19:41","新北市板橋區幸福路34號","121.461628333333","25.0202683333333","6500100","板橋區"
"220064","AAC-253","2019/08/10 19:19:23","新北市板橋區公園街16號","121.462908333333","25.0090566666667","6500100","板橋區"
"235068","KEA-2873","2019/08/10 19:19:32","新北市中和區景平路545巷1弄12號","121.498676666667","24.9988333333333","6500300","中和區"
"235061","KEA-2875","2019/08/10 19:19:30","新北市中和區員山路128-1號","121.4811","24.9961616666667","6500300","中和區"
"235038","KEA-2876","2019/08/10 19:19:40","新北市中和區大仁街20巷42號","121.51972","24.9932816666667","6500300","中和區"
