"lineid","car","time","location","longitude","latitude","cityid","cityname"
"234046","148-BY","2019/08/10 20:09:30","新北市永和區得和路328號","121.52329","24.9994783333333","6500400","永和區"
"234081","298-R6","2019/08/10 20:09:34","新北市永和區國中路16號","121.524423333333","25.00502","6500400","永和區"
"234038","336-UY","2019/08/10 20:09:28","新北市永和區成功路一段47巷14號","121.527586666667","25.003875","6500400","永和區"
"234064","337-UY","2019/08/10 20:09:34","新北市永和區永利路108號","121.521216666667","25.00341","6500400","永和區"
"234086","338-UY","2019/08/10 20:09:37","新北市永和區福和路99號","121.521968333333","25.0076433333333","6500400","永和區"
"234070","552-UM","2019/08/10 20:09:35","新北市永和區福和路183巷1號","121.520043333333","25.0073516666667","6500400","永和區"
"234017","745-BX","2019/08/10 20:09:42","新北市永和區文化路117號","121.512636666667","25.01524","6500400","永和區"
"234030","746-BX","2019/08/10 20:09:31","新北市永和區民權路49巷5弄30號","121.521976666667","24.9978783333333","6500400","永和區"
"234054","KEA-2590","2019/08/10 20:09:44","新北市永和區博愛街14號","121.516976666667","25.0157883333333","6500400","永和區"
"234007","KED-0605","2019/08/10 20:09:28","新北市永和區仁愛路306巷28號","121.502096666667","25.0087966666667","6500400","永和區"
"234013","KEA-2591","2019/08/10 20:09:36","新北市永和區仁愛路273號","121.506071666667","25.0098333333333","6500400","永和區"
"234061","AAD-866","2019/08/10 20:09:44","新北市永和區中正路151巷8弄2號","121.516038333333","24.9985516666667","6500400","永和區"
"234042","862-TW","2019/08/10 20:09:46","新北市永和區雙和街16巷9號","121.509691666667","25.0022633333333","6500400","永和區"
"234050","863-TW","2019/08/10 20:09:35","新北市永和區環河西路二段151號","121.505645","25.0139883333333","6500400","永和區"
"249005","172-UM","2019/08/10 20:09:33","新北市八里區下罟子61-10號","121.386976666667","25.1360883333333","6502300","八里區"
"249001","173-UM","2019/08/10 20:09:28","新北市八里區中華路二段322號","121.4034","25.147985","6502300","八里區"
"249004","303-UY","2019/08/10 20:09:34","新北市八里區中山路一段217巷76號","121.412196666667","25.157725","6502300","八里區"
"249002","305-UY","2019/08/10 20:09:27","新北市五股區成泰路四段22巷46-3號","121.458291666667","25.1130516666667","6502300","八里區"
"249003","593-UM","2019/08/10 20:09:42","新北市八里區中山路二段540巷9弄10號","121.396755","25.147015","6502300","八里區"
"248016","026-BX","2019/08/10 20:09:28","新北市五股區成泰路三段577巷80弄82號","121.44885","25.10484","6501500","五股區"
"248008","KED-0815","2019/08/10 20:09:44","新北市三重區中正北路560巷37弄19號","121.46985","25.070965","6501500","五股區"
"248020","KED-0813","2019/08/10 20:09:27","新北市五股區凌雲路二段42號","121.439661666667","25.1027516666667","6501500","五股區"
"248012","247-BX","2019/08/10 20:09:37","新北市五股區六合街70號","121.431865","25.09008","6501500","五股區"
"248010","272-BY","2019/08/10 20:09:26","新北市五股區登林路75號","121.428271666667","25.0698366666667","6501500","五股區"
"248004","677-BX","2019/08/10 20:09:45","新北市五股區成泰路一段118號","121.435403333333","25.0737033333333","6501500","五股區"
"248002","678-BX","2019/08/10 20:09:30","新北市五股區成泰路三段369-1號","121.448865","25.09602","6501500","五股區"
"234023","9380-KE","2019/08/10 20:09:45","新北市永和區中正路702巷18號","121.516478333333","25.010505","6500400","永和區"
"234077","969-R7","2019/08/10 20:09:28","新北市永和區民享街23巷5弄8號","121.516106666667","24.9956566666667","6500400","永和區"
"234074","AAC-211","2019/08/10 20:09:35","新北市永和區竹林路178號","121.520456666667","25.009935","6500400","永和區"
"234067","AAC-212","2019/08/10 20:09:43","新北市永和區永貞路313號","121.51007","25.0064883333333","6500400","永和區"
"234003","AAC-295","2019/08/10 20:09:26","新北市永和區中正路626號","121.517018333333","25.0079016666667","6500400","永和區"
"243012","AAD-798","2019/08/10 20:09:38","新北市泰山區楓江路36-2號","121.434643333333","25.0625016666667","6501600","泰山區"
"243010","297-R6","2019/08/10 20:09:40","新北市泰山區明志路二段136巷17號","121.426261666667","25.0517833333333","6501600","泰山區"
"243014","KEA-2801","2019/08/10 20:09:34","新北市泰山區明志路一段52號","121.43347","25.064945","6501600","泰山區"
"243016","421-VK","2019/08/10 20:09:26","新北市泰山區明志路三段405號","121.421213333333","25.034075","6501600","泰山區"
"243009","KEA-2215","2019/08/10 20:09:26","新北市泰山區泰林路二段142巷7弄7號","121.43455","25.060495","6501600","泰山區"
"243011","KEA-2216","2019/08/10 20:09:43","新北市新莊區丹鳳街42號","121.42169","25.029675","6501600","泰山區"
"243015","680-BX","2019/08/10 20:09:41","新北市泰山區文程路3號","121.427736666667","25.0497083333333","6501600","泰山區"
"222003","436-BY","2019/08/10 20:09:40","新北市深坑區埔新街60號","121.620148333333","25.0025216666667","6501800","深坑區"
"222002","659-BX","2019/08/10 20:09:30","新北市深坑區北深路三段192巷9號","121.601896666667","25.0041816666667","6501800","深坑區"
"231061","002-UM","2019/08/10 20:09:34","新北市新店區安民街172號","121.516903333333","24.97074","6500600","新店區"
"231055","0291-UT","2019/08/10 20:09:39","新北市新店區中華路48巷11號","121.540203333333","24.9687883333333","6500600","新店區"
"231044","046-UY","2019/08/10 20:09:27","新北市新店區寶慶街66號","121.541981666667","24.9868133333333","6500600","新店區"
"231060","106-UY","2019/08/10 20:09:31","新北市新店區安康路三段246號","121.487691666667","24.9517516666667","6500600","新店區"
"231051","107-UY","2019/08/10 20:09:36","新北市新店區中央六街12號","121.530005","24.9745533333333","6500600","新店區"
"231049","108-UY","2019/08/10 20:09:26","新北市新店區北新路二段139巷12弄2號","121.542201666667","24.976035","6500600","新店區"
"231068","187-VK","2019/08/10 20:09:45","新北市新店區中興路二段192號","121.54832","24.9732166666667","6500600","新店區"
"231062","256-BX","2019/08/10 20:09:32","新北市新店區安康路二段1-3號","121.516811666667","24.9638383333333","6500600","新店區"
"231054","260-TV","2019/08/10 20:09:29","新北市新店區檳榔路38號","121.54148","24.9637616666667","6500600","新店區"
"231042","268-BY","2019/08/10 20:09:36","新北市新店區中興路二段89號","121.547105","24.97147","6500600","新店區"
"231064","278-BY","2019/08/10 20:09:39","新北市新店區安光路15巷15號","121.512313333333","24.9632983333333","6500600","新店區"
"231050","AAD-862","2019/08/10 20:09:30","新北市新店區北新路一段293號","121.541133333333","24.9671116666667","6500600","新店區"
"231045","355-BY","2019/08/10 20:09:30","新北市新店區北宜路二段65-1號","121.549395","24.95148","6500600","新店區"
"231066","3712-VJ","2019/08/10 20:09:29","新北市新店區安興路20號","121.515031666667","24.9659966666667","6500600","新店區"
"231056","4715-K9","2019/08/10 20:09:37","新北市新店區中正路275巷33號","121.53681","24.972945","6500600","新店區"
"231067","4772-VM","2019/08/10 20:09:36","新北市新店區溪洲路6巷6-2號","121.533848333333","24.9611683333333","6500600","新店區"
"231052","513-UM","2019/08/10 20:09:27","新北市新店區新烏路三段寶島巷2弄3號","121.552008333333","24.8986633333333","6500600","新店區"
"231041","619-UM","2019/08/10 20:09:32","新北市新店區中正路407號","121.534346666667","24.977605","6500600","新店區"
"231063","641-BX","2019/08/10 20:09:32","新北市新店區黎明路55巷2號","121.502385","24.94821","6500600","新店區"
"231048","KED-0819","2019/08/10 20:09:26","新北市新店區寶橋路160號","121.548958333333","24.977245","6500600","新店區"
"231065","718-UY","2019/08/10 20:09:43","新北市新店區安祥路106巷339號","121.472733333333","24.95919","6500600","新店區"
"231057","720-UM","2019/08/10 20:09:31","新北市新店區百齡一路12號","121.553041666667","24.9324916666667","6500600","新店區"
"231059","897-TW","2019/08/10 20:09:44","新北市新店區安成街30號","121.510095","24.9610366666667","6500600","新店區"
"231040","898-TW","2019/08/10 20:09:30","新北市新店區中正路82號","121.543753333333","24.9703183333333","6500600","新店區"
"231043","899-TW","2019/08/10 20:09:40","新北市新店區中正路348號","121.536338333333","24.9754466666667","6500600","新店區"
"241011","013-R5","2019/08/10 20:09:44","新北市三重區三和路三段47巷1號","121.49566","25.07166","6500200","三重區"
"241028","022-UY","2019/08/10 20:09:44","新北市三重區大同南路149號","121.496648333333","25.05733","6500200","三重區"
"241008","059-VK","2019/08/10 20:09:42","新北市三重區永福街197巷4號","121.479235","25.074575","6500200","三重區"
"241022","060-VK","2019/08/10 20:09:42","新北市三重區新北大道一段17號","121.487943333333","25.06114","6500200","三重區"
"241031","061-VK","2019/08/10 20:09:31","新北市三重區過圳街9-1號","121.488753333333","25.060015","6500200","三重區"
"241015","062-VK","2019/08/10 20:09:31","新北市三重區福德北路24號","121.502323333333","25.064745","6500200","三重區"
"241017","063-VK","2019/08/10 20:09:39","新北市三重區自強路一段236號","121.493136666667","25.06705","6500200","三重區"
"241024","065-VK","2019/08/10 20:09:44","新北市三重區中正北路165巷29號","121.47951","25.070355","6500200","三重區"
"241002","742-BX","2019/08/10 20:09:26","新北市三重區仁義街210-1號","121.496216666667","25.08233","6500200","三重區"
"241006","262-UM","2019/08/10 20:09:29","新北市三重區力行路二段121號","121.482908333333","25.0764733333333","6500200","三重區"
"241009","267-UM","2019/08/10 20:09:39","新北市三重區永安北路一段91號","121.47853","25.0778333333333","6500200","三重區"
"241018","268-UM","2019/08/10 20:09:42","新北市三重區正義北路256巷20號","121.49536","25.06835","6500200","三重區"
"241032","269-UM","2019/08/10 20:09:37","新北市三重區捷運路65號","121.483428333333","25.0556083333333","6500200","三重區"
"241013","270-UM","2019/08/10 20:09:43","新北市三重區三和路三段151巷40號","121.49337","25.0742666666667","6500200","三重區"
"241025","271-UM","2019/08/10 20:09:36","新北市三重區中正北路253號","121.475605","25.0707983333333","6500200","三重區"
"241007","398-BY","2019/08/10 20:09:43","新北市三重區三和路四段111-31號","121.486833333333","25.07759","6500200","三重區"
"241030","KED-0822","2019/08/10 20:09:37","新北市三重區成功路145巷21號","121.487501666667","25.0529383333333","6500200","三重區"
"241035","462-BY","2019/08/10 20:09:28","新北市三重區文化北路12號","121.499481666667","25.0637766666667","6500200","三重區"
"241004","475-VK","2019/08/10 20:09:28","新北市三重區仁愛街425巷11號","121.490876666667","25.0818466666667","6500200","三重區"
"241020","478-VK","2019/08/10 20:09:25","新北市三重區三和路三段186-3號","121.491955","25.0733633333333","6500200","三重區"
"241026","480-VK","2019/08/10 20:09:25","新北市三重區福德南路65巷1號","121.502408333333","25.0605266666667","6500200","三重區"
"241014","543-UM","2019/08/10 20:09:37","新北市三重區長樂街86號","121.501203333333","25.06948","6500200","三重區"
"241023","545-UM","2019/08/10 20:09:39","新北市三重區頂崁街229號","121.477068333333","25.0682733333333","6500200","三重區"
"241001","547-UM","2019/08/10 20:09:44","新北市三重區三和路四段89巷2-1號","121.489075","25.07562","6500200","三重區"
"241019","KEA-2593","2019/08/10 20:09:31","新北市三重區自強路二段27號","121.489705","25.06937","6500200","三重區"
"241005","AAD-863","2019/08/10 20:09:32","新北市三重區碧華街268號","121.488263333333","25.082955","6500200","三重區"
"241016","887-TS","2019/08/10 20:09:43","新北市三重區大同北路54巷4號","121.494056666667","25.06336","6500200","三重區"
"241012","941-UM","2019/08/10 20:09:29","新北市三重區仁愛街125巷113號","121.499251666667","25.076575","6500200","三重區"
"241029","942-UM","2019/08/10 20:09:30","新北市三重區光明路32巷14號","121.491706666667","25.0586633333333","6500200","三重區"
"241033","AAC-255","2019/08/10 20:09:37","新北市三重區光復路一段61巷27號","121.47353","25.0492016666667","6500200","三重區"
"235066","003-UY","2019/08/10 20:09:33","新北市中和區水源路127巷2弄2號","121.508143333333","25.00411","6500300","中和區"
"235039","097-UM","2019/08/10 20:09:32","新北市中和區立人街24-5號","121.518953333333","24.99414","6500300","中和區"
"235065","098-UM","2019/08/10 20:09:39","新北市中和區橋和路292號","121.496778333333","25.006915","6500300","中和區"
"235040","150-BY","2019/08/10 20:09:41","新北市中和區保健路27-4號","121.50863","24.9978766666667","6500300","中和區"
"235055","183-VK","2019/08/10 20:09:35","新北市三重區光復路二段188號","121.471056666667","25.0628616666667","6500300","中和區"
"247014","KEA-2869","2019/08/10 20:09:33","新北市蘆洲區中山二路265巷13號","121.47057","25.079645","6501400","蘆洲區"
"247008","KED-0682","2019/08/10 20:09:43","新北市蘆洲區中山一路166號","121.474588333333","25.0813816666667","6501400","蘆洲區"
"235050","4979-A6","2019/08/10 20:09:41","新北市中和區安樂路66號","121.51217","24.99322","6500300","中和區"
"235069","4980-A6","2019/08/10 20:09:29","新北市中和區景新街132巷8-4號","121.504633333333","24.998135","6500300","中和區"
"235070","558-UM","2019/08/10 20:09:34","新北市中和區永和路103巷15弄4號","121.495206666667","25.0075433333333","6500300","中和區"
"235026","800-TS","2019/08/10 19:47:45","新北市中和區員山路36巷16-3號","121.485131666667","24.99123","6500300","中和區"
"235059","AAC-215","2019/08/10 20:09:42","新北市中和區圓通路335巷33弄33號","121.493698333333","24.98879","6500300","中和區"
"220072","015-TV","2019/08/10 20:09:30","新北市板橋區金門街249號","121.431876666667","24.989115","6500100","板橋區"
"220065","072-UY","2019/08/10 20:09:43","新北市板橋區區運路21號","121.465793333333","25.0101633333333","6500100","板橋區"
"220086","073-UY","2019/08/10 20:09:39","新北市板橋區南雅西路二段7巷25號","121.451915","25.0095066666667","6500100","板橋區"
"220069","AAD-861","2019/08/10 20:09:33","新北市板橋區南雅南路二段11-18號","121.45484","25.0014533333333","6500100","板橋區"
"247004","893-R6","2019/08/10 20:09:23","新北市蘆洲區永安南路二段328巷15弄8號","121.456355","25.0838166666667","6501400","蘆洲區"
"247018","546-UM","2019/08/10 20:09:31","新北市蘆洲區民族路314巷21號","121.478098333333","25.090545","6501400","蘆洲區"
"247024","337-TH","2019/08/10 20:09:31","新北市蘆洲區光榮路120巷8弄35號","121.464915","25.08792","6501400","蘆洲區"
"247002","336-TH","2019/08/10 20:09:45","新北市蘆洲區長安街246巷47號","121.45904","25.0867616666667","6501400","蘆洲區"
"247022","057-VK","2019/08/10 20:09:26","新北市蘆洲區三民路171巷16號","121.470488333333","25.0870066666667","6501400","蘆洲區"
"247012","056-VK","2019/08/10 20:09:34","新北市蘆洲區民族路240號","121.479498333333","25.0885616666667","6501400","蘆洲區"
"247016","053-VK","2019/08/10 20:09:33","新北市蘆洲區光華路169號","121.464991666667","25.081985","6501400","蘆洲區"
"247020","007-UY","2019/08/10 20:09:38","新北市蘆洲區民權路106巷5弄22號","121.474278333333","25.0892483333333","6501400","蘆洲區"
"247006","002-UY","2019/08/10 20:09:28","新北市蘆洲區九芎街13號","121.46816","25.0786233333333","6501400","蘆洲區"
"226004","312-R5","2019/08/10 20:09:42","新北市平溪區嶺腳里嶺腳寮13號","121.747903333333","25.02987","6502400","平溪區"
"228003","097-TW","2019/08/10 20:09:37","新北市貢寮區仁理村研海街20號","121.928481666667","25.037825","6502600","貢寮區"
"224010","AGQ-8101","2019/08/10 20:09:39","新北市瑞芳區輕便路43號","121.845263333333","25.1102233333333","6501200","瑞芳區"
"224002","639-TC","2019/08/10 20:09:29","新北市瑞芳區員山子路員山巷13-1號","121.817025","25.1042733333333","6501200","瑞芳區"
"224009","275-VK","2019/08/10 20:09:41","新北市瑞芳區靜安路四段35巷1號","121.796063333333","25.0966166666667","6501200","瑞芳區"
"222001","KEA-2212","2019/08/10 20:09:32","新北市深坑區北深路三段187號","121.601326666667","25.0035916666667","6501800","深坑區"
"208003","665-BX","2019/08/10 20:09:32","新北市金山區海興路35-1號","121.629618333333","25.236815","6502700","金山區"
"251009","008-UM","2019/08/10 20:09:34","新北市淡水區博愛街14號","121.446143333333","25.16982","6501000","淡水區"
"251004","009-UM","2019/08/10 20:09:39","新北市淡水區民族路29巷24-1號","121.461705","25.1368166666667","6501000","淡水區"
"251001","011-UM","2019/08/10 20:09:30","新北市淡水區埤島3-20號","121.446825","25.191555","6501000","淡水區"
"251010","012-UM","2019/08/10 20:09:29","新北市淡水區後洲路一段157號","121.427636666667","25.19814","6501000","淡水區"
"251015","KEA-2871","2019/08/10 20:09:38","新北市淡水區北新路三段112號","121.486286666667","25.1881483333333","6501000","淡水區"
"251016","179-VK","2019/08/10 20:09:45","新北市淡水區番子田18-5號","121.45626","25.2297516666667","6501000","淡水區"
"251008","181-VK","2019/08/10 20:09:47","新北市淡水區淡海路72巷33弄8號","121.424398333333","25.18279","6501000","淡水區"
"251013","182-VK","2019/08/10 20:09:37","新北市淡水區奎柔山路586號","121.469091666667","25.20518","6501000","淡水區"
"251012","441-VK","2019/08/10 20:09:39","新北市淡水區淡金路三段185號","121.448703333333","25.20447","6501000","淡水區"
"251005","443-VK","2019/08/10 20:09:36","新北市淡水區忠愛街1-3號","121.455448333333","25.1718066666667","6501000","淡水區"
"251006","561-UM","2019/08/10 20:09:45","新北市淡水區北新路141巷2弄1號","121.449281666667","25.179315","6501000","淡水區"
"251014","577-R6","2019/08/10 20:09:42","新北市淡水區石頭厝2-1號","121.458165","25.235725","6501000","淡水區"
"251011","650-BX","2019/08/10 20:09:34","新北市淡水區崁頂55-3號","121.44232","25.196655","6501000","淡水區"
"251002","672-BX","2019/08/10 20:09:38","新北市淡水區中正路332-1號","121.435841666667","25.1730966666667","6501000","淡水區"
"251003","766-UM","2019/08/10 20:09:36","新北市淡水區中山北路二段1號","121.44433","25.1829916666667","6501000","淡水區"
"207004","681-TV","2019/08/10 20:09:27","新北市萬里區北基里孝七街29號","121.682501666667","25.1766716666667","6502800","萬里區"
"207003","550-UM","2019/08/10 20:09:45","新北市萬里區大鵬里萬里加投68-7號","121.642573333333","25.2149883333333","6502800","萬里區"
"252002","178-VK","2019/08/10 20:09:39","新北市三芝區中正路一段70號","121.504061666667","25.2578716666667","6502100","三芝區"
"252001","292-VK","2019/08/10 20:09:36","新北市三芝區公正街26號","121.499653333333","25.2581766666667","6502100","三芝區"
"237012","275-BY","2019/08/10 20:09:38","新北市三峽區中華路48巷16號","121.371011666667","24.93008","6500900","三峽區"
"237014","433-BY","2019/08/10 20:09:36","新北市三峽區白雞28-1號","121.370068333333","24.9121","6500900","三峽區"
"237006","5529-G3","2019/08/10 20:09:34","新北市三峽區嘉添227-15號","121.37055","24.911345","6500900","三峽區"
"237015","649-BX","2019/08/10 20:09:30","新北市三峽區介壽路二段138巷13-1號","121.39564","24.9337833333333","6500900","三峽區"
"237005","AKY-6261","2019/08/10 20:09:41","新北市三峽區三樹路44巷2-1號","121.378036666667","24.9376266666667","6500900","三峽區"
"236042","KED-0685","2019/08/10 20:09:33","新北市土城區學享街66號","121.452523333333","24.9862233333333","6501300","土城區"
"236079","166-UM","2019/08/10 20:09:43","新北市土城區中山路45-1號","121.420361666667","24.9627883333333","6501300","土城區"
"236030","253-BX","2019/08/10 20:09:45","新北市土城區中央路一段118巷1弄19號","121.445646666667","24.9875716666667","6501300","土城區"
"236026","269-VK","2019/08/10 20:09:28","新北市土城區中央路二段293號","121.444588333333","24.984325","6501300","土城區"
"236014","270-VK","2019/08/10 20:09:32","新北市土城區廣興街39號","121.455098333333","24.9914116666667","6501300","土城區"
"236038","271-VK","2019/08/10 20:09:34","新北市土城區延吉街294號","121.464576666667","24.98413","6501300","土城區"
"247010","KED-0683","2019/08/10 20:09:38","新北市蘆洲區中山一路74巷55號","121.479845","25.081565","6501400","蘆洲區"
"236021","401-BY","2019/08/10 20:09:48","新北市土城區延吉街21巷1號","121.47242","24.9884866666667","6501300","土城區"
"236059","912-UM","2019/08/10 20:09:32","新北市土城區光明街8號","121.441866666667","24.97435","6501300","土城區"
"236049","913-UM","2019/08/10 20:09:38","新北市土城區金城路三段75號","121.466566666667","24.98723","6501300","土城區"
"236063","915-UM","2019/08/10 20:09:47","新北市土城區金城路三段33巷14號","121.465313333333","24.9871733333333","6501300","土城區"
"236055","AAC-216","2019/08/10 20:09:40","新北市土城區中華路一段208-2號","121.440131666667","24.98046","6501300","土城區"
"242061","986-R7","2019/08/10 20:09:31","新北市新莊區瓊林路59-38號","121.441138333333","25.023425","6500500","新莊區"
"242002","751-BX","2019/08/10 20:09:25","新北市新莊區中正路55-4號","121.461878333333","25.039565","6500500","新莊區"
"242029","615-BX","2019/08/10 20:09:34","新北市新莊區中原路319號","121.446536666667","25.0541733333333","6500500","新莊區"
"242027","613-BX","2019/08/10 20:09:16","新北市新莊區中平路377巷17弄28-1號","121.442926666667","25.0521183333333","6500500","新莊區"
"242058","612-BX","2019/08/10 20:09:36","新北市新莊區八德街111號","121.424115","25.020865","6500500","新莊區"
"242046","566-BX","2019/08/10 20:09:26","新北市新莊區裕民街55巷3號","121.419188333333","25.0239516666667","6500500","新莊區"
"242051","497-BY","2019/08/10 20:09:36","新北市新莊區民安西路168號","121.426001666667","25.0160466666667","6500500","新莊區"
"242056","441-UM","2019/08/10 20:09:34","新北市新莊區新莊路649巷15弄3號","121.445083333333","25.0314883333333","6500500","新莊區"
"242004","440-UM","2019/08/10 20:09:30","新北市新莊區中原東路89巷5號","121.463406666667","25.0536733333333","6500500","新莊區"
"242042","415-TV","2019/08/10 20:09:27","新北市新莊區青山路一段189號","121.399096666667","25.030855","6500500","新莊區"
"242011","413-TV","2019/08/10 20:09:44","新北市新莊區中信街55號","121.449503333333","25.0507766666667","6500500","新莊區"
"242048","400-BY","2019/08/10 20:09:44","新北市新莊區四維路150巷9號","121.42221","25.02329","6500500","新莊區"
"242025","362-BY","2019/08/10 20:09:41","新北市新莊區五權一路12巷25弄18號","121.458378333333","25.06445","6500500","新莊區"
"242023","353-BY","2019/08/10 20:09:41","新北市新莊區化成路562號","121.466213333333","25.0540433333333","6500500","新莊區"
"242013","132-UY","2019/08/10 20:09:29","新北市新莊區幸福路672號","121.450946666667","25.0494866666667","6500500","新莊區"
"242036","135-UY","2019/08/10 20:09:32","新北市新莊區後港一路130巷41號","121.429953333333","25.0258866666667","6500500","新莊區"
"242053","172-VK","2019/08/10 20:09:36","新北市新莊區西盛街387巷34弄5號","121.428585","25.0129666666667","6500500","新莊區"
"242015","173-VK","2019/08/10 20:09:42","新北市新莊區中平路26巷25號","121.44615","25.0432733333333","6500500","新莊區"
"242021","175-VK","2019/08/10 20:09:41","新北市新莊區中興街31號","121.449165","25.0366316666667","6500500","新莊區"
"242019","KED-0687","2019/08/10 20:09:26","新北市新莊區長青街6號","121.457931666667","25.0423483333333","6500500","新莊區"
"242039","346-TH","2019/08/10 20:09:30","新北市新莊區民安西路98號","121.4268","25.019105","6500500","新莊區"
"242034","348-TH","2019/08/10 20:09:41","新北市新莊區中正路318巷16號","121.446408333333","25.0358916666667","6500500","新莊區"
"242007","349-TH","2019/08/10 20:09:42","新北市新莊區福壽街202巷22號","121.459133333333","25.0535866666667","6500500","新莊區"
"242031","350-TH","2019/08/10 20:09:41","新北市新莊區公園一路63號","121.44307","25.036595","6500500","新莊區"
"242017","351-TH","2019/08/10 20:09:40","新北市新莊區中港路411號","121.452241666667","25.0473","6500500","新莊區"
"238023","571-TV","2019/08/10 20:09:05","新北市樹林區三福街127巷12號","121.404633333333","25.0157016666667","6500700","樹林區"
"239006","891-R6","2019/08/10 20:09:38","新北市鶯歌區文化路115巷23號","121.35779","24.9550883333333","6500800","鶯歌區"
"221008","489-VK","2019/08/10 20:09:45","台北市內湖區康樂街125巷2號","121.619535","25.0733983333333","6501100","汐止區"
"221036","130-UY","2019/08/10 20:09:37","新北市汐止區新台五路二段41巷1號","121.663125","25.066605","6501100","汐止區"
"221015","131-UY","2019/08/10 20:09:38","新北市汐止區建成路11號","121.664571666667","25.0724833333333","6501100","汐止區"
"221010","269-BY","2019/08/10 20:09:33","新北市汐止區連峰街227號","121.64509","25.0810983333333","6501100","汐止區"
"221012","278-VK","2019/08/10 20:09:35","新北市汐止區大同路三段457號","121.679011666667","25.0712466666667","6501100","汐止區"
"221023","279-VK","2019/08/10 20:09:42","新北市汐止區明峰街201號","121.627778333333","25.0692833333333","6501100","汐止區"
"221032","280-BY","2019/08/10 20:09:35","新北市汐止區橫科路18巷33弄2號","121.617256666667","25.0495466666667","6501100","汐止區"
"221027","281-BY","2019/08/10 20:09:36","新北市汐止區民生街4巷2號","121.660153333333","25.0688466666667","6501100","汐止區"
"221021","299-VK","2019/08/10 20:09:33","新北市汐止區連興街120號","121.653683333333","25.0623966666667","6501100","汐止區"
"221031","353-TW","2019/08/10 20:09:33","新北市汐止區中興路110巷3號","121.63322","25.064095","6501100","汐止區"
"221035","622-UM","2019/08/10 20:09:41","新北市汐止區長江街39巷21號","121.655288333333","25.0720383333333","6501100","汐止區"
"221025","623-UM","2019/08/10 20:09:40","新北市汐止區秀峰路64-1號","121.659828333333","25.0646016666667","6501100","汐止區"
"221038","646-BX","2019/08/10 20:09:43","新北市汐止區大同路三段66-3號","121.668033333333","25.0772033333333","6501100","汐止區"
"221033","647-BX","2019/08/10 20:09:44","新北市汐止區東勢街201巷104號","121.633516666667","25.042835","6501100","汐止區"
"221018","753-BX","2019/08/10 20:09:39","新北市汐止區茄苳路317號","121.673623333333","25.0665483333333","6501100","汐止區"
"220079","145-BY","2019/08/10 20:09:03","新北市板橋區民權路202巷21弄8-2號","121.460306666667","25.0172333333333","6500100","板橋區"
"220082","610-BX","2019/08/10 20:09:40","新北市板橋區金門街208-4號","121.432406666667","24.9900416666667","6500100","板橋區"
"220101","245-BX","2019/08/10 20:09:44","新北市板橋區莊敬路75巷10號","121.473545","25.0263533333333","6500100","板橋區"
"220083","286-VK","2019/08/10 20:09:26","新北市板橋區僑中二街90巷12號","121.445803333333","25.0093533333333","6500100","板橋區"
"220081","287-VK","2019/08/10 20:09:36","新北市板橋區僑中一街124巷20弄46號","121.448016666667","25.0138666666667","6500100","板橋區"
"220061","293-UM","2019/08/10 20:09:40","新北市板橋區四川路一段274巷8號","121.458193333333","25.0014733333333","6500100","板橋區"
"220075","303-R5","2019/08/10 20:09:42","新北市板橋區金華街10巷105號","121.459225","25.020495","6500100","板橋區"
"220062","305-R5","2019/08/10 20:09:43","新北市板橋區萬安街20巷4弄16號","121.48521","25.02294","6500100","板橋區"
"242009","280-VK","2019/08/10 20:09:40","新北市新莊區昌盛街35巷3弄2號","121.454078333333","25.0506016666667","6500500","新莊區"
"220035","560-BX","2019/08/10 20:09:35","新北市板橋區新生街87巷32號","121.456546666667","25.0221866666667","6500100","板橋區"
"220103","561-BX","2019/08/10 20:09:41","新北市板橋區漢生東路23巷46號","121.465933333333","25.0180383333333","6500100","板橋區"
"220080","568-UM","2019/08/10 20:09:43","新北市板橋區大觀路二段169巷11號","121.445876666667","25.000035","6500100","板橋區"
"220055","630-UY","2019/08/10 20:09:31","新北市板橋區仁愛路49巷1號","121.459878333333","24.99947","6500100","板橋區"
"220077","687-BX","2019/08/10 20:09:32","新北市板橋區僑中一街102巷5弄15號","121.446036666667","25.012665","6500100","板橋區"
"220054","741-BX","2019/08/10 20:09:45","新北市板橋區實踐路93巷50號","121.465853333333","25.0050183333333","6500100","板橋區"
"220074","895-R6","2019/08/10 20:09:32","新北市板橋區民權路67號","121.461626666667","25.0115166666667","6500100","板橋區"
"220073","985-R7","2019/08/10 20:09:34","新北市板橋區南雅西路二段2-1號","121.453218333333","25.008985","6500100","板橋區"
"235068","KEA-2873","2019/08/10 20:09:32","新北市中和區福美路230號","121.49915","25.0053566666667","6500300","中和區"
