"lineid","car","time","location","longitude","latitude","cityid","cityname"
"244022","483-VK","2019/10/24 10:29:57","新北市林口區文化三路一段617巷181號","121.371435","25.0782","6501700","林口區"
"222006","289-BY","2019/10/24 10:29:45","新北市深坑區向天湖12號","121.619918333333","24.9915466666667","6501800","深坑區"
"231069","189-VK","2019/10/24 10:29:43","新北市新店區新潭路二段2號","121.527901666667","24.9270916666667","6500600","新店區"
"231008","192-VK","2019/10/24 10:25:43","新北市新店區成功路50巷15號","121.539085","24.900175","6500600","新店區"
"252007","AAC-283","2019/10/24 10:29:51","新北市三芝區新庄里番社后2號","121.501585","25.26548","6502100","三芝區"
"233003","KEA-2870","2019/10/24 10:29:40","新北市新店區新烏路三段300號","121.548088333333","24.897175","6502900","烏來區"
