"lineid","car","time","location","longitude","latitude","cityid","cityname"
"234044","148-BY","2019/10/24 13:29:50","新北市永和區秀朗路二段237號","121.526326666667","24.9999116666667","6500400","永和區"
"234078","298-R6","2019/10/24 13:29:43","新北市永和區林森路10巷15號","121.526101666667","25.0059783333333","6500400","永和區"
"234036","336-UY","2019/10/24 13:29:52","新北市永和區民樂街35巷2號","121.52757","25.000885","6500400","永和區"
"234062","337-UY","2019/10/24 13:29:44","新北市永和區中正路368巷1弄88號","121.520548333333","25.00072","6500400","永和區"
"234084","338-UY","2019/10/24 13:29:57","新北市永和區林森路68號","121.523795","25.0040333333333","6500400","永和區"
"234068","552-UM","2019/10/24 13:29:45","新北市永和區警光街5-1號","121.519751666667","25.0095283333333","6500400","永和區"
"234015","745-BX","2019/10/24 13:29:55","新北市永和區環河西路一段1號","121.515275","25.0180866666667","6500400","永和區"
"234028","746-BX","2019/10/24 13:29:50","新北市永和區民族街81巷62號","121.520523333333","24.996335","6500400","永和區"
"234052","KEA-2590","2019/10/24 13:29:41","新北市永和區復興街25號","121.51622","25.0130783333333","6500400","永和區"
"234005","KED-0605","2019/10/24 13:29:41","新北市永和區中山路一段188號","121.508965","25.008985","6500400","永和區"
"234012","KEA-2591","2019/10/24 13:29:55","新北市永和區中山路一段184巷10弄2號","121.508838333333","25.00957","6500400","永和區"
"234060","AAD-866","2019/10/24 13:29:57","新北市永和區中正路401號","121.517221666667","25.004435","6500400","永和區"
"234040","862-TW","2019/10/24 13:29:45","新北市永和區中和路519巷7號","121.510686666667","25.0030083333333","6500400","永和區"
"234048","863-TW","2019/10/24 13:29:39","新北市永和區仁愛路107號","121.51236","25.01314","6500400","永和區"
"234025","9371-KE","2019/10/24 13:29:54","新北市永和區豫溪街52巷8號","121.51578","25.0094266666667","6500400","永和區"
"234010","9373-KE","2019/10/24 13:29:56","新北市永和區信義路25巷30弄9號","121.512391666667","25.0120733333333","6500400","永和區"
"248015","026-BX","2019/10/24 13:29:53","新北市五股區凌雲路一段83巷40號","121.44911","25.1010816666667","6501500","五股區"
"248005","077-UY","2019/10/24 13:29:35","新北市五股區中興路一段39號","121.46862","25.0724333333333","6501500","五股區"
"248007","KED-0815","2019/10/24 13:29:40","新北市五股區中興路二段78-5號","121.461363333333","25.078585","6501500","五股區"
"248017","KED-0813","2019/10/24 13:29:57","新北市五股區御史路300號","121.416286666667","25.109985","6501500","五股區"
"248011","247-BX","2019/10/24 13:29:52","新北市五股區御史路54巷2號","121.441815","25.0937916666667","6501500","五股區"
"248013","261-SL","2019/10/24 13:29:39","新北市五股區中興路四段70號","121.43703","25.083495","6501500","五股區"
"248003","677-BX","2019/10/24 13:29:53","新北市五股區六合街19號","121.431238333333","25.0886116666667","6501500","五股區"
"248001","678-BX","2019/10/24 13:29:45","新北市五股區西雲路163號","121.446113333333","25.0943916666667","6501500","五股區"
"248009","682-TV","2019/10/24 13:29:44","新北市五股區明德路12巷16號","121.433113333333","25.0720816666667","6501500","五股區"
"234022","9380-KE","2019/10/24 13:29:47","新北市永和區環河東路二段36號","121.522796666667","25.0124033333333","6500400","永和區"
"234076","969-R7","2019/10/24 13:29:50","新北市永和區民治街89號","121.517285","24.9982266666667","6500400","永和區"
"234072","AAC-211","2019/10/24 13:29:40","新北市永和區永和路二段103號","121.51493","25.0117533333333","6500400","永和區"
"234066","AAC-212","2019/10/24 13:29:52","新北市永和區永貞路361巷2號","121.508946666667","25.00781","6500400","永和區"
"234001","AAC-295","2019/10/24 13:29:42","新北市永和區永和路一段136號","121.513986666667","25.00798","6500400","永和區"
"244003","248-BX","2019/10/24 13:29:49","新北市林口區瑞平里12鄰40-1號","121.335826666667","25.118185","6501700","林口區"
"231030","002-UM","2019/10/24 13:29:55","新北市新店區安華路28-1號","121.519735","24.9609483333333","6500600","新店區"
"231024","0291-UT","2019/10/24 13:29:38","新北市新店區北新路二段59巷1號","121.542323333333","24.97294","6500600","新店區"
"231005","046-UY","2019/10/24 13:29:49","新北市新店區光明街145號","121.53936","24.9622066666667","6500600","新店區"
"231029","106-UY","2019/10/24 13:29:53","新北市新店區安忠路57巷11弄14號","121.51529","24.957945","6500600","新店區"
"231018","107-UY","2019/10/24 13:29:47","新北市新店區中央路85號","121.532223333333","24.9764633333333","6500600","新店區"
"231013","108-UY","2019/10/24 13:29:53","新北市新店區中央五街2號","121.530096666667","24.9739166666667","6500600","新店區"
"231036","110-UY","2019/10/24 13:29:37","新北市新店區安祥路160號","121.477206666667","24.95617","6500600","新店區"
"231031","256-BX","2019/10/24 13:29:54","新北市新店區安忠路57巷11弄2號","121.514288333333","24.95753","6500600","新店區"
"231023","260-TV","2019/10/24 13:29:47","新北市新店區新店路35號","121.53979","24.9527","6500600","新店區"
"231003","268-BY","2019/10/24 13:29:47","新北市新店區中興路二段196號","121.548516666667","24.9739483333333","6500600","新店區"
"231035","278-BY","2019/10/24 13:29:52","新北市新店區安康路一段266巷4號","121.519816666667","24.9639916666667","6500600","新店區"
"231017","AAD-862","2019/10/24 13:29:41","新北市新店區新烏路一段11巷7號","121.547316666667","24.9513383333333","6500600","新店區"
"231006","355-BY","2019/10/24 13:29:58","新北市新店區安一路一段1-1號","121.519665","24.9612433333333","6500600","新店區"
"231038","3712-VJ","2019/10/24 13:29:50","新北市新店區安華路28-1號","121.519218333333","24.96064","6500600","新店區"
"231027","3713-VJ","2019/10/24 13:29:58","新北市新店區環河路19巷15號","121.53763","24.9602683333333","6500600","新店區"
"231025","4715-K9","2019/10/24 13:29:48","新北市新店區中央五街39號","121.528463333333","24.97507","6500600","新店區"
"231021","513-UM","2019/10/24 13:29:51","新北市新店區北宜路一段41號","121.538168333333","24.9573533333333","6500600","新店區"
"231002","619-UM","2019/10/24 13:29:51","新北市新店區安康路一段11號","121.533446666667","24.9604783333333","6500600","新店區"
"231034","641-BX","2019/10/24 13:29:46","新北市新店區安華路28-1號","121.519591666667","24.9605366666667","6500600","新店區"
"231011","KED-0819","2019/10/24 13:29:49","新北市新店區北新路一段150號","121.542591666667","24.9705383333333","6500600","新店區"
"231010","719-UM","2019/10/24 13:29:53","新北市新店區自由街19號","121.535183333333","24.974645","6500600","新店區"
"231026","720-UM","2019/10/24 13:29:46","新北市新店區安一路一段1-1號","121.519733333333","24.9617266666667","6500600","新店區"
"231028","897-TW","2019/10/24 13:29:39","新北市新店區安華路28-1號","121.51949","24.960715","6500600","新店區"
"231001","898-TW","2019/10/24 13:29:56","新北市新店區安康路一段9-2號","121.533585","24.960525","6500600","新店區"
"231004","899-TW","2019/10/24 13:29:36","新北市新店區安一路一段1-1號","121.519653333333","24.9618116666667","6500600","新店區"
"231037","AKT-0513","2019/10/24 13:29:43","新北市新店區薏仁坑路24-1號","121.498413333333","24.9598983333333","6500600","新店區"
"235030","003-UY","2019/10/24 13:29:50","新北市中和區中山路二段119號","121.502771666667","25.0036333333333","6500300","中和區"
"235027","006-UY","2019/10/24 13:29:41","新北市中和區連城路347巷14號","121.488276666667","24.9950083333333","6500300","中和區"
"235020","096-UM","2019/10/24 13:29:47","新北市中和區員山路466巷18號","121.480925","25.0064933333333","6500300","中和區"
"235003","097-UM","2019/10/24 13:29:53","新北市中和區大勇街25巷2號","121.51723","24.99323","6500300","中和區"
"235029","098-UM","2019/10/24 13:29:50","新北市中和區中山路二段64巷9號","121.503206666667","25.0050266666667","6500300","中和區"
"235004","150-BY","2019/10/24 13:29:39","新北市中和區安平路59號","121.50956","24.9951533333333","6500300","中和區"
"235022","151-BY","2019/10/24 13:29:53","新北市中和區圓通路316號","121.48636","24.9876933333333","6500300","中和區"
"235019","183-VK","2019/10/24 13:29:46","新北市中和區國光街8巷8號","121.471715","25.0006683333333","6500300","中和區"
"235002","185-VK","2019/10/24 13:29:37","新北市中和區秀朗路三段128巷17弄41號","121.52288","24.9932366666667","6500300","中和區"
"235031","255-BX","2019/10/24 13:29:54","新北市中和區連城路340巷14弄19號","121.482826666667","24.99715","6500300","中和區"
"235008","293-VK","2019/10/24 13:29:53","新北市中和區復興路297號","121.501631666667","24.9901983333333","6500300","中和區"
"235036","301-VK","2019/10/24 13:29:53","新北市中和區連城路237-1號","121.493785","24.99735","6500300","中和區"
"235007","352-BY","2019/10/24 13:29:43","新北市中和區景平路239號","121.509766666667","24.9928","6500300","中和區"
"235006","KEA-2878","2019/10/24 13:29:51","新北市中和區秀朗路三段179號","121.524451666667","24.99081","6500300","中和區"
"235014","4979-A6","2019/10/24 13:29:45","新北市中和區景新街410巷18弄25號","121.511713333333","24.9899916666667","6500300","中和區"
"235033","4980-A6","2019/10/24 13:29:41","新北市中和區連城路89巷48號","121.497588333333","24.9983666666667","6500300","中和區"
"235009","551-UM","2019/10/24 13:29:47","新北市中和區南山路236-2號","121.506261666667","24.989345","6500300","中和區"
"235034","558-UM","2019/10/24 13:29:56","新北市中和區景新街133號","121.50587","24.99727","6500300","中和區"
"235024","KED-0823","2019/10/24 13:29:49","新北市中和區中山路三段41號","121.477218333333","25.005255","6500300","中和區"
"235018","640-BX","2019/10/24 13:29:56","新北市中和區莒光路132號","121.472471666667","25.0015066666667","6500300","中和區"
"235035","647-TV","2019/10/24 13:29:39","新北市中和區中板路20號","121.483851666667","25.011975","6500300","中和區"
"235011","732-UM","2019/10/24 13:29:34","新北市中和區南山路393號","121.506585","24.99018","6500300","中和區"
"235010","733-UM","2019/10/24 13:29:48","新北市中和區捷運路8-7號","121.50954","24.9896733333333","6500300","中和區"
"235021","801-TS","2019/10/24 13:29:50","新北市中和區員山路327巷62號","121.480031666667","25.0020133333333","6500300","中和區"
"235005","802-TS","2019/10/24 13:29:44","新北市中和區中和路320號","121.509753333333","25.000635","6500300","中和區"
"235016","805-TS","2019/10/24 13:29:46","新北市中和區興南路二段133號","121.505211666667","24.9841766666667","6500300","中和區"
"235012","896-TW","2019/10/24 13:29:42","新北市中和區中正路275號","121.495528333333","24.9937766666667","6500300","中和區"
"235017","900-TW","2019/10/24 13:29:41","新北市中和區連城路607號","121.478145","24.9931916666667","6500300","中和區"
"235028","911-UM","2019/10/24 13:29:45","新北市中和區連城路109巷22號","121.496711666667","24.99877","6500300","中和區"
"235015","157-BY","2019/10/24 13:29:43","新北市中和區興南路二段114巷10弄3號","121.503968333333","24.9850783333333","6500300","中和區"
"235001","AAC-213","2019/10/24 13:29:46","新北市中和區景德街95-1號","121.515555","24.9912333333333","6500300","中和區"
"220104","015-TV","2019/10/24 13:29:48","新北市板橋區南雅南路二段120號","121.45234","24.9996316666667","6500100","板橋區"
"220013","072-UY","2019/10/24 13:29:53","新北市板橋區南雅南路二段11-23號","121.454018333333","25.0021266666667","6500100","板橋區"
"220017","AAD-861","2019/10/24 13:29:50","新北市板橋區華東街1-10號","121.44836","24.9950966666667","6500100","板橋區"
"247011","337-TH","2019/10/24 13:29:47","新北市五股區新五路二段258號","121.440903333333","25.0821933333333","6501400","蘆洲區"
"247013","056-VK","2019/10/24 13:29:43","新北市五股區中興路三段163號","121.449175","25.080995","6501400","蘆洲區"
"235013","251-BX","2019/10/24 13:29:54","新北市中和區景安路84號","121.505661666667","24.9960866666667","6500300","中和區"
"228005","097-TW","2019/10/24 13:29:45","新北市貢寮區美豐里文秀坑8號","121.902551666667","25.0504","6502600","貢寮區"
"228004","212-TW","2019/10/24 13:29:52","新北市貢寮區龍崗里石壁坑街17號","121.910326666667","24.989565","6502600","貢寮區"
"253003","6232-TK","2019/10/24 13:29:53","新北市石門區內石門50-4號","121.571086666667","25.2630166666667","6502200","石門區"
"253004","6251-TK","2019/10/24 13:27:05","新北市石門區竹子湖11號","121.617868333333","25.2584466666667","6502200","石門區"
"253002","637-UY","2019/10/24 13:29:52","新北市石門區九芎林8號","121.56448","25.26481","6502200","石門區"
"253001","KEC-0718","2019/10/24 13:29:46","新北市石門區白沙灣別墅38號","121.508953333333","25.2787766666667","6502200","石門區"
"207002","749-BX","2019/10/24 13:29:38","新北市萬里區崁腳里崁腳路166號","121.645123333333","25.15587","6502800","萬里區"
"252005","073-UM","2019/10/24 13:29:43","新北市三芝區福德里土地公埔71號","121.52209","25.224005","6502100","三芝區"
"207001","662-BX","2019/10/24 13:28:00","新北市萬里區龜吼里石角路23號","121.683875","25.1915233333333","6502800","萬里區"
"220027","145-BY","2019/10/24 13:29:39","新北市板橋區華東街1-10號","121.448343333333","24.9950883333333","6500100","板橋區"
"220028","200-UY","2019/10/24 13:29:59","新北市板橋區華東街1-9號","121.448173333333","24.9948916666667","6500100","板橋區"
"220030","610-BX","2019/10/24 13:29:40","新北市板橋區華東街1-9號","121.448248333333","24.9949216666667","6500100","板橋區"
"220004","276-BY","2019/10/24 13:29:55","新北市板橋區華東街1-9號","121.448151666667","24.9949283333333","6500100","板橋區"
"220043","283-UM","2019/10/24 13:29:52","新北市板橋區民生路二段161巷5號","121.470253333333","25.019725","6500100","板橋區"
"220029","287-VK","2019/10/24 13:29:43","新北市板橋區華東街1-10號","121.44824","24.9949966666667","6500100","板橋區"
"220032","296-UM","2019/10/24 13:29:51","新北市板橋區華東街1-9號","121.448141666667","24.994905","6500100","板橋區"
"220023","303-R5","2019/10/24 13:29:57","新北市板橋區華東街1-9號","121.448216666667","24.99495","6500100","板橋區"
"220020","461-BY","2019/10/24 13:29:50","新北市板橋區四川路二段130巷63號","121.449301666667","24.9949633333333","6500100","板橋區"
"220031","568-UM","2019/10/24 13:29:50","新北市板橋區華東街1-10號","121.448336666667","24.99507","6500100","板橋區"
"220005","686-BX","2019/10/24 13:29:38","新北市板橋區華東街1-9號","121.448036666667","24.9949616666667","6500100","板橋區"
"220025","687-BX","2019/10/24 13:29:58","新北市板橋區大觀路二段435-5號","121.446578333333","24.9953066666667","6500100","板橋區"
"220003","827-TW","2019/10/24 13:29:44","新北市板橋區四川路二段140巷16弄28號","121.44878","24.994575","6500100","板橋區"
"220022","895-R6","2019/10/24 13:29:49","新北市板橋區四川路二段130巷27號","121.449488333333","24.9942516666667","6500100","板橋區"
"220021","985-R7","2019/10/24 13:29:38","新北市土城區中央路一段2-1號","121.449608333333","24.99315","6500100","板橋區"
"220046","AAC-210","2019/10/24 13:29:48","新北市板橋區民生路二段161巷1號","121.470185","25.0199866666667","6500100","板橋區"
"220012","AAC-253","2019/10/24 13:29:54","新北市板橋區南雅南路二段120-7號","121.45218","24.9994616666667","6500100","板橋區"
"235032","KEA-2873","2019/10/24 13:29:30","新北市中和區中正路211巷6號","121.496991666667","24.9933933333333","6500300","中和區"
"235025","KEA-2875","2019/10/24 13:29:36","新北市中和區民享街92巷23號","121.47378","24.9996466666667","6500300","中和區"
