"lineid","car","time","location","longitude","latitude","cityid","cityname"
"248007","KED-0815","2019/10/24 15:29:40","新北市五股區中興路一段1巷24號","121.469783333333","25.0705416666667","6501500","五股區"
"231030","002-UM","2019/10/24 15:29:55","新北市新店區安和路三段99號","121.517815","24.9843166666667","6500600","新店區"
"231024","0291-UT","2019/10/24 15:29:58","新北市新店區安康路一段218號","121.5239","24.963545","6500600","新店區"
"231005","046-UY","2019/10/24 15:29:49","新北市新店區建國路293巷1號","121.536715","24.9862066666667","6500600","新店區"
"231029","106-UY","2019/10/24 15:29:53","新北市新店區安康路三段517號","121.482098333333","24.9484066666667","6500600","新店區"
"231018","107-UY","2019/10/24 15:29:47","新北市新店區民生路126號","121.529813333333","24.9825466666667","6500600","新店區"
"231013","108-UY","2019/10/24 15:29:52","新北市新店區永業路81巷1弄1-1號","121.529515","24.9494666666667","6500600","新店區"
"231036","110-UY","2019/10/24 15:29:40","新北市新店區安祥路67巷28弄2號","121.484778333333","24.9595166666667","6500600","新店區"
"231039","187-VK","2019/10/24 15:29:44","新北市新店區寶元路一段74巷1號","121.544123333333","24.9841466666667","6500600","新店區"
"231031","256-BX","2019/10/24 15:29:53","新北市新店區裕合街143號","121.489143333333","24.949135","6500600","新店區"
"231023","260-TV","2019/10/24 15:29:47","新北市新店區五峰路26號","121.543685","24.9689733333333","6500600","新店區"
"231003","268-BY","2019/10/24 15:29:47","新北市新店區寶高路120巷1號","121.554635","24.9761583333333","6500600","新店區"
"231035","278-BY","2019/10/24 15:29:52","新北市新店區安興路83-3號","121.515315","24.975485","6500600","新店區"
"231017","AAD-862","2019/10/24 15:28:41","新北市新店區明山路109號","121.565993333333","24.9601866666667","6500600","新店區"
"231038","3712-VJ","2019/10/24 15:29:50","新北市新店區安康路二段16巷34號","121.516546666667","24.96508","6500600","新店區"
"231025","4715-K9","2019/10/24 15:29:48","新北市新店區柴埕路52巷1-1號","121.511763333333","24.9644","6500600","新店區"
"231021","513-UM","2019/10/24 15:29:51","新北市新店區湖興路128-2號","121.56094","24.9304866666667","6500600","新店區"
"231002","619-UM","2019/10/24 15:29:51","新北市新店區環河路152號","121.535121666667","24.9670533333333","6500600","新店區"
"231034","641-BX","2019/10/24 15:29:46","新北市新店區富貴街6巷1號","121.494493333333","24.9499666666667","6500600","新店區"
"231011","KED-0819","2019/10/24 15:29:49","新北市新店區寶元路一段109號","121.545803333333","24.9829283333333","6500600","新店區"
"231026","720-UM","2019/10/24 15:29:42","新北市新店區三民路117巷5弄2號","121.534161666667","24.9711383333333","6500600","新店區"
"231028","897-TW","2019/10/24 15:29:39","新北市新店區僑信路122號","121.50049","24.9463916666667","6500600","新店區"
"231001","898-TW","2019/10/24 15:29:42","新北市新店區北新路一段115號","121.539291666667","24.9624066666667","6500600","新店區"
"231004","899-TW","2019/10/24 15:29:56","新北市新店區民族路108號","121.538273333333","24.9773816666667","6500600","新店區"
"231037","AKT-0513","2019/10/24 15:29:42","新北市新店區安民街365巷14號","121.515731666667","24.9753516666667","6500600","新店區"
"241015","062-VK","2019/10/24 15:29:43","新北市三重區重新路四段121號","121.48549","25.0521383333333","6500200","三重區"
"241017","063-VK","2019/10/24 15:29:46","新北市三重區重新路四段121號","121.485191666667","25.052055","6500200","三重區"
"241007","066-VK","2019/10/24 15:29:58","新北市三重區重新路四段121號","121.484978333333","25.0519133333333","6500200","三重區"
"241013","270-UM","2019/10/24 15:29:54","新北市三重區重新路四段121號","121.485045","25.0520483333333","6500200","三重區"
"241020","478-VK","2019/10/24 15:29:52","新北市三重區重新路四段121號","121.484671666667","25.05188","6500200","三重區"
"235029","098-UM","2019/10/24 15:29:50","新北市新店區吉安街34號","121.515836666667","24.96616","6500300","中和區"
"235019","183-VK","2019/10/24 15:29:45","新北市林口區太平里180號","121.366426666667","25.1345083333333","6500300","中和區"
"235014","4979-A6","2019/10/24 15:29:45","新北市中和區景平路385巷9弄1號","121.502376666667","24.994145","6500300","中和區"
"235033","4980-A6","2019/10/24 15:29:41","新北市中和區連城路469巷32號","121.48353","24.9948716666667","6500300","中和區"
"235045","551-UM","2019/10/24 15:23:21","新北市中和區員山路36巷13號","121.484176666667","24.990995","6500300","中和區"
"235023","AAC-215","2019/10/24 15:29:40","新北市中和區員山路20-1號","121.483586666667","24.9840333333333","6500300","中和區"
"220013","072-UY","2019/10/24 15:29:53","新北市板橋區大觀路三段131-1號","121.435133333333","24.9925966666667","6500100","板橋區"
"207001","662-BX","2019/10/24 15:29:40","新北市萬里區龜吼里玉田路4-2號","121.680593333333","25.1843266666667","6502800","萬里區"
"236040","KED-0685","2019/10/24 15:29:46","新北市土城區學府路一段122-1號","121.455208333333","24.98778","6501300","土城區"
"236074","166-UM","2019/10/24 15:29:51","新北市土城區溪頭路135號","121.409575","24.9511333333333","6501300","土城區"
"236029","253-BX","2019/10/24 15:29:44","新北市土城區中央路一段118巷1弄19號","121.44561","24.9875366666667","6501300","土城區"
"236024","269-VK","2019/10/24 15:29:55","新北市土城區員林街71巷11號","121.4449","24.977425","6501300","土城區"
"236012","270-VK","2019/10/24 15:29:58","新北市土城區廣興街28號","121.455691666667","24.9916583333333","6501300","土城區"
"236032","271-VK","2019/10/24 15:29:40","新北市土城區延吉街351號","121.464581666667","24.9839516666667","6501300","土城區"
"236068","KEA-2877","2019/10/24 15:29:45","新北市土城區中央路二段190號","121.441898333333","24.9760533333333","6501300","土城區"
"236017","401-BY","2019/10/24 15:29:49","新北市土城區延吉街74號","121.471075","24.986655","6501300","土城區"
"236060","752-BX","2019/10/24 15:29:49","新北市土城區金城路三段73巷9弄1號","121.466216666667","24.9876416666667","6501300","土城區"
"236057","912-UM","2019/10/24 15:29:46","新北市土城區中央路二段223號","121.44074","24.9737416666667","6501300","土城區"
"236045","913-UM","2019/10/24 15:29:50","新北市土城區青雲路151巷21號","121.459745","24.9845733333333","6501300","土城區"
"236054","AAC-216","2019/10/24 15:29:57","新北市土城區金城路三段161號","121.469025","24.9885083333333","6501300","土城區"
"238002","755-BX","2019/10/24 15:29:36","新北市樹林區日新街59號","121.422443333333","24.991395","6500700","樹林區"
"238010","601-UM","2019/10/24 15:29:49","新北市樹林區三福街62號","121.405126666667","25.0162466666667","6500700","樹林區"
"238006","599-UM","2019/10/24 15:29:48","新北市樹林區太平路96號","121.41873","24.979535","6500700","樹林區"
"238012","571-TV","2019/10/24 15:29:48","新北市樹林區中山路一段174號","121.421876666667","24.988945","6500700","樹林區"
"238011","5061-A6","2019/10/24 15:29:40","新北市樹林區東豐街12-3號","121.416101666667","24.9754916666667","6500700","樹林區"
"238005","KEA-2217","2019/10/24 15:29:51","新北市樹林區鎮前街77-21號","121.424648333333","24.9903366666667","6500700","樹林區"
"238009","KEA-2213","2019/10/24 15:29:43","新北市樹林區和平街2巷17號","121.42126","24.98095","6500700","樹林區"
"238008","KEA-2539","2019/10/24 15:29:40","新北市樹林區柑園街一段21巷1號","121.404826666667","24.96063","6500700","樹林區"
"238004","283-BY","2019/10/24 15:29:44","新北市樹林區保安街二段337巷23號","121.411131666667","25.0079183333333","6500700","樹林區"
"238001","282-BY","2019/10/24 15:29:53","新北市樹林區潭興街107巷21弄12號","121.424058333333","24.9989583333333","6500700","樹林區"
"238007","268-VK","2019/10/24 15:29:51","新北市樹林區俊英街116巷25號","121.428315","25.0060266666667","6500700","樹林區"
"238013","172-UY","2019/10/24 15:29:42","新北市樹林區新興街19巷34弄11號","121.402148333333","24.9730733333333","6500700","樹林區"
"238003","169-UY","2019/10/24 15:29:47","新北市樹林區中山路一段115號","121.422925","24.9905566666667","6500700","樹林區"
"220029","287-VK","2019/10/24 15:29:43","新北市板橋區大觀路二段32號","121.445261666667","25.0017516666667","6500100","板橋區"
"220031","568-UM","2019/10/24 15:29:50","新北市板橋區僑中二街106巷30號","121.444665","25.0078083333333","6500100","板橋區"
"220022","895-R6","2019/10/24 15:29:49","新北市板橋區南雅南路一段129號","121.455268333333","25.0044083333333","6500100","板橋區"
