"lineid","car","time","location","longitude","latitude","cityid","cityname"
"231030","002-UM","2019/10/24 15:43:55","新北市新店區永安街90號","121.520873333333","24.985625","6500600","新店區"
"231029","106-UY","2019/10/24 15:43:53","新北市新店區安康路三段27號","121.493233333333","24.9532233333333","6500600","新店區"
"231018","107-UY","2019/10/24 15:43:47","新北市新店區中正路663巷1弄4號","121.533026666667","24.9900216666667","6500600","新店區"
"231013","108-UY","2019/10/24 15:43:52","新北市新店區永業路81巷11弄8號","121.531571666667","24.9505683333333","6500600","新店區"
"231036","110-UY","2019/10/24 15:43:36","新北市新店區安祥路86號","121.491213333333","24.956155","6500600","新店區"
"231039","187-VK","2019/10/24 15:43:44","新北市新店區中興路二段197號","121.54823","24.9738833333333","6500600","新店區"
"231031","256-BX","2019/10/24 15:43:53","新北市新店區雙城路145號","121.4958","24.9437633333333","6500600","新店區"
"231023","260-TV","2019/10/24 15:43:47","新北市新店區大新街9巷28號","121.544353333333","24.9667916666667","6500600","新店區"
"231003","268-BY","2019/10/24 15:43:47","新北市新店區寶興路60巷3號","121.549926666667","24.9719183333333","6500600","新店區"
"231035","278-BY","2019/10/24 15:43:52","新北市新店區安興路83-3號","121.515261666667","24.9754933333333","6500600","新店區"
"231017","AAD-862","2019/10/24 15:43:41","新北市新店區北宜路一段129號","121.540595","24.9532116666667","6500600","新店區"
"231038","3712-VJ","2019/10/24 15:43:50","","121.50927","24.958485","6500600","新店區"
"231021","513-UM","2019/10/24 15:43:51","新北市新店區新烏路一段87巷3號","121.546183333333","24.941875","6500600","新店區"
"231034","641-BX","2019/10/24 15:43:46","新北市新店區玫瑰路66巷1號","121.495951666667","24.9452766666667","6500600","新店區"
"231026","720-UM","2019/10/24 15:43:42","新北市新店區三民路138號","121.535145","24.97501","6500600","新店區"
"231004","899-TW","2019/10/24 15:43:56","新北市新店區民族路108號","121.538245","24.9773316666667","6500600","新店區"
"231037","AKT-0513","2019/10/24 15:43:42","新北市新店區安興路85-9號","121.51483","24.9747533333333","6500600","新店區"
"241028","022-UY","2019/10/24 15:43:50","新北市三重區重新路三段92號","121.4929","25.0607116666667","6500200","三重區"
"241008","059-VK","2019/10/24 15:43:44","新北市三重區重新路四段121號","121.485098333333","25.051915","6500200","三重區"
"241015","062-VK","2019/10/24 15:43:43","新北市三重區重新路四段121號","121.485231666667","25.052085","6500200","三重區"
"241017","063-VK","2019/10/24 15:43:46","新北市三重區大仁街1號","121.491705","25.063615","6500200","三重區"
"241024","065-VK","2019/10/24 15:43:37","新北市三重區重新路四段121號","121.484766666667","25.05258","6500200","三重區"
"241007","066-VK","2019/10/24 15:43:58","新北市三重區重新路四段121號","121.484996666667","25.051905","6500200","三重區"
"241018","268-UM","2019/10/24 15:43:49","新北市三重區重新路四段121號","121.485183333333","25.05196","6500200","三重區"
"241013","270-UM","2019/10/24 15:43:54","新北市三重區正義北路291號","121.49495","25.0705616666667","6500200","三重區"
"241023","462-BY","2019/10/24 15:43:48","新北市三重區新北大道一段250號","121.479846666667","25.0613666666667","6500200","三重區"
"241020","478-VK","2019/10/24 15:43:52","新北市三重區忠孝路二段52號","121.485098333333","25.0703483333333","6500200","三重區"
"241014","543-UM","2019/10/24 15:43:51","新北市三重區重新路四段121號","121.484811666667","25.0522783333333","6500200","三重區"
"241005","AAD-863","2019/10/24 15:43:49","新北市三重區重新路四段121號","121.484728333333","25.05215","6500200","三重區"
"241012","743-BX","2019/10/24 15:43:40","新北市三重區自強路一段64號","121.497251666667","25.0666616666667","6500200","三重區"
"241029","942-UM","2019/10/24 15:43:57","新北市三重區同安東街48號","121.497918333333","25.0573016666667","6500200","三重區"
"241033","AAC-255","2019/10/24 15:43:56","新北市三重區重新路五段468號","121.47418","25.047075","6500200","三重區"
"235019","183-VK","2019/10/24 15:43:45","新北市八里區中山路三段247號","121.381486666667","25.140275","6500300","中和區"
"235045","551-UM","2019/10/24 15:23:21","新北市中和區員山路36巷13號","121.484176666667","24.990995","6500300","中和區"
"235046","733-UM","2019/10/24 15:39:56","新北市中和區員山路36巷13號","121.484156666667","24.9908333333333","6500300","中和區"
"235023","AAC-215","2019/10/24 15:43:40","新北市中和區員山路36巷9號","121.483323333333","24.9909716666667","6500300","中和區"
"220013","072-UY","2019/10/24 15:43:42","新北市樹林區中山路三段206-1號","121.384513333333","24.9674633333333","6500100","板橋區"
"224007","285-BY","2019/10/24 15:43:44","新北市瑞芳區傑魚坑路245巷2-1號","121.787791666667","25.1064883333333","6501200","瑞芳區"
"224005","271-BY","2019/10/24 15:43:42","新北市瑞芳區東和路9號","121.804621666667","25.1061266666667","6501200","瑞芳區"
"227002","642-TC","2019/10/24 15:43:55","新北市雙溪區牡丹里頂坪5-1號","121.862793333333","25.0386366666667","6502500","雙溪區"
"227001","400-TW","2019/10/24 15:43:42","新北市雙溪區新基里中華路106號","121.866786666667","25.0400483333333","6502500","雙溪區"
"236074","166-UM","2019/10/24 15:43:51","新北市土城區中央路四段321巷8號","121.411196666667","24.9509416666667","6501300","土城區"
"236029","253-BX","2019/10/24 15:43:44","新北市土城區中央路一段45巷17號","121.449293333333","24.9900566666667","6501300","土城區"
"236024","269-VK","2019/10/24 15:43:49","新北市土城區裕生路102巷16號","121.446443333333","24.98469","6501300","土城區"
"236012","270-VK","2019/10/24 15:43:45","新北市板橋區四川路二段14號","121.456188333333","24.9961866666667","6501300","土城區"
"236068","KEA-2877","2019/10/24 15:43:45","新北市土城區大安路30號","121.432755","24.96658","6501300","土城區"
"236017","401-BY","2019/10/24 15:43:49","新北市土城區和城路二段255巷66-1號","121.47512","24.9875266666667","6501300","土城區"
"236057","912-UM","2019/10/24 15:43:46","新北市土城區中央路一段186-1號","121.445513333333","24.98636","6501300","土城區"
"236045","913-UM","2019/10/24 15:43:50","新北市土城區金城路三段103號","121.467518333333","24.987835","6501300","土城區"
"236054","AAC-216","2019/10/24 15:43:37","新北市土城區中華路一段50號","121.446143333333","24.9890483333333","6501300","土城區"
"238002","755-BX","2019/10/24 15:43:55","新北市樹林區啟智街34號","121.420708333333","24.993145","6500700","樹林區"
"238010","601-UM","2019/10/24 15:43:49","新北市樹林區福興街31號","121.404265","25.0156583333333","6500700","樹林區"
"238012","571-TV","2019/10/24 15:43:48","新北市樹林區中山路二段160-1號","121.412223333333","24.9828133333333","6500700","樹林區"
"238011","5061-A6","2019/10/24 15:43:40","新北市樹林區山佳街57-1號","121.392921666667","24.9724566666667","6500700","樹林區"
"238005","KEA-2217","2019/10/24 15:43:51","新北市樹林區中華路25號","121.424115","24.9836016666667","6500700","樹林區"
"238009","KEA-2213","2019/10/24 15:43:45","新北市樹林區太順街86巷26號","121.416526666667","24.978875","6500700","樹林區"
"238008","KEA-2539","2019/10/24 15:43:45","新北市樹林區柑園街二段114號","121.385066666667","24.9548833333333","6500700","樹林區"
"238004","283-BY","2019/10/24 15:43:44","新北市樹林區光興街16號","121.41245","25.002945","6500700","樹林區"
"238001","282-BY","2019/10/24 15:43:53","新北市樹林區保安二街40巷22號","121.425745","24.9948766666667","6500700","樹林區"
"238007","268-VK","2019/10/24 15:43:49","新北市樹林區三俊街287號","121.423328333333","25.014045","6500700","樹林區"
"238013","172-UY","2019/10/24 15:43:41","新北市樹林區中洲街30巷13弄15號","121.398058333333","24.9719566666667","6500700","樹林區"
"238003","169-UY","2019/10/24 15:43:47","新北市樹林區復興路372巷14號","121.415225","24.986215","6500700","樹林區"
"235026","KEA-2876","2019/10/24 15:43:41","新北市中和區橋和路177-1號","121.492376666667","25.0059366666667","6500300","中和區"
