"lineid","car","time","location","longitude","latitude","cityid","cityname"
"234046","148-BY","2019/10/24 18:59:40","新北市永和區得和路373巷16弄1號","121.525108333333","25.000325","6500400","永和區"
"234081","298-R6","2019/10/24 18:59:53","新北市永和區永亨路83號","121.522013333333","25.005775","6500400","永和區"
"234038","336-UY","2019/10/24 18:59:39","新北市永和區成功路二段207號","121.526586666667","24.9958933333333","6500400","永和區"
"234064","337-UY","2019/10/24 18:59:44","新北市永和區秀朗路一段154號","121.518308333333","25.0033633333333","6500400","永和區"
"234086","338-UY","2019/10/24 18:59:53","新北市永和區永利路18號","121.517996666667","25.0057283333333","6500400","永和區"
"234070","552-UM","2019/10/24 18:59:47","新北市永和區竹林路96巷4號","121.519176666667","25.0121","6500400","永和區"
"234030","746-BX","2019/10/24 18:59:45","新北市永和區四維街44號","121.52524","24.9981233333333","6500400","永和區"
"234054","KEA-2590","2019/10/24 18:59:50","新北市永和區竹林路66巷15號","121.517791666667","25.0131733333333","6500400","永和區"
"234007","KED-0605","2019/10/24 18:59:58","新北市永和區中山路一段50號","121.513278333333","25.0106833333333","6500400","永和區"
"234013","KEA-2591","2019/10/24 18:59:51","新北市永和區中山路一段93號","121.511543333333","25.0106466666667","6500400","永和區"
"234061","AAD-866","2019/10/24 18:59:44","新北市永和區福和路309巷1號","121.516343333333","25.0070566666667","6500400","永和區"
"234042","862-TW","2019/10/24 18:59:36","新北市永和區永貞路267號","121.511803333333","25.0048383333333","6500400","永和區"
"234050","863-TW","2019/10/24 18:59:41","新北市永和區文化路145號","121.510838333333","25.01617","6500400","永和區"
"234026","9371-KE","2019/10/24 18:59:49","新北市永和區仁愛路265號","121.506318333333","25.01004","6500400","永和區"
"234011","9373-KE","2019/10/24 18:59:54","新北市永和區仁愛路141巷3弄11號","121.51206","25.0125433333333","6500400","永和區"
"249005","172-UM","2019/10/24 18:59:42","新北市八里區長道坑11號","121.394925","25.1227666666667","6502300","八里區"
"249001","173-UM","2019/10/24 18:59:49","新北市八里區龍米路二段228-1號","121.432833333333","25.1584366666667","6502300","八里區"
"248016","026-BX","2019/10/24 18:59:39","新北市五股區凌雲路一段134巷21號","121.450083333333","25.1026733333333","6501500","五股區"
"248006","077-UY","2019/10/24 18:59:51","新北市五股區四維路173號","121.467941666667","25.0750316666667","6501500","五股區"
"248008","KED-0815","2019/10/24 18:59:47","新北市五股區中興路一段137號","121.465441666667","25.0734266666667","6501500","五股區"
"248020","KED-0813","2019/10/24 18:59:48","新北市五股區凌雲路三段57號","121.425305","25.1249633333333","6501500","五股區"
"248012","247-BX","2019/10/24 18:59:48","新北市五股區中興路四段48巷16號","121.438596666667","25.083435","6501500","五股區"
"248004","677-BX","2019/10/24 18:59:56","新北市五股區民義路一段226號","121.428613333333","25.0906783333333","6501500","五股區"
"248002","678-BX","2019/10/24 18:59:47","新北市五股區天乙路1號","121.44858","25.1027816666667","6501500","五股區"
"248010","682-TV","2019/10/24 18:59:40","新北市五股區水碓一路23號","121.430615","25.0712783333333","6501500","五股區"
"234023","9380-KE","2019/10/24 18:59:59","新北市永和區竹林路75巷25弄3號","121.520153333333","25.0140566666667","6500400","永和區"
"234077","969-R7","2019/10/24 18:59:51","新北市永和區中正路318號","121.51789","24.999405","6500400","永和區"
"234067","AAC-212","2019/10/24 18:59:54","新北市永和區自由街49號","121.514071666667","25.005845","6500400","永和區"
"234003","AAC-295","2019/10/24 18:59:50","新北市永和區和平街44號","121.512893333333","25.0099483333333","6500400","永和區"
"232011","375-UM","2019/10/24 18:59:55","新北市坪林區水聳淒坑19-2號","121.711996666667","24.9344566666667","6502000","坪林區"
"244007","080-UY","2019/10/24 18:59:45","新北市林口區太平里23-3號","121.376031666667","25.115545","6501700","林口區"
"244019","402-UM","2019/10/24 18:59:54","新北市林口區文化二路一段498號","121.376288333333","25.0785016666667","6501700","林口區"
"244013","KEA-2802","2019/10/24 18:59:54","新北市林口區麗園一街2巷1號","121.375705","25.07162","6501700","林口區"
"244023","483-VK","2019/10/24 18:59:52","新北市林口區民權路173號","121.374723333333","25.0846566666667","6501700","林口區"
"244016","485-VK","2019/10/24 18:59:52","新北市林口區忠孝路468號","121.369825","25.0707483333333","6501700","林口區"
"244011","701-TV","2019/10/24 18:59:46","新北市林口區中正路341號","121.388076666667","25.07765","6501700","林口區"
"244025","837-TS","2019/10/24 18:59:48","新北市林口區南勢一街24號","121.360925","25.0756483333333","6501700","林口區"
"243012","AAD-798","2019/10/24 18:59:41","新北市泰山區泰林路二段73巷29號","121.434401666667","25.0578683333333","6501600","泰山區"
"243010","297-R6","2019/10/24 18:59:49","新北市泰山區辭修路24號","121.429033333333","25.0581283333333","6501600","泰山區"
"243014","KEA-2801","2019/10/24 18:59:44","新北市泰山區黎明路2-5號","121.420846666667","25.0625733333333","6501600","泰山區"
"243016","421-VK","2019/10/24 18:59:38","新北市泰山區明志路二段137號","121.427611666667","25.0507266666667","6501600","泰山區"
"243009","KEA-2215","2019/10/24 18:59:45","新北市泰山區泰林路二段364號","121.428691666667","25.0636433333333","6501600","泰山區"
"243011","KEA-2216","2019/10/24 18:59:47","新北市泰山區明志路二段246-1號","121.427125","25.0480283333333","6501600","泰山區"
"243013","646-TV","2019/10/24 18:59:43","新北市泰山區明志路三段206巷3號","121.423266666667","25.0379466666667","6501600","泰山區"
"243015","680-BX","2019/10/24 18:59:58","新北市泰山區美寧街46號","121.430531666667","25.064315","6501600","泰山區"
"222003","436-BY","2019/10/24 18:59:45","新北市深坑區深南路88巷1號","121.621408333333","25.0108133333333","6501800","深坑區"
"222002","659-BX","2019/10/24 18:59:41","新北市深坑區文山路一段33號","121.629691666667","25.004085","6501800","深坑區"
"231061","002-UM","2019/10/24 18:59:45","新北市新店區安華路1-1號","121.519571666667","24.9603433333333","6500600","新店區"
"231055","0291-UT","2019/10/24 18:59:42","新北市新店區北新路一段271巷8號","121.54052","24.966775","6500600","新店區"
"231044","046-UY","2019/10/24 18:59:47","新北市新店區中興路二段100巷2號","121.547448333333","24.97145","6500600","新店區"
"231060","106-UY","2019/10/24 18:59:53","新北市新店區安華路30巷12-1號","121.517785","24.9580416666667","6500600","新店區"
"231051","107-UY","2019/10/24 18:59:45","新北市新店區百忍街1號","121.534958333333","24.9754983333333","6500600","新店區"
"231049","108-UY","2019/10/24 18:59:53","新北市新店區二十張路123號","121.53605","24.9794166666667","6500600","新店區"
"231065","110-UY","2019/10/24 18:59:42","新北市新店區安祥路147巷84號","121.47561","24.9554233333333","6500600","新店區"
"231062","256-BX","2019/10/24 18:59:39","新北市新店區安豐路56-3號","121.499308333333","24.9544216666667","6500600","新店區"
"231054","260-TV","2019/10/24 18:59:43","新北市新店區新店路13號","121.540236666667","24.9528783333333","6500600","新店區"
"231042","268-BY","2019/10/24 18:59:48","新北市新店區中興路二段27號","121.545996666667","24.969585","6500600","新店區"
"231064","278-BY","2019/10/24 18:59:53","新北市新店區安康路一段266巷4號","121.519813333333","24.9640016666667","6500600","新店區"
"231050","AAD-862","2019/10/24 18:59:48","新北市新店區新烏路一段11巷1弄2號","121.547325","24.9513483333333","6500600","新店區"
"231045","355-BY","2019/10/24 18:59:46","新北市新店區安康路一段3-1號","121.534461666667","24.9606783333333","6500600","新店區"
"231058","3713-VJ","2019/10/24 18:59:44","新北市新店區中正路1巷2號","121.545681666667","24.9689383333333","6500600","新店區"
"231056","4715-K9","2019/10/24 18:59:47","新北市新店區民權路105號","121.536421666667","24.9825933333333","6500600","新店區"
"231067","4772-VM","2019/10/24 18:59:54","新北市新店區安康路一段76巷18-1號","121.528441666667","24.9629116666667","6500600","新店區"
"231052","513-UM","2019/10/24 18:59:51","新北市新店區屈尺路22號","121.548636666667","24.9226116666667","6500600","新店區"
"231063","616-UM","2019/10/24 18:59:57","新北市新店區安華路1-1號","121.519633333333","24.9603783333333","6500600","新店區"
"231041","619-UM","2019/10/24 18:59:43","新北市新店區環河路29巷1號","121.53665","24.9612866666667","6500600","新店區"
"231047","KED-0819","2019/10/24 18:59:49","新北市新店區德正街23巷12-1號","121.544733333333","24.9721533333333","6500600","新店區"
"231046","719-UM","2019/10/24 18:59:51","新北市新店區直潭二街37號","121.535303333333","24.9414966666667","6500600","新店區"
"231057","720-UM","2019/10/24 18:59:51","新北市新店區百齡一路12號","121.553093333333","24.9324766666667","6500600","新店區"
"231059","897-TW","2019/10/24 18:59:53","新北市新店區安華路28-1號","121.519575","24.960765","6500600","新店區"
"231040","898-TW","2019/10/24 18:59:57","新北市新店區中央路137號","121.530268333333","24.9736166666667","6500600","新店區"
"231043","899-TW","2019/10/24 18:59:45","新北市新店區北新路一段138號","121.542421666667","24.9703083333333","6500600","新店區"
"231066","AKT-0513","2019/10/24 18:59:44","新北市新店區安豐路45號","121.50023","24.9551733333333","6500600","新店區"
"241029","942-UM","2019/10/24 18:59:51","新北市三重區重安街13巷14號","121.490521666667","25.0569566666667","6500200","三重區"
"235066","003-UY","2019/10/24 18:59:44","新北市中和區水源路6號","121.503595","25.003485","6500300","中和區"
"235063","006-UY","2019/10/24 18:59:50","新北市中和區中正路530號","121.487908333333","24.9944816666667","6500300","中和區"
"235056","096-UM","2019/10/24 18:59:57","新北市板橋區三民路二段204-3號","121.478936666667","25.012365","6500300","中和區"
"235039","097-UM","2019/10/24 18:59:40","新北市中和區景平路64巷13弄22號","121.521433333333","24.99151","6500300","中和區"
"235065","098-UM","2019/10/24 18:59:50","新北市中和區福祥路158號","121.49843","25.0075916666667","6500300","中和區"
"235040","150-BY","2019/10/24 18:59:58","新北市中和區安樂路91號","121.513025","24.9947933333333","6500300","中和區"
"235058","151-BY","2019/10/24 18:59:41","新北市中和區員山路102巷16號","121.481705","24.99458","6500300","中和區"
"235055","183-VK","2019/10/24 18:59:39","新北市中和區德光路12號","121.471471666667","25.00457","6500300","中和區"
"235038","185-VK","2019/10/24 18:59:43","新北市中和區立人街24-5號","121.518923333333","24.994145","6500300","中和區"
"235067","255-BX","2019/10/24 18:59:49","新北市中和區新生街197號","121.483748333333","25.000095","6500300","中和區"
"235044","293-VK","2019/10/24 18:59:42","新北市中和區中興街161巷4弄1號","121.500603333333","24.9908916666667","6500300","中和區"
"235072","301-VK","2019/10/24 18:59:48","新北市中和區永和路7號","121.499345","25.003795","6500300","中和區"
"235043","352-BY","2019/10/24 18:59:40","新北市中和區景平路2號","121.525056666667","24.990445","6500300","中和區"
"235042","KEA-2878","2019/10/24 18:59:42","新北市中和區秀朗路三段22巷9號","121.525766666667","24.9961866666667","6500300","中和區"
"235050","4979-A6","2019/10/24 18:59:55","新北市中和區華新街50巷8號","121.50764","24.98395","6500300","中和區"
"235069","4980-A6","2019/10/24 18:59:43","新北市中和區南山路28號","121.50184","24.9980016666667","6500300","中和區"
"235045","551-UM","2019/10/24 18:59:52","新北市中和區景新街467巷20弄21號","121.515131666667","24.987305","6500300","中和區"
"235070","558-UM","2019/10/24 18:59:50","新北市中和區中和路108號","121.502878333333","24.999615","6500300","中和區"
"235060","KED-0823","2019/10/24 18:59:41","新北市中和區民享街40-1號","121.473965","25.0028883333333","6500300","中和區"
"235054","640-BX","2019/10/24 18:59:51","新北市中和區民德路149號","121.468703333333","25.000295","6500300","中和區"
"235047","732-UM","2019/10/24 18:59:53","新北市中和區興南路二段74巷1號","121.505273333333","24.98504","6500300","中和區"
"235046","733-UM","2019/10/24 18:59:46","新北市中和區興南路二段31巷8號","121.50792","24.9855266666667","6500300","中和區"
"235057","801-TS","2019/10/24 18:59:50","新北市中和區民利街87號","121.478248333333","24.9981333333333","6500300","中和區"
"235041","802-TS","2019/10/24 18:59:42","新北市中和區景安路67號","121.507016666667","24.99775","6500300","中和區"
"235052","805-TS","2019/10/24 18:59:54","新北市中和區興南路二段347號","121.50018","24.9801133333333","6500300","中和區"
"235048","896-TW","2019/10/24 18:59:44","新北市中和區工專路111號","121.507693333333","24.9823433333333","6500300","中和區"
"235053","900-TW","2019/10/24 18:59:56","新北市板橋區和平路174巷1弄1號","121.46408","24.99513","6500300","中和區"
"235064","911-UM","2019/10/24 18:59:46","新北市中和區中和路35號","121.500091666667","25.0015683333333","6500300","中和區"
"235051","157-BY","2019/10/24 18:59:48","新北市中和區忠孝街31巷33弄2號","121.50969","24.9845733333333","6500300","中和區"
"235037","AAC-213","2019/10/24 18:59:47","新北市中和區秀朗路三段60巷42號","121.524945","24.9948916666667","6500300","中和區"
"235059","AAC-215","2019/10/24 18:59:41","新北市中和區圓通路296巷1號","121.487806666667","24.9888016666667","6500300","中和區"
"220035","015-TV","2019/10/24 18:59:27","新北市板橋區中正路277號","121.455605","25.01896","6500100","板橋區"
"220065","072-UY","2019/10/24 18:59:50","新北市板橋區漢生東路319號","121.47189","25.0079383333333","6500100","板橋區"
"220086","073-UY","2019/10/24 18:59:55","新北市板橋區大智街8號","121.4562","25.014825","6500100","板橋區"
"220106","075-UY","2019/10/24 18:59:51","新北市板橋區雙十路三段10巷11號","121.472195","25.0309433333333","6500100","板橋區"
"220069","AAD-861","2019/10/24 18:59:53","新北市板橋區四川路一段154號","121.459966666667","25.003375","6500100","板橋區"
"220068","120-SR","2019/10/24 18:59:44","新北市板橋區縣民大道三段310號","121.478751666667","25.023725","6500100","板橋區"
"226004","312-R5","2019/10/24 18:59:57","新北市平溪區靜安路二段418號","121.739291666667","25.024365","6502400","平溪區"
"235049","251-BX","2019/10/24 18:59:48","新北市中和區景安路72號","121.505805","24.99651","6500300","中和區"
"228003","097-TW","2019/10/24 18:59:48","新北市貢寮區和美里龍洞街56-3號","121.91272","25.1145016666667","6502600","貢寮區"
"228001","212-TW","2019/10/24 18:59:47","新北市貢寮區仁理村保健街95號","121.92404","25.0524833333333","6502600","貢寮區"
"228002","663-BX","2019/10/24 18:59:57","新北市貢寮區福隆里東興街106巷21弄2號","121.94615","25.0180633333333","6502600","貢寮區"
"224006","676-BX","2019/10/24 18:59:48","新北市瑞芳區中山路22號","121.804125","25.106225","6501200","瑞芳區"
"224007","285-BY","2019/10/24 18:59:44","新北市瑞芳區中央路48巷7-1號","121.761631666667","25.1029183333333","6501200","瑞芳區"
"224009","275-VK","2019/10/24 18:59:55","新北市瑞芳區長仁路35-1號","121.866098333333","25.1176666666667","6501200","瑞芳區"
"224008","273-VK","2019/10/24 18:59:53","新北市瑞芳區逢甲路343-15號","121.799041666667","25.1123933333333","6501200","瑞芳區"
"224005","271-BY","2019/10/24 18:59:43","新北市瑞芳區連福新城33號","121.82013","25.1187583333333","6501200","瑞芳區"
"227002","642-TC","2019/10/24 18:59:50","新北市雙溪區平林里康福家園1號","121.858211666667","25.0377566666667","6502500","雙溪區"
"227001","400-TW","2019/10/24 18:59:42","新北市雙溪區牡丹里中正路60號","121.866131666667","25.0422683333333","6502500","雙溪區"
"253005","032-BX","2019/10/24 18:59:43","新北市石門區中央路42號","121.568041666667","25.292795","6502200","石門區"
"253006","295-VK","2019/10/24 18:59:53","新北市石門區八甲9-2號","121.521753333333","25.2817216666667","6502200","石門區"
"222001","KEA-2212","2019/10/24 18:59:40","新北市深坑區北深路一段300號","121.624286666667","25.00575","6501800","深坑區"
"208002","KEA-2872","2019/10/24 18:59:39","新北市金山區仁愛路67巷14號","121.634546666667","25.2208566666667","6502700","金山區"
"208003","665-BX","2019/10/24 18:59:50","新北市金山區中正路53號","121.634613333333","25.2219416666667","6502700","金山區"
"251009","008-UM","2019/10/24 18:59:57","新北市淡水區重建街98號","121.44002","25.1725816666667","6501000","淡水區"
"251015","KEA-2871","2019/10/24 18:59:43","新北市淡水區糞箕湖62號","121.4852","25.172235","6501000","淡水區"
"251016","179-VK","2019/10/24 18:59:55","新北市淡水區淡金路三段193號","121.448776666667","25.2046466666667","6501000","淡水區"
"251013","182-VK","2019/10/24 18:59:48","新北市淡水區安子內3-2號","121.485513333333","25.2159633333333","6501000","淡水區"
"251010","413-VK","2019/10/24 18:59:58","新北市淡水區中正路一段156巷8號","121.421636666667","25.1806866666667","6501000","淡水區"
"251012","441-VK","2019/10/24 18:59:39","新北市淡水區新興街109號","121.440675","25.1808783333333","6501000","淡水區"
"251007","442-VK","2019/10/24 18:59:51","新北市淡水區民生路113巷1弄41號","121.462876666667","25.13863","6501000","淡水區"
"251001","559-UM","2019/10/24 18:59:41","新北市淡水區自強路58號","121.463143333333","25.12744","6501000","淡水區"
"251014","577-R6","2019/10/24 18:59:50","新北市淡水區小中寮32-1號","121.49177","25.2266016666667","6501000","淡水區"
"251011","650-BX","2019/10/24 18:59:59","新北市淡水區鄧公路30巷2弄20號","121.453001666667","25.169025","6501000","淡水區"
"251002","672-BX","2019/10/24 18:59:50","新北市淡水區中正東路43號","121.446478333333","25.16796","6501000","淡水區"
"251003","766-UM","2019/10/24 18:59:47","新北市淡水區中山北路一段149巷27號","121.443075","25.1778183333333","6501000","淡水區"
"207003","550-UM","2019/10/24 18:59:45","新北市萬里區大鵬里頂社2-1號","121.660348333333","25.2072083333333","6502800","萬里區"
"207004","291-VK","2019/10/24 18:59:54","新北市萬里區萬里里獅頭路23號","121.693178333333","25.17823","6502800","萬里區"
"252002","178-VK","2019/10/24 18:59:51","新北市三芝區中正路一段35號","121.503156666667","25.2584183333333","6502100","三芝區"
"252003","249-BX","2019/10/24 18:59:58","新北市三芝區後厝里北勢子42-3號","121.472153333333","25.2524783333333","6502100","三芝區"
"208001","170-UY","2019/10/24 18:59:28","新北市金山區民生路51巷1-2號","121.641963333333","25.220225","6502700","金山區"
"237004","KEA-2597","2019/10/24 18:59:53","新北市三峽區有木194-1號","121.446626666667","24.8455683333333","6500900","三峽區"
"237007","153-BY","2019/10/24 18:59:54","新北市三峽區大埔路177號","121.366683333333","24.9050566666667","6500900","三峽區"
"237013","252-BX","2019/10/24 18:59:42","新北市三峽區大同路48巷17弄8-1號","121.376788333333","24.92909","6500900","三峽區"
"237012","275-BY","2019/10/24 18:59:51","新北市三峽區三樹路222巷61號","121.383853333333","24.942185","6500900","三峽區"
"237008","302-VK","2019/10/24 18:59:46","新北市三峽區大同路174巷16號","121.372756666667","24.9274283333333","6500900","三峽區"
"237014","433-BY","2019/10/24 18:59:43","新北市三峽區隆恩街168-4號","121.363271666667","24.943415","6500900","三峽區"
"237006","5529-G3","2019/10/24 18:59:43","新北市三峽區溪東路233巷51-1號","121.410321666667","24.9344233333333","6500900","三峽區"
"237011","KEA-2596","2019/10/24 18:59:54","新北市三峽區介壽路三段160-1號","121.402041666667","24.94373","6500900","三峽區"
"237015","649-BX","2019/10/24 18:59:49","新北市三峽區建安71號","121.44884","24.9261016666667","6500900","三峽區"
"237010","706-TV","2019/10/24 18:59:41","新北市三峽區復興路333號","121.364526666667","24.93872","6500900","三峽區"
"237005","AKY-6261","2019/10/24 18:59:51","新北市三峽區中山路459巷135號","121.349063333333","24.9333083333333","6500900","三峽區"
"236042","KED-0685","2019/10/24 18:59:42","新北市土城區學府路一段229巷4號","121.451368333333","24.9838033333333","6501300","土城區"
"233002","762-BX","2019/10/24 18:59:43","新北市新店區薏仁坑路自強巷1號","121.497753333333","24.95771","6502900","烏來區"
"236078","166-UM","2019/10/24 18:59:56","新北市土城區中央路四段125巷2弄18號","121.41642","24.9569","6501300","土城區"
"236030","253-BX","2019/10/24 18:59:52","新北市土城區中央路二段304號","121.44016","24.97352","6501300","土城區"
"236026","269-VK","2019/10/24 18:59:47","新北市土城區中央路二段246號","121.441925","24.9748633333333","6501300","土城區"
"236014","270-VK","2019/10/24 18:59:40","新北市土城區立德路107號","121.4638","24.987695","6501300","土城區"
"236038","271-VK","2019/10/24 18:59:50","新北市土城區仁愛路20-2號","121.460986666667","24.980085","6501300","土城區"
"236070","KEA-2877","2019/10/24 18:59:52","新北市土城區金城路二段188號","121.454241666667","24.9814766666667","6501300","土城區"
"252001","KED-0821","2019/10/24 18:59:48","新北市三芝區中興街二段260號","121.50175","25.25299","6502100","三芝區"
"236021","401-BY","2019/10/24 18:59:46","新北市土城區延吉街172號","121.4682","24.9853716666667","6501300","土城區"
"236063","752-BX","2019/10/24 18:58:14","新北市土城區延和路41巷2弄15號","121.466696666667","24.990115","6501300","土城區"
"236059","912-UM","2019/10/24 18:59:40","新北市土城區金城路二段266號","121.458268333333","24.98411","6501300","土城區"
"236049","913-UM","2019/10/24 18:59:42","新北市土城區青雲路322巷2弄4號","121.458066666667","24.977325","6501300","土城區"
"236055","AAC-216","2019/10/24 18:59:49","新北市土城區學成路147號","121.448708333333","24.9895083333333","6501300","土城區"
"242009","349-TH","2019/10/24 18:59:57","新北市新莊區三和路12-21號","121.442306666667","25.0383866666667","6500500","新莊區"
"238023","601-UM","2019/10/24 18:59:52","新北市樹林區大慶街61號","121.396041666667","25.0135716666667","6500700","樹林區"
"238019","599-UM","2019/10/24 18:59:48","新北市樹林區東榮街169號","121.413981666667","24.9814216666667","6500700","樹林區"
"238022","KEA-2213","2019/10/24 18:59:42","新北市樹林區中華路379巷60號","121.413583333333","24.9780533333333","6500700","樹林區"
"238021","KEA-2539","2019/10/24 18:59:59","新北市樹林區柑園街二段308號","121.37348","24.9517533333333","6500700","樹林區"
"238025","303-VK","2019/10/24 18:59:46","新北市樹林區中山路三段26號","121.395453333333","24.97289","6500700","樹林區"
"238017","283-BY","2019/10/24 18:59:43","新北市樹林區中山路三段125號","121.398861666667","24.9742066666667","6500700","樹林區"
"238014","282-BY","2019/10/24 18:59:53","新北市樹林區潭興街127巷3弄4號","121.42538","24.999315","6500700","樹林區"
"238020","268-VK","2019/10/24 18:59:49","新北市樹林區俊英街282號","121.423745","25.0133283333333","6500700","樹林區"
"238026","172-UY","2019/10/24 18:59:41","新北市樹林區中和街6號","121.39181","24.9729","6500700","樹林區"
"238016","169-UY","2019/10/24 18:59:46","新北市樹林區文化街45號","121.418148333333","24.9882433333333","6500700","樹林區"
"239007","AAC-297","2019/10/24 18:59:46","新北市鶯歌區中正一路建德巷20號","121.364658333333","24.9573333333333","6500800","鶯歌區"
"239003","661-UM","2019/10/24 18:46:49","新北市鶯歌區福安街1號","121.334188333333","24.9642116666667","6500800","鶯歌區"
"239008","527-UM","2019/10/24 18:59:59","新北市鶯歌區朝陽街1號","121.33628","24.9765866666667","6500800","鶯歌區"
"239005","526-UM","2019/10/24 18:59:41","新北市鶯歌區鳳吉一街100號","121.327303333333","24.9745033333333","6500800","鶯歌區"
"239001","417-VK","2019/10/24 18:59:55","新北市鶯歌區國中街209號","121.337751666667","24.938865","6500800","鶯歌區"
"239002","359-BY","2019/10/24 18:59:43","新北市鶯歌區中正一路4號","121.352455","24.9529683333333","6500800","鶯歌區"
"239004","193-VK","2019/10/24 18:59:55","新北市鶯歌區尖山路302巷18號","121.3417","24.94335","6500800","鶯歌區"
"221008","489-VK","2019/10/24 18:59:58","新北市汐止區康寧街582號","121.634971666667","25.06984","6501100","汐止區"
"221036","130-UY","2019/10/24 18:59:55","新北市汐止區忠孝東路316巷3號","121.665051666667","25.0690116666667","6501100","汐止區"
"221015","131-UY","2019/10/24 18:59:51","新北市汐止區鄉長路一段295號","121.669311666667","25.0794533333333","6501100","汐止區"
"221032","280-BY","2019/10/24 18:59:39","新北市汐止區橫科路407巷25弄7號","121.625798333333","25.0482483333333","6501100","汐止區"
"221029","298-VK","2019/10/24 18:59:52","新北市汐止區樟樹一路244號","121.64241","25.066975","6501100","汐止區"
"221031","353-TW","2019/10/24 18:59:48","新北市汐止區福德二路187巷10號","121.63014","25.0647083333333","6501100","汐止區"
"221035","622-UM","2019/10/24 18:59:58","新北市汐止區大同路二段266號","121.654625","25.066085","6501100","汐止區"
"221002","707-TV","2019/10/24 18:59:42","新北市汐止區大同路一段2號","121.621008333333","25.0549716666667","6501100","汐止區"
"220079","145-BY","2019/10/24 18:59:53","新北市板橋區大智街71巷3弄3號","121.453578333333","25.0152216666667","6500100","板橋區"
"220080","200-UY","2019/10/24 18:59:57","新北市板橋區大觀路二段108號","121.444195","24.9993883333333","6500100","板橋區"
"220082","610-BX","2019/10/24 18:59:57","新北市板橋區滿平街108號","121.428238333333","24.9886583333333","6500100","板橋區"
"220101","245-BX","2019/10/24 18:59:58","新北市板橋區萬板路5號","121.47034","25.0208316666667","6500100","板橋區"
"224002","257-TC","2019/10/24 18:59:43","新北市瑞芳區靜安路四段6號","121.795185","25.0833333333333","6501200","瑞芳區"
"220056","276-BY","2019/10/24 18:59:56","新北市板橋區信義路173號","121.458936666667","24.9920483333333","6500100","板橋區"
"220072","277-BY","2019/10/24 18:59:57","新北市板橋區大觀路三段50巷79號","121.43141","24.9964033333333","6500100","板橋區"
"220094","283-UM","2019/10/24 18:59:55","新北市板橋區光武街161號","121.465315","25.029775","6500100","板橋區"
"220071","283-VK","2019/10/24 18:59:46","新北市板橋區重慶路245巷67弄2號","121.465658333333","25.0012433333333","6500100","板橋區"
"220053","285-VK","2019/10/24 18:59:56","新北市板橋區永豐街89巷5弄2號","121.473136666667","25.019605","6500100","板橋區"
"220081","287-VK","2019/10/24 18:59:59","新北市板橋區光華街19巷17號","121.453073333333","25.01193","6500100","板橋區"
"220090","288-VK","2019/10/24 18:59:51","新北市板橋區裕民街23-3號","121.462153333333","25.0289566666667","6500100","板橋區"
"220061","293-UM","2019/10/24 18:59:50","新北市板橋區懷仁街85巷2弄1號","121.477703333333","25.0184966666667","6500100","板橋區"
"220062","295-UM","2019/10/24 18:59:59","新北市板橋區三民路二段245巷8號","121.479571666667","25.0125183333333","6500100","板橋區"
"220084","296-UM","2019/10/24 18:59:41","新北市板橋區龍興街63巷4號","121.442936666667","25.001305","6500100","板橋區"
"220075","303-R5","2019/10/24 18:59:56","新北市板橋區後菜園街34號","121.456728333333","25.010265","6500100","板橋區"
"220092","307-R5","2019/10/24 18:59:47","新北市板橋區文化路二段225巷60弄58號","121.469125","25.0297616666667","6500100","板橋區"
"220098","317-R6","2019/10/24 18:59:55","新北市板橋區萬板路15號","121.47062","25.0210116666667","6500100","板橋區"
"220089","487-VK","2019/10/24 18:59:57","新北市板橋區文化路二段159號","121.470363333333","25.0272116666667","6500100","板橋區"
"220088","491-VK","2019/10/24 18:59:44","新北市板橋區文化路二段182巷1弄26號","121.471785","25.0283533333333","6500100","板橋區"
"220083","568-UM","2019/10/24 18:59:49","新北市板橋區僑中二街124巷2號","121.445343333333","25.005305","6500100","板橋區"
"220063","609-BX","2019/10/24 18:59:54","新北市板橋區三民路二段67號","121.479398333333","25.0170733333333","6500100","板橋區"
"220103","630-UY","2019/10/24 19:00:00","新北市板橋區介壽街66號","121.469328333333","25.0195266666667","6500100","板橋區"
"220091","637-BX","2019/10/24 18:59:48","新北市板橋區大同街14-4號","121.477475","25.0269683333333","6500100","板橋區"
"220057","686-BX","2019/10/24 18:59:38","新北市板橋區重慶路317號","121.463838333333","24.9985916666667","6500100","板橋區"
"220077","687-BX","2019/10/24 18:59:55","新北市板橋區龍興街34號","121.443088333333","25.000515","6500100","板橋區"
"220093","689-BX","2019/10/24 18:59:51","新北市板橋區民生路三段163號","121.4657","25.0269133333333","6500100","板橋區"
"220054","741-BX","2019/10/24 18:59:47","新北市板橋區重慶路127巷16號","121.463495","25.0049066666667","6500100","板橋區"
"220102","KEA-2699","2019/10/24 18:59:46","新北市板橋區萬板路810-1號","121.482835","25.0273533333333","6500100","板橋區"
"220055","827-TW","2019/10/24 18:59:52","新北市板橋區新站路3號","121.467116666667","25.0112683333333","6500100","板橋區"
"220067","831-TW","2019/10/24 18:59:56","新北市板橋區民享街116巷2弄15號","121.477298333333","25.0153333333333","6500100","板橋區"
"220074","895-R6","2019/10/24 18:59:54","新北市板橋區府中路141-2號","121.455526666667","25.00948","6500100","板橋區"
"220073","985-R7","2019/10/24 18:59:52","新北市板橋區民權路259號","121.457021666667","25.0160516666667","6500100","板橋區"
"220097","AAC-210","2019/10/24 18:59:46","新北市板橋區幸福路70巷30號","121.460195","25.0209183333333","6500100","板橋區"
"220064","AAC-253","2019/10/24 18:59:47","新北市板橋區板新路42號","121.473795","25.0137416666667","6500100","板橋區"
"235068","KEA-2873","2019/10/24 18:59:30","新北市中和區圓通路162巷37弄1號","121.496413333333","24.9954966666667","6500300","中和區"
"235061","KEA-2875","2019/10/24 18:59:33","新北市中和區中山路三段97號","121.475213333333","25.0060683333333","6500300","中和區"
