"lineid","car","time","location","longitude","latitude","cityid","cityname"
"234046","148-BY","2019/10/24 19:29:54","新北市永和區秀朗路二段190號","121.526443333333","25.0006616666667","6500400","永和區"
"234081","298-R6","2019/10/24 19:29:45","新北市永和區福和路5-9號","121.52553","25.0083683333333","6500400","永和區"
"234038","336-UY","2019/10/24 19:29:43","新北市永和區民樂街46號","121.527421666667","25.0004466666667","6500400","永和區"
"234064","337-UY","2019/10/24 19:29:44","新北市永和區得和路243巷16號","121.520596666667","25.0007066666667","6500400","永和區"
"234086","338-UY","2019/10/24 19:29:53","新北市永和區林森路74號","121.523606666667","25.00385","6500400","永和區"
"234070","552-UM","2019/10/24 19:29:47","新北市永和區中正路666巷59號","121.519076666667","25.00922","6500400","永和區"
"234017","745-BX","2019/10/24 19:29:47","新北市永和區環河西路一段87號","121.512385","25.0179016666667","6500400","永和區"
"234030","746-BX","2019/10/24 19:29:47","新北市永和區民生路2號","121.522471666667","24.9979983333333","6500400","永和區"
"234054","KEA-2590","2019/10/24 19:29:50","新北市永和區復興街21號","121.516096666667","25.0130433333333","6500400","永和區"
"234007","KED-0605","2019/10/24 19:29:39","新北市永和區永和路一段102號","121.513203333333","25.007065","6500400","永和區"
"234013","KEA-2591","2019/10/24 19:29:51","新北市永和區永和路二段61號","121.514733333333","25.01101","6500400","永和區"
"234061","AAD-866","2019/10/24 19:29:55","新北市永和區中正路514號","121.517316666667","25.0047266666667","6500400","永和區"
"234042","862-TW","2019/10/24 19:29:55","新北市永和區水源街39巷8號","121.510353333333","25.00387","6500400","永和區"
"234050","863-TW","2019/10/24 19:29:41","新北市永和區信義路113號","121.512288333333","25.014715","6500400","永和區"
"234026","9371-KE","2019/10/24 19:29:49","新北市永和區安樂路144巷10號","121.514835","24.9999316666667","6500400","永和區"
"249003","593-UM","2019/10/24 19:29:57","新北市八里區中山路二段466巷29號","121.397651666667","25.1472","6502300","八里區"
"248016","026-BX","2019/10/24 19:29:58","新北市五股區成洲五路12號","121.452396666667","25.1015433333333","6501500","五股區"
"248008","KED-0815","2019/10/24 19:29:47","新北市五股區中興路一段95巷3號","121.466673333333","25.07267","6501500","五股區"
"248020","KED-0813","2019/10/24 19:29:48","新北市五股區凌雲路三段35-1號","121.430418333333","25.1166616666667","6501500","五股區"
"248012","247-BX","2019/10/24 19:29:48","新北市五股區成泰路二段91巷11號","121.43756","25.0840966666667","6501500","五股區"
"248014","261-SL","2019/10/24 19:29:52","新北市五股區五福路48號","121.433736666667","25.0894366666667","6501500","五股區"
"248004","677-BX","2019/10/24 19:29:56","新北市五股區成泰路二段142號","121.438201666667","25.0838466666667","6501500","五股區"
"248002","678-BX","2019/10/24 19:29:45","新北市五股區凌雲路一段158巷6號","121.447808333333","25.1029516666667","6501500","五股區"
"248010","682-TV","2019/10/24 19:29:40","新北市五股區水碓一路23號","121.430585","25.0712416666667","6501500","五股區"
"234023","9380-KE","2019/10/24 19:29:39","新北市永和區環河東路二段8-2號","121.521765","25.0132516666667","6500400","永和區"
"234077","969-R7","2019/10/24 19:29:51","新北市永和區民族街43巷10號","121.519075","24.998355","6500400","永和區"
"234074","AAC-211","2019/10/24 19:29:52","新北市永和區豫溪街191巷7弄2號","121.523841666667","25.0107566666667","6500400","永和區"
"234067","AAC-212","2019/10/24 19:29:54","新北市永和區保平路174巷2號","121.51088","25.0067316666667","6500400","永和區"
"234003","AAC-295","2019/10/24 19:29:50","新北市永和區福和路385號","121.514213333333","25.0077316666667","6500400","永和區"
"244023","483-VK","2019/10/24 19:29:52","新北市林口區民有街30號","121.372165","25.0765833333333","6501700","林口區"
"243012","AAD-798","2019/10/24 19:29:47","新北市泰山區仁義路222號","121.432933333333","25.053635","6501600","泰山區"
"243010","297-R6","2019/10/24 19:18:43","新北市泰山區明志路一段509號","121.430588333333","25.0544183333333","6501600","泰山區"
"243014","KEA-2801","2019/10/24 19:29:44","新北市泰山區仁愛路6巷4弄2號","121.43118","25.0537833333333","6501600","泰山區"
"243016","421-VK","2019/10/24 19:29:58","新北市泰山區明志路三段222號","121.421406666667","25.0359433333333","6501600","泰山區"
"243009","KEA-2215","2019/10/24 19:29:45","新北市泰山區半山雅3號","121.431381666667","25.0674266666667","6501600","泰山區"
"243011","KEA-2216","2019/10/24 19:29:47","新北市泰山區中山路二段563號","121.429876666667","25.040445","6501600","泰山區"
"243013","646-TV","2019/10/24 19:29:43","新北市泰山區貴子路36巷22號","121.425805","25.0408","6501600","泰山區"
"243015","680-BX","2019/10/24 19:29:58","新北市泰山區明志路二段136巷1-1號","121.427365","25.05118","6501600","泰山區"
"222003","436-BY","2019/10/24 19:29:45","新北市深坑區深南路51-1號","121.621275","25.0098133333333","6501800","深坑區"
"222002","659-BX","2019/10/24 19:29:41","新北市深坑區北深路一段177號","121.632593333333","25.010805","6501800","深坑區"
"231061","002-UM","2019/10/24 19:29:45","新北市新店區安和路一段1號","121.516805","24.9638683333333","6500600","新店區"
"231044","046-UY","2019/10/24 19:29:47","新北市新店區中興路三段226號","121.543356666667","24.9831783333333","6500600","新店區"
"231060","106-UY","2019/10/24 19:29:53","新北市新店區安康路二段3-1號","121.51605","24.9636716666667","6500600","新店區"
"231051","107-UY","2019/10/24 19:29:45","新北市新店區中央五街59號","121.527455","24.97557","6500600","新店區"
"231049","108-UY","2019/10/24 19:29:44","新北市新店區北新路三段65巷34弄18號","121.54011","24.9815566666667","6500600","新店區"
"231065","110-UY","2019/10/24 19:29:42","新北市新店區安祥路109巷1弄51號","121.477438333333","24.960635","6500600","新店區"
"231062","256-BX","2019/10/24 19:29:59","新北市新店區太平路28巷42號","121.533046666667","24.9595816666667","6500600","新店區"
"231054","260-TV","2019/10/24 19:29:43","新北市新店區文中路40號","121.539748333333","24.9566","6500600","新店區"
"231042","268-BY","2019/10/24 19:29:48","新北市新店區中興路一段144號","121.54239","24.96376","6500600","新店區"
"231064","278-BY","2019/10/24 19:29:53","新北市新店區安康路二段74號","121.514398333333","24.96354","6500600","新店區"
"231050","AAD-862","2019/10/24 19:29:40","新北市新店區北宜路二段225號","121.553451666667","24.95334","6500600","新店區"
"231045","355-BY","2019/10/24 19:29:46","新北市新店區北宜路二段209號","121.553165","24.9532783333333","6500600","新店區"
"231058","3713-VJ","2019/10/24 19:29:44","新北市新店區北新路一段96巷25號","121.542698333333","24.969275","6500600","新店區"
"231056","4715-K9","2019/10/24 19:29:47","新北市新店區中央路155號","121.529711666667","24.97285","6500600","新店區"
"231052","513-UM","2019/10/24 19:29:51","新北市新店區新烏路二段200巷11號","121.54768","24.9166183333333","6500600","新店區"
"231063","616-UM","2019/10/24 19:29:57","新北市新店區達觀路18-1號","121.502851666667","24.9414916666667","6500600","新店區"
"231041","619-UM","2019/10/24 19:29:43","新北市新店區中正路556號","121.533681666667","24.9870866666667","6500600","新店區"
"231047","KED-0819","2019/10/24 19:29:49","新北市新店區五峰路85號","121.546195","24.9675033333333","6500600","新店區"
"231046","719-UM","2019/10/24 19:29:51","新北市新店區北新路一段14號","121.540861666667","24.96561","6500600","新店區"
"231057","720-UM","2019/10/24 19:29:51","新北市新店區花園一路二段11-7號","121.550681666667","24.9334733333333","6500600","新店區"
"231059","897-TW","2019/10/24 19:29:54","新北市新店區安和路三段4號","121.51788","24.980895","6500600","新店區"
"231040","898-TW","2019/10/24 19:29:57","新北市新店區中華路66號","121.539166666667","24.9690716666667","6500600","新店區"
"231043","899-TW","2019/10/24 19:29:45","新北市新店區北新路二段228巷1號","121.542991666667","24.97777","6500600","新店區"
"231066","AKT-0513","2019/10/24 19:29:44","新北市新店區安康路三段359巷12弄27號","121.483991666667","24.949315","6500600","新店區"
"241011","013-R5","2019/10/24 19:29:46","新北市三重區河邊北街124巷16號","121.503223333333","25.0713233333333","6500200","三重區"
"241028","022-UY","2019/10/24 19:29:54","新北市三重區中寮街31號","121.49257","25.0589533333333","6500200","三重區"
"241008","059-VK","2019/10/24 19:29:39","新北市三重區永福街135巷32弄7號","121.477046666667","25.0770816666667","6500200","三重區"
"241031","061-VK","2019/10/24 19:29:53","新北市三重區集美街61號","121.48842","25.0544066666667","6500200","三重區"
"241017","063-VK","2019/10/24 19:29:46","新北市三重區中正北路25巷25弄4號","121.493335","25.0627183333333","6500200","三重區"
"241007","066-VK","2019/10/24 19:29:39","新北市三重區溪尾街130號","121.489235","25.0794433333333","6500200","三重區"
"241006","262-UM","2019/10/24 19:29:49","新北市三重區自強路三段97號","121.487595","25.0752233333333","6500200","三重區"
"241009","267-UM","2019/10/24 19:29:56","新北市三重區仁美街123號","121.485586666667","25.0812483333333","6500200","三重區"
"241032","269-UM","2019/10/24 19:29:47","新北市三重區三陽路62號","121.484133333333","25.058735","6500200","三重區"
"241013","270-UM","2019/10/24 19:29:46","新北市三重區仁愛街141巷15號","121.496165","25.0753016666667","6500200","三重區"
"241025","271-UM","2019/10/24 19:29:49","新北市三重區頂崁街210巷28弄9號","121.475803333333","25.067135","6500200","三重區"
"241035","KEA-2210","2019/10/24 19:29:57","新北市三重區信義西街1巷3號","121.49803","25.06497","6500200","三重區"
"241023","462-BY","2019/10/24 19:29:46","新北市三重區頂崁街99號","121.477951666667","25.0638566666667","6500200","三重區"
"241004","475-VK","2019/10/24 19:29:45","新北市三重區仁義街91號","121.499733333333","25.0796583333333","6500200","三重區"
"241020","478-VK","2019/10/24 19:29:45","新北市三重區三和路四段20巷15號","121.490453333333","25.0739066666667","6500200","三重區"
"241026","480-VK","2019/10/24 19:29:48","新北市三重區文化南路47巷3號","121.49988","25.06131","6500200","三重區"
"241012","743-BX","2019/10/24 19:29:40","新北市三重區河邊北街262號","121.501678333333","25.0764733333333","6500200","三重區"
"241022","KED-0820","2019/10/24 19:29:42","新北市三重區三民街165巷13號","121.484056666667","25.0652466666667","6500200","三重區"
"241029","942-UM","2019/10/24 19:29:51","新北市三重區重安街142號","121.495415","25.05503","6500200","三重區"
"235066","003-UY","2019/10/24 19:29:44","新北市中和區景新街32號","121.503365","24.9993433333333","6500300","中和區"
"235063","006-UY","2019/10/24 19:29:50","新北市中和區連勝街95號","121.49518","24.996115","6500300","中和區"
"235056","096-UM","2019/10/24 19:29:57","新北市中和區員山路581巷31弄22號","121.476648333333","25.0104166666667","6500300","中和區"
"235039","097-UM","2019/10/24 19:29:40","新北市中和區秀峰街86號","121.519668333333","24.9910416666667","6500300","中和區"
"235065","098-UM","2019/10/24 19:29:50","新北市中和區莊敬路18號","121.499888333333","25.0044","6500300","中和區"
"235040","150-BY","2019/10/24 19:29:38","新北市中和區景安路79巷50號","121.50789","24.995695","6500300","中和區"
"235058","151-BY","2019/10/24 19:29:41","新北市中和區員山路146巷12號","121.481961666667","24.9967316666667","6500300","中和區"
"235055","183-VK","2019/10/24 19:29:38","新北市中和區中山路三段179巷10號","121.473471666667","25.0058483333333","6500300","中和區"
"235038","185-VK","2019/10/24 19:29:43","新北市中和區自立路127號","121.522098333333","24.9941016666667","6500300","中和區"
"235067","255-BX","2019/10/24 19:29:49","新北市中和區連城路340巷10弄28號","121.483403333333","24.99656","6500300","中和區"
"235044","293-VK","2019/10/24 19:29:42","新北市中和區捷運路155號","121.506533333333","24.991165","6500300","中和區"
"235072","301-VK","2019/10/24 19:29:48","新北市中和區連城路265巷8弄1號","121.491585","24.9955566666667","6500300","中和區"
"235043","352-BY","2019/10/24 19:29:40","新北市中和區安和路1號","121.511743333333","24.99342","6500300","中和區"
"235042","KEA-2878","2019/10/24 19:29:42","新北市中和區中和路262巷35-4號","121.509666666667","24.9994116666667","6500300","中和區"
"235045","551-UM","2019/10/24 19:29:51","新北市中和區景新街467巷38弄2號","121.514511666667","24.9885416666667","6500300","中和區"
"235070","558-UM","2019/10/24 19:29:50","新北市中和區景平路668號","121.497106666667","25.0008366666667","6500300","中和區"
"235060","KED-0823","2019/10/24 19:29:41","新北市中和區中山路二段523巷1弄2號","121.481668333333","25.00472","6500300","中和區"
"235054","640-BX","2019/10/24 19:29:51","新北市中和區民德路1號","121.468838333333","25.0034033333333","6500300","中和區"
"235071","647-TV","2019/10/24 19:29:57","新北市中和區連城路469巷21弄12號","121.484048333333","24.9950616666667","6500300","中和區"
"235047","732-UM","2019/10/24 19:29:53","新北市中和區景平路259巷11號","121.50795","24.9925866666667","6500300","中和區"
"235046","733-UM","2019/10/24 19:29:46","新北市中和區忠孝街46-2號","121.511188333333","24.9834583333333","6500300","中和區"
"235057","801-TS","2019/10/24 19:29:57","新北市中和區員山路140號","121.481223333333","24.9964916666667","6500300","中和區"
"235041","802-TS","2019/10/24 19:29:42","新北市永和區中和路573號","121.511761666667","25.003515","6500300","中和區"
"235052","805-TS","2019/10/24 19:29:54","新北市中和區華新街143巷69弄18號","121.507665","24.978945","6500300","中和區"
"235048","896-TW","2019/10/24 19:29:44","新北市中和區忠孝街1巷2-1號","121.509171666667","24.9831016666667","6500300","中和區"
"235053","900-TW","2019/10/24 19:29:36","新北市中和區民德路78號","121.468855","25.0014616666667","6500300","中和區"
"235064","911-UM","2019/10/24 19:29:46","新北市中和區南山路40號","121.501958333333","24.9976783333333","6500300","中和區"
"235051","157-BY","2019/10/24 19:29:48","新北市中和區景平路421號","121.50179","24.9951716666667","6500300","中和區"
"235037","AAC-213","2019/10/24 19:29:47","新北市中和區秀朗路三段22巷22號","121.52533","24.99618","6500300","中和區"
"235059","AAC-215","2019/10/24 19:29:49","新北市中和區圓通路315-5號","121.493006666667","24.9908116666667","6500300","中和區"
"220035","015-TV","2019/10/24 19:29:47","新北市板橋區中正路431號","121.454213333333","25.023245","6500100","板橋區"
"220065","072-UY","2019/10/24 19:29:50","新北市板橋區國泰街39巷4弄30號","121.467881666667","25.0059533333333","6500100","板橋區"
"220086","073-UY","2019/10/24 19:29:27","新北市板橋區中正路216巷22號","121.456738333333","25.0185066666667","6500100","板橋區"
"220106","075-UY","2019/10/24 19:29:50","新北市板橋區民治街26巷9號","121.477738333333","25.0338616666667","6500100","板橋區"
"220069","AAD-861","2019/10/24 19:29:53","新北市板橋區稚暉街2巷46號","121.455236666667","25.0029466666667","6500100","板橋區"
"220068","120-SR","2019/10/24 19:29:45","新北市板橋區翠華街10巷2號","121.48271","25.0250366666667","6500100","板橋區"
"247004","341-TH","2019/10/24 19:29:56","新北市蘆洲區長安街150號","121.459915","25.0824033333333","6501400","蘆洲區"
"226004","312-R5","2019/10/24 19:29:57","新北市平溪區十分里十分街174號","121.778468333333","25.04379","6502400","平溪區"
"235049","251-BX","2019/10/24 19:29:48","新北市中和區安和路25號","121.510521666667","24.9940733333333","6500300","中和區"
"228003","097-TW","2019/10/24 19:29:48","新北市貢寮區和美里和美街22-1號","121.91284","25.0826016666667","6502600","貢寮區"
"228001","212-TW","2019/10/24 19:29:46","新北市貢寮區真理里大澳街48號","121.925106666667","25.0564116666667","6502600","貢寮區"
"228002","663-BX","2019/10/24 19:29:40","新北市貢寮區龍門里龍門街62-5號","121.931693333333","25.0271116666667","6502600","貢寮區"
"227002","642-TC","2019/10/24 19:29:50","新北市雙溪區雙溪里光復街3號","121.86514","25.0354766666667","6502500","雙溪區"
"227001","400-TW","2019/10/24 19:29:42","新北市雙溪區新基里新基北街43號","121.868223333333","25.039675","6502500","雙溪區"
"222001","KEA-2212","2019/10/24 19:29:40","新北市深坑區深坑街10號","121.615766666667","25.0027066666667","6501800","深坑區"
"208002","KEA-2872","2019/10/24 19:29:58","新北市金山區中正路55號","121.634421666667","25.2219133333333","6502700","金山區"
"208003","665-BX","2019/10/24 19:29:49","新北市金山區仁愛路66號","121.635073333333","25.22111","6502700","金山區"
"251009","008-UM","2019/10/24 19:29:37","新北市淡水區中正路28號","121.444223333333","25.1691083333333","6501000","淡水區"
"251005","010-UM","2019/10/24 19:29:55","新北市淡水區水源街一段47巷39號","121.4441","25.1735833333333","6501000","淡水區"
"251015","KEA-2871","2019/10/24 19:29:43","新北市淡水區山子頂24-1號","121.491395","25.1871816666667","6501000","淡水區"
"251016","179-VK","2019/10/24 19:29:55","新北市淡水區下圭柔山119-51號","121.450681666667","25.2085333333333","6501000","淡水區"
"251008","181-VK","2019/10/24 19:29:46","新北市淡水區中正路一段33號","121.425798333333","25.1766933333333","6501000","淡水區"
"251013","182-VK","2019/10/24 19:29:54","新北市淡水區大牛稠4號","121.469491666667","25.2200083333333","6501000","淡水區"
"251010","413-VK","2019/10/24 19:29:38","新北市淡水區中正路二段391號","121.425938333333","25.1908116666667","6501000","淡水區"
"251007","442-VK","2019/10/24 19:29:51","新北市淡水區八勢路50巷19弄1號","121.46283","25.1506583333333","6501000","淡水區"
"251001","559-UM","2019/10/24 19:29:41","新北市淡水區民權路137號","121.460081666667","25.1365516666667","6501000","淡水區"
"251006","561-UM","2019/10/24 19:29:46","新北市淡水區大義街29巷18號","121.441473333333","25.1780716666667","6501000","淡水區"
"251014","577-R6","2019/10/24 19:29:50","新北市淡水區小中寮19-7號","121.48474","25.2295916666667","6501000","淡水區"
"251002","672-BX","2019/10/24 19:29:50","新北市淡水區新民街一段117號","121.42822","25.1877666666667","6501000","淡水區"
"251003","766-UM","2019/10/24 19:29:47","新北市淡水區中山北路三段16巷20號","121.443848333333","25.189975","6501000","淡水區"
"207003","550-UM","2019/10/24 19:29:53","新北市萬里區大鵬里萬里加投119號","121.645605","25.21335","6502800","萬里區"
"207004","291-VK","2019/10/24 19:29:54","新北市萬里區萬里里瑪鋉頂街43-1號","121.689151666667","25.17866","6502800","萬里區"
"252002","178-VK","2019/10/24 19:29:51","新北市三芝區淡金路二段18-1號","121.502688333333","25.2595033333333","6502100","三芝區"
"208001","170-UY","2019/10/24 19:29:48","新北市金山區南勢92號","121.62634","25.2202833333333","6502700","金山區"
"237004","KEA-2597","2019/10/24 19:29:53","新北市三峽區有木206號","121.439085","24.8516016666667","6500900","三峽區"
"237007","153-BY","2019/10/24 19:29:49","新北市三峽區二鬮路138號","121.359768333333","24.9078766666667","6500900","三峽區"
"237009","210-TH","2019/10/24 19:29:49","新北市三峽區信義街4號","121.370785","24.935995","6500900","三峽區"
"237013","252-BX","2019/10/24 19:29:42","新北市三峽區介壽路一段316-2號","121.380781666667","24.9302333333333","6500900","三峽區"
"237012","275-BY","2019/10/24 19:29:51","新北市三峽區三樹路98巷169號","121.38444","24.9393333333333","6500900","三峽區"
"237008","302-VK","2019/10/24 19:29:46","新北市三峽區永安街95巷17號","121.374665","24.9284166666667","6500900","三峽區"
"237014","433-BY","2019/10/24 19:29:43","新北市三峽區中山路198號","121.363291666667","24.9370833333333","6500900","三峽區"
"237006","5529-G3","2019/10/24 19:29:43","新北市三峽區中正路一段336巷15弄2號","121.369953333333","24.9249516666667","6500900","三峽區"
"237011","KEA-2596","2019/10/24 19:29:54","新北市三峽區介壽路三段107號","121.395498333333","24.9392666666667","6500900","三峽區"
"237015","649-BX","2019/10/24 19:29:49","新北市三峽區建安64-7號","121.448226666667","24.9276566666667","6500900","三峽區"
"237010","706-TV","2019/10/24 19:29:41","新北市三峽區國光街4-1號","121.375563333333","24.9369466666667","6500900","三峽區"
"237005","AKY-6261","2019/10/24 19:29:51","新北市三峽區中山路225號","121.363125","24.9370716666667","6500900","三峽區"
"233002","762-BX","2019/10/24 19:29:43","新北市新店區櫻花街55巷24號","121.548701666667","24.92593","6502900","烏來區"
"236078","166-UM","2019/10/24 19:29:56","新北市土城區中州路3巷33弄1號","121.413643333333","24.9565833333333","6501300","土城區"
"236030","253-BX","2019/10/24 19:29:52","新北市土城區中央路一段342號","121.443116666667","24.9811383333333","6501300","土城區"
"236070","KEA-2877","2019/10/24 19:29:53","新北市土城區裕民路185巷36弄11號","121.4547","24.98474","6501300","土城區"
"252001","KED-0821","2019/10/24 19:29:48","新北市三芝區長勤街63-5號","121.500121666667","25.2560383333333","6502100","三芝區"
"236021","401-BY","2019/10/24 19:29:46","新北市土城區峰廷街18號","121.469045","24.987265","6501300","土城區"
"236049","913-UM","2019/10/24 19:29:41","新北市土城區清水路196號","121.460323333333","24.9818433333333","6501300","土城區"
"236055","AAC-216","2019/10/24 19:29:45","新北市土城區學府路一段276號","121.45019","24.9833033333333","6501300","土城區"
"242031","347-TH","2019/10/24 19:29:40","新北市新莊區新泰路225巷9號","121.445958333333","25.0391683333333","6500500","新莊區"
"242009","349-TH","2019/10/24 19:29:37","新北市新莊區三和路12-21號","121.44234","25.0383533333333","6500500","新莊區"
"238015","755-BX","2019/10/24 19:29:39","新北市樹林區大安路541號","121.412728333333","24.9842283333333","6500700","樹林區"
"238023","601-UM","2019/10/24 19:29:52","新北市樹林區中正路825號","121.409303333333","25.01716","6500700","樹林區"
"238019","599-UM","2019/10/24 19:29:48","新北市樹林區鎮前街347巷2弄1號","121.416733333333","24.98364","6500700","樹林區"
"238024","5061-A6","2019/10/24 19:29:40","新北市樹林區福德街45-1號","121.399946666667","24.9749716666667","6500700","樹林區"
"238018","KEA-2217","2019/10/24 19:29:49","新北市樹林區中華路70號","121.41964","24.98144","6500700","樹林區"
"238022","KEA-2213","2019/10/24 19:29:42","新北市樹林區中華路337號","121.415595","24.9801916666667","6500700","樹林區"
"238021","KEA-2539","2019/10/24 19:29:48","新北市樹林區佳園路三段215號","121.385123333333","24.9465383333333","6500700","樹林區"
"238025","303-VK","2019/10/24 19:29:46","新北市樹林區中山路一段372-3號","121.418933333333","24.9857133333333","6500700","樹林區"
"238017","283-BY","2019/10/24 19:29:43","新北市樹林區光興街94號","121.408066666667","25.0034983333333","6500700","樹林區"
"238014","282-BY","2019/10/24 19:29:53","新北市樹林區保安二街64巷3號","121.424475","24.996015","6500700","樹林區"
"238020","268-VK","2019/10/24 19:29:49","新北市樹林區俊英街105-1號","121.425026666667","25.0096716666667","6500700","樹林區"
"238026","172-UY","2019/10/24 19:29:41","新北市樹林區寶園街10號","121.385363333333","24.9534983333333","6500700","樹林區"
"238016","169-UY","2019/10/24 19:29:46","新北市樹林區復興路464巷56號","121.4127","24.9836433333333","6500700","樹林區"
"239007","AAC-297","2019/10/24 19:29:46","新北市鶯歌區中山路138巷3-2號","121.349636666667","24.9578083333333","6500800","鶯歌區"
"239006","891-R6","2019/10/24 19:29:41","新北市鶯歌區鶯桃路296巷51號","121.335775","24.9613666666667","6500800","鶯歌區"
"239008","527-UM","2019/10/24 19:29:39","新北市鶯歌區國際二路2巷12號","121.339316666667","24.9730433333333","6500800","鶯歌區"
"239005","526-UM","2019/10/24 19:29:41","新北市鶯歌區中湖街168號","121.349356666667","24.9739516666667","6500800","鶯歌區"
"239001","417-VK","2019/10/24 19:29:55","新北市鶯歌區永明街13號","121.338303333333","24.9553116666667","6500800","鶯歌區"
"239002","359-BY","2019/10/24 19:29:42","新北市鶯歌區中山路105號","121.350305","24.9569583333333","6500800","鶯歌區"
"239004","193-VK","2019/10/24 19:29:55","新北市鶯歌區中正三路318巷32號","121.326371666667","24.937675","6500800","鶯歌區"
"221008","489-VK","2019/10/24 19:29:38","新北市汐止區康寧街235號","121.62415","25.0666916666667","6501100","汐止區"
"221027","281-BY","2019/10/24 19:29:55","新北市汐止區忠孝東路9號","121.658288333333","25.0659233333333","6501100","汐止區"
"221031","353-TW","2019/10/24 19:29:48","新北市汐止區康寧街901號","121.650783333333","25.0753116666667","6501100","汐止區"
"221035","622-UM","2019/10/24 19:29:58","新北市汐止區汐萬路一段256巷3號","121.653375","25.0746683333333","6501100","汐止區"
"221025","623-UM","2019/10/24 19:29:50","新北市汐止區新台五路二段10號","121.660298333333","25.0649966666667","6501100","汐止區"
"221033","647-BX","2019/10/24 19:29:55","新北市汐止區南勢街3號","121.627073333333","25.0374","6501100","汐止區"
"221002","707-TV","2019/10/24 19:29:42","新北市汐止區大同路一段328號","121.63764","25.05892","6501100","汐止區"
"220079","145-BY","2019/10/24 19:29:59","新北市板橋區民權路202巷14弄1號","121.46068","25.0159033333333","6500100","板橋區"
"220080","200-UY","2019/10/24 19:29:57","新北市板橋區大觀路二段3巷75號","121.449753333333","25.00333","6500100","板橋區"
"220082","610-BX","2019/10/24 19:29:39","新北市板橋區金門街231號","121.432223333333","24.9896383333333","6500100","板橋區"
"220101","245-BX","2019/10/24 19:29:55","新北市板橋區莊敬路257號","121.473653333333","25.0215033333333","6500100","板橋區"
"220056","276-BY","2019/10/24 19:29:55","新北市板橋區干城路137號","121.45981","24.993355","6500100","板橋區"
"220072","277-BY","2019/10/24 19:29:50","新北市板橋區篤行路二段141巷17號","121.430423333333","24.9878416666667","6500100","板橋區"
"220094","283-UM","2019/10/24 19:29:55","新北市板橋區銘傳街86號","121.469401666667","25.0313783333333","6500100","板橋區"
"220071","283-VK","2019/10/24 19:29:40","新北市板橋區忠孝路48巷9弄19號","121.462063333333","25.0004233333333","6500100","板橋區"
"220053","285-VK","2019/10/24 19:29:55","新北市板橋區懷仁街77巷32號","121.477706666667","25.01917","6500100","板橋區"
"220081","287-VK","2019/10/24 19:29:47","新北市板橋區大觀路一段28巷1弄104號","121.45162","25.00607","6500100","板橋區"
"220090","288-VK","2019/10/24 19:29:51","新北市板橋區長江路一段48巷4弄1-3號","121.45914","25.0285216666667","6500100","板橋區"
"220061","293-UM","2019/10/24 19:29:50","新北市板橋區中山路一段265巷36弄2號","121.469155","25.0151233333333","6500100","板橋區"
"220062","295-UM","2019/10/24 19:29:59","新北市板橋區三民路二段81巷29號","121.480555","25.0167016666667","6500100","板橋區"
"220084","296-UM","2019/10/24 19:29:41","新北市板橋區滿平街136巷1弄1號","121.428681666667","24.9879783333333","6500100","板橋區"
"220075","303-R5","2019/10/24 19:29:56","新北市板橋區中正路275巷68號","121.452651666667","25.017945","6500100","板橋區"
"220092","307-R5","2019/10/24 19:29:47","新北市板橋區陽明街164巷32號","121.46494","25.02458","6500100","板橋區"
"220098","317-R6","2019/10/24 19:29:55","新北市板橋區四維路266巷2弄25-1號","121.46408","25.028045","6500100","板橋區"
"220083","461-BY","2019/10/24 19:29:45","新北市板橋區大觀路二段174巷186弄9號","121.442875","25.0034966666667","6500100","板橋區"
"220089","487-VK","2019/10/24 19:29:51","新北市板橋區龍泉街93-4號","121.456928333333","25.0246366666667","6500100","板橋區"
"220088","491-VK","2019/10/24 19:29:44","新北市板橋區文化路二段578號","121.476656666667","25.0345883333333","6500100","板橋區"
"220063","609-BX","2019/10/24 19:29:54","新北市板橋區萬安街53巷37號","121.482556666667","25.02354","6500100","板橋區"
"220103","630-UY","2019/10/24 19:29:40","新北市板橋區陽明街29巷17號","121.464561666667","25.0221283333333","6500100","板橋區"
"220091","637-BX","2019/10/24 19:29:48","新北市板橋區文聖街149巷25號","121.479561666667","25.0286066666667","6500100","板橋區"
"220057","686-BX","2019/10/24 19:29:58","新北市板橋區和平路安樂巷21號","121.461545","24.99377","6500100","板橋區"
"220077","687-BX","2019/10/24 19:29:47","新北市板橋區大觀路一段28巷68號","121.449791666667","25.0105366666667","6500100","板橋區"
"220093","689-BX","2019/10/24 19:29:50","新北市板橋區長江路一段113號","121.459833333333","25.02979","6500100","板橋區"
"220054","741-BX","2019/10/24 19:29:47","新北市板橋區重慶路153號","121.462463333333","25.00376","6500100","板橋區"
"220102","KEA-2699","2019/10/24 19:29:46","新北市板橋區雙十路二段46巷18號","121.476186666667","25.028085","6500100","板橋區"
"220055","827-TW","2019/10/24 19:29:53","新北市板橋區重慶路290巷22弄12號","121.462253333333","24.9993766666667","6500100","板橋區"
"220067","831-TW","2019/10/24 19:29:56","新北市板橋區漢生東路279巷12號","121.472016666667","25.0091133333333","6500100","板橋區"
"220074","895-R6","2019/10/24 19:29:54","新北市板橋區後菜園街4號","121.457713333333","25.010475","6500100","板橋區"
"220073","985-R7","2019/10/24 19:29:52","新北市板橋區中正路332-11號","121.45431","25.0231666666667","6500100","板橋區"
"220097","AAC-210","2019/10/24 19:29:46","新北市板橋區文化路一段285巷1弄2號","121.464286666667","25.0186983333333","6500100","板橋區"
"220064","AAC-253","2019/10/24 19:29:47","新北市板橋區實踐路110號","121.464111666667","25.0044883333333","6500100","板橋區"
"235068","KEA-2873","2019/10/24 19:29:42","新北市中和區景平路493巷13號","121.499561666667","24.9971633333333","6500300","中和區"
"235061","KEA-2875","2019/10/24 19:29:33","新北市中和區民利街9巷2弄2號","121.480625","24.998725","6500300","中和區"
