"lineid","car","time","location","longitude","latitude","cityid","cityname"
"234046","148-BY","2019/10/24 19:43:40","新北市永和區永亨路201號","121.526241666667","25.002685","6500400","永和區"
"234081","298-R6","2019/10/24 19:43:45","新北市永和區永亨路110號","121.523683333333","25.0045016666667","6500400","永和區"
"234038","336-UY","2019/10/24 19:43:39","新北市永和區民樂街31巷10弄2號","121.528155","25.0006516666667","6500400","永和區"
"234064","337-UY","2019/10/24 19:43:52","新北市永和區中正路412巷2弄11號","121.518505","25.0019833333333","6500400","永和區"
"234086","338-UY","2019/10/24 19:43:53","新北市永和區林森路65號","121.524126666667","25.00417","6500400","永和區"
"234070","552-UM","2019/10/24 19:43:47","新北市永和區永和路二段235號","121.51557","25.0143283333333","6500400","永和區"
"234017","745-BX","2019/10/24 19:43:53","新北市永和區永和路二段425巷62號","121.513736666667","25.0173366666667","6500400","永和區"
"234030","746-BX","2019/10/24 19:43:45","新北市永和區民生路67巷42號","121.524811666667","24.997355","6500400","永和區"
"234054","KEA-2590","2019/10/24 19:43:53","新北市永和區竹林路39巷21號","121.518893333333","25.0147566666667","6500400","永和區"
"234007","KED-0605","2019/10/24 19:43:38","新北市中和區中和路236號","121.506948333333","24.9995466666667","6500400","永和區"
"234013","KEA-2591","2019/10/24 19:43:51","新北市永和區仁愛路247號","121.508635","25.0118033333333","6500400","永和區"
"234061","AAD-866","2019/10/24 19:43:50","新北市永和區中正路336號","121.517718333333","24.9999533333333","6500400","永和區"
"234042","862-TW","2019/10/24 19:43:55","新北市永和區中和路305巷10弄1號","121.507026666667","25.0008916666667","6500400","永和區"
"234050","863-TW","2019/10/24 19:43:41","新北市永和區保安路13號","121.510363333333","25.016825","6500400","永和區"
"234026","9371-KE","2019/10/24 19:43:49","新北市永和區中和路501巷5號","121.510461666667","25.0025616666667","6500400","永和區"
"234011","9373-KE","2019/10/24 19:43:54","新北市永和區仁愛路352巷94號","121.50116","25.008005","6500400","永和區"
"249004","303-UY","2019/10/24 19:43:57","新北市八里區中山路一段268巷5弄11號","121.41429","25.1602966666667","6502300","八里區"
"249002","305-UY","2019/10/24 19:43:43","新北市八里區頂寮二街33-1號","121.450318333333","25.1251833333333","6502300","八里區"
"249003","593-UM","2019/10/24 19:43:37","新北市八里區中華路二段540號","121.399076666667","25.1456366666667","6502300","八里區"
"248016","026-BX","2019/10/24 19:43:39","新北市五股區成泰路四段30號","121.45515","25.1083933333333","6501500","五股區"
"248008","KED-0815","2019/10/24 19:43:47","新北市五股區國道路三段17號","121.468773333333","25.0751966666667","6501500","五股區"
"248020","KED-0813","2019/10/24 19:43:48","新北市五股區中直路33-1號","121.420441666667","25.11374","6501500","五股區"
"248012","247-BX","2019/10/24 19:43:48","新北市五股區蓬萊路24號","121.43391","25.0799066666667","6501500","五股區"
"248014","261-SL","2019/10/24 19:43:52","新北市五股區五福路42巷27號","121.434938333333","25.0900666666667","6501500","五股區"
"248004","677-BX","2019/10/24 19:43:56","新北市五股區成泰路一段149-6號","121.435351666667","25.073605","6501500","五股區"
"248002","678-BX","2019/10/24 19:43:45","新北市五股區成泰路三段577巷16號","121.451731666667","25.1028233333333","6501500","五股區"
"248010","682-TV","2019/10/24 19:44:00","新北市五股區登林路76-5號","121.430531666667","25.06957","6501500","五股區"
"234023","9380-KE","2019/10/24 19:43:59","新北市永和區仁愛路301號","121.503841666667","25.0080533333333","6500400","永和區"
"234077","969-R7","2019/10/24 19:43:51","新北市永和區民權路23號","121.520056666667","24.9977816666667","6500400","永和區"
"234074","AAC-211","2019/10/24 19:43:52","新北市永和區竹林路213巷26號","121.522205","25.008895","6500400","永和區"
"234067","AAC-212","2019/10/24 19:43:54","新北市永和區永平路173巷14弄4號","121.510165","25.0085166666667","6500400","永和區"
"234003","AAC-295","2019/10/24 19:43:50","新北市永和區永和路一段21號","121.512855","25.005675","6500400","永和區"
"244023","483-VK","2019/10/24 19:43:52","新北市林口區文化北路二段280號","121.373546666667","25.0864783333333","6501700","林口區"
"243012","AAD-798","2019/10/24 19:43:41","新北市泰山區仁愛路100巷42號","121.433648333333","25.05459","6501600","泰山區"
"243010","297-R6","2019/10/24 19:18:43","新北市泰山區明志路一段509號","121.430588333333","25.0544183333333","6501600","泰山區"
"243016","421-VK","2019/10/24 19:43:58","新北市泰山區明志路三段488號","121.421041666667","25.0314","6501600","泰山區"
"243009","KEA-2215","2019/10/24 19:43:45","新北市泰山區美寧街60號","121.430976666667","25.0647","6501600","泰山區"
"243011","KEA-2216","2019/10/24 19:43:48","新北市泰山區明志路三段204巷12號","121.422033333333","25.0382416666667","6501600","泰山區"
"243015","680-BX","2019/10/24 19:43:38","新北市泰山區明志路二段239號","121.427218333333","25.04814","6501600","泰山區"
"222003","436-BY","2019/10/24 19:43:45","新北市深坑區深南路51-1號","121.621268333333","25.009795","6501800","深坑區"
"222002","659-BX","2019/10/24 19:43:41","新北市深坑區北深路一段177號","121.632556666667","25.0108283333333","6501800","深坑區"
"231061","002-UM","2019/10/24 19:43:45","新北市新店區安民街145號","121.516503333333","24.9696133333333","6500600","新店區"
"231044","046-UY","2019/10/24 19:43:47","新北市新店區北新路三段210號","121.541181666667","24.9842833333333","6500600","新店區"
"231060","106-UY","2019/10/24 19:43:53","新北市新店區安康路二段161號","121.510185","24.9593233333333","6500600","新店區"
"231051","107-UY","2019/10/24 19:43:45","新北市新店區中央二街62號","121.526618333333","24.97447","6500600","新店區"
"231049","108-UY","2019/10/24 19:43:44","新北市新店區建國路253號","121.537525","24.98275","6500600","新店區"
"231065","110-UY","2019/10/24 19:43:42","新北市新店區安祥路109巷90弄12號","121.477656666667","24.9595733333333","6500600","新店區"
"231062","256-BX","2019/10/24 19:43:39","新北市新店區永業路47號","121.53225","24.9549333333333","6500600","新店區"
"231054","260-TV","2019/10/24 19:43:43","新北市新店區文中路40號","121.539755","24.9565483333333","6500600","新店區"
"231042","268-BY","2019/10/24 19:43:47","新北市新店區中興路一段266號","121.544848333333","24.9672516666667","6500600","新店區"
"231064","278-BY","2019/10/24 19:43:53","新北市新店區安和路二段115號","121.518661666667","24.9704183333333","6500600","新店區"
"231050","AAD-862","2019/10/24 19:43:40","新北市新店區郵政路91號","121.554946666667","24.9515016666667","6500600","新店區"
"231045","355-BY","2019/10/24 19:43:46","新北市新店區北宜路二段273號","121.554825","24.9536333333333","6500600","新店區"
"231058","3713-VJ","2019/10/24 19:43:44","新北市新店區中正路102巷5號","121.5433","24.9710033333333","6500600","新店區"
"231056","4715-K9","2019/10/24 19:43:47","新北市新店區民權路78號","121.538046666667","24.98325","6500600","新店區"
"231067","4772-VM","2019/10/24 19:43:54","新北市新店區安康路一段166號","121.525873333333","24.96305","6500600","新店區"
"231052","513-UM","2019/10/24 19:43:51","新北市新店區新烏路三段72-1號","121.554005","24.9041266666667","6500600","新店區"
"231063","616-UM","2019/10/24 19:43:57","新北市新店區達觀路12號","121.504823333333","24.9412833333333","6500600","新店區"
"231041","619-UM","2019/10/24 19:43:43","新北市新店區中正路470號","121.533968333333","24.9805516666667","6500600","新店區"
"231047","KED-0819","2019/10/24 19:43:49","新北市新店區五峰路63巷8弄2-1號","121.54762","24.9688633333333","6500600","新店區"
"231046","719-UM","2019/10/24 19:43:11","新北市新店區三民路84巷12號","121.534858333333","24.9731366666667","6500600","新店區"
"231057","720-UM","2019/10/24 19:43:51","新北市新店區百齡二路2號","121.555893333333","24.932395","6500600","新店區"
"231059","897-TW","2019/10/24 19:43:54","新北市新店區安和路三段47-1號","121.518036666667","24.982315","6500600","新店區"
"231040","898-TW","2019/10/24 19:43:37","新北市新店區中正路75巷71號","121.543116666667","24.9688066666667","6500600","新店區"
"231043","899-TW","2019/10/24 19:43:45","新北市新店區中正路155號","121.54131","24.971775","6500600","新店區"
"231066","AKT-0513","2019/10/24 19:43:44","新北市新店區安康路三段207巷19號","121.488436666667","24.9508216666667","6500600","新店區"
"241011","013-R5","2019/10/24 19:43:40","新北市三重區秀江街176號","121.498031666667","25.0716166666667","6500200","三重區"
"241028","022-UY","2019/10/24 19:43:54","新北市三重區中正南路157號","121.493726666667","25.056125","6500200","三重區"
"241008","059-VK","2019/10/24 19:43:39","新北市三重區永福街111巷10號","121.47889","25.0775366666667","6500200","三重區"
"241031","061-VK","2019/10/24 19:43:52","新北市三重區重新路四段101-1號","121.485796666667","25.05434","6500200","三重區"
"241015","062-VK","2019/10/24 19:43:52","新北市三重區三和路一段43號","121.503188333333","25.0651266666667","6500200","三重區"
"241017","063-VK","2019/10/24 19:43:45","新北市三重區重陽路三段5巷8弄31號","121.49036","25.0662333333333","6500200","三重區"
"241007","066-VK","2019/10/24 19:43:41","新北市三重區三和路四段123號","121.485028333333","25.0778266666667","6500200","三重區"
"241006","262-UM","2019/10/24 19:43:49","新北市三重區永福街303號","121.484018333333","25.0745083333333","6500200","三重區"
"241016","266-UM","2019/10/24 19:43:48","新北市三重區正義北路28巷10號","121.497108333333","25.0630766666667","6500200","三重區"
"241009","267-UM","2019/10/24 19:43:56","新北市三重區三和路四段400巷2號","121.481131666667","25.0794233333333","6500200","三重區"
"241032","269-UM","2019/10/24 19:43:47","新北市三重區重陽路一段60巷9號","121.48564","25.0581883333333","6500200","三重區"
"241013","270-UM","2019/10/24 19:43:46","新北市三重區仁賢街59號","121.497181666667","25.0750366666667","6500200","三重區"
"241025","271-UM","2019/10/24 19:43:49","新北市三重區忠孝路三段56號","121.480595","25.0654583333333","6500200","三重區"
"241035","KEA-2210","2019/10/24 19:43:57","新北市三重區文化北路35號","121.499101666667","25.064875","6500200","三重區"
"241030","KED-0822","2019/10/24 19:43:37","新北市三重區新興路29號","121.492155","25.0533583333333","6500200","三重區"
"241023","462-BY","2019/10/24 19:43:46","新北市三重區頂崁街172號","121.477535","25.06591","6500200","三重區"
"241004","475-VK","2019/10/24 19:43:45","新北市三重區五華街74號","121.493321666667","25.0820516666667","6500200","三重區"
"241020","478-VK","2019/10/24 19:43:45","新北市三重區後竹圍街18號","121.49142","25.0735816666667","6500200","三重區"
"241026","480-VK","2019/10/24 19:43:48","新北市三重區文化南路46號","121.500396666667","25.06","6500200","三重區"
"241014","543-UM","2019/10/24 19:43:44","新北市三重區長元街98巷21弄50號","121.503795","25.0679466666667","6500200","三重區"
"241001","547-UM","2019/10/24 19:43:45","新北市三重區仁愛街327巷79號","121.493958333333","25.080495","6500200","三重區"
"241019","KEA-2593","2019/10/24 19:43:46","新北市三重區安慶街361巷2號","121.487393333333","25.0677416666667","6500200","三重區"
"241005","AAD-863","2019/10/24 19:43:48","新北市三重區碧華街294巷17號","121.488543333333","25.0841366666667","6500200","三重區"
"241012","743-BX","2019/10/24 19:43:40","新北市三重區仁興街28巷36號","121.498513333333","25.0751383333333","6500200","三重區"
"241029","942-UM","2019/10/24 19:43:50","新北市三重區光明路70號","121.492035","25.0571283333333","6500200","三重區"
"235066","003-UY","2019/10/24 19:43:44","新北市中和區景新街73巷2號","121.505338333333","24.998685","6500300","中和區"
"235063","006-UY","2019/10/24 19:43:50","新北市中和區連城路263巷20號","121.492555","24.99481","6500300","中和區"
"235056","096-UM","2019/10/24 19:43:57","新北市中和區中山路三段148號","121.473576666667","25.0062533333333","6500300","中和區"
"235039","097-UM","2019/10/24 19:43:40","新北市中和區景平路172號","121.516998333333","24.9925433333333","6500300","中和區"
"235065","098-UM","2019/10/24 19:44:00","新北市中和區福祥路107號","121.498876666667","25.00643","6500300","中和區"
"235040","150-BY","2019/10/24 19:43:58","新北市中和區安和路39號","121.50968","24.994875","6500300","中和區"
"235058","151-BY","2019/10/24 19:43:41","新北市中和區員山路127-3號","121.481048333333","24.9958283333333","6500300","中和區"
"235055","183-VK","2019/10/24 19:43:38","新北市中和區莒光路41號","121.47205","25.0048533333333","6500300","中和區"
"235038","185-VK","2019/10/24 19:43:43","新北市中和區自強路27巷2號","121.520991666667","24.993015","6500300","中和區"
"235067","255-BX","2019/10/24 19:43:49","新北市中和區新生街266號","121.483425","24.9972166666667","6500300","中和區"
"235044","293-VK","2019/10/24 19:43:42","新北市中和區南山路417號","121.507333333333","24.989535","6500300","中和區"
"235072","301-VK","2019/10/24 19:43:47","新北市中和區錦和路97號","121.490033333333","24.9955216666667","6500300","中和區"
"235043","352-BY","2019/10/24 19:43:40","新北市中和區華新街232巷8號","121.505835","24.9820233333333","6500300","中和區"
"235042","KEA-2878","2019/10/24 19:43:42","新北市中和區保健路7巷1號","121.50799","24.9986233333333","6500300","中和區"
"235070","558-UM","2019/10/24 19:43:50","新北市中和區景平路481號","121.500295","24.9974366666667","6500300","中和區"
"235060","KED-0823","2019/10/24 19:43:41","新北市中和區新生街35-1號","121.483303333333","25.0034783333333","6500300","中和區"
"235054","640-BX","2019/10/24 19:43:51","新北市中和區莒光路4號","121.471955","25.0047616666667","6500300","中和區"
"235071","647-TV","2019/10/24 19:43:57","新北市中和區中山路二段441號","121.484636666667","25.00478","6500300","中和區"
"235047","732-UM","2019/10/24 19:43:53","新北市中和區捷運路191號","121.505388333333","24.991275","6500300","中和區"
"235046","733-UM","2019/10/24 19:43:46","新北市中和區仁愛街78號","121.511396666667","24.9875533333333","6500300","中和區"
"235041","802-TS","2019/10/24 19:43:42","新北市中和區永貞路237號","121.512996666667","25.0036516666667","6500300","中和區"
"235052","805-TS","2019/10/24 19:43:54","新北市中和區華新街192巷25號","121.506331666667","24.9831166666667","6500300","中和區"
"235048","896-TW","2019/10/24 19:43:44","新北市中和區興南路一段156號","121.508308333333","24.9868066666667","6500300","中和區"
"235053","900-TW","2019/10/24 19:43:56","新北市中和區國光街173號","121.468005","25.0015083333333","6500300","中和區"
"235051","157-BY","2019/10/24 19:43:48","新北市中和區中興街136號","121.49953","24.9920133333333","6500300","中和區"
"235037","AAC-213","2019/10/24 19:43:47","新北市中和區自立路58巷2號","121.523615","24.9916533333333","6500300","中和區"
"235059","AAC-215","2019/10/24 19:43:41","新北市中和區圓通路335巷71號","121.494248333333","24.98948","6500300","中和區"
"220035","015-TV","2019/10/24 19:43:47","新北市板橋區英士路190巷2號","121.457905","25.0224016666667","6500100","板橋區"
"220065","072-UY","2019/10/24 19:43:50","新北市板橋區國泰街111巷1號","121.466018333333","25.0063233333333","6500100","板橋區"
"220086","073-UY","2019/10/24 19:43:47","新北市板橋區中正路236巷66號","121.457896666667","25.0193383333333","6500100","板橋區"
"220106","075-UY","2019/10/24 19:43:50","新北市板橋區民治街96巷2號","121.478911666667","25.0317466666667","6500100","板橋區"
"220069","AAD-861","2019/10/24 19:43:53","新北市板橋區貴興路119巷3號","121.455881666667","25.0021783333333","6500100","板橋區"
"220068","120-SR","2019/10/24 19:43:47","新北市板橋區中山路二段412巷16-1號","121.48341","25.0202766666667","6500100","板橋區"
"247004","341-TH","2019/10/24 19:43:56","新北市蘆洲區中原路5巷21號","121.462011666667","25.0829983333333","6501400","蘆洲區"
"247002","001-UY","2019/10/24 19:43:37","新北市蘆洲區長榮路675號","121.460301666667","25.0919883333333","6501400","蘆洲區"
"226004","312-R5","2019/10/24 19:43:57","新北市平溪區十分里十分街61號","121.775731666667","25.0415816666667","6502400","平溪區"
"235049","251-BX","2019/10/24 19:43:48","新北市中和區景平路429號","121.501483333333","24.9953333333333","6500300","中和區"
"228003","097-TW","2019/10/24 19:43:48","新北市貢寮區真理里美艷山街15-3號","121.923731666667","25.0679966666667","6502600","貢寮區"
"228001","212-TW","2019/10/24 19:43:46","新北市貢寮區真理里新港街82-2號","121.927068333333","25.0562183333333","6502600","貢寮區"
"227002","642-TC","2019/10/24 19:43:50","新北市雙溪區雙溪里內挖路36號","121.863198333333","25.0367633333333","6502500","雙溪區"
"227001","400-TW","2019/10/24 19:43:49","新北市雙溪區新基里中華路40號","121.865925","25.03736","6502500","雙溪區"
"222001","KEA-2212","2019/10/24 19:43:40","新北市深坑區北深路三段13號","121.609645","25.0008633333333","6501800","深坑區"
"208002","KEA-2872","2019/10/24 19:43:48","新北市金山區中山路276-3號","121.635076666667","25.2242766666667","6502700","金山區"
"208003","665-BX","2019/10/24 19:43:50","新北市金山區中正路143-1號","121.632185","25.2214083333333","6502700","金山區"
"251009","008-UM","2019/10/24 19:43:57","新北市淡水區中山北路一段196號","121.444643333333","25.17941","6501000","淡水區"
"251005","010-UM","2019/10/24 19:43:55","新北市淡水區水源街一段2號","121.442481666667","25.172365","6501000","淡水區"
"251015","KEA-2871","2019/10/24 19:43:43","新北市淡水區山子頂24-1號","121.491368333333","25.1871816666667","6501000","淡水區"
"251016","179-VK","2019/10/24 19:43:54","新北市淡水區下圭柔山122號","121.455935","25.208845","6501000","淡水區"
"251008","181-VK","2019/10/24 19:43:46","新北市淡水區中正路一段62巷2號","121.425691666667","25.1771833333333","6501000","淡水區"
"251013","182-VK","2019/10/24 19:43:48","新北市淡水區頂田寮11-2號","121.463216666667","25.2139733333333","6501000","淡水區"
"251010","413-VK","2019/10/24 19:43:38","新北市淡水區崁頂93-2號","121.427295","25.2024816666667","6501000","淡水區"
"251007","442-VK","2019/10/24 19:43:51","新北市淡水區中正東路一段105巷3號","121.453348333333","25.1605783333333","6501000","淡水區"
"251001","559-UM","2019/10/24 19:43:41","新北市淡水區中正東路二段89號","121.459441666667","25.15257","6501000","淡水區"
"251006","561-UM","2019/10/24 19:43:46","新北市淡水區中山北路一段207巷68號","121.441716666667","25.1792516666667","6501000","淡水區"
"251014","577-R6","2019/10/24 19:43:50","新北市淡水區番社前7-1號","121.475603333333","25.2355516666667","6501000","淡水區"
"251011","650-BX","2019/10/24 19:43:57","新北市淡水區八勢路50巷82號","121.462008333333","25.1486866666667","6501000","淡水區"
"251002","672-BX","2019/10/24 19:43:50","新北市淡水區下圭柔山90-2號","121.432248333333","25.211705","6501000","淡水區"
"207003","550-UM","2019/10/24 19:43:45","新北市萬里區大鵬里下社15-3號","121.647818333333","25.2183516666667","6502800","萬里區"
"207004","291-VK","2019/10/24 19:43:54","新北市萬里區萬里里瑪鋉路145-1號","121.689586666667","25.1778416666667","6502800","萬里區"
"252002","178-VK","2019/10/24 19:43:51","新北市三芝區三民街31號","121.504573333333","25.2585616666667","6502100","三芝區"
"208001","170-UY","2019/10/24 19:43:48","新北市金山區重和里六股林口38-6號","121.60342","25.2185683333333","6502700","金山區"
"237004","KEA-2597","2019/10/24 19:43:53","新北市三峽區金敏30-1號","121.389713333333","24.8743083333333","6500900","三峽區"
"237007","153-BY","2019/10/24 19:43:49","新北市三峽區二鬮路136巷24弄1號","121.356086666667","24.9098966666667","6500900","三峽區"
"237009","210-TH","2019/10/24 19:43:49","新北市三峽區和平街41號","121.370313333333","24.93566","6500900","三峽區"
"237013","252-BX","2019/10/24 19:43:42","新北市三峽區橫溪路5號","121.396108333333","24.936125","6500900","三峽區"
"237012","275-BY","2019/10/24 19:43:51","新北市三峽區中正路一段50號","121.375195","24.9303166666667","6500900","三峽區"
"237008","302-VK","2019/10/24 19:43:46","新北市三峽區大同路147巷9號","121.371278333333","24.9263383333333","6500900","三峽區"
"237014","433-BY","2019/10/24 19:43:43","新北市三峽區嘉添8號","121.36828","24.9117883333333","6500900","三峽區"
"237006","5529-G3","2019/10/24 19:43:43","新北市三峽區中正路一段336巷15弄2號","121.369958333333","24.92495","6500900","三峽區"
"237011","KEA-2596","2019/10/24 19:43:54","新北市三峽區介壽路一段269號","121.380008333333","24.9302783333333","6500900","三峽區"
"237015","649-BX","2019/10/24 19:43:49","新北市三峽區成福路91號","121.418943333333","24.9296316666667","6500900","三峽區"
"237010","706-TV","2019/10/24 19:43:41","新北市三峽區復興路105號","121.371986666667","24.93783","6500900","三峽區"
"237005","AKY-6261","2019/10/24 19:43:51","新北市三峽區文化路84號","121.371886666667","24.9361416666667","6500900","三峽區"
"236042","KED-0685","2019/10/24 19:43:40","新北市土城區清水路87號","121.456245","24.9817183333333","6501300","土城區"
"233002","762-BX","2019/10/24 19:43:43","新北市烏來區烏來街1號","121.551146666667","24.867445","6502900","烏來區"
"236078","166-UM","2019/10/24 19:43:56","新北市土城區中州路35號","121.41333","24.95795","6501300","土城區"
"236030","253-BX","2019/10/24 19:43:52","新北市土城區中央路一段318巷4弄12號","121.443201666667","24.9823933333333","6501300","土城區"
"236026","269-VK","2019/10/24 19:43:46","新北市土城區中央路二段61巷26號","121.443311666667","24.9787366666667","6501300","土城區"
"236038","271-VK","2019/10/24 19:43:52","新北市土城區青雲路281巷13弄6號","121.459863333333","24.98044","6501300","土城區"
"236070","KEA-2877","2019/10/24 19:43:52","新北市土城區和平路5巷2號","121.442725","24.9743766666667","6501300","土城區"
"252001","KED-0821","2019/10/24 19:43:48","新北市三芝區公正街66號","121.499813333333","25.25745","6502100","三芝區"
"236021","401-BY","2019/10/24 19:43:46","新北市土城區金城路三段198號","121.468583333333","24.9879","6501300","土城區"
"236063","752-BX","2019/10/24 19:43:57","新北市土城區延平街77號","121.467466666667","24.9933116666667","6501300","土城區"
"236059","912-UM","2019/10/24 19:43:54","新北市土城區中央路一段283號","121.444521666667","24.9845916666667","6501300","土城區"
"236049","913-UM","2019/10/24 19:43:58","新北市土城區明德路一段207號","121.463506666667","24.9787366666667","6501300","土城區"
"236055","AAC-216","2019/10/24 19:43:51","新北市土城區延和路66號","121.465856666667","24.98915","6501300","土城區"
"242004","751-BX","2019/10/24 19:43:52","新北市新莊區化成路11巷106號","121.460985","25.0439683333333","6500500","新莊區"
"242013","413-TV","2019/10/24 19:43:40","新北市新莊區中泰街102號","121.448963333333","25.0466933333333","6500500","新莊區"
"242023","353-BY","2019/10/24 19:43:51","新北市新莊區復興路三段115號","121.464301666667","25.0445166666667","6500500","新莊區"
"242056","172-VK","2019/10/24 19:43:52","新北市新莊區瓊林路13-3號","121.448915","25.0309666666667","6500500","新莊區"
"242017","173-VK","2019/10/24 19:43:49","新北市新莊區新泰路401巷28-1號","121.44238","25.0440766666667","6500500","新莊區"
"242039","176-VK","2019/10/24 19:43:51","新北市新莊區建國二路25號","121.433555","25.0243516666667","6500500","新莊區"
"242031","347-TH","2019/10/24 19:43:39","新北市新莊區公園一路134號","121.446146666667","25.0380866666667","6500500","新莊區"
"242036","348-TH","2019/10/24 19:43:58","新北市新莊區民安路207巷27號","121.427165","25.0235983333333","6500500","新莊區"
"242009","349-TH","2019/10/24 19:42:57","新北市新莊區公園一路75巷13號","121.442458333333","25.0381316666667","6500500","新莊區"
"242034","350-TH","2019/10/24 19:43:47","新北市新莊區中正路346號","121.444243333333","25.0345183333333","6500500","新莊區"
"242048","351-TH","2019/10/24 19:43:52","新北市新莊區後港一路13號","121.424195","25.0264033333333","6500500","新莊區"
"238015","755-BX","2019/10/24 19:43:38","新北市樹林區日新街101號","121.421465","24.9899433333333","6500700","樹林區"
"238023","601-UM","2019/10/24 19:43:52","新北市樹林區三寶街12號","121.406513333333","25.0154116666667","6500700","樹林區"
"238019","599-UM","2019/10/24 19:43:48","新北市樹林區大同街18號","121.418318333333","24.9826433333333","6500700","樹林區"
"238024","5061-A6","2019/10/24 19:43:40","新北市樹林區中山路三段34號","121.395118333333","24.972665","6500700","樹林區"
"238022","KEA-2213","2019/10/24 19:43:48","新北市樹林區名園街78巷16弄6號","121.419743333333","24.9775683333333","6500700","樹林區"
"238021","KEA-2539","2019/10/24 19:43:59","新北市樹林區佳園路三段101巷38弄20號","121.39153","24.9500116666667","6500700","樹林區"
"238025","303-VK","2019/10/24 19:43:46","新北市樹林區中山路一段181-1號","121.421501666667","24.98814","6500700","樹林區"
"238017","283-BY","2019/10/24 19:43:43","新北市樹林區保安街二段167巷11號","121.414648333333","25.002865","6500700","樹林區"
"238014","282-BY","2019/10/24 19:43:53","新北市樹林區千歲街46巷3號","121.426363333333","24.9967416666667","6500700","樹林區"
"238020","268-VK","2019/10/24 19:43:49","新北市板橋區金門街215巷57弄40-2號","121.435031666667","24.9902116666667","6500700","樹林區"
"238026","172-UY","2019/10/24 19:43:41","新北市樹林區佳園路二段157號","121.389966666667","24.9569833333333","6500700","樹林區"
"238016","169-UY","2019/10/24 19:43:46","新北市樹林區東和街18巷6號","121.404178333333","24.98134","6500700","樹林區"
"239007","AAC-297","2019/10/24 19:43:46","新北市鶯歌區大湖路120巷2號","121.342526666667","24.9636233333333","6500800","鶯歌區"
"239006","891-R6","2019/10/24 19:44:00","新北市鶯歌區鶯桃路91巷20弄2號","121.338778333333","24.9531116666667","6500800","鶯歌區"
"239001","417-VK","2019/10/24 19:43:55","新北市鶯歌區鶯桃路95巷75號","121.33714","24.952795","6500800","鶯歌區"
"239002","359-BY","2019/10/24 19:43:43","新北市鶯歌區湖山路64巷2號","121.339735","24.9765716666667","6500800","鶯歌區"
"239004","193-VK","2019/10/24 19:43:55","新北市鶯歌區中正三路鄭厝巷9號","121.332096666667","24.9337316666667","6500800","鶯歌區"
"221008","489-VK","2019/10/24 19:43:38","新北市汐止區康寧街61巷38號","121.619973333333","25.0676566666667","6501100","汐止區"
"221010","269-BY","2019/10/24 19:43:54","新北市汐止區汐萬路一段310號","121.650446666667","25.0749233333333","6501100","汐止區"
"221012","278-VK","2019/10/24 19:43:45","新北市汐止區大同路三段318號","121.678876666667","25.0711116666667","6501100","汐止區"
"221023","279-VK","2019/10/24 19:43:57","新北市汐止區中興路250號","121.629185","25.0685083333333","6501100","汐止區"
"221027","281-BY","2019/10/24 19:43:55","新北市汐止區忠孝東路9號","121.658295","25.0659316666667","6501100","汐止區"
"221021","299-VK","2019/10/24 19:43:39","新北市汐止區莊敬街1號","121.657825","25.0615633333333","6501100","汐止區"
"221031","353-TW","2019/10/24 19:43:48","新北市汐止區康寧街901號","121.650783333333","25.0753083333333","6501100","汐止區"
"221025","623-UM","2019/10/24 19:43:50","新北市汐止區新台五路二段70巷25號","121.66183","25.0647566666667","6501100","汐止區"
"221038","646-BX","2019/10/24 19:43:45","新北市汐止區忠孝東路275號","121.663781666667","25.068385","6501100","汐止區"
"221033","647-BX","2019/10/24 19:43:55","新北市汐止區芳園街58號","121.625391666667","25.0386783333333","6501100","汐止區"
"220079","145-BY","2019/10/24 19:43:53","新北市板橋區民權路302巷2號","121.457296666667","25.0164883333333","6500100","板橋區"
"220080","200-UY","2019/10/24 19:43:57","新北市板橋區大觀路二段153巷46弄4號","121.448843333333","24.9995516666667","6500100","板橋區"
"220082","610-BX","2019/10/24 19:43:59","新北市板橋區篤行路一段30號","121.431835","24.9942116666667","6500100","板橋區"
"220101","245-BX","2019/10/24 19:43:58","新北市板橋區縣民大道三段79巷7號","121.475165","25.0219266666667","6500100","板橋區"
"224002","257-TC","2019/10/24 19:43:57","新北市瑞芳區三爪子坑路13巷281-6號","121.814553333333","25.1064133333333","6501200","瑞芳區"
"220056","276-BY","2019/10/24 19:43:52","新北市板橋區信義路1巷24號","121.457913333333","24.997325","6500100","板橋區"
"220072","277-BY","2019/10/24 19:43:56","新北市板橋區金門街215巷97號","121.433826666667","24.9887716666667","6500100","板橋區"
"220094","283-UM","2019/10/24 19:43:55","新北市板橋區陽明街271號","121.462196666667","25.0258966666667","6500100","板橋區"
"220071","283-VK","2019/10/24 19:43:39","新北市板橋區信義路16-7號","121.456945","24.9955616666667","6500100","板橋區"
"220053","285-VK","2019/10/24 19:43:55","新北市板橋區中山路二段60巷1弄16號","121.474863333333","25.01556","6500100","板橋區"
"220081","287-VK","2019/10/24 19:43:47","新北市板橋區大觀路一段29巷179弄21號","121.449536666667","25.0045883333333","6500100","板橋區"
"220090","288-VK","2019/10/24 19:43:51","新北市板橋區綠堤街35-4號","121.455475","25.0263816666667","6500100","板橋區"
"220061","293-UM","2019/10/24 19:43:50","新北市板橋區板新路128號","121.470891666667","25.0155166666667","6500100","板橋區"
"220062","295-UM","2019/10/24 19:43:39","新北市板橋區中山路二段416巷54弄8號","121.482408333333","25.01933","6500100","板橋區"
"220084","296-UM","2019/10/24 19:43:41","新北市板橋區滿平二街2巷1弄28號","121.424898333333","24.9871616666667","6500100","板橋區"
"220075","303-R5","2019/10/24 19:43:56","新北市板橋區大勇街79號","121.452835","25.0165133333333","6500100","板橋區"
"220092","307-R5","2019/10/24 19:43:47","新北市板橋區幸福路32巷2弄45號","121.460728333333","25.02225","6500100","板橋區"
"220098","317-R6","2019/10/24 19:43:55","新北市板橋區四維路269巷64號","121.460701666667","25.027225","6500100","板橋區"
"220083","461-BY","2019/10/24 19:43:45","新北市板橋區大觀路二段174巷165弄2號","121.441815","25.0033533333333","6500100","板橋區"
"220089","487-VK","2019/10/24 19:43:51","新北市板橋區互助街33號","121.461411666667","25.0267783333333","6500100","板橋區"
"220088","491-VK","2019/10/24 19:43:58","新北市板橋區文聖街130號","121.478298333333","25.0282533333333","6500100","板橋區"
"220063","609-BX","2019/10/24 19:43:55","新北市板橋區三民路一段156號","121.479021666667","25.0197283333333","6500100","板橋區"
"220103","630-UY","2019/10/24 19:43:42","新北市板橋區文化路一段421巷15號","121.466558333333","25.0230883333333","6500100","板橋區"
"220091","637-BX","2019/10/24 19:43:48","新北市板橋區懷德街127巷5號","121.479043333333","25.0309033333333","6500100","板橋區"
"220057","686-BX","2019/10/24 19:43:57","新北市板橋區四川路二段58號","121.453205","24.995105","6500100","板橋區"
"220077","687-BX","2019/10/24 19:43:50","新北市板橋區僑中二街106巷1號","121.445851666667","25.0075483333333","6500100","板橋區"
"220093","689-BX","2019/10/24 19:43:52","新北市板橋區長江路三段99號","121.474401666667","25.03427","6500100","板橋區"
"220054","741-BX","2019/10/24 19:43:47","新北市板橋區忠孝路132號","121.463198333333","25.00235","6500100","板橋區"
"220102","KEA-2699","2019/10/24 19:43:51","新北市板橋區仁化街42巷7號","121.475518333333","25.0314133333333","6500100","板橋區"
"220055","827-TW","2019/10/24 19:43:52","新北市板橋區國慶路149巷21弄7號","121.460628333333","24.99731","6500100","板橋區"
"220067","831-TW","2019/10/24 19:43:56","新北市板橋區長安街138巷1弄83號","121.474843333333","25.0112066666667","6500100","板橋區"
"220074","895-R6","2019/10/24 19:43:54","新北市板橋區大東街53號","121.456573333333","25.00833","6500100","板橋區"
"220073","985-R7","2019/10/24 19:43:52","新北市板橋區國光路49巷17號","121.458971666667","25.01878","6500100","板橋區"
"220097","AAC-210","2019/10/24 19:43:46","新北市板橋區光正街43號","121.461786666667","25.0172283333333","6500100","板橋區"
"220064","AAC-253","2019/10/24 19:43:56","新北市板橋區民族路232號","121.468986666667","25.00726","6500100","板橋區"
"235068","KEA-2873","2019/10/24 19:43:30","新北市中和區中山路二段136巷3弄8號","121.501155","25.0039766666667","6500300","中和區"
"235061","KEA-2875","2019/10/24 19:43:48","新北市中和區民樂路2-1號","121.481505","25.00109","6500300","中和區"
