"lineid","car","time","location","longitude","latitude","cityid","cityname"
"234046","148-BY","2019/10/24 20:13:40","新北市永和區永元路4號","121.521941666667","25.0000033333333","6500400","永和區"
"234081","298-R6","2019/10/24 20:13:45","新北市永和區永亨路90號","121.522116666667","25.005485","6500400","永和區"
"234038","336-UY","2019/10/24 20:13:59","新北市永和區成功路一段93巷23弄1號","121.528668333333","25.0028733333333","6500400","永和區"
"234064","337-UY","2019/10/24 20:13:44","新北市永和區得和路251號","121.520973333333","24.99975","6500400","永和區"
"234086","338-UY","2019/10/24 20:13:53","新北市永和區中正路579號","121.516653333333","25.00892","6500400","永和區"
"234070","552-UM","2019/10/24 20:13:48","新北市永和區永亨路31號","121.519771666667","25.0061283333333","6500400","永和區"
"234017","745-BX","2019/10/24 20:13:47","新北市永和區文化路26號","121.515213333333","25.0150816666667","6500400","永和區"
"234030","746-BX","2019/10/24 20:13:45","新北市中和區立人街14巷40弄24號","121.519611666667","24.99598","6500400","永和區"
"234054","KEA-2590","2019/10/24 20:13:49","新北市永和區博愛街21巷1號","121.51772","25.015825","6500400","永和區"
"234013","KEA-2591","2019/10/24 20:13:51","新北市永和區保生路3號","121.5063","25.007365","6500400","永和區"
"234061","AAD-866","2019/10/24 20:13:44","新北市永和區安樂路72巷12號","121.515141666667","24.9987333333333","6500400","永和區"
"234042","862-TW","2019/10/24 20:13:55","新北市中和區中和路350巷3弄2號","121.510348333333","25.0012516666667","6500400","永和區"
"234050","863-TW","2019/10/24 20:13:53","新北市永和區環河西路二段131號","121.50595","25.0143516666667","6500400","永和區"
"249005","172-UM","2019/10/24 20:13:42","新北市八里區下罟子54-12號","121.387981666667","25.1401066666667","6502300","八里區"
"249001","173-UM","2019/10/24 20:13:51","新北市八里區中華路二段386號","121.402263333333","25.14705","6502300","八里區"
"249004","303-UY","2019/10/24 20:13:37","新北市八里區中山路一段398巷52-2號","121.411293333333","25.15889","6502300","八里區"
"249002","305-UY","2019/10/24 20:13:43","新北市八里區龍米路一段30巷18號","121.457533333333","25.1167216666667","6502300","八里區"
"249003","593-UM","2019/10/24 20:13:57","新北市八里區中山路二段447巷16號","121.396935","25.145415","6502300","八里區"
"248016","026-BX","2019/10/24 20:13:58","新北市五股區凌雲路一段158巷39弄16號","121.446396666667","25.1041583333333","6501500","五股區"
"248012","247-BX","2019/10/24 20:13:48","新北市五股區六合街100號","121.431083333333","25.09097","6501500","五股區"
"248004","677-BX","2019/10/24 20:13:56","新北市五股區成泰路一段239-9號","121.436795","25.080615","6501500","五股區"
"248002","678-BX","2019/10/24 20:13:45","新北市五股區成泰路三段191號","121.44561","25.0923416666667","6501500","五股區"
"248010","682-TV","2019/10/24 20:13:40","新北市五股區成泰路一段8巷4號","121.435086666667","25.0668116666667","6501500","五股區"
"234023","9380-KE","2019/10/24 20:13:39","新北市永和區中正路659號","121.514738333333","25.0101216666667","6500400","永和區"
"234077","969-R7","2019/10/24 20:13:51","新北市永和區民享街23巷7號","121.516196666667","24.9951383333333","6500400","永和區"
"234074","AAC-211","2019/10/24 20:13:52","新北市永和區竹林路191巷10號","121.52121","25.009495","6500400","永和區"
"234067","AAC-212","2019/10/24 20:13:54","新北市永和區保平路236巷7弄2號","121.5087","25.006075","6500400","永和區"
"234003","AAC-295","2019/10/24 20:13:50","新北市永和區自強街32巷2號","121.515688333333","25.00785","6500400","永和區"
"243012","AAD-798","2019/10/24 20:13:47","新北市泰山區楓江路86巷9號","121.43742","25.062695","6501600","泰山區"
"243014","KEA-2801","2019/10/24 20:13:44","新北市五股區成泰路一段1號","121.433543333333","25.066425","6501600","泰山區"
"243016","421-VK","2019/10/24 20:13:38","新北市泰山區明志路三段206巷2號","121.423773333333","25.0382216666667","6501600","泰山區"
"243009","KEA-2215","2019/10/24 20:13:45","新北市泰山區泰林路二段114號","121.43474","25.0593083333333","6501600","泰山區"
"243011","KEA-2216","2019/10/24 20:13:47","新北市泰山區壽山路158號","121.416826666667","25.0308833333333","6501600","泰山區"
"243013","646-TV","2019/10/24 20:13:41","新北市泰山區明志路三段74巷23號","121.424016666667","25.04168","6501600","泰山區"
"243015","680-BX","2019/10/24 20:13:38","新北市泰山區明志路一段440號","121.430676666667","25.0561016666667","6501600","泰山區"
"222003","436-BY","2019/10/24 20:13:45","新北市深坑區埔新街99號","121.619201666667","25.002245","6501800","深坑區"
"222002","659-BX","2019/10/24 20:13:41","新北市深坑區北深路三段158巷36號","121.601515","25.0046033333333","6501800","深坑區"
"231061","002-UM","2019/10/24 20:13:45","新北市新店區安興路32號","121.515736666667","24.9704283333333","6500600","新店區"
"231055","0291-UT","2019/10/24 20:13:55","新北市新店區中華路42巷16號","121.540566666667","24.968695","6500600","新店區"
"231044","046-UY","2019/10/24 20:13:47","新北市新店區寶慶街66號","121.542","24.986895","6500600","新店區"
"231060","106-UY","2019/10/24 20:13:53","新北市新店區安康路三段491號","121.482578333333","24.9491616666667","6500600","新店區"
"231051","107-UY","2019/10/24 20:13:45","新北市新店區中央六街42-1號","121.528538333333","24.9754233333333","6500600","新店區"
"231049","108-UY","2019/10/24 20:13:44","新北市新店區北新路二段97巷9弄17號","121.542221666667","24.973675","6500600","新店區"
"231065","110-UY","2019/10/24 20:13:42","新北市新店區安祥路106巷38號","121.477215","24.961785","6500600","新店區"
"231068","187-VK","2019/10/24 20:13:48","新北市新店區中興路三段200號","121.54394","24.9819316666667","6500600","新店區"
"231062","256-BX","2019/10/24 20:13:39","新北市新店區安康路三段287號","121.485846666667","24.9513833333333","6500600","新店區"
"231054","260-TV","2019/10/24 20:13:43","新北市新店區檳榔路43巷2號","121.543045","24.9629666666667","6500600","新店區"
"231042","268-BY","2019/10/24 20:13:47","新北市新店區中興路二段22-1號","121.546856666667","24.97055","6500600","新店區"
"231064","278-BY","2019/10/24 20:13:53","新北市新店區吉安街21號","121.516178333333","24.9658916666667","6500600","新店區"
"231050","AAD-862","2019/10/24 20:13:40","新北市新店區北新路一段90號","121.54184","24.968485","6500600","新店區"
"231045","355-BY","2019/10/24 20:13:46","新北市新店區北宜路一段129號","121.540611666667","24.953245","6500600","新店區"
"231058","3713-VJ","2019/10/24 20:13:44","新北市新店區薏仁坑路自強巷1號","121.496985","24.95791","6500600","新店區"
"231056","4715-K9","2019/10/24 20:13:47","新北市新店區中正路328巷42弄10號","121.538511666667","24.9759983333333","6500600","新店區"
"231067","4772-VM","2019/10/24 20:13:54","新北市新店區溪洲路30號","121.533376666667","24.9610333333333","6500600","新店區"
"231052","513-UM","2019/10/24 20:13:51","新北市新店區新烏路三段72-1號","121.554008333333","24.9040316666667","6500600","新店區"
"231063","616-UM","2019/10/24 20:13:57","新北市新店區黎明路11號","121.502018333333","24.9497533333333","6500600","新店區"
"231041","619-UM","2019/10/24 20:13:43","新北市新店區民權路129-1號","121.535213333333","24.9827383333333","6500600","新店區"
"231047","KED-0819","2019/10/24 20:13:49","新北市新店區永華街31號","121.54372","24.97636","6500600","新店區"
"231057","720-UM","2019/10/24 20:13:51","新北市新店區梅花一路2號","121.551755","24.9332083333333","6500600","新店區"
"231059","897-TW","2019/10/24 20:13:54","新北市新店區安德街47號","121.51117","24.96237","6500600","新店區"
"231040","898-TW","2019/10/24 20:13:57","新北市新店區中正路108號","121.543081666667","24.9706816666667","6500600","新店區"
"231043","899-TW","2019/10/24 20:13:45","新北市新店區建國路133號","121.539278333333","24.97818","6500600","新店區"
"231066","AKT-0513","2019/10/24 20:13:44","新北市新店區安興路20號","121.515053333333","24.9659866666667","6500600","新店區"
"241011","013-R5","2019/10/24 20:13:46","新北市三重區三和路三段41號","121.495513333333","25.0712683333333","6500200","三重區"
"241028","022-UY","2019/10/24 20:13:54","新北市三重區大同南路160號","121.496593333333","25.057615","6500200","三重區"
"241008","059-VK","2019/10/24 20:13:42","新北市三重區永福街211巷4號","121.479775","25.0740816666667","6500200","三重區"
"241002","060-VK","2019/10/24 20:13:46","新北市三重區仁義街225巷50號","121.497935","25.0832","6500200","三重區"
"241031","061-VK","2019/10/24 20:13:52","新北市三重區三寧街13-1號","121.489313333333","25.05966","6500200","三重區"
"241015","062-VK","2019/10/24 20:13:52","新北市三重區福德北路15號","121.50254","25.0643183333333","6500200","三重區"
"241017","063-VK","2019/10/24 20:13:45","新北市三重區長壽西街200號","121.49243","25.066155","6500200","三重區"
"241024","065-VK","2019/10/24 20:13:52","新北市三重區中正北路165巷33號","121.479738333333","25.0702983333333","6500200","三重區"
"241007","066-VK","2019/10/24 20:13:39","新北市三重區三和路四段117巷15號","121.486125","25.0777616666667","6500200","三重區"
"241003","091-VK","2019/10/24 20:13:44","新北市三重區仁愛街474號","121.489645","25.082415","6500200","三重區"
"241006","262-UM","2019/10/24 20:13:49","新北市三重區車路頭街139巷10號","121.484198333333","25.0762383333333","6500200","三重區"
"241016","266-UM","2019/10/24 20:13:48","新北市三重區大同北路97-3號","121.494386666667","25.06342","6500200","三重區"
"241009","267-UM","2019/10/24 20:13:56","新北市三重區三和路四段382巷96弄1號","121.479168333333","25.0780783333333","6500200","三重區"
"241018","268-UM","2019/10/24 20:13:48","新北市三重區正義北路258號","121.495891666667","25.0685183333333","6500200","三重區"
"241032","269-UM","2019/10/24 20:13:47","新北市三重區捷運路31號","121.4849","25.05619","6500200","三重區"
"241013","270-UM","2019/10/24 20:13:46","新北市三重區三和路三段167巷2號","121.492015","25.0741216666667","6500200","三重區"
"241025","271-UM","2019/10/24 20:13:49","新北市三重區中正北路201號","121.47705","25.06967","6500200","三重區"
"241035","KEA-2210","2019/10/24 20:13:37","新北市三重區大榮街53號","121.49916","25.063565","6500200","三重區"
"241030","KED-0822","2019/10/24 20:13:57","新北市三重區成功路145巷35號","121.48776","25.0531866666667","6500200","三重區"
"241023","462-BY","2019/10/24 20:13:46","新北市三重區頂崁街217巷4弄1號","121.477693333333","25.0677966666667","6500200","三重區"
"241004","475-VK","2019/10/24 20:13:45","新北市三重區溪尾街111號","121.489713333333","25.0786916666667","6500200","三重區"
"241020","478-VK","2019/10/24 20:13:45","新北市三重區重陽路四段158號","121.493291666667","25.0720883333333","6500200","三重區"
"241026","480-VK","2019/10/24 20:13:48","新北市三重區和平街46號","121.502471666667","25.062715","6500200","三重區"
"241014","543-UM","2019/10/24 20:13:44","新北市三重區龍濱路80號","121.502391666667","25.0696383333333","6500200","三重區"
"241001","547-UM","2019/10/24 20:13:45","新北市三重區自強路四段3巷15號","121.489396666667","25.0762333333333","6500200","三重區"
"241019","KEA-2593","2019/10/24 20:13:46","新北市三重區大智街178號","121.491188333333","25.0699783333333","6500200","三重區"
"241005","AAD-863","2019/10/24 20:13:48","新北市三重區碧華街274號","121.488831666667","25.0829183333333","6500200","三重區"
"241012","743-BX","2019/10/24 20:13:40","新北市三重區河邊北街286號","121.501185","25.0770733333333","6500200","三重區"
"241022","KED-0820","2019/10/24 20:13:42","新北市三重區中正北路24號","121.488283333333","25.0635033333333","6500200","三重區"
"241029","942-UM","2019/10/24 20:13:50","新北市三重區中正南路129巷16號","121.49339","25.0568383333333","6500200","三重區"
"241033","AAC-255","2019/10/24 20:13:53","新北市三重區光復路一段61巷31弄2號","121.474798333333","25.0492466666667","6500200","三重區"
"235066","003-UY","2019/10/24 20:13:44","新北市中和區保平路372號","121.5064","25.0034866666667","6500300","中和區"
"235039","097-UM","2019/10/24 20:14:00","新北市中和區大勇街27巷8號","121.517021666667","24.9938316666667","6500300","中和區"
"235065","098-UM","2019/10/24 20:13:50","新北市中和區永和路128巷47號","121.49766","25.0068533333333","6500300","中和區"
"235040","150-BY","2019/10/24 20:13:58","新北市中和區保健路39巷9號","121.509065","24.99795","6500300","中和區"
"235055","183-VK","2019/10/24 20:13:38","新北市板橋區民生路三段120-2號","121.466325","25.0264233333333","6500300","中和區"
"247016","KEA-2869","2019/10/24 20:13:42","新北市蘆洲區光華路150巷23號","121.465101666667","25.0832666666667","6501400","蘆洲區"
"247010","KED-0682","2019/10/24 20:13:46","新北市蘆洲區信義路188巷8號","121.479983333333","25.0844833333333","6501400","蘆洲區"
"235050","4979-A6","2019/10/24 20:13:55","新北市中和區景平路221巷15號","121.510123333333","24.9922116666667","6500300","中和區"
"235069","4980-A6","2019/10/24 20:13:43","新北市中和區南山路73號","121.502191666667","24.9980033333333","6500300","中和區"
"235041","802-TS","2019/10/24 20:12:02","新北市五股區中直路13-7號","121.424456666667","25.1105533333333","6500300","中和區"
"235059","AAC-215","2019/10/24 20:13:41","新北市中和區圓通路296巷1號","121.487723333333","24.98868","6500300","中和區"
"220035","015-TV","2019/10/24 20:13:48","新北市板橋區中正路316號","121.454885","25.0209133333333","6500100","板橋區"
"220065","072-UY","2019/10/24 20:13:50","新北市板橋區民族路69巷18弄10號","121.466123333333","25.0099616666667","6500100","板橋區"
"247006","893-R6","2019/10/24 20:13:49","新北市蘆洲區九芎街15巷12號","121.467863333333","25.0778966666667","6501400","蘆洲區"
"247004","341-TH","2019/10/24 20:13:56","新北市蘆洲區永安南路二段328巷17弄10號","121.456153333333","25.083975","6501400","蘆洲區"
"247022","337-TH","2019/10/24 20:13:38","新北市蘆洲區中正路198號","121.466748333333","25.0882816666667","6501400","蘆洲區"
"247024","057-VK","2019/10/24 20:13:44","新北市蘆洲區光榮路66巷17號","121.463536666667","25.0881533333333","6501400","蘆洲區"
"247014","056-VK","2019/10/24 20:13:54","新北市蘆洲區中山二路174號","121.47064","25.08083","6501400","蘆洲區"
"247018","053-VK","2019/10/24 20:13:54","新北市蘆洲區民族路315號","121.474526666667","25.0914216666667","6501400","蘆洲區"
"247002","001-UY","2019/10/24 20:13:57","新北市蘆洲區長安街315號","121.457438333333","25.0860983333333","6501400","蘆洲區"
"222001","KEA-2212","2019/10/24 20:13:40","新北市深坑區北深路三段234號","121.600605","25.0041116666667","6501800","深坑區"
"251009","008-UM","2019/10/24 20:13:57","新北市淡水區清水街1號","121.445171666667","25.17033","6501000","淡水區"
"251015","KEA-2871","2019/10/24 20:13:43","新北市淡水區商工路350號","121.468313333333","25.185395","6501000","淡水區"
"251016","179-VK","2019/10/24 20:13:49","新北市淡水區番子田32號","121.458063333333","25.2291883333333","6501000","淡水區"
"251004","180-VK","2019/10/24 20:13:38","新北市淡水區民族路31巷21號","121.461953333333","25.1366516666667","6501000","淡水區"
"251008","181-VK","2019/10/24 20:13:46","新北市淡水區淡海路72巷28弄1號","121.424318333333","25.1821333333333","6501000","淡水區"
"251013","182-VK","2019/10/24 20:13:48","新北市淡水區奎柔山路756號","121.474666666667","25.2035433333333","6501000","淡水區"
"251010","413-VK","2019/10/24 20:13:38","新北市淡水區中正路二段397號","121.42551","25.191165","6501000","淡水區"
"251012","441-VK","2019/10/24 20:13:46","新北市淡水區淡金路三段304號","121.449018333333","25.2078","6501000","淡水區"
"251001","559-UM","2019/10/24 20:14:01","新北市淡水區淡金路二段15號","121.446075","25.189175","6501000","淡水區"
"251006","561-UM","2019/10/24 20:13:46","新北市淡水區北新路141巷2弄1號","121.449355","25.1792533333333","6501000","淡水區"
"251014","577-R6","2019/10/24 20:13:50","新北市淡水區石頭厝2-1號","121.458093333333","25.2356816666667","6501000","淡水區"
"251011","650-BX","2019/10/24 20:13:57","新北市淡水區崁頂105號","121.43375","25.2039016666667","6501000","淡水區"
"251002","672-BX","2019/10/24 20:13:50","新北市淡水區中正路296號","121.437451666667","25.1721433333333","6501000","淡水區"
"251003","766-UM","2019/10/24 20:13:47","新北市淡水區中山北路一段229號","121.444463333333","25.1795983333333","6501000","淡水區"
"207003","550-UM","2019/10/24 20:13:50","新北市萬里區大鵬里萬里加投132-1號","121.644816666667","25.2140816666667","6502800","萬里區"
"207004","291-VK","2019/10/24 20:13:54","新北市萬里區北基里仁五街15號","121.681176666667","25.1760683333333","6502800","萬里區"
"252002","178-VK","2019/10/24 20:13:51","新北市三芝區中正路一段36巷8號","121.503638333333","25.2586583333333","6502100","三芝區"
"237009","210-TH","2019/10/24 20:13:49","新北市三峽區民族街78巷2弄4號","121.368678333333","24.929815","6500900","三峽區"
"237012","275-BY","2019/10/24 20:13:51","新北市三峽區中華路74-5號","121.371348333333","24.9292283333333","6500900","三峽區"
"237006","5529-G3","2019/10/24 20:13:43","新北市三峽區嘉添227-24號","121.370053333333","24.9114466666667","6500900","三峽區"
"237005","AKY-6261","2019/10/24 20:13:51","新北市三峽區三樹路98巷102-5號","121.385978333333","24.93983","6500900","三峽區"
"233002","762-BX","2019/10/24 19:57:18","新北市烏來區啦卡路70-1號","121.565258333333","24.8558466666667","6502900","烏來區"
"236078","166-UM","2019/10/24 20:13:56","新北市土城區金安街32號","121.420746666667","24.9648566666667","6501300","土城區"
"236030","253-BX","2019/10/24 20:13:52","新北市土城區裕民路32巷6號","121.447635","24.98808","6501300","土城區"
"236026","269-VK","2019/10/24 20:13:46","新北市土城區裕生路83巷18號","121.447438333333","24.984045","6501300","土城區"
"236014","270-VK","2019/10/24 20:13:51","新北市土城區廣明街63巷23號","121.454143333333","24.99309","6501300","土城區"
"236038","271-VK","2019/10/24 20:13:52","新北市土城區延吉街363巷10號","121.464245","24.9834116666667","6501300","土城區"
"247012","KED-0683","2019/10/24 20:13:49","新北市蘆洲區中興街15巷22號","121.480278333333","25.08782","6501400","蘆洲區"
"236070","KEA-2877","2019/10/24 20:13:52","新北市土城區大安路14號","121.43283","24.9660283333333","6501300","土城區"
"252001","KED-0821","2019/10/24 20:13:58","新北市三芝區中山路一段9巷4號","121.500143333333","25.2585433333333","6502100","三芝區"
"236021","401-BY","2019/10/24 20:13:46","新北市土城區延吉街3巷2號","121.47186","24.98946","6501300","土城區"
"236059","912-UM","2019/10/24 20:13:53","新北市土城區中央路三段87號","121.437645","24.9679833333333","6501300","土城區"
"242042","AAC-296","2019/10/24 20:13:53","新北市新莊區青山路一段122號","121.404471666667","25.0288666666667","6500500","新莊區"
"242061","986-R7","2019/10/24 20:13:53","新北市新莊區瓊林路瓊英巷1弄1號","121.443851666667","25.0272566666667","6500500","新莊區"
"242004","751-BX","2019/10/24 20:13:52","新北市新莊區化成路554巷10號","121.46695","25.053895","6500500","新莊區"
"242029","615-BX","2019/10/24 20:13:41","新北市新莊區中原路303號","121.447326666667","25.0543066666667","6500500","新莊區"
"242027","613-BX","2019/10/24 20:13:40","新北市新莊區立信三街73號","121.444101666667","25.0510533333333","6500500","新莊區"
"242058","612-BX","2019/10/24 20:13:42","新北市新莊區龍安路331號","121.42239","25.0192716666667","6500500","新莊區"
"242053","497-BY","2019/10/24 20:13:45","新北市新莊區民安西路273號","121.426266666667","25.012545","6500500","新莊區"
"242002","441-UM","2019/10/24 20:13:52","新北市新莊區中正路33號","121.463913333333","25.0409983333333","6500500","新莊區"
"242007","440-UM","2019/10/24 20:13:54","新北市新莊區思源路423號","121.459466666667","25.05258","6500500","新莊區"
"242044","415-TV","2019/10/24 20:13:46","桃園市龜山區萬壽路一段21巷8號","121.410521666667","25.0203233333333","6500500","新莊區"
"242013","413-TV","2019/10/24 20:13:40","新北市新莊區幸福路678巷5號","121.450665","25.0496733333333","6500500","新莊區"
"242051","400-BY","2019/10/24 20:13:50","新北市新莊區民安西路193號","121.426111666667","25.015365","6500500","新莊區"
"242025","362-BY","2019/10/24 20:13:43","新北市新莊區五工路68巷19號","121.458766666667","25.0643683333333","6500500","新莊區"
"242023","353-BY","2019/10/24 20:13:50","新北市新莊區化成路632號","121.466126666667","25.0551966666667","6500500","新莊區"
"242015","132-UY","2019/10/24 20:13:45","新北市新莊區中平路26巷68號","121.447931666667","25.043505","6500500","新莊區"
"242056","172-VK","2019/10/24 20:13:52","新北市新莊區豐年街52號","121.446408333333","25.031825","6500500","新莊區"
"242017","173-VK","2019/10/24 20:13:49","新北市新莊區中港路397號","121.451766666667","25.0468383333333","6500500","新莊區"
"242039","176-VK","2019/10/24 20:13:44","新北市新莊區民安西路107號","121.426893333333","25.01849","6500500","新莊區"
"242021","KED-0687","2019/10/24 20:13:48","新北市新莊區新泰路214號","121.446765","25.0388533333333","6500500","新莊區"
"242019","346-TH","2019/10/24 20:13:54","新北市新莊區長青街35巷2號","121.456746666667","25.0421983333333","6500500","新莊區"
"242031","347-TH","2019/10/24 20:13:39","新北市新莊區中正路372號","121.443525","25.0344133333333","6500500","新莊區"
"242036","348-TH","2019/10/24 20:13:39","新北市新莊區建安街56號","121.427373333333","25.0246616666667","6500500","新莊區"
"242009","349-TH","2019/10/24 20:13:57","新北市新莊區昌平街14號","121.454946666667","25.0527016666667","6500500","新莊區"
"242034","350-TH","2019/10/24 20:13:47","新北市新莊區中正路318巷13號","121.446365","25.0357983333333","6500500","新莊區"
"242048","351-TH","2019/10/24 20:13:52","新北市新莊區四維路152巷32號","121.421933333333","25.022485","6500500","新莊區"
"239006","891-R6","2019/10/24 20:13:41","新北市鶯歌區文化路181號","121.355393333333","24.9540983333333","6500800","鶯歌區"
"239002","359-BY","2019/10/24 20:13:42","新北市鶯歌區中山路162號","121.349318333333","24.95701","6500800","鶯歌區"
"221008","489-VK","2019/10/24 20:13:58","新北市汐止區忠二街1號","121.623013333333","25.07772","6501100","汐止區"
"221036","130-UY","2019/10/24 20:13:55","新北市汐止區新台五路二段100號","121.662473333333","25.0659133333333","6501100","汐止區"
"221015","131-UY","2019/10/24 20:13:51","新北市汐止區建成路37巷1號","121.66365","25.072785","6501100","汐止區"
"221010","269-BY","2019/10/24 20:13:54","新北市汐止區八連路一段86巷1號","121.644578333333","25.0802933333333","6501100","汐止區"
"221012","278-VK","2019/10/24 20:13:45","新北市汐止區大同路三段439號","121.678221666667","25.07132","6501100","汐止區"
"221023","279-VK","2019/10/24 20:13:57","新北市汐止區明峰街298巷1號","121.625351666667","25.0678766666667","6501100","汐止區"
"221032","280-BY","2019/10/24 20:13:39","新北市汐止區弘道街9巷4弄2號","121.616986666667","25.04918","6501100","汐止區"
"221029","298-VK","2019/10/24 20:13:51","新北市汐止區樟樹一路119巷12號","121.641211666667","25.0643533333333","6501100","汐止區"
"221021","299-VK","2019/10/24 20:13:59","新北市汐止區水源路一段265號","121.654058333333","25.0594033333333","6501100","汐止區"
"221031","353-TW","2019/10/24 20:13:48","新北市汐止區中興路214巷10號","121.631473333333","25.0665783333333","6501100","汐止區"
"221035","622-UM","2019/10/24 20:13:38","新北市汐止區長江街43號","121.655766666667","25.07126","6501100","汐止區"
"221025","623-UM","2019/10/24 20:13:50","新北市汐止區連興街120號","121.65379","25.06236","6501100","汐止區"
"221038","646-BX","2019/10/24 20:13:45","新北市汐止區忠孝東路482號","121.666375","25.0738133333333","6501100","汐止區"
"221033","647-BX","2019/10/24 20:13:55","新北市汐止區東勢街201巷104號","121.633548333333","25.0428766666667","6501100","汐止區"
"221018","753-BX","2019/10/24 20:13:43","新北市汐止區茄苳路303號","121.673516666667","25.0670716666667","6501100","汐止區"
"220079","145-BY","2019/10/24 20:13:53","新北市板橋區建國街99號","121.459836666667","25.0174166666667","6500100","板橋區"
"220080","200-UY","2019/10/24 20:13:57","新北市板橋區大觀路二段153巷44弄53號","121.446018333333","24.9989666666667","6500100","板橋區"
"224002","257-TC","2019/10/24 20:13:43","新北市瑞芳區蛇子形路2號","121.823966666667","25.1028916666667","6501200","瑞芳區"
"220081","287-VK","2019/10/24 20:13:48","新北市板橋區僑中一街124巷18弄32號","121.447373333333","25.013545","6500100","板橋區"
"242046","281-VK","2019/10/24 20:13:58","新北市新莊區裕民街132號","121.417843333333","25.0221116666667","6500500","新莊區"
"220083","461-BY","2019/10/24 20:13:45","新北市板橋區僑中二街48巷8號","121.445995","25.010355","6500100","板橋區"
"242011","280-VK","2019/10/24 20:13:57","新北市新莊區中信街39號","121.450293333333","25.0506433333333","6500500","新莊區"
"220103","630-UY","2019/10/24 20:13:46","新北市板橋區漢生東路23巷56弄10號","121.466345","25.0181616666667","6500100","板橋區"
"220054","741-BX","2019/10/24 20:13:47","新北市板橋區忠孝路忠義巷9弄18號","121.465385","25.0040616666667","6500100","板橋區"
"220055","827-TW","2019/10/24 20:13:52","新北市板橋區重慶路290巷22弄16號","121.462228333333","24.99954","6500100","板橋區"
"220074","895-R6","2019/10/24 20:13:53","新北市板橋區府中路15號","121.459403333333","25.009505","6500100","板橋區"
"235068","KEA-2873","2019/10/24 20:13:29","新北市中和區勝利路35巷1弄5號","121.499205","25.0074916666667","6500300","中和區"
"235026","KEA-2876","2019/10/24 19:53:50","新北市中和區員山路36巷16-3號","121.485026666667","24.9914033333333","6500300","中和區"
