"lineid","car","time","location","longitude","latitude","cityid","cityname"
"234061","AAD-866","2019/10/24 20:43:44","新北市永和區中正路381號","121.517206666667","25.0035766666667","6500400","永和區"
"234042","862-TW","2019/10/24 20:43:55","新北市永和區永元路138號","121.52292","25.0031466666667","6500400","永和區"
"249001","173-UM","2019/10/24 20:43:51","新北市八里區中山路三段227號","121.382028333333","25.1403616666667","6502300","八里區"
"249004","303-UY","2019/10/24 20:43:57","新北市八里區中山路一段157巷37號","121.412966666667","25.1580933333333","6502300","八里區"
"234074","AAC-211","2019/10/24 20:43:52","新北市永和區竹林路75巷25弄34號","121.521053333333","25.014945","6500400","永和區"
"222003","436-BY","2019/10/24 20:43:45","新北市深坑區阿柔洋40號","121.6103","24.99849","6501800","深坑區"
"222002","659-BX","2019/10/24 20:43:41","新北市深坑區北深路三段145號","121.603335","25.002805","6501800","深坑區"
"231061","002-UM","2019/10/24 20:43:46","新北市新店區新和街39號","121.51934","24.98501","6500600","新店區"
"231044","046-UY","2019/10/24 20:43:47","新北市新店區建國路257號","121.53741","24.9833583333333","6500600","新店區"
"231060","106-UY","2019/10/24 20:43:53","新北市新店區安康路三段628號","121.47814","24.945645","6500600","新店區"
"231051","107-UY","2019/10/24 20:43:45","新北市新店區民生路156巷17號","121.528501666667","24.9811133333333","6500600","新店區"
"231049","108-UY","2019/10/24 20:43:44","新北市新店區永業路81巷1弄14號","121.530295","24.9501783333333","6500600","新店區"
"231065","110-UY","2019/10/24 20:43:42","新北市新店區安祥路104巷6弄9號","121.481958333333","24.9627583333333","6500600","新店區"
"231068","187-VK","2019/10/24 20:43:48","新北市新店區寶元路一段44號","121.543661666667","24.984835","6500600","新店區"
"231062","256-BX","2019/10/24 20:43:59","新北市新店區雙城路4巷12號","121.490665","24.950505","6500600","新店區"
"231054","260-TV","2019/10/24 20:43:43","新北市新店區北新路一段88巷7-1號","121.542523333333","24.96744","6500600","新店區"
"231042","268-BY","2019/10/24 20:43:47","新北市新店區寶高路120巷1號","121.554575","24.9760616666667","6500600","新店區"
"231064","278-BY","2019/10/24 20:43:53","新北市新店區安民街379巷5號","121.516018333333","24.9761883333333","6500600","新店區"
"231050","AAD-862","2019/10/24 20:43:40","新北市新店區中正路247巷9號","121.538823333333","24.9727433333333","6500600","新店區"
"231045","355-BY","2019/10/24 20:43:46","新北市新店區長春路19巷7號","121.549005","24.9561833333333","6500600","新店區"
"231058","3713-VJ","2019/10/24 20:43:44","新北市新店區中正路307巷22號","121.536113333333","24.97405","6500600","新店區"
"231056","4715-K9","2019/10/24 20:43:47","新北市新店區安民街35巷9弄12號","121.514795","24.9656216666667","6500600","新店區"
"231067","4772-VM","2019/10/24 20:43:54","新北市新店區安華路28-1號","121.519718333333","24.9606216666667","6500600","新店區"
"231052","513-UM","2019/10/24 20:43:51","新北市新店區新烏路二段300號","121.548613333333","24.9132583333333","6500600","新店區"
"231063","616-UM","2019/10/24 20:43:57","新北市新店區如意街1巷2號","121.495715","24.949485","6500600","新店區"
"231041","619-UM","2019/10/24 20:43:43","新北市新店區中正路707號","121.533906666667","24.99113","6500600","新店區"
"231047","KED-0819","2019/10/24 20:43:49","新北市新店區寶元路二段1巷2號","121.550686666667","24.9841166666667","6500600","新店區"
"231057","720-UM","2019/10/24 20:43:51","新北市新店區新烏路一段201號","121.54753","24.9321683333333","6500600","新店區"
"231059","897-TW","2019/10/24 20:43:55","新北市新店區僑信路132巷25號","121.50002","24.9454283333333","6500600","新店區"
"231040","898-TW","2019/10/24 20:43:57","新北市新店區中正路270號","121.538946666667","24.97359","6500600","新店區"
"231043","899-TW","2019/10/24 20:43:45","新北市新店區博愛街13巷24號","121.540295","24.97405","6500600","新店區"
"231066","AKT-0513","2019/10/24 20:43:44","新北市新店區安興路83號","121.515298333333","24.9754083333333","6500600","新店區"
"241011","013-R5","2019/10/24 20:43:40","新北市三重區龍門路128號","121.498051666667","25.0728933333333","6500200","三重區"
"241028","022-UY","2019/10/24 20:43:54","新北市三重區中正南路50號","121.493953333333","25.0598983333333","6500200","三重區"
"241008","059-VK","2019/10/24 20:43:59","新北市三重區下竹圍街42-1號","121.48105","25.0748516666667","6500200","三重區"
"241002","060-VK","2019/10/24 20:43:46","新北市三重區仁義街159巷16號","121.497656666667","25.081445","6500200","三重區"
"241031","061-VK","2019/10/24 20:43:52","新北市三重區重陽路一段43巷28號","121.488285","25.0583566666667","6500200","三重區"
"241015","062-VK","2019/10/24 20:43:52","新北市三重區文化北路222號","121.49772","25.0690666666667","6500200","三重區"
"241017","063-VK","2019/10/24 20:43:45","新北市三重區民生街47號","121.49138","25.0666733333333","6500200","三重區"
"241024","065-VK","2019/10/24 20:43:52","新北市三重區忠孝路三段47號","121.480885","25.066655","6500200","三重區"
"241007","066-VK","2019/10/24 20:43:39","新北市三重區自強路四段4號","121.488323333333","25.07609","6500200","三重區"
"241003","091-VK","2019/10/24 20:43:44","新北市三重區五華街141巷58號","121.493601666667","25.086795","6500200","三重區"
"241006","262-UM","2019/10/24 20:43:49","新北市三重區車路頭街139巷10號","121.484178333333","25.0762566666667","6500200","三重區"
"241016","266-UM","2019/10/24 20:43:48","新北市三重區長壽西街85號","121.495165","25.0669833333333","6500200","三重區"
"241009","267-UM","2019/10/24 20:43:56","新北市三重區碧華街57號","121.484786666667","25.0813316666667","6500200","三重區"
"241018","268-UM","2019/10/24 20:43:53","新北市三重區重陽路四段120號","121.492203333333","25.0707983333333","6500200","三重區"
"241032","269-UM","2019/10/24 20:43:46","新北市三重區重陽路一段120巷35號","121.485098333333","25.06016","6500200","三重區"
"241013","270-UM","2019/10/24 20:43:46","新北市三重區仁賢街12-1號","121.495661666667","25.0748833333333","6500200","三重區"
"241025","271-UM","2019/10/24 20:43:49","新北市三重區忠孝路三段84巷47號","121.481323333333","25.064325","6500200","三重區"
"241035","KEA-2210","2019/10/24 20:43:57","新北市三重區三和路三段140號","121.493453333333","25.0723516666667","6500200","三重區"
"241030","KED-0822","2019/10/24 20:43:57","新北市三重區成功路73巷12號","121.48939","25.0519183333333","6500200","三重區"
"241023","462-BY","2019/10/24 20:43:46","新北市三重區忠孝路三段75巷11號","121.480103333333","25.066055","6500200","三重區"
"241004","475-VK","2019/10/24 20:43:45","新北市三重區仁愛街400號","121.490745","25.08112","6500200","三重區"
"241020","478-VK","2019/10/24 20:43:45","新北市三重區忠孝路一段101號","121.489608333333","25.0721883333333","6500200","三重區"
"241026","480-VK","2019/10/24 20:43:47","新北市三重區和平街1號","121.500118333333","25.062245","6500200","三重區"
"241014","543-UM","2019/10/24 20:43:44","新北市三重區萬壽街22號","121.499811666667","25.0695233333333","6500200","三重區"
"241001","547-UM","2019/10/24 20:43:55","新北市三重區自強路三段76巷27弄1號","121.485418333333","25.074","6500200","三重區"
"241019","KEA-2593","2019/10/24 20:43:46","新北市三重區重陽路四段66號","121.492003333333","25.0705283333333","6500200","三重區"
"241005","AAD-863","2019/10/24 20:43:48","新北市三重區五華街237號","121.489295","25.085925","6500200","三重區"
"241012","743-BX","2019/10/24 20:43:39","新北市三重區龍門路274巷45號","121.50121","25.0755316666667","6500200","三重區"
"241022","KED-0820","2019/10/24 20:43:42","新北市三重區貴陽街20號","121.484216666667","25.061995","6500200","三重區"
"241029","942-UM","2019/10/24 20:43:50","新北市三重區中正南路269號","121.493235","25.0522033333333","6500200","三重區"
"241033","AAC-255","2019/10/24 20:43:53","新北市三重區光復路二段72號","121.471528333333","25.0559916666667","6500200","三重區"
"235055","183-VK","2019/10/24 20:43:38","新北市八里區中山路三段409號","121.368773333333","25.1349983333333","6500300","中和區"
"247016","KEA-2869","2019/10/24 20:43:42","新北市蘆洲區中山二路309號","121.468816666667","25.0774316666667","6501400","蘆洲區"
"247010","KED-0682","2019/10/24 20:43:46","新北市蘆洲區民族路10號","121.475751666667","25.0839316666667","6501400","蘆洲區"
"235069","4980-A6","2019/10/24 20:43:43","新北市中和區員山路359巷1弄8號","121.481013333333","25.0016216666667","6500300","中和區"
"235041","802-TS","2019/10/24 20:43:42","新北市新莊區化成路585-15號","121.46277","25.0670283333333","6500300","中和區"
"247006","893-R6","2019/10/24 20:43:49","新北市蘆洲區和平路120號","121.467548333333","25.079995","6501400","蘆洲區"
"247004","341-TH","2019/10/24 20:43:56","新北市蘆洲區長安街269號","121.458635","25.0838833333333","6501400","蘆洲區"
"247022","337-TH","2019/10/24 20:43:38","新北市蘆洲區中正路185巷34號","121.467643333333","25.085085","6501400","蘆洲區"
"247024","057-VK","2019/10/24 20:43:44","新北市蘆洲區長樂路150號","121.46238","25.0907466666667","6501400","蘆洲區"
"247014","056-VK","2019/10/24 20:43:54","新北市蘆洲區成功路74號","121.47312","25.08112","6501400","蘆洲區"
"247008","002-UY","2019/10/24 20:43:56","新北市蘆洲區永安北路二段8巷16號","121.48046","25.0809466666667","6501400","蘆洲區"
"247002","001-UY","2019/10/24 20:43:57","新北市蘆洲區長榮路341號","121.459571666667","25.0874883333333","6501400","蘆洲區"
"222001","KEA-2212","2019/10/24 20:43:40","新北市深坑區北深路三段214號","121.60114","25.0038616666667","6501800","深坑區"
"251015","KEA-2871","2019/10/24 20:43:40","新北市淡水區淡金路三段446號","121.450823333333","25.21443","6501000","淡水區"
"251016","179-VK","2019/10/24 20:43:49","新北市淡水區後洲子11-4號","121.445928333333","25.2254416666667","6501000","淡水區"
"251013","182-VK","2019/10/24 20:43:48","新北市淡水區下圭柔山28巷29號","121.458693333333","25.20364","6501000","淡水區"
"251010","413-VK","2019/10/24 20:43:58","新北市淡水區沙崙路133號","121.422918333333","25.1826583333333","6501000","淡水區"
"251012","441-VK","2019/10/24 20:43:39","新北市淡水區興仁路103巷64號","121.45048","25.2165366666667","6501000","淡水區"
"251007","442-VK","2019/10/24 20:43:51","新北市淡水區學府路102巷62號","121.453468333333","25.17111","6501000","淡水區"
"251001","559-UM","2019/10/24 20:43:41","新北市淡水區忠愛街4號","121.459745","25.1711816666667","6501000","淡水區"
"251006","561-UM","2019/10/24 20:43:46","新北市淡水區商工路30號","121.447241666667","25.1882583333333","6501000","淡水區"
"251014","577-R6","2019/10/24 20:43:50","新北市淡水區公埔子32-8號","121.46165","25.23235","6501000","淡水區"
"251011","650-BX","2019/10/24 20:43:57","新北市淡水區新市一路一段361號","121.436295","25.1861966666667","6501000","淡水區"
"251002","672-BX","2019/10/24 20:43:50","新北市淡水區公明街79號","121.444466666667","25.16875","6501000","淡水區"
"251003","766-UM","2019/10/24 20:43:47","新北市淡水區新民街120巷39號","121.439583333333","25.1793783333333","6501000","淡水區"
"247012","KED-0683","2019/10/24 20:43:49","新北市蘆洲區中興街72號","121.482258333333","25.0880816666667","6501400","蘆洲區"
"242042","AAC-296","2019/10/24 20:43:48","新北市新莊區天祥街19巷1-1號","121.417406666667","25.0277766666667","6500500","新莊區"
"242061","986-R7","2019/10/24 20:43:52","新北市新莊區新樹路258巷3號","121.432168333333","25.0155783333333","6500500","新莊區"
"242004","751-BX","2019/10/24 20:43:52","新北市新莊區化成路371巷30弄2號","121.463378333333","25.0570416666667","6500500","新莊區"
"242029","615-BX","2019/10/24 20:43:41","新北市新莊區中華路二段26-1號","121.45354","25.0451433333333","6500500","新莊區"
"242027","613-BX","2019/10/24 20:44:00","新北市新莊區思源路165號","121.459813333333","25.044795","6500500","新莊區"
"242058","612-BX","2019/10/24 20:43:42","新北市新莊區四維路12號","121.423726666667","25.0245766666667","6500500","新莊區"
"242053","497-BY","2019/10/24 20:43:45","新北市新莊區民安西路189巷10弄20號","121.426513333333","25.0149033333333","6500500","新莊區"
"242002","441-UM","2019/10/24 20:43:52","新北市新莊區中港路31號","121.455123333333","25.0375683333333","6500500","新莊區"
"242007","440-UM","2019/10/24 20:43:54","新北市新莊區思源路287巷7號","121.459158333333","25.0482","6500500","新莊區"
"242044","415-TV","2019/10/24 20:43:46","新北市新莊區龍安路100號","121.418251666667","25.02062","6500500","新莊區"
"242013","413-TV","2019/10/24 20:43:40","新北市新莊區中和街175巷7號","121.447316666667","25.0505933333333","6500500","新莊區"
"242051","400-BY","2019/10/24 20:43:51","新北市新莊區民安西路145號","121.426235","25.0167833333333","6500500","新莊區"
"242025","362-BY","2019/10/24 20:43:43","新北市新莊區化成路648號","121.46605","25.0555983333333","6500500","新莊區"
"242023","353-BY","2019/10/24 20:43:51","新北市新莊區新北大道二段302號","121.464628333333","25.061415","6500500","新莊區"
"242015","132-UY","2019/10/24 20:43:45","新北市新莊區中和街2號","121.448433333333","25.04291","6500500","新莊區"
"242056","172-VK","2019/10/24 20:43:55","新北市新莊區瓊泰路94巷38號","121.444546666667","25.0294283333333","6500500","新莊區"
"242017","173-VK","2019/10/24 20:43:49","新北市新莊區中平路82巷25號","121.446388333333","25.0454066666667","6500500","新莊區"
"242039","176-VK","2019/10/24 20:43:44","新北市新莊區新樹路168號","121.434671666667","25.022445","6500500","新莊區"
"242019","346-TH","2019/10/24 20:43:45","新北市新莊區中港路10號","121.454966666667","25.0369483333333","6500500","新莊區"
"242031","347-TH","2019/10/24 20:43:39","新北市新莊區義豐街25巷10號","121.440595","25.0352033333333","6500500","新莊區"
"242036","348-TH","2019/10/24 20:43:39","新北市新莊區建安街10-1號","121.428488333333","25.02643","6500500","新莊區"
"242009","349-TH","2019/10/24 20:43:37","新北市新莊區幸福路64巷4弄3號","121.457315","25.049985","6500500","新莊區"
"242034","350-TH","2019/10/24 20:43:47","新北市新莊區中正路437號","121.443473333333","25.034165","6500500","新莊區"
"242048","351-TH","2019/10/24 20:43:52","新北市新莊區中正路825號","121.420773333333","25.02829","6500500","新莊區"
"221008","489-VK","2019/10/24 20:43:38","新北市汐止區康寧街680-1號","121.636506666667","25.0712233333333","6501100","汐止區"
"221036","130-UY","2019/10/24 20:43:54","新北市汐止區新昌路27號","121.662188333333","25.0678333333333","6501100","汐止區"
"221015","131-UY","2019/10/24 20:43:51","新北市汐止區建成路21號","121.664371666667","25.0725933333333","6501100","汐止區"
"221012","278-VK","2019/10/24 20:43:45","新北市汐止區保新街267號","121.691301666667","25.0682716666667","6501100","汐止區"
"221023","279-VK","2019/10/24 20:43:57","新北市汐止區湖東街29號","121.634738333333","25.0726166666667","6501100","汐止區"
"221027","281-BY","2019/10/24 20:43:55","新北市汐止區大同路二段447號","121.659366666667","25.0674866666667","6501100","汐止區"
"221029","298-VK","2019/10/24 20:43:50","新北市汐止區大同路一段421號","121.642643333333","25.06121","6501100","汐止區"
"221021","299-VK","2019/10/24 20:43:39","新北市汐止區水源路一段286號","121.654178333333","25.0581983333333","6501100","汐止區"
"221031","353-TW","2019/10/24 20:43:48","新北市汐止區中興路27巷21號","121.634081666667","25.0608316666667","6501100","汐止區"
"221035","622-UM","2019/10/24 20:43:38","新北市汐止區長江街101-5號","121.658841666667","25.0731666666667","6501100","汐止區"
"221025","623-UM","2019/10/24 20:43:50","新北市汐止區水源路二段271-1號","121.659001666667","25.0506616666667","6501100","汐止區"
"221033","647-BX","2019/10/24 20:43:55","新北市汐止區合順街18巷8弄5號","121.620343333333","25.0419316666667","6501100","汐止區"
"221002","707-TV","2019/10/24 20:43:42","新北市汐止區福德二路125巷6弄4號","121.631021666667","25.0649283333333","6501100","汐止區"
"220079","145-BY","2019/10/24 20:43:53","新北市樹林區中山路三段206號","121.383406666667","24.966685","6500100","板橋區"
"242046","281-VK","2019/10/24 20:43:38","新北市新莊區裕民街57號","121.418765","25.0245083333333","6500500","新莊區"
"220083","461-BY","2019/10/24 20:43:45","新北市板橋區僑中二街106巷30號","121.444618333333","25.0078","6500100","板橋區"
"242011","280-VK","2019/10/24 20:43:56","新北市新莊區新北大道四段217號","121.443796666667","25.0569533333333","6500500","新莊區"
