"lineid","car","time","location","longitude","latitude","cityid","cityname"
"234042","862-TW","2019/10/24 21:13:55","新北市中和區秀朗路三段109巷2弄12-1號","121.528186666667","24.9946333333333","6500400","永和區"
"231061","002-UM","2019/10/24 21:13:45","新北市新店區安和路三段47-1號","121.518011666667","24.982205","6500600","新店區"
"231060","106-UY","2019/10/24 21:13:53","新北市新店區安康路二段385-1號","121.494711666667","24.9545566666667","6500600","新店區"
"231051","107-UY","2019/10/24 21:13:45","新北市新店區中正路700巷82號","121.535995","24.993265","6500600","新店區"
"231050","AAD-862","2019/10/24 21:13:40","新北市新店區華興街15號","121.537801666667","24.9695233333333","6500600","新店區"
"231063","616-UM","2019/10/24 21:13:57","新北市新店區玫瑰路57巷48號","121.497578333333","24.9463916666667","6500600","新店區"
"231059","897-TW","2019/10/24 21:13:54","新北市新店區僑義路6號","121.500381666667","24.951","6500600","新店區"
"231040","898-TW","2019/10/24 21:13:57","新北市新店區光明街143號","121.53928","24.96221","6500600","新店區"
"241011","013-R5","2019/10/24 21:13:40","新北市三重區龍濱路100號","121.502215","25.07017","6500200","三重區"
"241028","022-UY","2019/10/24 21:13:54","新北市三重區同安街111號","121.494368333333","25.0563883333333","6500200","三重區"
"241008","059-VK","2019/10/24 21:13:59","新北市三重區自強路一段62號","121.49726","25.0666733333333","6500200","三重區"
"241002","060-VK","2019/10/24 21:13:46","新北市三重區五華街11號","121.494973333333","25.080335","6500200","三重區"
"241031","061-VK","2019/10/24 21:13:52","新北市三重區五谷王南街46巷37號","121.475763333333","25.0455233333333","6500200","三重區"
"241015","062-VK","2019/10/24 21:13:52","新北市三重區河邊北街23號","121.504215","25.0652866666667","6500200","三重區"
"241017","063-VK","2019/10/24 21:13:45","新北市三重區大同北路128-1號","121.492471666667","25.0644566666667","6500200","三重區"
"241024","065-VK","2019/10/24 21:13:52","新北市三重區力行路一段38巷6號","121.485943333333","25.0673833333333","6500200","三重區"
"241007","066-VK","2019/10/24 21:13:39","新北市三重區車路頭街135-1號","121.484241666667","25.0759666666667","6500200","三重區"
"241003","091-VK","2019/10/24 21:13:44","新北市三重區仁義街335號","121.495116666667","25.0848116666667","6500200","三重區"
"241006","262-UM","2019/10/24 21:13:49","新北市三重區中正北路34號","121.488035","25.063625","6500200","三重區"
"241016","266-UM","2019/10/24 21:11:48","新北市三重區大智街12號","121.495178333333","25.0644416666667","6500200","三重區"
"241009","267-UM","2019/10/24 21:13:56","新北市三重區忠孝路三段28號","121.481425","25.0668933333333","6500200","三重區"
"241018","268-UM","2019/10/24 21:13:48","新北市三重區正義北路340號","121.494381666667","25.0707316666667","6500200","三重區"
"241032","269-UM","2019/10/24 21:13:46","新北市三重區中興北街134-1號","121.468953333333","25.0558966666667","6500200","三重區"
"241013","270-UM","2019/10/24 21:13:46","新北市三重區仁愛街66號","121.495848333333","25.0731366666667","6500200","三重區"
"241025","271-UM","2019/10/24 21:13:49","新北市三重區中正北路208巷8號","121.48234","25.06694","6500200","三重區"
"241030","KED-0822","2019/10/24 21:13:57","新北市三重區五谷王北街20巷15弄1號","121.47507","25.0484616666667","6500200","三重區"
"241023","462-BY","2019/10/24 21:13:46","新北市三重區中正北路176巷27號","121.482658333333","25.065915","6500200","三重區"
"241004","475-VK","2019/10/24 21:13:45","新北市三重區仁愛街418號","121.49044","25.0814066666667","6500200","三重區"
"241026","480-VK","2019/10/24 21:13:47","新北市三重區中正南路186號","121.494078333333","25.05632","6500200","三重區"
"241014","543-UM","2019/10/24 21:13:44","新北市三重區三和路二段37-9號","121.501348333333","25.0676616666667","6500200","三重區"
"241001","547-UM","2019/10/24 21:13:45","新北市三重區福隆路50號","121.492443333333","25.0784283333333","6500200","三重區"
"241019","KEA-2593","2019/10/24 21:13:46","新北市三重區重陽路三段192-4號","121.490401666667","25.0683366666667","6500200","三重區"
"241005","AAD-863","2019/10/24 21:13:48","新北市三重區仁華街73號","121.485375","25.0829166666667","6500200","三重區"
"241012","743-BX","2019/10/24 21:13:40","新北市三重區龍門路229號","121.501571666667","25.0739366666667","6500200","三重區"
"241022","KED-0820","2019/10/24 21:13:42","新北市三重區中正北路64巷24號","121.486125","25.063735","6500200","三重區"
"241029","942-UM","2019/10/24 21:13:50","新北市三重區正義南路111號","121.4982","25.05854","6500200","三重區"
"241033","AAC-255","2019/10/24 21:13:53","新北市三重區中興北街283號","121.469206666667","25.061775","6500200","三重區"
"235055","183-VK","2019/10/24 21:13:38","新北市板橋區民生路二段251號","121.4684","25.0223033333333","6500300","中和區"
"247010","KED-0682","2019/10/24 21:13:46","新北市蘆洲區鷺江街19號","121.478996666667","25.08246","6501400","蘆洲區"
"247006","893-R6","2019/10/24 21:13:49","新北市蘆洲區長安街16號","121.46412","25.079215","6501400","蘆洲區"
"247020","546-UM","2019/10/24 21:13:45","新北市蘆洲區民族路436巷5號","121.472881666667","25.09291","6501400","蘆洲區"
"247004","341-TH","2019/10/24 21:13:55","新北市蘆洲區永安南路二段322號","121.457026666667","25.0827366666667","6501400","蘆洲區"
"247022","337-TH","2019/10/24 21:13:38","新北市蘆洲區三民路241號","121.469088333333","25.0888316666667","6501400","蘆洲區"
"247024","057-VK","2019/10/24 21:13:44","新北市蘆洲區長興路50巷1號","121.463783333333","25.0837483333333","6501400","蘆洲區"
"247014","056-VK","2019/10/24 21:13:54","新北市蘆洲區三民路157-2號","121.470983333333","25.0865933333333","6501400","蘆洲區"
"247018","053-VK","2019/10/24 21:13:49","新北市蘆洲區復興路111-6號","121.476498333333","25.0883183333333","6501400","蘆洲區"
"247008","002-UY","2019/10/24 21:13:59","新北市蘆洲區信義路34巷9號","121.474766666667","25.07917","6501400","蘆洲區"
"247002","001-UY","2019/10/24 21:13:36","新北市蘆洲區永樂街38巷40號","121.45856","25.090095","6501400","蘆洲區"
"251009","008-UM","2019/10/24 21:13:57","新北市淡水區民族路112巷57號","121.46202","25.1343233333333","6501000","淡水區"
"251005","010-UM","2019/10/24 21:13:55","新北市淡水區仁愛街7號","121.446061666667","25.1704333333333","6501000","淡水區"
"251015","KEA-2871","2019/10/24 21:14:00","新北市淡水區淡金路四段542巷83弄13號","121.456446666667","25.22675","6501000","淡水區"
"251016","179-VK","2019/10/24 21:13:49","新北市淡水區前洲子11號","121.441408333333","25.2190766666667","6501000","淡水區"
"251008","181-VK","2019/10/24 21:13:46","新北市淡水區淡金路二段15號","121.446948333333","25.1893233333333","6501000","淡水區"
"251013","182-VK","2019/10/24 21:13:48","新北市淡水區行忠路523號","121.466951666667","25.1991666666667","6501000","淡水區"
"251010","413-VK","2019/10/24 21:13:38","新北市淡水區中正路一段61號","121.423778333333","25.1775583333333","6501000","淡水區"
"251012","441-VK","2019/10/24 21:13:59","新北市淡水區淡金路五段35巷46號","121.452495","25.23474","6501000","淡水區"
"251001","559-UM","2019/10/24 21:13:41","新北市淡水區中山北路二段381巷121號","121.443348333333","25.1857166666667","6501000","淡水區"
"251014","577-R6","2019/10/24 21:13:50","新北市淡水區六塊厝2-1號","121.450131666667","25.2404666666667","6501000","淡水區"
"251011","650-BX","2019/10/24 21:13:57","新北市淡水區新民街120巷45弄10號","121.438061666667","25.17975","6501000","淡水區"
"251002","672-BX","2019/10/24 21:13:50","新北市淡水區水源街二段4號","121.44917","25.1733633333333","6501000","淡水區"
"251003","766-UM","2019/10/24 21:13:47","新北市淡水區新春街96號","121.439095","25.18254","6501000","淡水區"
"247012","KED-0683","2019/10/24 21:13:49","新北市蘆洲區民族路236巷4號","121.480123333333","25.08853","6501400","蘆洲區"
