"lineid","car","time","location","longitude","latitude","cityid","cityname"
"241005","AAD-863","2019/10/24 21:59:48","新北市三重區永福街135巷32弄13號","121.476901666667","25.07691","6500200","三重區"
"251009","008-UM","2019/10/24 21:59:57","新北市淡水區民生路40號","121.461601666667","25.1379166666667","6501000","淡水區"
"251005","010-UM","2019/10/24 21:59:55","新北市淡水區鄧公路30巷1弄67號","121.454456666667","25.1695383333333","6501000","淡水區"
"251004","180-VK","2019/10/24 21:59:39","新北市淡水區民權路231號","121.460846666667","25.1291283333333","6501000","淡水區"
"251008","181-VK","2019/10/24 21:59:46","新北市淡水區學府路104號","121.449848333333","25.1717966666667","6501000","淡水區"
"251010","413-VK","2019/10/24 21:59:58","新北市淡水區中正路二段211號","121.426213333333","25.1891166666667","6501000","淡水區"
"251007","442-VK","2019/10/24 21:59:51","新北市淡水區北新路184巷48號","121.450655","25.177805","6501000","淡水區"
"251006","561-UM","2019/10/24 21:46:52","新北市淡水區中正路11巷3號","121.437878333333","25.1707466666667","6501000","淡水區"
"251011","650-BX","2019/10/24 21:59:57","新北市淡水區水碓街5號","121.443125","25.1770683333333","6501000","淡水區"
