"lineid","car","time","location","longitude","latitude","cityid","cityname"
"232008","291-BY","2019/10/25 07:43:39","新北市坪林區魚堀5號","121.711993333333","24.9019633333333","6502000","坪林區"
"244004","248-BX","2019/10/25 07:43:46","新北市林口區頂福里86-1號","121.324946666667","25.106285","6501700","林口區"
"222004","289-BY","2019/10/25 07:43:46","新北市深坑區文化街39巷13號","121.618966666667","25.0010616666667","6501800","深坑區"
"231009","192-VK","2019/10/25 07:43:47","新北市新店區安一路一段1-1號","121.519771666667","24.9615016666667","6500600","新店區"
"231053","512-UM","2019/10/25 07:43:53","新北市新店區新和街33號","121.5189","24.98462","6500600","新店區"
"223008","406-TH","2019/10/25 07:18:30","新北市石碇區靜安路一段337號","121.69887","25.01459","6501900","石碇區"
"223001","592-UM","2019/10/25 07:43:44","新北市石碇區蛇舌子3號","121.665005","24.96782","6501900","石碇區"
"223004","660-BX","2019/10/25 07:43:49","新北市石碇區八分寮49-1號","121.642688333333","25.0143233333333","6501900","石碇區"
"223007","661-BX","2019/10/25 07:41:36","新北市石碇區靜安路一段337號","121.698886666667","25.01442","6501900","石碇區"
"227003","282-VK","2019/10/25 07:43:56","新北市雙溪區雙溪里太平路54號","121.86481","25.03547","6502500","雙溪區"
"237013","760-BX","2019/10/25 07:42:36","新北市三峽區紫和路49號","121.41256","24.908165","6500900","三峽區"
