"lineid","car","time","location","longitude","latitude","cityid","cityname"
"244005","248-BX","2019/12/07 07:59:15","新北市林口區下福里157-3號","121.3023","25.1148666666667","6501700","林口區"
"222007","289-BY","2019/12/07 07:59:14","新北市深坑區昇高坑路15號","121.624731666667","25.00029","6501800","深坑區"
"231008","192-VK","2019/12/07 07:59:16","新北市新店區安康路一段275-1號","121.523956666667","24.963415","6500600","新店區"
"223003","205-TH","2019/12/07 07:58:26","新北市石碇區樟空子10-2號","121.666903333333","24.9616716666667","6501900","石碇區"
"223008","406-TH","2019/12/07 07:39:18","新北市石碇區靜安路一段337號","121.698808333333","25.0145666666667","6501900","石碇區"
"223001","437-BY","2019/12/07 07:59:04","新北市石碇區樟空子1號","121.666608333333","24.9594483333333","6501900","石碇區"
"223004","660-BX","2019/12/07 07:59:19","新北市石碇區雙溪33-6號","121.65005","25.0082683333333","6501900","石碇區"
"223007","661-BX","2019/12/07 07:41:59","新北市石碇區靜安路一段337號","121.69879","25.0144516666667","6501900","石碇區"
"227004","282-VK","2019/12/07 07:59:12","新北市雙溪區牡丹里自強路18號","121.865193333333","25.039285","6502500","雙溪區"
"252004","249-BX","2019/12/07 07:59:27","新北市三芝區興華里車埕16-2號","121.506395","25.200765","6502100","三芝區"
"252007","AAC-283","2019/12/07 07:59:14","新北市三芝區海景四街5號","121.47463","25.24735","6502100","三芝區"
