"lineid","car","time","location","longitude","latitude","cityid","cityname"
"244002","658-BX","2019/12/07 09:43:15","新北市林口區文化一路二段379號","121.387056666667","25.08807","6501700","林口區"
"222007","289-BY","2019/12/07 09:43:14","新北市深坑區阿柔洋64號","121.606736666667","24.998485","6501800","深坑區"
"231007","189-VK","2019/12/07 09:43:08","新北市新店區小坑三路81號","121.513318333333","24.9089733333333","6500600","新店區"
"231008","192-VK","2019/12/07 09:36:57","新北市新店區小坑一路21-1號","121.530475","24.9114483333333","6500600","新店區"
"227004","282-VK","2019/12/07 09:43:12","新北市雙溪區長源里土地公山4號","121.795041666667","25.009205","6502500","雙溪區"
"252004","249-BX","2019/12/07 09:41:27","新北市三芝區圓山里石曹子坑66-2號","121.519883333333","25.2154683333333","6502100","三芝區"
"252007","AAC-283","2019/12/07 09:43:14","新北市三芝區新庄里新庄子113-9號","121.516293333333","25.2683616666667","6502100","三芝區"
"233003","KEA-2870","2019/12/07 09:43:22","新北市烏來區信福路89號","121.526156666667","24.8363966666667","6502900","烏來區"
