"lineid","car","time","location","longitude","latitude","cityid","cityname"
"234078","298-R6","2019/12/07 14:29:12","新北市永和區永貞路35號","121.52097","25.0065366666667","6500400","永和區"
"234036","336-UY","2019/12/07 14:29:25","新北市永和區民樂街31巷8弄13號","121.528858333333","25.0012683333333","6500400","永和區"
"234062","337-UY","2019/12/07 14:29:22","新北市永和區中正路419號","121.517006666667","25.00499","6500400","永和區"
"234084","338-UY","2019/12/07 14:29:16","新北市永和區光復街21號","121.516505","25.0173983333333","6500400","永和區"
"234068","552-UM","2019/12/07 14:29:22","新北市永和區永貞路45號","121.519861666667","25.0047033333333","6500400","永和區"
"234028","746-BX","2019/12/07 14:29:22","新北市中和區中正路268號","121.49508","24.9939583333333","6500400","永和區"
"234052","KEA-2590","2019/12/07 14:29:09","新北市永和區環河東路一段42號","121.518808333333","25.01701","6500400","永和區"
"234005","KED-0605","2019/12/07 14:29:16","新北市中和區永貞路258號","121.513958333333","25.00368","6500400","永和區"
"234060","AAD-866","2019/12/07 14:29:27","新北市永和區中正路381號","121.517228333333","25.0035816666667","6500400","永和區"
"234040","862-TW","2019/12/07 14:29:21","新北市永和區安樂路461號","121.51436","25.0051333333333","6500400","永和區"
"234048","863-TW","2019/12/07 14:29:29","新北市永和區環河西路二段89號","121.506618333333","25.0149466666667","6500400","永和區"
"234025","9371-KE","2019/12/07 14:29:27","新北市中和區安樂路255號","121.514038333333","24.999845","6500400","永和區"
"248017","KED-0813","2019/12/07 14:29:14","新北市五股區外寮路13-1號","121.424866666667","25.0812166666667","6501500","五股區"
"234072","AAC-211","2019/12/07 14:29:23","新北市永和區環河東路一段122號","121.520645","25.01544","6500400","永和區"
"234001","AAC-295","2019/12/07 14:29:26","新北市永和區大新街14號","121.515023333333","25.0085066666667","6500400","永和區"
"231030","002-UM","2019/12/07 14:29:11","新北市新店區安民街49號","121.516066666667","24.9657966666667","6500600","新店區"
"231027","0293-UT","2019/12/07 14:29:10","新北市新店區北新路一段96巷23號","121.543015","24.968695","6500600","新店區"
"231005","046-UY","2019/12/07 14:29:12","新北市新店區北新路三段218號","121.541053333333","24.984385","6500600","新店區"
"231029","106-UY","2019/12/07 14:29:26","新北市新店區安康路二段382號","121.50048","24.9570383333333","6500600","新店區"
"231018","107-UY","2019/12/07 14:29:26","新北市新店區中央五街18號","121.529391666667","24.9743016666667","6500600","新店區"
"231013","108-UY","2019/12/07 14:29:16","新北市新店區民權路102號","121.535968333333","24.9831633333333","6500600","新店區"
"231036","110-UY","2019/12/07 14:29:14","新北市新店區安祥路109巷151弄5號","121.478301666667","24.958815","6500600","新店區"
"231017","KEA-2219","2019/12/07 14:29:12","新北市新店區北宜路三段83-1號","121.577078333333","24.95178","6500600","新店區"
"231033","256-BX","2019/12/07 14:29:26","新北市新店區溪洲路160-1號","121.530363333333","24.9649883333333","6500600","新店區"
"231023","260-TV","2019/12/07 14:29:22","新北市新店區光明街226號","121.54008","24.9631733333333","6500600","新店區"
"231003","268-BY","2019/12/07 14:29:27","新北市新店區中興路一段281號","121.545355","24.9683016666667","6500600","新店區"
"231035","278-BY","2019/12/07 14:29:18","新北市新店區安光路10-1號","121.513835","24.9641733333333","6500600","新店區"
"231006","355-BY","2019/12/07 14:29:17","新北市新店區北宜路二段581巷1號","121.56594","24.9538383333333","6500600","新店區"
"231038","3712-VJ","2019/12/07 14:29:21","新北市新店區溪洲路181號","121.529696666667","24.9651466666667","6500600","新店區"
"231020","513-UM","2019/12/07 14:29:27","新北市新店區新烏路三段69號","121.555008333333","24.9037166666667","6500600","新店區"
"231002","619-UM","2019/12/07 14:29:25","新北市新店區中央路21號","121.533108333333","24.9781766666667","6500600","新店區"
"231034","641-BX","2019/12/07 14:29:18","新北市新店區車子路11號","121.503018333333","24.9519633333333","6500600","新店區"
"231012","KED-0819","2019/12/07 14:29:25","新北市新店區寶興路47號","121.549141666667","24.97352","6500600","新店區"
"231028","897-TW","2019/12/07 14:29:23","新北市新店區安康路二段138號","121.512528333333","24.9619616666667","6500600","新店區"
"231001","898-TW","2019/12/07 14:29:18","新北市新店區北新路一段96巷23號","121.542953333333","24.968885","6500600","新店區"
"231004","899-TW","2019/12/07 14:29:27","新北市新店區中正路263-4號","121.538275","24.9737766666667","6500600","新店區"
"231037","AKT-0513","2019/12/07 14:29:14","新北市新店區安康路二段318-1號","121.504711666667","24.958145","6500600","新店區"
"235030","003-UY","2019/12/07 14:29:17","新北市中和區中和路136號","121.503366666667","24.999445","6500300","中和區"
"235027","006-UY","2019/12/07 14:29:13","新北市中和區連城路203巷5號","121.494978333333","24.99763","6500300","中和區"
"235020","096-UM","2019/12/07 14:29:27","新北市中和區員山路581巷10號","121.478181666667","25.0093566666667","6500300","中和區"
"235003","097-UM","2019/12/07 14:29:12","新北市中和區景平路71-1號","121.519456666667","24.9912","6500300","中和區"
"235029","098-UM","2019/12/07 14:29:21","新北市中和區永和路8巷21號","121.500793333333","25.0036316666667","6500300","中和區"
"235004","150-BY","2019/12/07 14:29:12","新北市中和區安樂路83號","121.512701666667","24.9944916666667","6500300","中和區"
"235022","151-BY","2019/12/07 14:29:29","新北市中和區員山路124巷1號","121.48146","24.996","6500300","中和區"
"235019","183-VK","2019/12/07 14:29:19","新北市中和區中山路三段181巷18弄11號","121.472656666667","25.0048366666667","6500300","中和區"
"235002","185-VK","2019/12/07 14:29:20","新北市中和區自立路107號","121.521913333333","24.9946883333333","6500300","中和區"
"235031","255-BX","2019/12/07 14:29:20","新北市中和區新生街280號","121.483658333333","24.9968","6500300","中和區"
"235008","293-VK","2019/12/07 14:29:23","新北市中和區南山路325號","121.505163333333","24.9912666666667","6500300","中和區"
"235036","301-VK","2019/12/07 14:29:17","新北市中和區莊敬路33巷8號","121.500475","25.0051716666667","6500300","中和區"
"235007","352-BY","2019/12/07 14:29:25","新北市中和區景新街295巷2號","121.51075","24.9931566666667","6500300","中和區"
"235006","KEA-2878","2019/12/07 14:29:23","新北市中和區中和路262巷45號","121.510056666667","24.9998183333333","6500300","中和區"
"247015","KEA-2869","2019/12/07 14:29:13","新北市蘆洲區中正路185巷78弄2號","121.466103333333","25.084525","6501400","蘆洲區"
"247009","KED-0682","2019/12/07 14:29:17","新北市蘆洲區信義路146號","121.479548333333","25.083095","6501400","蘆洲區"
"235033","4980-A6","2019/12/07 14:29:27","新北市中和區連城路134巷18號","121.495291666667","25.0000033333333","6500300","中和區"
"235032","551-UM","2019/12/07 14:29:24","新北市中和區中山路二段136巷3弄4號","121.501253333333","25.0034966666667","6500300","中和區"
"235009","565-BX","2019/12/07 14:29:19","新北市中和區安樂路8-1號","121.51167","24.9917683333333","6500300","中和區"
"235024","KED-0823","2019/12/07 14:29:21","新北市中和區員山路294巷19號","121.482378333333","25.0023583333333","6500300","中和區"
"235018","640-BX","2019/12/07 14:29:24","新北市中和區莒光路222-3號","121.469223333333","24.9950483333333","6500300","中和區"
"235074","647-TV","2019/12/07 14:29:27","新北市中和區中正路774號","121.485218333333","25.0001116666667","6500300","中和區"
"235011","732-UM","2019/12/07 14:29:15","新北市中和區景平路259巷34號","121.506976666667","24.9928216666667","6500300","中和區"
"235010","733-UM","2019/12/07 14:29:15","新北市中和區忠孝街37巷52號","121.511131666667","24.98489","6500300","中和區"
"235073","800-TS","2019/12/07 14:29:17","新北市中和區立業路83巷3號","121.491383333333","25.0071966666667","6500300","中和區"
"235021","801-TS","2019/12/07 14:29:22","新北市中和區員山路275號","121.481255","24.999605","6500300","中和區"
"235005","802-TS","2019/12/07 14:29:25","新北市中和區景安路16號","121.507673333333","24.9988766666667","6500300","中和區"
"235016","805-TS","2019/12/07 14:29:23","新北市中和區華新街143巷67弄31號","121.50749","24.9792416666667","6500300","中和區"
"235012","896-TW","2019/12/07 14:29:29","新北市中和區忠孝街39-9號","121.511958333333","24.984135","6500300","中和區"
"235017","900-TW","2019/12/07 14:29:24","新北市中和區民德路197號","121.469353333333","24.9979816666667","6500300","中和區"
"235023","911-UM","2019/12/07 14:29:28","新北市中和區圓通路268-1號","121.49258","24.9907566666667","6500300","中和區"
"235015","157-BY","2019/12/07 14:29:25","新北市中和區中興街132巷1號","121.499625","24.992135","6500300","中和區"
"235001","AAC-213","2019/12/07 14:29:29","新北市中和區秀朗路三段93號","121.52644","24.9953033333333","6500300","中和區"
"220013","072-UY","2019/12/07 14:29:12","新北市板橋區國泰街75巷28弄12號","121.46764","25.00526","6500100","板橋區"
"220034","073-UY","2019/12/07 14:29:20","新北市板橋區中正路216巷20號","121.456676666667","25.0184633333333","6500100","板橋區"
"220105","075-UY","2019/12/07 14:29:31","新北市板橋區文化路二段319號","121.472256666667","25.029955","6500100","板橋區"
"220017","AAD-861","2019/12/07 14:29:17","新北市板橋區貴興路106巷16弄2號","121.454875","25.003415","6500100","板橋區"
"247005","893-R6","2019/12/07 14:29:19","新北市蘆洲區中華街103號","121.461278333333","25.0797033333333","6501400","蘆洲區"
"247019","546-UM","2019/12/07 14:29:25","新北市蘆洲區水湳街281號","121.46949","25.0929066666667","6501400","蘆洲區"
"247003","500-BY","2019/12/07 14:29:09","新北市蘆洲區永康街6號","121.459293333333","25.0859666666667","6501400","蘆洲區"
"247023","057-VK","2019/12/07 14:29:28","新北市蘆洲區中正路263巷2號","121.467321666667","25.08746","6501400","蘆洲區"
"247013","056-VK","2019/12/07 14:29:24","新北市蘆洲區中山二路170號","121.470733333333","25.0808516666667","6501400","蘆洲區"
"247017","053-VK","2019/12/07 14:29:20","新北市蘆洲區民族路213號","121.478076666667","25.0895283333333","6501400","蘆洲區"
"247021","007-UY","2019/12/07 14:29:14","新北市蘆洲區中正路501號","121.461815","25.0967866666667","6501400","蘆洲區"
"247007","002-UY","2019/12/07 14:29:21","新北市蘆洲區民生街22號","121.475106666667","25.0789733333333","6501400","蘆洲區"
"247001","001-UY","2019/12/07 14:29:11","新北市蘆洲區永樂街38巷19弄53號","121.456791666667","25.08932","6501400","蘆洲區"
"235013","251-BX","2019/12/07 14:29:20","新北市中和區安和路25號","121.51064","24.9941683333333","6500300","中和區"
"228005","097-TW","2019/12/07 14:29:29","新北市貢寮區美豐里巫里岸9-1號","121.901931666667","25.0701016666667","6502600","貢寮區"
"228004","212-TW","2019/12/07 14:29:22","新北市貢寮區雙玉里田寮洋街33-1號","121.932195","25.0134766666667","6502600","貢寮區"
"253003","6232-TK","2019/12/07 14:29:25","新北市石門區尖子鹿51-1號","121.576781666667","25.2752933333333","6502200","石門區"
"253004","6251-TK","2019/12/07 14:29:19","新北市石門區內阿里磅31-4號","121.588393333333","25.2410816666667","6502200","石門區"
"253002","637-UY","2019/12/07 14:29:28","新北市三芝區橫山里橫山32號","121.545321666667","25.2604266666667","6502200","石門區"
"253001","KEC-0718","2019/12/07 14:29:14","新北市石門區崁子腳91號","121.529953333333","25.279175","6502200","石門區"
"207002","749-BX","2019/12/07 14:29:16","新北市萬里區崁腳里崁腳路118-1號","121.645131666667","25.15835","6502800","萬里區"
"207001","662-BX","2019/12/07 14:29:08","新北市萬里區磺潭里清水9號","121.64039","25.199865","6502800","萬里區"
"252005","AAC-283","2019/12/07 14:29:21","新北市三芝區橫山里橫山21號","121.540045","25.2627316666667","6502100","三芝區"
"236040","KED-0685","2019/12/07 14:29:18","新北市土城區學成路91巷1號","121.450611666667","24.9879866666667","6501300","土城區"
"220110","KED-0812","2019/12/07 14:29:09","新北市板橋區新海路332號","121.46046","25.0243483333333","6500100","板橋區"
"236074","166-UM","2019/12/07 14:29:18","新北市土城區大暖路42號","121.423316666667","24.9594766666667","6501300","土城區"
"236029","253-BX","2019/12/07 14:29:20","新北市土城區水源街71號","121.439761666667","24.976405","6501300","土城區"
"236024","269-VK","2019/12/07 14:29:26","新北市土城區承天路47號","121.438883333333","24.9638816666667","6501300","土城區"
"236032","271-VK","2019/12/07 14:29:16","新北市土城區青雲路453號","121.4588","24.9745316666667","6501300","土城區"
"247011","KED-0683","2019/12/07 14:29:26","新北市蘆洲區中興街148號","121.482021666667","25.0899316666667","6501400","蘆洲區"
"236068","KEA-2877","2019/12/07 14:29:29","新北市土城區永豐路338號","121.473718333333","24.9772933333333","6501300","土城區"
"236017","401-BY","2019/12/07 14:29:14","新北市土城區永豐路202巷14號","121.466323333333","24.983495","6501300","土城區"
"236013","752-BX","2019/12/07 14:28:25","新北市土城區青雲路39巷7號","121.460271666667","24.9875166666667","6501300","土城區"
"236057","912-UM","2019/12/07 14:29:30","新北市土城區中央路四段129號","121.416148333333","24.957535","6501300","土城區"
"236045","913-UM","2019/12/07 14:29:18","新北市土城區青雲路480號","121.45874","24.9732166666667","6501300","土城區"
"236060","915-UM","2019/12/07 14:29:20","新北市土城區延和路125巷53號","121.468896666667","24.991745","6501300","土城區"
"236054","AAC-216","2019/12/07 14:29:26","新北市土城區中華路一段247號","121.440765","24.9815116666667","6501300","土城區"
"221023","279-VK","2019/12/07 14:15:39","新北市汐止區康寧街901號","121.651673333333","25.0748683333333","6501100","汐止區"
"220027","145-BY","2019/12/07 14:29:21","新北市板橋區民權路202巷9弄2號","121.460423333333","25.0154016666667","6500100","板橋區"
"220028","200-UY","2019/12/07 14:29:30","新北市板橋區大觀路二段3巷48號","121.448755","25.00347","6500100","板橋區"
"220030","610-BX","2019/12/07 14:29:27","新北市板橋區金門街362號","121.427433333333","24.9840233333333","6500100","板橋區"
"220050","245-BX","2019/12/07 14:29:25","新北市板橋區莊敬路247號","121.473166666667","25.0214683333333","6500100","板橋區"
"220040","267-BY","2019/12/07 14:29:20","新北市板橋區文聖街132號","121.47836","25.0282516666667","6500100","板橋區"
"220004","276-BY","2019/12/07 14:29:29","新北市板橋區和平路4號","121.45795","24.99429","6500100","板橋區"
"220020","277-BY","2019/12/07 14:29:27","新北市板橋區篤行路二段141巷23號","121.430631666667","24.987725","6500100","板橋區"
"220043","283-UM","2019/12/07 14:29:27","新北市板橋區銘傳街37號","121.46868","25.0310866666667","6500100","板橋區"
"220001","285-VK","2019/12/07 14:29:21","新北市板橋區永豐街181號","121.476005","25.02066","6500100","板橋區"
"220029","287-VK","2019/12/07 14:29:24","新北市板橋區南雅西路一段29號","121.453928333333","25.0043633333333","6500100","板橋區"
"220039","288-VK","2019/12/07 14:29:16","新北市板橋區長江路一段48巷10弄2號","121.45939","25.0280366666667","6500100","板橋區"
"220009","293-UM","2019/12/07 14:29:12","新北市板橋區漢生東路123號","121.46763","25.0145033333333","6500100","板橋區"
"220032","296-UM","2019/12/07 14:29:29","新北市板橋區篤行路三段玉平巷70號","121.428135","24.9858916666667","6500100","板橋區"
"220023","303-R5","2019/12/07 14:29:30","新北市板橋區南雅西路一段10巷7弄1號","121.454595","25.00462","6500100","板橋區"
"220010","305-R5","2019/12/07 14:29:16","新北市板橋區三民路二段139號","121.479161666667","25.015215","6500100","板橋區"
"220041","307-R5","2019/12/07 14:29:23","新北市板橋區陽明街164巷36號","121.46509","25.0244783333333","6500100","板橋區"
"220047","317-R6","2019/12/07 14:29:21","新北市板橋區四維路266巷2弄20號","121.463905","25.0281233333333","6500100","板橋區"
"220037","491-VK","2019/12/07 14:29:24","新北市板橋區雙十路二段85號","121.47564","25.027465","6500100","板橋區"
"220104","560-BX","2019/12/07 14:29:19","新北市板橋區中正路413巷2弄17號","121.45342","25.02309","6500100","板橋區"
"220052","561-BX","2019/12/07 14:29:19","新北市板橋區陽明街29巷11號","121.464853333333","25.021925","6500100","板橋區"
"220107","568-UM","2019/12/07 14:29:23","新北市板橋區龍興街71巷21號","121.442923333333","25.0022066666667","6500100","板橋區"
"220109","609-BX","2019/12/07 14:29:26","新北市板橋區三民路一段1巷39號","121.48023","25.0247783333333","6500100","板橋區"
"220019","630-UY","2019/12/07 14:29:20","新北市板橋區忠孝路24巷22號","121.460203333333","25.0009666666667","6500100","板橋區"
"220005","686-BX","2019/12/07 14:29:23","新北市板橋區廣和街60號","121.461985","24.9938716666667","6500100","板橋區"
"220025","687-BX","2019/12/07 14:29:13","新北市板橋區大觀路二段125-1號","121.445863333333","25.0013183333333","6500100","板橋區"
"220111","689-BX","2019/12/07 14:29:28","新北市板橋區英士路51號","121.46102","25.02445","6500100","板橋區"
"220002","741-BX","2019/12/07 14:29:16","新北市板橋區忠孝路196-2號","121.465431666667","25.0027033333333","6500100","板橋區"
"220051","KEA-2699","2019/12/07 14:29:24","新北市板橋區雙十路二段70巷2號","121.475515","25.028215","6500100","板橋區"
"220003","827-TW","2019/12/07 14:29:28","新北市板橋區重慶路278巷5號","121.462663333333","24.9996466666667","6500100","板橋區"
"220014","829-TW","2019/12/07 14:29:28","新北市板橋區長安街138巷7弄10號","121.473401666667","25.0084316666667","6500100","板橋區"
"220016","830-TW","2019/12/07 14:29:20","新北市板橋區中山路二段527號","121.483201666667","25.0213416666667","6500100","板橋區"
"220022","895-R6","2019/12/07 14:29:16","新北市板橋區北門街25號","121.456588333333","25.0111916666667","6500100","板橋區"
"220108","985-R7","2019/12/07 14:29:29","新北市板橋區新生街89巷4號","121.458178333333","25.0222583333333","6500100","板橋區"
"220046","AAC-210","2019/12/07 14:29:27","新北市板橋區文化路一段285巷26號","121.4638","25.0194266666667","6500100","板橋區"
"220012","AAC-253","2019/12/07 14:29:26","新北市板橋區民權路12號","121.463238333333","25.0098133333333","6500100","板橋區"
"235025","KEA-2875","2019/12/07 14:29:29","新北市中和區新生街148巷27號","121.482515","25.0007516666667","6500300","中和區"
