"lineid","car","time","location","longitude","latitude","cityid","cityname"
"234025","9371-KE","2019/12/07 14:59:27","新北市永和區水源街27巷12號","121.511271666667","25.0038066666667","6500400","永和區"
"248017","KED-0813","2019/12/07 14:59:14","新北市五股區登林路106巷6號","121.427036666667","25.0708483333333","6501500","五股區"
"231030","002-UM","2019/12/07 14:59:11","新北市新店區安民街369號","121.516503333333","24.9760416666667","6500600","新店區"
"231024","0291-UT","2019/12/07 14:59:17","新北市新店區中華路83巷67號","121.538376666667","24.967305","6500600","新店區"
"231027","0293-UT","2019/12/07 14:59:30","新北市新店區中正路334巷7號","121.536921666667","24.97538","6500600","新店區"
"231005","046-UY","2019/12/07 14:59:12","新北市新店區寶慶街58巷6號","121.542098333333","24.987025","6500600","新店區"
"231029","106-UY","2019/12/07 14:59:26","新北市新店區錦秀路11巷94弄2號","121.480188333333","24.94239","6500600","新店區"
"231018","107-UY","2019/12/07 14:59:26","新北市新店區中央路192號","121.530808333333","24.974695","6500600","新店區"
"231013","108-UY","2019/12/07 14:59:16","新北市新店區光明街151號","121.5393","24.96235","6500600","新店區"
"231036","110-UY","2019/12/07 14:59:14","新北市新店區安祥路102巷46弄25號","121.485491666667","24.963755","6500600","新店區"
"231039","187-VK","2019/12/07 14:59:29","新北市新店區中興路三段220巷1號","121.543506666667","24.9827283333333","6500600","新店區"
"231017","KEA-2219","2019/12/07 14:59:12","新北市新店區長峰路61號","121.588491666667","24.952055","6500600","新店區"
"231033","256-BX","2019/12/07 14:59:26","新北市新店區安康路三段58號","121.492381666667","24.9522566666667","6500600","新店區"
"231023","260-TV","2019/12/07 14:59:22","新北市新店區檳榔路109號","121.544451666667","24.9616416666667","6500600","新店區"
"231003","268-BY","2019/12/07 14:59:27","新北市新店區中興路二段100巷1號","121.547566666667","24.97167","6500600","新店區"
"231035","278-BY","2019/12/07 14:59:18","新北市新店區安和路三段76號","121.518383333333","24.984525","6500600","新店區"
"231006","355-BY","2019/12/07 14:59:17","新北市新店區北宜路一段53號","121.538366666667","24.9568466666667","6500600","新店區"
"231038","3712-VJ","2019/12/07 14:59:21","新北市新店區安華路28-1號","121.51965","24.9609766666667","6500600","新店區"
"231025","4715-K9","2019/12/07 14:59:12","新北市新店區二十張路33巷32號","121.539621666667","24.9802633333333","6500600","新店區"
"231020","513-UM","2019/12/07 14:59:27","新北市新店區桂山路38號","121.558343333333","24.9029233333333","6500600","新店區"
"231002","619-UM","2019/12/07 14:59:26","新北市新店區中正路504號","121.533906666667","24.98268","6500600","新店區"
"231034","641-BX","2019/12/07 14:59:18","新北市新店區玫瑰路4-1號","121.493546666667","24.95139","6500600","新店區"
"231012","KED-0819","2019/12/07 14:59:25","新北市新店區寶橋路85巷56號","121.5452","24.9764983333333","6500600","新店區"
"231026","720-UM","2019/12/07 14:59:12","新北市新店區北新路一段150號","121.542543333333","24.97061","6500600","新店區"
"231028","897-TW","2019/12/07 14:59:23","新北市新店區安豐路46號","121.500065","24.9549583333333","6500600","新店區"
"231001","898-TW","2019/12/07 14:59:31","新北市新店區中正路304號","121.537501666667","24.9745133333333","6500600","新店區"
"231004","899-TW","2019/12/07 14:59:27","新北市新店區民族路11號","121.541571666667","24.978785","6500600","新店區"
"231037","AKT-0513","2019/12/07 14:59:14","新北市新店區安興路81號","121.515615","24.9752983333333","6500600","新店區"
"235030","003-UY","2019/12/07 14:59:17","新北市中和區光華街10號","121.504285","25.0042933333333","6500300","中和區"
"235020","096-UM","2019/12/07 14:59:27","新北市中和區中山路三段47號","121.47699","25.0057616666667","6500300","中和區"
"235003","097-UM","2019/12/07 14:59:12","新北市中和區宜安路52巷24號","121.512696666667","24.99751","6500300","中和區"
"235029","098-UM","2019/12/07 14:59:21","新北市中和區橋和路300號","121.496941666667","25.0070033333333","6500300","中和區"
"235004","150-BY","2019/12/07 14:59:12","新北市中和區保健路10巷3號","121.50769","24.9975983333333","6500300","中和區"
"235019","183-VK","2019/12/07 14:59:19","新北市中和區民樂路56號","121.483348333333","25.0012233333333","6500300","中和區"
"235008","293-VK","2019/12/07 14:59:12","新北市中和區中興街124-1號","121.499808333333","24.993035","6500300","中和區"
"235036","301-VK","2019/12/07 14:59:17","新北市中和區中山路二段3巷22弄7號","121.50626","25.0051333333333","6500300","中和區"
"235007","352-BY","2019/12/07 14:59:25","新北市中和區興南路二段116號","121.504645","24.983895","6500300","中和區"
"235014","4979-A6","2019/12/07 14:59:12","新北市中和區景平路241巷15號","121.50924","24.9924","6500300","中和區"
"235032","551-UM","2019/12/07 14:59:24","新北市中和區福祥路136號","121.498806666667","25.0069166666667","6500300","中和區"
"235034","558-UM","2019/12/07 14:59:24","新北市中和區圓通路202號","121.496176666667","24.9941733333333","6500300","中和區"
"235018","640-BX","2019/12/07 14:59:24","新北市中和區民享街35巷8弄15號","121.474623333333","25.00347","6500300","中和區"
"235010","733-UM","2019/12/07 14:59:15","新北市中和區興南路一段93巷65號","121.510253333333","24.9869383333333","6500300","中和區"
"235016","805-TS","2019/12/07 14:59:23","新北市中和區華新街110號","121.508496666667","24.9828133333333","6500300","中和區"
"235012","896-TW","2019/12/07 14:59:22","新北市中和區忠孝街1巷2-1號","121.509123333333","24.9830333333333","6500300","中和區"
"235023","911-UM","2019/12/07 14:59:16","新北市中和區圓通路365號","121.491351666667","24.9896816666667","6500300","中和區"
"235015","157-BY","2019/12/07 14:59:19","新北市中和區景安路220巷20號","121.502755","24.9914233333333","6500300","中和區"
"235001","AAC-213","2019/12/07 14:59:29","新北市中和區大勇街27巷2號","121.517325","24.9936883333333","6500300","中和區"
"220013","072-UY","2019/12/07 14:59:32","新北市板橋區民族路69巷18弄1號","121.466506666667","25.0100066666667","6500100","板橋區"
"220034","073-UY","2019/12/07 14:59:23","新北市板橋區國光路1號","121.456448333333","25.0173033333333","6500100","板橋區"
"220105","075-UY","2019/12/07 14:59:12","新北市板橋區懷德街78巷22號","121.477665","25.0313733333333","6500100","板橋區"
"220017","AAD-861","2019/12/07 14:59:17","新北市板橋區貴興路113號","121.455781666667","25.0025783333333","6500100","板橋區"
"235013","251-BX","2019/12/07 14:59:20","新北市中和區景新街320號","121.511698333333","24.9913066666667","6500300","中和區"
"228004","212-TW","2019/12/07 14:59:22","新北市貢寮區雙玉里田寮洋街1號","121.927973333333","25.0182983333333","6502600","貢寮區"
"253004","6251-TK","2019/12/07 14:59:19","新北市石門區茂林社區86-1號","121.592755","25.269355","6502200","石門區"
"253002","637-UY","2019/12/07 14:59:28","新北市石門區崁子腳28-2號","121.540046666667","25.2890483333333","6502200","石門區"
"207002","749-BX","2019/12/07 14:59:16","新北市萬里區崁腳里崁腳路73號","121.647535","25.1596283333333","6502800","萬里區"
"207001","662-BX","2019/12/07 14:59:27","新北市萬里區雙興里麗水路2號","121.65364","25.179735","6502800","萬里區"
"252005","AAC-283","2019/12/07 14:59:21","新北市三芝區埔坪里埔頭坑142-1號","121.512301666667","25.2481633333333","6502100","三芝區"
"236040","KED-0685","2019/12/07 14:59:18","新北市土城區學府路一段189巷15號","121.452586666667","24.9845483333333","6501300","土城區"
"220110","KED-0812","2019/12/07 14:59:27","新北市板橋區四維路232號","121.463653333333","25.0278033333333","6500100","板橋區"
"236074","166-UM","2019/12/07 14:59:12","新北市土城區中央路四段51號","121.417821666667","24.9583816666667","6501300","土城區"
"236029","253-BX","2019/12/07 14:59:25","新北市土城區慶利街16號","121.439788333333","24.9736216666667","6501300","土城區"
"236024","269-VK","2019/12/07 14:59:26","新北市土城區中正路43號","121.443951666667","24.975445","6501300","土城區"
"236032","271-VK","2019/12/07 14:59:25","新北市土城區仁愛路10-1號","121.460131666667","24.9808833333333","6501300","土城區"
"236068","KEA-2877","2019/12/07 14:59:29","新北市土城區裕生路71號","121.44703","24.98471","6501300","土城區"
"236017","401-BY","2019/12/07 14:59:14","新北市土城區延吉街168巷9號","121.468086666667","24.9858166666667","6501300","土城區"
"236013","752-BX","2019/12/07 14:59:25","新北市土城區永豐路13巷1-1號","121.461583333333","24.9888416666667","6501300","土城區"
"236057","912-UM","2019/12/07 14:59:10","新北市土城區金城路二段206號","121.455215","24.9819833333333","6501300","土城區"
"236045","913-UM","2019/12/07 14:59:18","新北市土城區青雲路234號","121.458991666667","24.980695","6501300","土城區"
"236060","915-UM","2019/12/07 14:59:25","新北市土城區金城路三段93巷21號","121.466735","24.9884416666667","6501300","土城區"
"236054","AAC-216","2019/12/07 14:59:26","新北市土城區學成路82號","121.450786666667","24.9886116666667","6501300","土城區"
"220027","145-BY","2019/12/07 14:59:20","新北市板橋區民權路202巷13弄1號","121.46056","25.0159466666667","6500100","板橋區"
"220028","200-UY","2019/12/07 14:59:30","新北市板橋區大觀路二段163巷19號","121.44648","25.00018","6500100","板橋區"
"220030","610-BX","2019/12/07 14:59:27","新北市板橋區存德街3號","121.429868333333","24.9920183333333","6500100","板橋區"
"220050","245-BX","2019/12/07 14:59:25","新北市板橋區萬板路328號","121.478278333333","25.0254","6500100","板橋區"
"220040","267-BY","2019/12/07 14:59:19","新北市板橋區文聖街131號","121.478115","25.028625","6500100","板橋區"
"220004","276-BY","2019/12/07 14:59:09","新北市板橋區四川路二段99巷4弄2號","121.452845","24.9942316666667","6500100","板橋區"
"220020","277-BY","2019/12/07 14:59:27","新北市板橋區金門街109巷27-2號","121.433946666667","24.9916816666667","6500100","板橋區"
"220043","283-UM","2019/12/07 14:59:27","新北市板橋區陽明街12號","121.466611666667","25.0217133333333","6500100","板橋區"
"220001","285-VK","2019/12/07 14:59:21","新北市板橋區永豐街45號","121.474236666667","25.017525","6500100","板橋區"
"220029","287-VK","2019/12/07 14:59:24","新北市板橋區大觀路一段28巷107-1號","121.449818333333","25.0122316666667","6500100","板橋區"
"220009","293-UM","2019/12/07 14:59:12","新北市板橋區中山路一段1號","121.45951","25.0073616666667","6500100","板橋區"
"220032","296-UM","2019/12/07 14:59:29","新北市板橋區板林路190號","121.42452","24.9882966666667","6500100","板橋區"
"220023","303-R5","2019/12/07 14:59:17","新北市板橋區金華街1號","121.45545","25.0199333333333","6500100","板橋區"
"220010","305-R5","2019/12/07 14:59:30","新北市板橋區中山路二段318巷2弄22號","121.480786666667","25.0191866666667","6500100","板橋區"
"220041","307-R5","2019/12/07 14:59:23","新北市板橋區光正街45巷31號","121.461866666667","25.01598","6500100","板橋區"
"220047","317-R6","2019/12/07 14:59:11","新北市板橋區新海路385巷24號","121.457925","25.0255816666667","6500100","板橋區"
"220037","491-VK","2019/12/07 14:59:24","新北市板橋區大同街89號","121.48002","25.02831","6500100","板橋區"
"220104","560-BX","2019/12/07 14:59:29","新北市板橋區新生街29巷4弄2號","121.456556666667","25.0217183333333","6500100","板橋區"
"220052","561-BX","2019/12/07 14:59:19","新北市板橋區漢生西路91號","121.462605","25.0197266666667","6500100","板橋區"
"220107","568-UM","2019/12/07 14:59:03","新北市板橋區僑中二街88巷27號","121.444961666667","25.0095466666667","6500100","板橋區"
"220109","609-BX","2019/12/07 14:59:24","新北市板橋區三民路一段78號","121.47945","25.0219433333333","6500100","板橋區"
"220019","630-UY","2019/12/07 14:59:20","新北市板橋區五權街30巷24弄33號","121.463636666667","24.993905","6500100","板橋區"
"220005","686-BX","2019/12/07 14:59:23","新北市板橋區四川路二段245巷66號","121.453246666667","24.9917133333333","6500100","板橋區"
"220025","687-BX","2019/12/07 14:59:18","新北市板橋區僑中二街152號","121.44516","25.0043516666667","6500100","板橋區"
"220111","689-BX","2019/12/07 14:59:28","新北市板橋區長江路二段201號","121.467568333333","25.0322716666667","6500100","板橋區"
"220002","741-BX","2019/12/07 14:59:15","新北市板橋區忠孝路201巷28號","121.465018333333","25.0033783333333","6500100","板橋區"
"220051","KEA-2699","2019/12/07 14:59:12","新北市板橋區莒光路40巷9號","121.470358333333","25.0236833333333","6500100","板橋區"
"220003","827-TW","2019/12/07 14:59:28","新北市板橋區仁愛路47巷2號","121.45984","24.9994316666667","6500100","板橋區"
"220014","829-TW","2019/12/07 14:59:08","新北市板橋區漢生東路195號","121.469931666667","25.0115733333333","6500100","板橋區"
"220016","830-TW","2019/12/07 14:59:20","新北市板橋區中山路二段408號","121.482746666667","25.02081","6500100","板橋區"
"220022","895-R6","2019/12/07 14:59:23","新北市板橋區文化路一段46巷60-3號","121.46093","25.0109716666667","6500100","板橋區"
"220108","985-R7","2019/12/07 14:59:28","新北市板橋區南雅西路二段164號","121.451696666667","25.0135983333333","6500100","板橋區"
"220046","AAC-210","2019/12/07 14:59:27","新北市板橋區光正街45巷2弄4號","121.461725","25.017505","6500100","板橋區"
"220012","AAC-253","2019/12/07 14:59:26","新北市板橋區館前東路118號","121.463721666667","25.0077566666667","6500100","板橋區"
