"lineid","car","time","location","longitude","latitude","cityid","cityname"
"244002","658-BX","2019/12/07 15:59:13","新北市林口區中山路158號","121.39075","25.0786883333333","6501700","林口區"
"231030","002-UM","2019/12/07 15:59:11","新北市新店區永平街51巷1號","121.51617","24.9840233333333","6500600","新店區"
"231018","107-UY","2019/12/07 15:59:26","新北市新店區中正路707號","121.533583333333","24.9912916666667","6500600","新店區"
"231017","KEA-2219","2019/12/07 15:59:12","新北市新店區中華路147號","121.538326666667","24.9705883333333","6500600","新店區"
"231003","268-BY","2019/12/07 15:59:27","新北市新店區中興路二段252號","121.547328333333","24.9757983333333","6500600","新店區"
"231035","278-BY","2019/12/07 15:59:18","新北市新店區安民街133巷26號","121.51544","24.969375","6500600","新店區"
"231020","513-UM","2019/12/07 15:59:27","新北市新店區新烏路一段73號","121.546401666667","24.942755","6500600","新店區"
"231034","641-BX","2019/12/07 15:59:18","新北市新店區如意街79號","121.49452","24.9471183333333","6500600","新店區"
"231046","719-UM","2019/12/07 15:59:11","新北市新店區安一路一段1-1號","121.519488333333","24.961095","6500600","新店區"
"231026","720-UM","2019/12/07 15:59:12","新北市新店區中正路489號","121.533823333333","24.9823766666667","6500600","新店區"
"231037","AKT-0513","2019/12/07 15:59:14","新北市新店區薏仁坑路自強巷2號","121.497576666667","24.9588683333333","6500600","新店區"
"241011","013-R5","2019/12/07 15:59:26","新北市三重區雙園街1巷1號","121.497001666667","25.0680833333333","6500200","三重區"
"241008","059-VK","2019/12/07 15:59:29","新北市三重區捷運路36號","121.482856666667","25.055215","6500200","三重區"
"241015","062-VK","2019/12/07 15:59:08","新北市三重區重新路四段121號","121.485106666667","25.0521483333333","6500200","三重區"
"241017","063-VK","2019/12/07 15:59:09","新北市三重區大同北路148巷68號","121.490303333333","25.0644583333333","6500200","三重區"
"241024","065-VK","2019/12/07 15:59:29","新北市三重區忠孝路二段130號","121.482733333333","25.0686116666667","6500200","三重區"
"241007","066-VK","2019/12/07 15:59:19","新北市三重區力行路二段111號","121.48284","25.0762933333333","6500200","三重區"
"241006","262-UM","2019/12/07 15:59:21","新北市三重區忠孝路二段160號","121.482108333333","25.0678383333333","6500200","三重區"
"241016","266-UM","2019/12/07 15:59:25","新北市三重區重新路四段121號","121.485048333333","25.0520233333333","6500200","三重區"
"241013","270-UM","2019/12/07 15:59:22","新北市三重區文化北路232-1號","121.497523333333","25.0694716666667","6500200","三重區"
"241020","478-VK","2019/12/07 15:59:22","新北市三重區忠孝路二段105號","121.483871666667","25.0697966666667","6500200","三重區"
"241026","480-VK","2019/12/07 15:59:14","新北市三重區重新路四段138號","121.486336666667","25.056435","6500200","三重區"
"241014","543-UM","2019/12/07 15:59:16","新北市三重區重新路四段121號","121.485146666667","25.0520183333333","6500200","三重區"
"241023","545-UM","2019/12/07 15:59:23","新北市三重區中正北路119號","121.483351666667","25.0669466666667","6500200","三重區"
"241001","547-UM","2019/12/07 15:59:21","新北市三重區忠孝路三段52號","121.480621666667","25.0656033333333","6500200","三重區"
"241012","743-BX","2019/12/07 15:59:14","新北市三重區文化北路132巷43號","121.497543333333","25.0665416666667","6500200","三重區"
"241022","KED-0820","2019/12/07 15:59:28","新北市三重區中正北路172-1號","121.484043333333","25.0664633333333","6500200","三重區"
"241025","KED-0670","2019/12/07 15:59:21","新北市三重區三民街166號","121.482281666667","25.0654866666667","6500200","三重區"
"241029","942-UM","2019/12/07 15:59:20","新北市三重區大同南路212巷67號","121.498461666667","25.0568116666667","6500200","三重區"
"241033","AAC-255","2019/12/07 15:59:29","新北市三重區五谷王南街38號","121.473958333333","25.0455316666667","6500200","三重區"
"235029","098-UM","2019/12/07 15:59:21","新北市中和區錦和路216號","121.490181666667","24.9939316666667","6500300","中和區"
"224007","285-BY","2019/12/07 15:59:13","新北市瑞芳區粗坑口路5號","121.76163","25.0979883333333","6501200","瑞芳區"
"227002","642-TC","2019/12/07 15:59:30","新北市雙溪區上林里內平林17號","121.834628333333","25.032125","6502500","雙溪區"
"227001","400-TW","2019/12/07 15:59:21","新北市雙溪區三港里雙澳路73號","121.88233","25.0545833333333","6502500","雙溪區"
"251013","182-VK","2019/12/07 15:59:12","新北市淡水區中正路二段31號","121.419551666667","25.1815183333333","6501000","淡水區"
"236074","166-UM","2019/12/07 15:59:25","新北市土城區福安街1號","121.420308333333","24.9651566666667","6501300","土城區"
"236057","912-UM","2019/12/07 15:59:29","新北市土城區大安路101-5號","121.43338","24.968535","6501300","土城區"
"220025","687-BX","2019/12/07 15:59:13","新北市八里區中山路三段386號","121.368466666667","25.1359366666667","6500100","板橋區"
"220111","689-BX","2019/12/07 15:59:28","新北市林口區太平里180號","121.368271666667","25.1345083333333","6500100","板橋區"
