"lineid","car","time","location","longitude","latitude","cityid","cityname"
"234026","9371-KE","2019/12/07 17:45:16","新北市永和區永平路20號","121.513338333333","25.0087633333333","6500400","永和區"
"249005","172-UM","2019/12/07 17:45:10","新北市八里區荖阡坑路34-1號","121.402741666667","25.12972","6502300","八里區"
"249001","173-UM","2019/12/07 17:45:29","新北市八里區龍米路二段153-8號","121.440115","25.153485","6502300","八里區"
"249004","303-UY","2019/12/07 17:45:12","新北市八里區中華路一段81巷8號","121.419621666667","25.1564966666667","6502300","八里區"
"249002","305-UY","2019/12/07 17:45:18","新北市八里區龍形五街37巷20號","121.44589","25.133795","6502300","八里區"
"249003","593-UM","2019/12/07 17:45:09","新北市八里區中山路二段119號","121.405506666667","25.15196","6502300","八里區"
"248008","KED-0815","2019/12/07 17:45:14","新北市五股區中興路二段63巷17號","121.46032","25.0753266666667","6501500","五股區"
"248020","KED-0813","2019/12/07 17:45:29","新北市五股區中興路二段63巷17號","121.460283333333","25.075405","6501500","五股區"
"232011","375-UM","2019/12/07 17:45:24","新北市坪林區北宜路八段28號","121.70321","24.9361233333333","6502000","坪林區"
"244007","080-UY","2019/12/07 17:45:20","新北市林口區林口路131號","121.388708333333","25.0811216666667","6501700","林口區"
"244013","KEA-2802","2019/12/07 17:45:31","新北市林口區中山路125號","121.388841666667","25.0789233333333","6501700","林口區"
"244023","483-VK","2019/12/07 17:45:22","新北市林口區東明二街61號","121.389665","25.0694966666667","6501700","林口區"
"244017","485-VK","2019/12/07 17:45:30","新北市林口區文化二路一段262-8號","121.371531666667","25.073365","6501700","林口區"
"244009","656-BX","2019/12/07 17:45:17","新北市林口區中北三街61號","121.38474","25.0855216666667","6501700","林口區"
"244011","701-TV","2019/12/07 17:45:24","新北市林口區中正路253號","121.390681666667","25.077645","6501700","林口區"
"244024","837-TS","2019/12/07 17:45:25","新北市林口區三民路185號","121.360986666667","25.0711933333333","6501700","林口區"
"244021","838-TS","2019/12/07 17:45:20","新北市林口區仁愛路一段1巷22號","121.396623333333","25.0685316666667","6501700","林口區"
"222003","436-BY","2019/12/07 17:45:29","新北市深坑區阿柔洋60-1號","121.608603333333","24.9985083333333","6501800","深坑區"
"222002","659-BX","2019/12/07 17:45:21","新北市深坑區平埔街22巷17弄1號","121.614868333333","25.0008516666667","6501800","深坑區"
"231046","719-UM","2019/12/07 17:45:11","新北市新店區直潭路92-1號","121.530941666667","24.937545","6500600","新店區"
"241015","062-VK","2019/12/07 17:45:28","新北市三重區新北大道一段7號","121.48967","25.061275","6500200","三重區"
"241024","065-VK","2019/12/07 17:45:29","新北市三重區力行路二段9巷10號","121.482891666667","25.0721966666667","6500200","三重區"
"241007","066-VK","2019/12/07 17:45:19","新北市三重區後竹圍街205巷50號","121.484518333333","25.0731816666667","6500200","三重區"
"241016","266-UM","2019/12/07 17:45:25","新北市三重區中正北路9號","121.492716666667","25.061205","6500200","三重區"
"241012","743-BX","2019/12/07 17:45:14","新北市三重區龍濱路285號","121.501103333333","25.0733233333333","6500200","三重區"
"241033","AAC-255","2019/12/07 17:45:29","新北市三重區光復路一段17號","121.472096666667","25.0473333333333","6500200","三重區"
"235063","006-UY","2019/12/07 17:45:23","新北市中和區員山路36巷16-3號","121.48501","24.9912816666667","6500300","中和區"
"247010","KED-0682","2019/12/07 17:45:22","新北市蘆洲區民族路66號","121.477345","25.084735","6501400","蘆洲區"
"235045","565-BX","2019/12/07 17:45:12","新北市中和區員山路36巷13號","121.484138333333","24.9911233333333","6500300","中和區"
"235047","732-UM","2019/12/07 17:45:14","新北市中和區員山路36巷13號","121.484145","24.9910233333333","6500300","中和區"
"235057","801-TS","2019/12/07 17:45:21","新北市中和區員山路36巷16-2號","121.485238333333","24.9913683333333","6500300","中和區"
"247006","893-R6","2019/12/07 17:45:18","新北市蘆洲區永安南路二段100號","121.463143333333","25.0780866666667","6501400","蘆洲區"
"247020","546-UM","2019/12/07 17:45:20","新北市蘆洲區民義街101巷7號","121.473401666667","25.0909933333333","6501400","蘆洲區"
"247004","500-BY","2019/12/07 17:45:27","新北市蘆洲區長安街170號","121.45934","25.083395","6501400","蘆洲區"
"247024","057-VK","2019/12/07 17:45:29","新北市蘆洲區光榮路95號","121.462646666667","25.0887083333333","6501400","蘆洲區"
"247014","056-VK","2019/12/07 17:45:13","新北市蘆洲區中正路173號","121.46883","25.0852766666667","6501400","蘆洲區"
"247022","007-UY","2019/12/07 17:45:15","新北市蘆洲區中正路264巷21號","121.466135","25.0900816666667","6501400","蘆洲區"
"247008","002-UY","2019/12/07 17:45:32","新北市蘆洲區和平路29巷4號","121.471956666667","25.0788933333333","6501400","蘆洲區"
"247002","001-UY","2019/12/07 17:45:25","新北市蘆洲區永平街32巷21弄8號","121.458908333333","25.0917983333333","6501400","蘆洲區"
"228003","097-TW","2019/12/07 17:45:27","新北市貢寮區真理里延平街143-1號","121.924946666667","25.0576266666667","6502600","貢寮區"
"228001","212-TW","2019/12/07 17:45:25","新北市貢寮區仁理村仁愛路95-1號","121.92765","25.05544","6502600","貢寮區"
"228002","663-BX","2019/12/07 17:45:27","新北市貢寮區福隆里外隆林街14-1號","121.959143333333","25.0036316666667","6502600","貢寮區"
"224006","676-BX","2019/12/07 17:45:20","新北市瑞芳區傑魚坑路183號","121.788445","25.1082516666667","6501200","瑞芳區"
"224009","275-VK","2019/12/07 17:45:23","新北市瑞芳區山尖路213號","121.849138333333","25.1122966666667","6501200","瑞芳區"
"224008","273-VK","2019/12/07 17:45:16","新北市瑞芳區明燈路一段49號","121.820845","25.10691","6501200","瑞芳區"
"224005","271-BY","2019/12/07 17:45:26","新北市瑞芳區海濱路30號","121.830935","25.124115","6501200","瑞芳區"
"227002","642-TC","2019/12/07 17:23:19","新北市雙溪區共和里東榮街38號","121.865946666667","25.033825","6502500","雙溪區"
"227001","400-TW","2019/12/07 17:45:21","新北市雙溪區三貂里政光路3-1號","121.850825","25.0633983333333","6502500","雙溪區"
"251009","008-UM","2019/12/07 17:45:28","新北市淡水區中正路38-1號","121.443755","25.1692716666667","6501000","淡水區"
"251004","009-UM","2019/12/07 17:45:14","新北市淡水區民權路12-8號","121.459303333333","25.1388883333333","6501000","淡水區"
"251005","010-UM","2019/12/07 17:45:19","新北市淡水區鄧公路32巷1號","121.451536666667","25.1713633333333","6501000","淡水區"
"251015","KEA-2871","2019/12/07 17:45:28","新北市淡水區糞箕湖9-1號","121.485305","25.1707183333333","6501000","淡水區"
"251016","180-VK","2019/12/07 17:45:19","新北市淡水區埤島39-15號","121.452761666667","25.19588","6501000","淡水區"
"251008","181-VK","2019/12/07 17:45:30","新北市淡水區八勢路一段123巷5弄1號","121.466685","25.1565666666667","6501000","淡水區"
"251013","182-VK","2019/12/07 17:45:12","新北市淡水區口湖子2-3號","121.475826666667","25.189725","6501000","淡水區"
"251010","413-VK","2019/12/07 17:45:28","新北市淡水區淡海路280巷33弄34-2號","121.418718333333","25.1886033333333","6501000","淡水區"
"251012","441-VK","2019/12/07 17:45:15","新北市淡水區北投子46號","121.46323","25.1820383333333","6501000","淡水區"
"251007","442-VK","2019/12/07 17:45:13","新北市淡水區民生路52巷15號","121.46252","25.1376583333333","6501000","淡水區"
"251006","561-UM","2019/12/07 17:45:25","新北市淡水區大信街1巷1號","121.441163333333","25.1765116666667","6501000","淡水區"
"251014","577-R6","2019/12/07 17:45:18","新北市淡水區公埔子16-6號","121.481021666667","25.2245566666667","6501000","淡水區"
"251011","650-BX","2019/12/07 17:45:17","新北市淡水區坪頂路712號","121.482506666667","25.15846","6501000","淡水區"
"251002","672-BX","2019/12/07 17:45:17","新北市淡水區中山路132號","121.44156","25.1710783333333","6501000","淡水區"
"251003","766-UM","2019/12/07 17:45:25","新北市淡水區大忠街5巷1號","121.443158333333","25.1764133333333","6501000","淡水區"
"207003","681-TV","2019/12/07 17:45:25","新北市萬里區龜吼里漁澳路85-2號","121.68803","25.1962116666667","6502800","萬里區"
"207004","291-VK","2019/12/07 17:45:18","新北市萬里區中幅里中福路8號","121.685091666667","25.1645833333333","6502800","萬里區"
"252001","292-VK","2019/12/07 17:45:20","新北市三芝區淡金路一段59號","121.500275","25.258945","6502100","三芝區"
"237009","210-TH","2019/12/07 17:45:29","新北市三峽區中山路110號","121.365796666667","24.935755","6500900","三峽區"
"237013","252-BX","2019/12/07 17:45:17","新北市三峽區愛國路6巷6號","121.373683333333","24.9338","6500900","三峽區"
"237012","275-BY","2019/12/07 17:45:12","新北市三峽區中山路138-1號","121.365176666667","24.936155","6500900","三峽區"
"237014","433-BY","2019/12/07 17:45:14","新北市三峽區文化路209號","121.366266666667","24.93559","6500900","三峽區"
"237006","5529-G3","2019/12/07 17:45:24","新北市三峽區介壽路二段6巷2-1號","121.389358333333","24.9345416666667","6500900","三峽區"
"237011","KEA-2596","2019/12/07 17:45:18","新北市三峽區中山路39號","121.368213333333","24.9344733333333","6500900","三峽區"
"237015","649-BX","2019/12/07 17:45:16","新北市三峽區白雞149-2號","121.400096666667","24.9055233333333","6500900","三峽區"
"237010","706-TV","2019/12/07 17:45:26","新北市三峽區復興路239-2號","121.368188333333","24.938445","6500900","三峽區"
"237005","AKY-6261","2019/12/07 17:45:12","新北市三峽區中山路459巷135號","121.3487","24.9329466666667","6500900","三峽區"
"236042","KED-0685","2019/12/07 17:45:09","新北市土城區城林路6巷80號","121.438518333333","24.9795933333333","6501300","土城區"
"233002","762-BX","2019/12/07 17:45:16","新北市烏來區西羅岸路22號","121.549588333333","24.8672266666667","6502900","烏來區"
"236079","166-UM","2019/12/07 17:45:17","新北市土城區中央路三段59號","121.43887","24.9696166666667","6501300","土城區"
"236030","253-BX","2019/12/07 17:45:11","新北市土城區城林路6巷80號","121.438436666667","24.9797366666667","6501300","土城區"
"247012","KED-0683","2019/12/07 17:45:10","新北市蘆洲區復興路60巷1弄7號","121.474991666667","25.086215","6501400","蘆洲區"
"236070","KEA-2877","2019/12/07 17:45:13","新北市土城區明德路二段56號","121.448931666667","24.9828366666667","6501300","土城區"
"252002","KED-0821","2019/12/07 17:45:19","新北市三芝區中正路二段1號","121.504831666667","25.2559366666667","6502100","三芝區"
"236021","401-BY","2019/12/07 17:45:17","新北市土城區城林路6巷80號","121.438785","24.9795983333333","6501300","土城區"
"236014","752-BX","2019/12/07 17:45:22","新北市土城區城林路6巷80號","121.438468333333","24.9795933333333","6501300","土城區"
"236055","AAC-216","2019/12/07 17:45:15","新北市土城區城林路6巷80號","121.438533333333","24.9796116666667","6501300","土城區"
"242061","986-R7","2019/12/07 17:45:22","新北市新莊區瓊林南路103巷8弄5號","121.435231666667","25.0117566666667","6500500","新莊區"
"242004","751-BX","2019/12/07 17:45:25","新北市新莊區自立街216號","121.457176666667","25.0453616666667","6500500","新莊區"
"242029","615-BX","2019/12/07 17:45:25","新北市新莊區復興路一段75號","121.448078333333","25.0425966666667","6500500","新莊區"
"242027","613-BX","2019/12/07 17:45:26","新北市新莊區福壽街95號","121.458055","25.0504333333333","6500500","新莊區"
"242058","612-BX","2019/12/07 17:45:22","新北市新莊區中正路626號","121.42213","25.02883","6500500","新莊區"
"242048","566-BX","2019/12/07 17:45:22","新北市新莊區萬安街113號","121.420798333333","25.0227716666667","6500500","新莊區"
"242042","442-UM","2019/12/07 17:45:19","新北市新莊區中正路514號","121.42966","25.0352233333333","6500500","新莊區"
"242044","415-TV","2019/12/07 17:45:18","新北市新莊區中正路871巷28號","121.419483333333","25.0264366666667","6500500","新莊區"
"242013","413-TV","2019/12/07 17:45:22","新北市新莊區中誠街144號","121.448738333333","25.0476016666667","6500500","新莊區"
"242051","400-BY","2019/12/07 17:45:16","新北市新莊區西盛街201巷11號","121.428905","25.0169233333333","6500500","新莊區"
"242025","362-BY","2019/12/07 17:45:29","新北市新莊區思源路108號","121.460106666667","25.0465633333333","6500500","新莊區"
"242023","353-BY","2019/12/07 17:45:25","新北市新莊區民樂街60號","121.45798","25.0418516666667","6500500","新莊區"
"242015","132-UY","2019/12/07 17:45:27","新北市新莊區新泰路332號","121.444903333333","25.0419216666667","6500500","新莊區"
"242039","135-UY","2019/12/07 17:45:23","新北市新莊區富國路188號","121.424746666667","25.02438","6500500","新莊區"
"242056","172-VK","2019/12/07 17:45:24","新北市新莊區瓊林路40巷2號","121.44803","25.0302266666667","6500500","新莊區"
"242017","173-VK","2019/12/07 17:45:18","新北市新莊區復興路一段95號","121.448861666667","25.04285","6500500","新莊區"
"242031","175-VK","2019/12/07 17:45:11","新北市新莊區新泰路324號","121.444976666667","25.04181","6500500","新莊區"
"242053","176-VK","2019/12/07 17:45:24","新北市新莊區新樹路673號","121.432518333333","25.0027866666667","6500500","新莊區"
"242021","KED-0687","2019/12/07 17:45:27","新北市新莊區中華路一段65號","121.452185","25.0395666666667","6500500","新莊區"
"242007","346-TH","2019/12/07 17:45:28","新北市新莊區福樂街118巷5號","121.457243333333","25.0480516666667","6500500","新莊區"
"242002","347-TH","2019/12/07 17:45:29","新北市新莊區新莊路439號","121.449968333333","25.033495","6500500","新莊區"
"242036","348-TH","2019/12/07 17:45:15","新北市新莊區建福路69巷30號","121.428196666667","25.027215","6500500","新莊區"
"242009","349-TH","2019/12/07 17:45:20","新北市新莊區福壽街169巷13號","121.456795","25.05362","6500500","新莊區"
"242034","350-TH","2019/12/07 17:45:23","新北市新莊區瓊泰路170號","121.443276666667","25.03289","6500500","新莊區"
"242019","351-TH","2019/12/07 17:45:21","新北市新莊區中港路176號","121.454943333333","25.0418666666667","6500500","新莊區"
"238015","755-BX","2019/12/07 17:45:17","新北市樹林區復興路63號","121.42189","24.9931533333333","6500700","樹林區"
"238023","601-UM","2019/12/07 17:45:18","新北市樹林區龍興街13巷11號","121.403491666667","25.0165183333333","6500700","樹林區"
"238019","599-UM","2019/12/07 17:45:20","新北市樹林區太平路125號","121.419338333333","24.98059","6500700","樹林區"
"238018","KEA-2217","2019/12/07 17:45:28","新北市樹林區博愛街92號","121.426935","24.9918366666667","6500700","樹林區"
"238022","KEA-2213","2019/12/07 17:45:21","新北市樹林區太元街40號","121.418246666667","24.9798733333333","6500700","樹林區"
"238021","KEA-2539","2019/12/07 17:45:24","新北市樹林區柑園街一段68號","121.40219","24.96027","6500700","樹林區"
"238025","303-VK","2019/12/07 17:45:14","新北市樹林區三俊街81巷1號","121.415371666667","25.0154433333333","6500700","樹林區"
"238017","283-BY","2019/12/07 17:45:23","新北市樹林區俊德街51號","121.415418333333","25.0133116666667","6500700","樹林區"
"238014","282-BY","2019/12/07 17:45:13","新北市樹林區保安街一段211號","121.420605","24.9961733333333","6500700","樹林區"
"238020","268-VK","2019/12/07 17:45:15","新北市樹林區俊英街109-1號","121.424965","25.0098666666667","6500700","樹林區"
"238026","172-UY","2019/12/07 17:45:24","新北市樹林區新興街19巷34弄9號","121.402176666667","24.9731516666667","6500700","樹林區"
"238016","169-UY","2019/12/07 17:45:13","新北市樹林區啟智街129-10號","121.417638333333","24.9888133333333","6500700","樹林區"
"239007","AAC-297","2019/12/07 17:45:23","新北市鶯歌區永明街13號","121.338395","24.9552466666667","6500800","鶯歌區"
"239006","891-R6","2019/12/07 17:45:16","新北市鶯歌區永和街153號","121.334505","24.9693","6500800","鶯歌區"
"239008","527-UM","2019/12/07 17:45:11","新北市鶯歌區大湖路700巷24號","121.33331","24.976715","6500800","鶯歌區"
"239005","526-UM","2019/12/07 17:45:10","新北市鶯歌區鳳吉四街35號","121.327148333333","24.9730066666667","6500800","鶯歌區"
"239001","417-VK","2019/12/07 17:45:26","新北市鶯歌區中正三路215號","121.335113333333","24.9392666666667","6500800","鶯歌區"
"239003","360-BY","2019/12/07 17:45:24","新北市鶯歌區鶯桃路285巷6號","121.334468333333","24.959185","6500800","鶯歌區"
"239002","359-BY","2019/12/07 17:45:22","新北市鶯歌區南雅路499號","121.345031666667","24.95408","6500800","鶯歌區"
"239004","193-VK","2019/12/07 17:45:27","新北市鶯歌區三鶯路59號","121.357556666667","24.9426716666667","6500800","鶯歌區"
"221008","489-VK","2019/12/07 17:45:23","新北市汐止區康寧街901號","121.651468333333","25.0750516666667","6501100","汐止區"
"244019","KED-0667","2019/12/07 17:45:26","新北市林口區文化一路一段83巷14弄92號","121.372811666667","25.0716483333333","6501700","林口區"
"221010","269-BY","2019/12/07 17:45:15","新北市汐止區汐萬路一段418巷25號","121.65001","25.0789083333333","6501100","汐止區"
"221023","279-VK","2019/12/07 17:45:18","新北市汐止區連峰街1巷1號","121.64648","25.07606","6501100","汐止區"
"221029","645-BX","2019/12/07 17:45:15","新北市汐止區汐萬路一段256巷3號","121.652255","25.0746666666667","6501100","汐止區"
"233001","KEA-2870","2019/12/07 17:45:16","新北市烏來區西羅岸路22號","121.549311666667","24.8673633333333","6502900","烏來區"
"242046","281-VK","2019/12/07 17:44:55","新北市新莊區建國一路78號","121.434416666667","25.0304166666667","6500500","新莊區"
"242011","280-VK","2019/12/07 17:45:24","新北市新莊區中港路652號","121.450881666667","25.0557816666667","6500500","新莊區"
