"lineid","car","time","location","longitude","latitude","cityid","cityname"
"234046","148-BY","2019/12/07 18:29:13","新北市永和區福和路1號","121.526405","25.0098866666667","6500400","永和區"
"234026","9371-KE","2019/12/07 18:29:16","新北市永和區中正路659號","121.514708333333","25.0102","6500400","永和區"
"234011","9373-KE","2019/12/07 18:29:19","新北市永和區保福路二段162巷2號","121.509036666667","25.015135","6500400","永和區"
"249005","172-UM","2019/12/07 18:29:30","新北市八里區中華路三段145巷9號","121.392323333333","25.13319","6502300","八里區"
"249001","173-UM","2019/12/07 18:29:29","新北市八里區龍米路一段140號","121.453005","25.125665","6502300","八里區"
"249004","303-UY","2019/12/07 18:29:11","新北市八里區忠孝路71-1號","121.426535","25.160345","6502300","八里區"
"249002","305-UY","2019/12/07 18:29:18","新北市八里區龍形三街2號","121.450315","25.131895","6502300","八里區"
"249003","593-UM","2019/12/07 18:15:26","新北市八里區博物館路10-1號","121.415086666667","25.1639466666667","6502300","八里區"
"248014","025-BX","2019/12/07 18:29:13","新北市五股區成泰路一段105號","121.435573333333","25.0712516666667","6501500","五股區"
"248016","026-BX","2019/12/07 18:29:26","新北市五股區凌雲路一段83巷1-3號","121.45051","25.10092","6501500","五股區"
"248008","KED-0815","2019/12/07 18:29:14","新北市五股區四維路185巷60號","121.462663333333","25.078035","6501500","五股區"
"248020","KED-0813","2019/12/07 18:29:29","新北市五股區孝義路55巷5號","121.451365","25.1119783333333","6501500","五股區"
"248012","247-BX","2019/12/07 18:29:18","新北市五股區御成路6號","121.441858333333","25.09092","6501500","五股區"
"248010","272-BY","2019/12/07 18:29:13","新北市五股區水碓路16巷32號","121.43401","25.07283","6501500","五股區"
"248002","655-BX","2019/12/07 18:29:22","新北市五股區西雲路107號","121.44389","25.09269","6501500","五股區"
"248004","677-BX","2019/12/07 18:29:22","新北市五股區工商路150號","121.433233333333","25.0873683333333","6501500","五股區"
"234023","9380-KE","2019/12/07 18:29:21","新北市永和區福和路1號","121.52647","25.0098116666667","6500400","永和區"
"234077","969-R7","2019/12/07 18:29:29","新北市永和區福和路1號","121.526408333333","25.0098816666667","6500400","永和區"
"232011","375-UM","2019/12/07 18:29:24","新北市坪林區坪雙路一段41號","121.711728333333","24.9424516666667","6502000","坪林區"
"244007","080-UY","2019/12/07 18:29:24","新北市林口區中湖55-1號","121.3851","25.10056","6501700","林口區"
"244013","KEA-2802","2019/12/07 18:29:11","新北市林口區佳林路132號","121.384806666667","25.0780116666667","6501700","林口區"
"244023","483-VK","2019/12/07 18:29:22","新北市林口區仁愛路二段9號","121.38597","25.0762816666667","6501700","林口區"
"244017","485-VK","2019/12/07 18:29:30","新北市林口區文化二路一段62-4號","121.365368333333","25.068555","6501700","林口區"
"244009","656-BX","2019/12/07 18:29:17","新北市林口區中山路576-11號","121.376881666667","25.0855866666667","6501700","林口區"
"244011","701-TV","2019/12/07 18:29:24","新北市林口區興林路17巷3弄1號","121.390156666667","25.077005","6501700","林口區"
"244024","837-TS","2019/12/07 18:29:25","新北市林口區源泉街68號","121.356866666667","25.073","6501700","林口區"
"244021","838-TS","2019/12/07 18:29:20","新北市林口區自強二街17號","121.397966666667","25.0780716666667","6501700","林口區"
"208001","267-VK","2019/12/07 18:29:13","新北市金山區溫泉路21巷1號","121.637801666667","25.2228216666667","6502700","金山區"
"222003","436-BY","2019/12/07 18:29:29","新北市深坑區北深路一段288號","121.628155","25.0076416666667","6501800","深坑區"
"222002","659-BX","2019/12/07 18:29:21","新北市深坑區雲鄉路143號","121.622178333333","24.9982166666667","6501800","深坑區"
"231061","002-UM","2019/12/07 18:29:17","新北市新店區安華路28-1號","121.519521666667","24.960665","6500600","新店區"
"231055","0291-UT","2019/12/07 18:29:26","新北市新店區北新路二段2號","121.542676666667","24.9707883333333","6500600","新店區"
"231060","106-UY","2019/12/07 18:29:16","新北市新店區安一路一段1-1號","121.519235","24.9618816666667","6500600","新店區"
"231051","107-UY","2019/12/07 18:29:20","新北市新店區安康路一段23號","121.53299","24.9603216666667","6500600","新店區"
"231049","108-UY","2019/12/07 18:29:18","新北市新店區安華路1-1號","121.51944","24.9604383333333","6500600","新店區"
"231065","110-UY","2019/12/07 18:29:20","新北市新店區安一路一段1-1號","121.519366666667","24.96111","6500600","新店區"
"231050","KEA-2219","2019/12/07 18:29:26","新北市新店區安一路一段1-1號","121.51983","24.9612083333333","6500600","新店區"
"221031","KEA-2785","2019/12/07 18:29:23","新北市汐止區大同路一段160-7號","121.635606666667","25.0556983333333","6501100","汐止區"
"231062","256-BX","2019/12/07 18:29:13","新北市新店區安一路一段1-1號","121.519661666667","24.9610816666667","6500600","新店區"
"231054","260-TV","2019/12/07 18:29:18","新北市新店區安一路一段1-1號","121.519331666667","24.961145","6500600","新店區"
"231042","268-BY","2019/12/07 18:29:13","新北市新店區安一路一段1-1號","121.519661666667","24.9613116666667","6500600","新店區"
"231064","278-BY","2019/12/07 18:29:13","新北市新店區安一路一段1-1號","121.519496666667","24.96109","6500600","新店區"
"231045","355-BY","2019/12/07 18:29:15","新北市新店區安華路28-1號","121.51933","24.96094","6500600","新店區"
"231058","3713-VJ","2019/12/07 18:29:21","新北市新店區環河路19巷4號","121.53756","24.9607966666667","6500600","新店區"
"231056","4715-K9","2019/12/07 18:29:20","新北市新店區二十張路129巷5弄4號","121.536611666667","24.9787433333333","6500600","新店區"
"231052","513-UM","2019/12/07 18:29:25","新北市新店區北宜路一段116號","121.539136666667","24.9552283333333","6500600","新店區"
"231041","619-UM","2019/12/07 18:29:13","新北市新店區安一路一段1-1號","121.519445","24.9611133333333","6500600","新店區"
"231063","641-BX","2019/12/07 18:29:25","新北市新店區安華路1-1號","121.5195","24.960465","6500600","新店區"
"231048","KED-0819","2019/12/07 18:29:31","新北市新店區安一路一段1-1號","121.519656666667","24.9611033333333","6500600","新店區"
"231046","719-UM","2019/12/07 18:29:31","新北市新店區直潭七街60號","121.532306666667","24.939855","6500600","新店區"
"231057","720-UM","2019/12/07 18:29:21","新北市新店區安一路一段1-1號","121.519393333333","24.9612116666667","6500600","新店區"
"231059","897-TW","2019/12/07 18:29:15","新北市新店區安華路28-1號","121.519471666667","24.9605466666667","6500600","新店區"
"231040","898-TW","2019/12/07 18:29:17","新北市新店區安華路28-1號","121.519301666667","24.9608583333333","6500600","新店區"
"231043","899-TW","2019/12/07 18:29:19","新北市新店區安華路28-1號","121.51901","24.9609283333333","6500600","新店區"
"231066","AKT-0513","2019/12/07 18:29:15","新北市新店區安華路1-1號","121.519371666667","24.96053","6500600","新店區"
"235066","003-UY","2019/12/07 18:29:17","新北市中和區中山路二段120號","121.50273","25.003785","6500300","中和區"
"235064","005-UY","2019/12/07 18:29:24","新北市中和區連城路109巷30號","121.497016666667","24.9982683333333","6500300","中和區"
"235063","006-UY","2019/12/07 18:29:23","新北市中和區連城路403巷1號","121.486233333333","24.99591","6500300","中和區"
"235056","096-UM","2019/12/07 18:29:19","新北市中和區員山路611巷1號","121.477878333333","25.0112883333333","6500300","中和區"
"235039","097-UM","2019/12/07 18:29:27","新北市中和區安樂路243巷9-3號","121.513931666667","24.99963","6500300","中和區"
"235065","098-UM","2019/12/07 18:29:20","新北市中和區中山路二段64巷14弄1號","121.503441666667","25.005555","6500300","中和區"
"235040","150-BY","2019/12/07 18:29:14","新北市中和區安平路59號","121.50964","24.9951116666667","6500300","中和區"
"235055","183-VK","2019/12/07 18:29:27","新北市中和區民生街21-3號","121.470931666667","25.0057033333333","6500300","中和區"
"235038","185-VK","2019/12/07 18:29:27","新北市中和區立人街51號","121.520471666667","24.9942316666667","6500300","中和區"
"235067","255-BX","2019/12/07 18:29:12","新北市中和區新生街115號","121.483505","25.0018116666667","6500300","中和區"
"235044","293-VK","2019/12/07 18:29:26","新北市中和區復興路302號","121.501418333333","24.9903116666667","6500300","中和區"
"235072","301-VK","2019/12/07 18:29:27","新北市中和區連城路103號","121.496348333333","24.999545","6500300","中和區"
"235043","352-BY","2019/12/07 18:29:15","新北市中和區景平路263號","121.508401666667","24.9929716666667","6500300","中和區"
"235042","KEA-2878","2019/12/07 18:29:28","新北市中和區成功路92號","121.525755","24.9911216666667","6500300","中和區"
"235050","4979-A6","2019/12/07 18:29:30","新北市中和區景新街362巷10號","121.511915","24.9901433333333","6500300","中和區"
"235069","4980-A6","2019/12/07 18:29:18","新北市中和區連城路103號","121.496401666667","24.9997166666667","6500300","中和區"
"235070","558-UM","2019/12/07 18:29:15","新北市中和區南山路127巷18弄44號","121.503446666667","24.9963383333333","6500300","中和區"
"235045","565-BX","2019/12/07 18:29:12","新北市中和區南山路236巷20弄36號","121.504706666667","24.9897516666667","6500300","中和區"
"235060","KED-0823","2019/12/07 18:29:12","新北市中和區中山路三段33號","121.479098333333","25.0059033333333","6500300","中和區"
"235054","640-BX","2019/12/07 18:29:25","新北市中和區莒光路141號","121.472566666667","25.0014666666667","6500300","中和區"
"235047","732-UM","2019/12/07 18:29:14","新北市中和區南山路509號","121.507993333333","24.9875616666667","6500300","中和區"
"235046","733-UM","2019/12/07 18:29:24","新北市中和區興南路一段83號","121.509926666667","24.989025","6500300","中和區"
"235062","800-TS","2019/12/07 18:29:15","新北市中和區中山路二段312巷14號","121.495303333333","25.0037983333333","6500300","中和區"
"235057","801-TS","2019/12/07 18:29:21","新北市中和區員山路327巷38號","121.480596666667","25.0016833333333","6500300","中和區"
"235041","802-TS","2019/12/07 18:29:29","新北市中和區中和路260-1號","121.508041666667","24.9995333333333","6500300","中和區"
"235052","805-TS","2019/12/07 18:29:15","新北市中和區興南路二段133號","121.505178333333","24.9840866666667","6500300","中和區"
"235048","896-TW","2019/12/07 18:29:11","新北市中和區中正路61號","121.501511666667","24.9934833333333","6500300","中和區"
"235053","900-TW","2019/12/07 18:29:15","新北市中和區民享街462號","121.469713333333","24.9922366666667","6500300","中和區"
"235059","911-UM","2019/12/07 18:29:21","新北市中和區員山路36巷16-3號","121.485071666667","24.9911916666667","6500300","中和區"
"235051","157-BY","2019/12/07 18:29:27","新北市中和區興南路二段114巷10弄12號","121.503971666667","24.9849316666667","6500300","中和區"
"235037","AAC-213","2019/12/07 18:29:14","新北市中和區景德街74號","121.51669","24.991545","6500300","中和區"
"220065","072-UY","2019/12/07 18:29:12","新北市板橋區南雅南路二段80號","121.453653333333","25.0016866666667","6500100","板橋區"
"220086","073-UY","2019/12/07 18:29:21","新北市板橋區華東街1-10號","121.448251666667","24.9950366666667","6500100","板橋區"
"226004","312-R5","2019/12/07 18:29:22","新北市平溪區靜安路二段295號","121.732546666667","25.023165","6502400","平溪區"
"235049","251-BX","2019/12/07 18:29:27","新北市中和區景安路72號","121.505798333333","24.99656","6500300","中和區"
"228003","097-TW","2019/12/07 18:29:27","新北市貢寮區和美里和美街40號","121.912411666667","25.089555","6502600","貢寮區"
"228001","212-TW","2019/12/07 18:29:25","新北市貢寮區仁理村仁和路76號","121.922765","25.0500916666667","6502600","貢寮區"
"228002","663-BX","2019/12/07 18:29:27","新北市貢寮區福連里福連街37號","121.988815","25.0108166666667","6502600","貢寮區"
"224010","AGQ-8101","2019/12/07 18:29:29","新北市瑞芳區烏勢巷121號","121.84637","25.1082316666667","6501200","瑞芳區"
"224006","676-BX","2019/12/07 18:29:22","新北市瑞芳區明燈路三段31-1號","121.808123333333","25.107675","6501200","瑞芳區"
"224007","285-BY","2019/12/07 18:29:18","新北市瑞芳區大埔路有勝二村36號","121.763668333333","25.09954","6501200","瑞芳區"
"224009","275-VK","2019/12/07 18:29:14","新北市瑞芳區五號路215號","121.856068333333","25.1103583333333","6501200","瑞芳區"
"224008","273-VK","2019/12/07 18:29:16","新北市瑞芳區岳王路1巷48號","121.806018333333","25.1105116666667","6501200","瑞芳區"
"224005","271-BY","2019/12/07 18:29:22","新北市瑞芳區深澳路42號","121.81592","25.1281933333333","6501200","瑞芳區"
"227002","642-TC","2019/12/07 18:29:20","新北市雙溪區魚行里坤溪35號","121.870128333333","25.0309733333333","6502500","雙溪區"
"227001","400-TW","2019/12/07 18:29:21","新北市雙溪區牡丹里牡丹139號","121.851231666667","25.0590083333333","6502500","雙溪區"
"253005","032-BX","2019/12/07 18:29:23","新北市石門區老崩山10-3號","121.552778333333","25.2911116666667","6502200","石門區"
"253006","295-VK","2019/12/07 18:29:25","新北市石門區公地20號","121.545763333333","25.2902066666667","6502200","石門區"
"222001","KEA-2212","2019/12/07 18:29:26","新北市深坑區北深路一段199號","121.63042","25.0089966666667","6501800","深坑區"
"208002","KEA-2872","2019/12/07 18:29:21","新北市金山區磺港里磺港路169號","121.642888333333","25.224485","6502700","金山區"
"208003","665-BX","2019/12/07 18:29:21","新北市金山區中山路254號","121.63564","25.2239233333333","6502700","金山區"
"251009","008-UM","2019/12/07 18:29:28","新北市淡水區下圭柔山90-8號","121.431378333333","25.2104","6501000","淡水區"
"251004","009-UM","2019/12/07 18:29:14","新北市淡水區民族路31巷29號","121.462325","25.136445","6501000","淡水區"
"251005","010-UM","2019/12/07 18:29:19","新北市淡水區中正東路35巷9號","121.446248333333","25.1685716666667","6501000","淡水區"
"251015","KEA-2871","2019/12/07 18:29:28","新北市淡水區興福寮88巷216號","121.485903333333","25.1666633333333","6501000","淡水區"
"251016","180-VK","2019/12/07 18:29:19","新北市淡水區下圭柔山115-15號","121.446605","25.2110183333333","6501000","淡水區"
"251008","181-VK","2019/12/07 18:29:22","新北市淡水區水源街二段346巷1弄1號","121.464408333333","25.1755033333333","6501000","淡水區"
"251013","182-VK","2019/12/07 18:29:12","新北市淡水區椿子林19-3號","121.480381666667","25.2030916666667","6501000","淡水區"
"251010","413-VK","2019/12/07 18:29:28","新北市淡水區沙崙路181巷2-2號","121.424203333333","25.1841933333333","6501000","淡水區"
"251012","441-VK","2019/12/07 18:29:15","新北市淡水區北新路一段333號","121.4655","25.1823116666667","6501000","淡水區"
"251001","559-UM","2019/12/07 18:29:24","新北市淡水區自強路357號","121.464166666667","25.1329733333333","6501000","淡水區"
"251006","561-UM","2019/12/07 18:29:25","新北市淡水區新生街51巷26號","121.440653333333","25.1756833333333","6501000","淡水區"
"251014","577-R6","2019/12/07 18:29:18","新北市淡水區南平20號","121.493888333333","25.2166583333333","6501000","淡水區"
"251011","650-BX","2019/12/07 18:29:17","新北市淡水區坪頂路102號","121.462955","25.1630416666667","6501000","淡水區"
"251002","672-BX","2019/12/07 18:29:17","新北市淡水區竿蓁二街61-3號","121.455028333333","25.16329","6501000","淡水區"
"251003","766-UM","2019/12/07 18:29:24","新北市淡水區北新路169巷16號","121.449793333333","25.1801133333333","6501000","淡水區"
"207003","681-TV","2019/12/07 18:29:28","新北市萬里區野柳里港東新村2號","121.686253333333","25.2032933333333","6502800","萬里區"
"207004","291-VK","2019/12/07 18:29:18","新北市萬里區萬里里瑪鋉路21號","121.687423333333","25.1753783333333","6502800","萬里區"
"252003","249-BX","2019/12/07 18:29:23","新北市三芝區後厝里北勢子41-5號","121.472558333333","25.2530766666667","6502100","三芝區"
"252001","292-VK","2019/12/07 18:29:20","新北市三芝區中興街二段2號","121.498358333333","25.256625","6502100","三芝區"
"237007","153-BY","2019/12/07 18:29:29","新北市三峽區中正路三段170巷18號","121.35267","24.9041216666667","6500900","三峽區"
"237009","210-TH","2019/12/07 18:29:29","新北市三峽區大同路243號","121.366813333333","24.9262333333333","6500900","三峽區"
"237013","252-BX","2019/12/07 18:29:17","新北市三峽區光明路69巷25號","121.376575","24.929175","6500900","三峽區"
"237012","275-BY","2019/12/07 18:29:12","新北市三峽區三樹路168巷30號","121.379511666667","24.9405183333333","6500900","三峽區"
"237008","302-VK","2019/12/07 18:29:22","新北市三峽區白雞120號","121.398571666667","24.9054416666667","6500900","三峽區"
"237014","433-BY","2019/12/07 18:29:13","新北市三峽區文化路61號","121.372151666667","24.9360233333333","6500900","三峽區"
"237006","5529-G3","2019/12/07 18:29:24","新北市三峽區溪東路407號","121.412316666667","24.9287166666667","6500900","三峽區"
"237011","KEA-2596","2019/12/07 18:29:18","新北市三峽區溪東路218巷1號","121.40743","24.931595","6500900","三峽區"
"237015","649-BX","2019/12/07 18:29:16","新北市三峽區竹崙路144號","121.435098333333","24.9091033333333","6500900","三峽區"
"237010","706-TV","2019/12/07 18:29:26","新北市三峽區中山路137號","121.365165","24.936105","6500900","三峽區"
"237004","756-BX","2019/12/07 18:29:19","新北市三峽區五寮30-1號","121.374333333333","24.8701516666667","6500900","三峽區"
"237005","AKY-6261","2019/12/07 18:29:32","新北市三峽區民族街5巷68號","121.369951666667","24.932685","6500900","三峽區"
"236042","KED-0685","2019/12/07 18:29:09","新北市土城區裕民路67巷4弄2號","121.449815","24.987935","6501300","土城區"
"236079","166-UM","2019/12/07 18:29:17","新北市土城區中央路四段27巷9號","121.424636666667","24.9620383333333","6501300","土城區"
"236030","253-BX","2019/12/07 18:29:11","新北市土城區福仁街50巷18號","121.439285","24.9755166666667","6501300","土城區"
"236026","269-VK","2019/12/07 18:29:25","新北市土城區南天母路135巷32號","121.448818333333","24.954395","6501300","土城區"
"236038","271-VK","2019/12/07 18:29:27","新北市土城區青雲路449號","121.458926666667","24.9751333333333","6501300","土城區"
"236070","KEA-2877","2019/12/07 18:29:25","新北市土城區永豐路255巷23弄2號","121.475311666667","24.9732333333333","6501300","土城區"
"252002","KED-0821","2019/12/07 18:29:12","新北市三芝區中山路二段38號","121.503008333333","25.2551316666667","6502100","三芝區"
"236021","401-BY","2019/12/07 18:29:17","新北市土城區永豐路202巷14號","121.46621","24.98341","6501300","土城區"
"236014","752-BX","2019/12/07 18:29:22","新北市土城區青雲路39巷7號","121.460268333333","24.98737","6501300","土城區"
"236059","912-UM","2019/12/07 18:29:15","新北市土城區中央路四段128-1號","121.417886666667","24.958665","6501300","土城區"
"236049","913-UM","2019/12/07 18:29:28","新北市土城區青雲路571號","121.459076666667","24.97197","6501300","土城區"
"236063","915-UM","2019/12/07 18:29:17","新北市土城區延壽路77巷6弄12號","121.468445","24.99301","6501300","土城區"
"236055","AAC-216","2019/12/07 18:29:15","新北市土城區中華路一段247號","121.440881666667","24.9816516666667","6501300","土城區"
"242061","986-R7","2019/12/07 18:29:22","新北市新莊區富國路176巷1號","121.424195","25.02439","6500500","新莊區"
"242027","613-BX","2019/12/07 18:29:26","新北市新莊區幸福路823號","121.445276666667","25.0490066666667","6500500","新莊區"
"242058","612-BX","2019/12/07 18:29:22","桃園市龜山區萬壽路一段78號","121.408226666667","25.01916","6500500","新莊區"
"242039","497-BY","2019/12/07 18:29:29","新北市新莊區民安東路25號","121.428316666667","25.0210066666667","6500500","新莊區"
"242042","442-UM","2019/12/07 18:29:19","新北市新莊區壽山路41號","121.415031666667","25.0304516666667","6500500","新莊區"
"242044","415-TV","2019/12/07 18:29:18","新北市新莊區鳳山街56巷35號","121.413675","25.02672","6500500","新莊區"
"242051","400-BY","2019/12/07 18:29:13","新北市新莊區民安東路45號","121.429215","25.0208966666667","6500500","新莊區"
"242025","362-BY","2019/12/07 18:29:14","新北市新莊區五權一路12巷21弄1號","121.457458333333","25.0645383333333","6500500","新莊區"
"242056","172-VK","2019/12/07 18:29:24","新北市新莊區中環路一段16號","121.44262","25.0263683333333","6500500","新莊區"
"242053","176-VK","2019/12/07 18:29:16","新北市新莊區新樹路701號","121.432106666667","25.0022666666667","6500500","新莊區"
"242021","KED-0687","2019/12/07 18:29:27","新北市新莊區中正路170號","121.450761666667","25.035885","6500500","新莊區"
"242002","347-TH","2019/12/07 18:29:16","新北市新莊區瓊林路21-1號","121.445795","25.028725","6500500","新莊區"
"242009","349-TH","2019/12/07 18:29:20","新北市新莊區昌盛街15號","121.45329","25.0500683333333","6500500","新莊區"
"238023","601-UM","2019/12/07 18:29:18","新北市樹林區三福街114號","121.406425","25.016345","6500700","樹林區"
"238019","599-UM","2019/12/07 18:29:20","新北市樹林區國凱街136巷26號","121.423675","24.9795766666667","6500700","樹林區"
"238024","5061-A6","2019/12/07 18:29:32","新北市樹林區育英街2巷24號","121.423246666667","24.9897483333333","6500700","樹林區"
"238018","KEA-2217","2019/12/07 18:29:28","新北市樹林區樹新路50巷5弄3-3號","121.429318333333","24.9966183333333","6500700","樹林區"
"238017","283-BY","2019/12/07 18:29:22","新北市樹林區光榮街79號","121.412128333333","25.0030016666667","6500700","樹林區"
"238014","282-BY","2019/12/07 18:29:28","新北市樹林區大安路111巷25號","121.423181666667","24.9975966666667","6500700","樹林區"
"238020","268-VK","2019/12/07 18:29:15","新北市樹林區三龍街14巷2號","121.41024","25.0180433333333","6500700","樹林區"
"238026","172-UY","2019/12/07 18:29:24","新北市樹林區佳園路一段75巷14弄6號","121.395391666667","24.9701233333333","6500700","樹林區"
"239007","AAC-297","2019/12/07 18:29:23","新北市鶯歌區建國路130號","121.351566666667","24.9540233333333","6500800","鶯歌區"
"239006","891-R6","2019/12/07 18:29:16","新北市鶯歌區鶯桃路242巷8號","121.336486666667","24.95983","6500800","鶯歌區"
"239008","527-UM","2019/12/07 18:29:11","新北市鶯歌區朝陽街1號","121.3363","24.9765816666667","6500800","鶯歌區"
"239005","526-UM","2019/12/07 18:29:24","新北市鶯歌區鶯桃路668巷73號","121.329956666667","24.971815","6500800","鶯歌區"
"239001","417-VK","2019/12/07 18:29:26","新北市鶯歌區國中街87號","121.341948333333","24.94179","6500800","鶯歌區"
"239003","360-BY","2019/12/07 18:29:24","新北市鶯歌區福安街58號","121.335578333333","24.9651716666667","6500800","鶯歌區"
"239002","359-BY","2019/12/07 18:29:22","新北市鶯歌區中正一路285號","121.355653333333","24.957125","6500800","鶯歌區"
"239004","193-VK","2019/12/07 18:29:27","新北市鶯歌區尖山路166巷46號","121.344856666667","24.9493483333333","6500800","鶯歌區"
"221036","130-UY","2019/12/07 18:29:11","新北市汐止區大同路三段143號","121.669343333333","25.07772","6501100","汐止區"
"221015","131-UY","2019/12/07 18:29:25","新北市汐止區鄉長路二段23巷5號","121.667361666667","25.0825666666667","6501100","汐止區"
"244019","KED-0667","2019/12/07 18:29:26","新北市林口區忠孝路603號","121.378366666667","25.0684316666667","6501700","林口區"
"221010","269-BY","2019/12/07 18:29:15","新北市汐止區汐萬路35號","121.644193333333","25.0915616666667","6501100","汐止區"
"221018","277-VK","2019/12/07 18:29:12","新北市汐止區茄苳路120巷3弄1號","121.667735","25.06992","6501100","汐止區"
"221012","278-VK","2019/12/07 18:29:22","新北市汐止區保長路35巷11號","121.673115","25.0798966666667","6501100","汐止區"
"221023","279-VK","2019/12/07 18:29:18","新北市汐止區康寧街474巷7-2號","121.63224","25.0679033333333","6501100","汐止區"
"221027","281-BY","2019/12/07 18:29:29","新北市汐止區和平街84號","121.661458333333","25.0707833333333","6501100","汐止區"
"221021","299-VK","2019/12/07 18:29:24","新北市汐止區連興街120號","121.653736666667","25.0624633333333","6501100","汐止區"
"221029","645-BX","2019/12/07 18:29:15","新北市汐止區樟樹二路344-1號","121.641473333333","25.07078","6501100","汐止區"
"221032","567-BX","2019/12/07 18:29:13","新北市汐止區橫科路73巷1號","121.619131666667","25.05067","6501100","汐止區"
"221035","622-UM","2019/12/07 18:29:19","新北市汐止區大同路二段189號","121.652248333333","25.0643883333333","6501100","汐止區"
"221025","623-UM","2019/12/07 18:29:29","新北市汐止區仁愛路121巷1號","121.662771666667","25.0638466666667","6501100","汐止區"
"221038","646-BX","2019/12/07 18:29:30","新北市汐止區忠孝東路206號","121.661798333333","25.06629","6501100","汐止區"
"221033","647-BX","2019/12/07 18:29:18","新北市汐止區宜興街35巷2號","121.622395","25.0423266666667","6501100","汐止區"
"221002","707-TV","2019/12/07 18:29:29","新北市汐止區福德一路150號","121.636608333333","25.0667966666667","6501100","汐止區"
"220082","610-BX","2019/12/07 18:29:29","新北市板橋區華東街1-10號","121.448253333333","24.9949483333333","6500100","板橋區"
"224002","257-TC","2019/12/07 18:29:18","新北市瑞芳區正貿新村16號","121.813486666667","25.1059133333333","6501200","瑞芳區"
"220056","276-BY","2019/12/07 18:29:20","新北市板橋區南雅南路二段140號","121.451793333333","24.9962683333333","6500100","板橋區"
"220081","287-VK","2019/12/07 18:29:24","新北市板橋區華東街1-10號","121.448276666667","24.9950133333333","6500100","板橋區"
"220084","296-UM","2019/12/07 18:29:22","新北市板橋區華東街1-9號","121.448163333333","24.99495","6500100","板橋區"
"242046","281-VK","2019/12/07 18:29:15","新北市新莊區中正路803巷24號","121.421656666667","25.0280016666667","6500500","新莊區"
"242011","280-VK","2019/12/07 18:29:24","新北市新莊區中港路615巷21弄1號","121.45006","25.0531983333333","6500500","新莊區"
"220035","560-BX","2019/12/07 18:29:11","新北市板橋區南雅南路二段40號","121.45406","25.0025766666667","6500100","板橋區"
"220083","568-UM","2019/12/07 18:29:27","新北市板橋區華東街1-10號","121.448343333333","24.9950716666667","6500100","板橋區"
"220057","686-BX","2019/12/07 18:29:29","新北市板橋區華東街1-10號","121.44855","24.99494","6500100","板橋區"
"220055","827-TW","2019/12/07 18:29:18","新北市板橋區華東街1-9號","121.448155","24.9948916666667","6500100","板橋區"
"220068","830-TW","2019/12/07 18:29:19","新北市板橋區民生路二段89-6號","121.470693333333","25.0193616666667","6500100","板橋區"
"220074","895-R6","2019/12/07 18:29:28","新北市板橋區華東街1-10號","121.448576666667","24.9948816666667","6500100","板橋區"
"220073","985-R7","2019/12/07 18:29:27","新北市板橋區四川路二段140巷8號","121.4496","24.99321","6500100","板橋區"
"220064","AAC-253","2019/12/07 18:29:11","新北市板橋區南雅南路一段1巷42號","121.457561666667","25.0064133333333","6500100","板橋區"
"235061","KEA-2875","2019/12/07 18:29:29","新北市中和區民享街114巷27號","121.473423333333","24.9995216666667","6500300","中和區"
"235068","KEA-2876","2019/12/07 18:29:05","新北市中和區圓通路287號","121.495215","24.9929066666667","6500300","中和區"
