"lineid","car","time","location","longitude","latitude","cityid","cityname"
"251009","008-UM","2019/12/07 21:43:25","新北市淡水區民族路35巷42號","121.465328333333","25.1370983333333","6501000","淡水區"
"251004","009-UM","2019/12/07 21:43:25","新北市淡水區民權路88-2號","121.459008333333","25.1331283333333","6501000","淡水區"
"251005","010-UM","2019/12/07 21:43:19","新北市淡水區鄧公路19-1號","121.45026","25.1699566666667","6501000","淡水區"
"251015","KEA-2871","2019/12/07 21:43:18","新北市淡水區下圭柔山90-8號","121.431145","25.2115116666667","6501000","淡水區"
"251016","180-VK","2019/12/07 21:43:19","新北市淡水區下圭柔山80號","121.43787","25.2047633333333","6501000","淡水區"
"251008","181-VK","2019/12/07 21:43:16","新北市淡水區水源街二段62號","121.451011666667","25.1740566666667","6501000","淡水區"
"251010","413-VK","2019/12/07 21:43:27","新北市淡水區沙崙路300號","121.427511666667","25.1874216666667","6501000","淡水區"
"251012","441-VK","2019/12/07 21:43:14","新北市淡水區興仁路159號","121.450213333333","25.2195166666667","6501000","淡水區"
"251007","442-VK","2019/12/07 21:43:13","新北市淡水區水源街二段177巷30號","121.453741666667","25.1767","6501000","淡水區"
"251001","559-UM","2019/12/07 21:43:23","新北市淡水區新市二路三段152號","121.435325","25.1942866666667","6501000","淡水區"
"251006","561-UM","2019/12/07 21:43:29","新北市淡水區中正路11巷22號","121.438313333333","25.1705666666667","6501000","淡水區"
"251014","577-R6","2019/12/07 21:43:18","新北市淡水區淡金路三段431-5號","121.448981666667","25.210545","6501000","淡水區"
"251011","650-BX","2019/12/07 21:43:27","新北市淡水區新民街298-1號","121.435055","25.1826766666667","6501000","淡水區"
"251002","672-BX","2019/12/07 21:43:17","新北市淡水區學府路188號","121.446646666667","25.1759966666667","6501000","淡水區"
"251003","766-UM","2019/12/07 21:43:24","新北市淡水區新民街278號","121.43535","25.1816983333333","6501000","淡水區"
