"lineid","car","time","location","longitude","latitude","cityid","cityname"
"231007","189-VK","2019/10/19 10:19:30","新北市新店區新潭路二段2號","121.527935","24.9270583333333","6500600","新店區"
"231008","192-VK","2019/10/19 10:19:22","新北市新店區松林路81號","121.54528","24.90487","6500600","新店區"
"235009","551-UM","2019/10/19 09:53:42","新北市中和區員山路36巷16-2號","121.485338333333","24.99172","6500300","中和區"
"227004","282-VK","2019/10/19 10:19:24","新北市雙溪區長源里柑腳31號","121.804248333333","25.0138716666667","6502500","雙溪區"
"252006","AAC-283","2019/10/19 10:19:26","新北市三芝區新庄里番社后24-1號","121.500715","25.2723566666667","6502100","三芝區"
