"lineid","car","time","location","longitude","latitude","cityid","cityname"
"234044","148-BY","2019/10/19 12:59:20","新北市永和區得和路373巷16弄1號","121.525145","25.000255","6500400","永和區"
"234078","298-R6","2019/10/19 12:59:14","新北市永和區永亨路70號","121.521111666667","25.00598","6500400","永和區"
"234036","336-UY","2019/10/19 12:59:20","新北市永和區成功路二段207號","121.526603333333","24.99594","6500400","永和區"
"234062","337-UY","2019/10/19 12:59:11","新北市永和區秀朗路一段154號","121.518296666667","25.00336","6500400","永和區"
"234084","338-UY","2019/10/19 12:59:11","新北市永和區永利路18號","121.518043333333","25.0058183333333","6500400","永和區"
"234068","552-UM","2019/10/19 12:59:26","新北市永和區中興街100號","121.519093333333","25.01211","6500400","永和區"
"234015","745-BX","2019/10/19 12:59:18","新北市永和區永和路二段310號","121.516186666667","25.0161233333333","6500400","永和區"
"234028","746-BX","2019/10/19 12:59:28","新北市永和區四維街40號","121.525345","24.9980516666667","6500400","永和區"
"234052","KEA-2590","2019/10/19 12:59:10","新北市永和區竹林路64號","121.518251666667","25.0134966666667","6500400","永和區"
"234005","KED-0605","2019/10/19 12:59:20","新北市永和區中山路一段23號","121.513655","25.010455","6500400","永和區"
"234012","KEA-2591","2019/10/19 12:59:17","新北市永和區信義路19號","121.514125","25.0119866666667","6500400","永和區"
"234060","AAD-866","2019/10/19 12:59:22","新北市永和區福和路303號","121.516373333333","25.0072066666667","6500400","永和區"
"234040","862-TW","2019/10/19 12:59:13","新北市永和區永貞路265號","121.51178","25.0046016666667","6500400","永和區"
"234048","863-TW","2019/10/19 12:59:12","新北市永和區文化路147號","121.510791666667","25.01618","6500400","永和區"
"234025","9371-KE","2019/10/19 12:59:11","新北市永和區永和路一段13號","121.51299","25.0055033333333","6500400","永和區"
"234010","9373-KE","2019/10/19 12:59:25","新北市永和區文化路113巷21弄21號","121.513696666667","25.0142","6500400","永和區"
"248017","KED-0813","2019/10/19 12:59:15","新北市五股區中興路二段63巷17號","121.460221666667","25.075315","6501500","五股區"
"234022","9380-KE","2019/10/19 12:59:11","新北市永和區竹林路75巷25弄3號","121.520138333333","25.0141533333333","6500400","永和區"
"234076","969-R7","2019/10/19 12:59:12","新北市永和區民享街3號","121.515113333333","24.995565","6500400","永和區"
"234066","AAC-212","2019/10/19 12:59:16","新北市永和區自由街58號","121.513938333333","25.0060766666667","6500400","永和區"
"234001","AAC-295","2019/10/19 12:59:23","新北市永和區永和路一段111巷6弄20號","121.513408333333","25.00834","6500400","永和區"
"231030","002-UM","2019/10/19 12:59:17","新北市新店區安華路28-1號","121.519568333333","24.9606183333333","6500600","新店區"
"231005","046-UY","2019/10/19 12:59:29","新北市新店區安華路28-1號","121.519151666667","24.9605916666667","6500600","新店區"
"231029","106-UY","2019/10/19 12:59:15","新北市新店區安華路28-1號","121.519678333333","24.9608316666667","6500600","新店區"
"231036","110-UY","2019/10/19 12:59:25","新北市新店區安一路一段1-1號","121.519075","24.9612283333333","6500600","新店區"
"231023","260-TV","2019/10/19 12:59:18","新北市新店區安一路一段1-1號","121.518968333333","24.961365","6500600","新店區"
"231003","268-BY","2019/10/19 12:59:25","新北市新店區安一路一段1-1號","121.519728333333","24.96137","6500600","新店區"
"231035","278-BY","2019/10/19 12:59:31","新北市新店區安一路一段1-1號","121.519883333333","24.9611016666667","6500600","新店區"
"231017","AAD-862","2019/10/19 12:59:24","新北市新店區安一路一段1-1號","121.519666666667","24.9612216666667","6500600","新店區"
"231006","355-BY","2019/10/19 12:59:22","新北市新店區安華路28-1號","121.519136666667","24.960765","6500600","新店區"
"231025","4715-K9","2019/10/19 12:59:19","新北市新店區安華路28-1號","121.519326666667","24.96074","6500600","新店區"
"231034","641-BX","2019/10/19 12:59:22","新北市新店區安華路1-1號","121.5196","24.9605016666667","6500600","新店區"
"231012","KED-0819","2019/10/19 12:59:19","新北市新店區安一路一段1-1號","121.519796666667","24.961215","6500600","新店區"
"231010","719-UM","2019/10/19 12:59:25","新北市新店區安一路一段1-1號","121.519361666667","24.9612416666667","6500600","新店區"
"231026","720-UM","2019/10/19 12:57:42","新北市新店區安一路一段1-1號","121.519325","24.96103","6500600","新店區"
"231028","897-TW","2019/10/19 12:59:10","新北市新店區安華路28-1號","121.51958","24.96071","6500600","新店區"
"231001","898-TW","2019/10/19 12:59:18","新北市新店區安華路28-1號","121.519436666667","24.9608883333333","6500600","新店區"
"235030","003-UY","2019/10/19 12:59:24","新北市中和區員山路36巷16-3號","121.485046666667","24.99114","6500300","中和區"
"235027","006-UY","2019/10/19 12:59:21","新北市中和區員山路36巷16-3號","121.485001666667","24.990995","6500300","中和區"
"235029","098-UM","2019/10/19 12:59:28","新北市中和區福祥路126號","121.498843333333","25.00672","6500300","中和區"
"235004","150-BY","2019/10/19 12:59:08","新北市中和區和城路一段271巷1號","121.485588333333","24.9917983333333","6500300","中和區"
"235022","151-BY","2019/10/19 12:59:22","新北市中和區圓通路367巷33弄12號","121.494093333333","24.9849016666667","6500300","中和區"
"235002","185-VK","2019/10/19 12:59:12","新北市中和區成功路9號","121.526336666667","24.993975","6500300","中和區"
"235031","255-BX","2019/10/19 12:59:22","新北市中和區中正路881號","121.484333333333","25.0041833333333","6500300","中和區"
"235009","551-UM","2019/10/19 12:59:11","新北市中和區員山路36巷13號","121.484165","24.99099","6500300","中和區"
"235034","558-UM","2019/10/19 12:59:19","新北市中和區員山路36巷16-2號","121.485221666667","24.99156","6500300","中和區"
"235017","900-TW","2019/10/19 12:59:25","新北市中和區員山路36巷16-2號","121.485225","24.9913266666667","6500300","中和區"
"235028","911-UM","2019/10/19 12:59:25","新北市中和區錦和路350-1號","121.490493333333","24.9935633333333","6500300","中和區"
"235015","157-BY","2019/10/19 12:59:30","新北市中和區員山路36巷16-3號","121.485075","24.99155","6500300","中和區"
"235001","AAC-213","2019/10/19 12:59:07","新北市中和區景平路149號","121.51384","24.99217","6500300","中和區"
"228005","097-TW","2019/10/19 12:59:22","新北市貢寮區福隆里東興街29-1號","121.949731666667","25.018095","6502600","貢寮區"
"228004","212-TW","2019/10/19 12:59:07","新北市萬里區雙興里豐稟路20-2號","121.889676666667","24.9941733333333","6502600","貢寮區"
"207002","749-BX","2019/10/19 12:59:19","新北市萬里區雙興里大坪路27號","121.63524","25.1685416666667","6502800","萬里區"
"207001","662-BX","2019/10/19 12:59:21","新北市萬里區萬里里獅頭路22-1號","121.693028333333","25.1781083333333","6502800","萬里區"
"252005","AAC-283","2019/10/19 12:59:26","新北市三芝區埔坪里埔頭坑41號","121.50466","25.26356","6502100","三芝區"
"221038","646-BX","2019/10/19 12:59:26","新北市汐止區仁愛路1號","121.658761666667","25.0644766666667","6501100","汐止區"
"235032","KEA-2873","2019/10/19 12:59:11","新北市中和區員山路36巷16-3號","121.485111666667","24.9913216666667","6500300","中和區"
"235025","KEA-2875","2019/10/19 12:59:26","新北市中和區員山路36巷16-2號","121.485245","24.9916466666667","6500300","中和區"
"235073","KEA-2876","2019/10/19 12:59:03","新北市中和區錦和路113號","121.490301666667","24.99491","6500300","中和區"
