"lineid","car","time","location","longitude","latitude","cityid","cityname"
"234044","148-BY","2019/10/19 13:09:40","新北市永和區永元路18巷31號","121.523751666667","25.00028","6500400","永和區"
"234078","298-R6","2019/10/19 13:09:53","新北市永和區永貞路39巷13號","121.522535","25.0064766666667","6500400","永和區"
"234036","336-UY","2019/10/19 13:09:39","新北市永和區民樂街73巷1號","121.527376666667","24.99731","6500400","永和區"
"234062","337-UY","2019/10/19 13:09:50","新北市永和區秀朗路二段45號","121.521625","25.0023133333333","6500400","永和區"
"234084","338-UY","2019/10/19 13:09:51","新北市永和區永貞路47-1號","121.519578333333","25.00456","6500400","永和區"
"234068","552-UM","2019/10/19 13:09:46","新北市永和區豫溪街57巷22號","121.517101666667","25.0108433333333","6500400","永和區"
"234015","745-BX","2019/10/19 13:09:59","新北市永和區文化路90巷15號","121.513766666667","25.0161383333333","6500400","永和區"
"234028","746-BX","2019/10/19 13:09:48","新北市永和區民生路23號","121.522898333333","24.9988183333333","6500400","永和區"
"234052","KEA-2590","2019/10/19 13:09:50","新北市永和區竹林路72巷2號","121.519223333333","25.012945","6500400","永和區"
"234005","KED-0605","2019/10/19 13:09:51","新北市永和區中山路一段174號","121.509171666667","25.0090166666667","6500400","永和區"
"234012","KEA-2591","2019/10/19 13:09:57","新北市永和區保福路二段48號","121.510986666667","25.01207","6500400","永和區"
"234060","AAD-866","2019/10/19 13:09:41","新北市永和區安樂路336號","121.514353333333","25.0059583333333","6500400","永和區"
"234040","862-TW","2019/10/19 13:09:53","新北市永和區永貞路336-1號","121.511263333333","25.0057383333333","6500400","永和區"
"234048","863-TW","2019/10/19 13:09:52","新北市永和區仁愛路104巷7弄23號","121.510968333333","25.0140833333333","6500400","永和區"
"234025","9371-KE","2019/10/19 13:09:51","新北市永和區自由街33號","121.514358333333","25.0063366666667","6500400","永和區"
"234010","9373-KE","2019/10/19 13:09:39","新北市永和區文化路113巷26號","121.512936666667","25.0141883333333","6500400","永和區"
"248017","KED-0813","2019/10/19 13:09:55","新北市五股區成泰路三段101-1號","121.444185","25.0902583333333","6501500","五股區"
"234022","9380-KE","2019/10/19 13:09:59","新北市永和區中興街10巷23號","121.516041666667","25.0111333333333","6500400","永和區"
"234076","969-R7","2019/10/19 13:09:58","新北市永和區民光街1號","121.515225","24.9964583333333","6500400","永和區"
"234072","AAC-211","2019/10/19 13:09:53","新北市永和區竹林路222號","121.520731666667","25.0081016666667","6500400","永和區"
"234066","AAC-212","2019/10/19 13:09:56","新北市永和區保平路18巷3號","121.512288333333","25.0077666666667","6500400","永和區"
"234001","AAC-295","2019/10/19 13:09:43","新北市永和區和平街4號","121.51416","25.0098966666667","6500400","永和區"
"231030","002-UM","2019/10/19 13:09:56","新北市新店區安華路28-1號","121.519491666667","24.96067","6500600","新店區"
"231005","046-UY","2019/10/19 13:09:49","新北市新店區安華路28-1號","121.519156666667","24.9607333333333","6500600","新店區"
"231029","106-UY","2019/10/19 13:09:55","新北市新店區安華路28-1號","121.519898333333","24.9608383333333","6500600","新店區"
"231036","110-UY","2019/10/19 13:09:45","新北市新店區安康路二段393號","121.494318333333","24.9539266666667","6500600","新店區"
"231033","256-BX","2019/10/19 13:09:58","新北市新店區安一路一段1-1號","121.519815","24.9611766666667","6500600","新店區"
"231023","260-TV","2019/10/19 13:09:58","新北市新店區安一路一段1-1號","121.519071666667","24.9612833333333","6500600","新店區"
"231003","268-BY","2019/10/19 13:09:45","新北市新店區安一路一段1-1號","121.519675","24.9613933333333","6500600","新店區"
"231035","278-BY","2019/10/19 13:09:51","新北市新店區安華路28-1號","121.52001","24.96109","6500600","新店區"
"231017","AAD-862","2019/10/19 13:09:44","新北市新店區安華路28-1號","121.519496666667","24.9610183333333","6500600","新店區"
"231006","355-BY","2019/10/19 13:09:41","新北市新店區安華路28-1號","121.519156666667","24.9608416666667","6500600","新店區"
"231027","3713-VJ","2019/10/19 13:09:40","新北市新店區安華路28-1號","121.51902","24.9607366666667","6500600","新店區"
"231024","4716-K9","2019/10/19 13:09:42","新北市新店區安華路28-1號","121.519668333333","24.96065","6500600","新店區"
"231025","4715-K9","2019/10/19 13:09:59","新北市新店區安一路一段1-1號","121.519668333333","24.961525","6500600","新店區"
"231034","641-BX","2019/10/19 13:09:42","新北市新店區安華路28-1號","121.519608333333","24.9605166666667","6500600","新店區"
"231012","KED-0819","2019/10/19 13:09:59","新北市新店區安一路一段1-1號","121.520023333333","24.961185","6500600","新店區"
"231010","719-UM","2019/10/19 13:09:44","新北市新店區安一路一段1-1號","121.519441666667","24.9612466666667","6500600","新店區"
"231026","720-UM","2019/10/19 13:09:42","新北市新店區安康路一段359-27號","121.51686","24.9616266666667","6500600","新店區"
"231028","897-TW","2019/10/19 13:09:50","新北市新店區安華路28-1號","121.519421666667","24.9606016666667","6500600","新店區"
"231001","898-TW","2019/10/19 13:09:58","新北市新店區安一路一段1-1號","121.519675","24.9610783333333","6500600","新店區"
"231004","899-TW","2019/10/19 13:09:41","新北市新店區安華路28-1號","121.518965","24.9608333333333","6500600","新店區"
"231037","AKT-0513","2019/10/19 13:09:51","新北市新店區安華路28-1號","121.519363333333","24.9606166666667","6500600","新店區"
"241002","060-VK","2019/10/19 13:09:57","新北市三重區重安街51號","121.491788333333","25.0564983333333","6500200","三重區"
"235030","003-UY","2019/10/19 13:09:59","新北市中和區建康路200號","121.491413333333","25.000035","6500300","中和區"
"235027","006-UY","2019/10/19 13:09:41","新北市中和區員山路36巷16-3號","121.485208333333","24.99128","6500300","中和區"
"235003","097-UM","2019/10/19 13:09:42","新北市中和區中正路637巷52弄1號","121.485596666667","24.9935883333333","6500300","中和區"
"235029","098-UM","2019/10/19 13:09:53","新北市中和區莊敬路49巷20弄20號","121.502701666667","25.0058766666667","6500300","中和區"
"235004","150-BY","2019/10/19 13:09:48","新北市中和區錦和路350-1號","121.490453333333","24.9935033333333","6500300","中和區"
"235022","151-BY","2019/10/19 13:09:42","新北市中和區圓通路367巷65號","121.493068333333","24.9825716666667","6500300","中和區"
"235019","183-VK","2019/10/19 13:09:42","新北市中和區員山路36巷16-3號","121.484973333333","24.991315","6500300","中和區"
"235002","185-VK","2019/10/19 13:09:52","新北市中和區大仁街21號","121.517753333333","24.9932216666667","6500300","中和區"
"235031","255-BX","2019/10/19 13:09:53","新北市中和區新生街136號","121.483595","25.0009516666667","6500300","中和區"
"235036","301-VK","2019/10/19 13:09:41","新北市中和區中正路589巷3號","121.485858333333","24.9942433333333","6500300","中和區"
"235007","352-BY","2019/10/19 13:09:47","新北市中和區中正路273號","121.495585","24.9937583333333","6500300","中和區"
"235006","KEA-2878","2019/10/19 13:09:56","新北市中和區中正路266-1號","121.495408333333","24.993985","6500300","中和區"
"235033","4980-A6","2019/10/19 13:09:45","新北市中和區錦和路350-1號","121.490538333333","24.993545","6500300","中和區"
"235009","551-UM","2019/10/19 13:09:51","新北市中和區復興路300號","121.501473333333","24.9903416666667","6500300","中和區"
"235034","558-UM","2019/10/19 13:09:59","新北市中和區圓通路176-1號","121.49717","24.994505","6500300","中和區"
"235024","KED-0823","2019/10/19 13:09:48","新北市中和區員山路111號","121.480858333333","24.994775","6500300","中和區"
"235011","732-UM","2019/10/19 13:09:53","新北市中和區中正路589巷15號","121.485851666667","24.9938266666667","6500300","中和區"
"235021","801-TS","2019/10/19 13:09:51","新北市中和區民享街97巷17號","121.475455","24.999615","6500300","中和區"
"235005","802-TS","2019/10/19 13:09:43","新北市中和區中正路637巷60弄61號","121.485521666667","24.9930283333333","6500300","中和區"
"235016","805-TS","2019/10/19 13:09:57","新北市中和區中正路19號","121.50285","24.9933766666667","6500300","中和區"
"235012","896-TW","2019/10/19 13:09:52","新北市中和區員山路36巷16-2號","121.485273333333","24.9915333333333","6500300","中和區"
"235017","900-TW","2019/10/19 13:09:45","新北市中和區員山路36巷16-2號","121.48521","24.9913683333333","6500300","中和區"
"235028","911-UM","2019/10/19 13:09:45","新北市中和區中正路161巷8號","121.49874","24.9934266666667","6500300","中和區"
"235015","157-BY","2019/10/19 13:09:50","新北市中和區捷運路135號","121.506943333333","24.9909533333333","6500300","中和區"
"235001","AAC-213","2019/10/19 13:09:47","新北市中和區景德街88號","121.516225","24.9914933333333","6500300","中和區"
"235023","AAC-215","2019/10/19 13:09:41","新北市中和區員山路36巷16-3號","121.485166666667","24.9913216666667","6500300","中和區"
"247013","056-VK","2019/10/19 13:09:53","新北市五股區中興路三段163號","121.449065","25.080915","6501400","蘆洲區"
"228005","097-TW","2019/10/19 13:09:51","新北市貢寮區仁理村仁和路19號","121.923188333333","25.0537066666667","6502600","貢寮區"
"228004","212-TW","2019/10/19 13:09:47","新北市貢寮區吉林里內寮街75號","121.891215","24.9717416666667","6502600","貢寮區"
"253003","6232-TK","2019/10/19 13:09:39","新北市石門區石崩山6號","121.564818333333","25.2821883333333","6502200","石門區"
"253002","637-UY","2019/10/19 13:09:07","新北市石門區老崩山31號","121.557685","25.2769066666667","6502200","石門區"
"253001","KEC-0718","2019/10/19 13:09:48","新北市石門區楓林6-1號","121.537725","25.296155","6502200","石門區"
"207002","749-BX","2019/10/19 13:09:39","新北市萬里區崁腳里崁腳路166號","121.64505","25.1558683333333","6502800","萬里區"
"207001","662-BX","2019/10/19 13:09:41","新北市萬里區萬里里瑪鋉路240號","121.689068333333","25.1804666666667","6502800","萬里區"
"252005","AAC-283","2019/10/19 13:09:46","新北市三芝區八賢里八連溪5號","121.509761666667","25.2459466666667","6502100","三芝區"
"221038","646-BX","2019/10/19 13:09:45","新北市汐止區仁愛路147號","121.663588333333","25.06459","6501100","汐止區"
"220021","985-R7","2019/10/19 13:09:45","新北市板橋區華東街1-10號","121.44832","24.9949866666667","6500100","板橋區"
"235032","KEA-2873","2019/10/19 13:09:41","新北市中和區員山路36巷16-3號","121.485063333333","24.9913366666667","6500300","中和區"
"235025","KEA-2875","2019/10/19 13:09:56","新北市中和區國光街215巷24弄6號","121.466606666667","25.0001333333333","6500300","中和區"
"235073","KEA-2876","2019/10/19 13:09:33","新北市中和區景平路999巷2號","121.49539","25.00599","6500300","中和區"
