"lineid","car","time","location","longitude","latitude","cityid","cityname"
"234044","148-BY","2019/10/19 13:49:20","新北市永和區永利路135號","121.524153333333","25.003325","6500400","永和區"
"234001","209-UY","2019/10/19 13:49:27","新北市永和區保生路55號","121.504615","25.0107883333333","6500400","永和區"
"234078","298-R6","2019/10/19 13:49:13","新北市永和區永亨路110號","121.52365","25.0044933333333","6500400","永和區"
"234036","336-UY","2019/10/19 13:49:20","新北市永和區民樂街39巷18弄44號","121.528433333333","24.9988866666667","6500400","永和區"
"234062","337-UY","2019/10/19 13:49:10","新北市永和區中正路412巷2號","121.517675","25.0019866666667","6500400","永和區"
"234084","338-UY","2019/10/19 13:49:11","新北市永和區永利路6-1號","121.517571666667","25.0059816666667","6500400","永和區"
"234068","552-UM","2019/10/19 13:49:26","新北市永和區竹林路88號","121.519456666667","25.0125566666667","6500400","永和區"
"234015","745-BX","2019/10/19 13:49:18","新北市永和區文化路9巷2號","121.515293333333","25.0148833333333","6500400","永和區"
"234028","746-BX","2019/10/19 13:49:28","新北市永和區四維街89巷2弄3號","121.52426","24.9976833333333","6500400","永和區"
"234052","KEA-2590","2019/10/19 13:49:16","新北市永和區竹林路39巷28弄8號","121.519426666667","25.0145916666667","6500400","永和區"
"234005","KED-0605","2019/10/19 13:49:11","新北市中和區中和路472號","121.512353333333","25.0041","6500400","永和區"
"234012","KEA-2591","2019/10/19 13:49:17","新北市永和區永平路282號","121.507725","25.011885","6500400","永和區"
"234060","AAD-866","2019/10/19 13:49:21","新北市永和區中正路285號","121.517353333333","25.0011983333333","6500400","永和區"
"234040","862-TW","2019/10/19 13:49:13","新北市永和區中和路389巷2-1號","121.50841","25.0004583333333","6500400","永和區"
"234048","863-TW","2019/10/19 13:49:12","新北市永和區保安路144號","121.50858","25.014915","6500400","永和區"
"234010","9373-KE","2019/10/19 13:49:19","新北市永和區保生路55號","121.504801666667","25.01029","6500400","永和區"
"248017","KED-0813","2019/10/19 13:49:15","新北市五股區民義路一段328巷12號","121.422673333333","25.0978183333333","6501500","五股區"
"234022","9380-KE","2019/10/19 13:49:11","新北市永和區中正路653號","121.51503","25.0101433333333","6500400","永和區"
"234076","969-R7","2019/10/19 13:49:26","新北市永和區民權路36巷17號","121.519038333333","24.998995","6500400","永和區"
"234072","AAC-211","2019/10/19 13:49:13","新北市永和區豫溪街189巷1號","121.522586666667","25.010275","6500400","永和區"
"234066","AAC-212","2019/10/19 13:49:16","新北市永和區保平路236巷24弄1號","121.508055","25.00692","6500400","永和區"
"234001","AAC-295","2019/10/19 13:49:23","新北市永和區自強街2號","121.514076666667","25.0080566666667","6500400","永和區"
"231030","002-UM","2019/10/19 13:49:17","新北市新店區安康路一段48號","121.530441666667","24.961075","6500600","新店區"
"231005","046-UY","2019/10/19 13:49:29","新北市新店區寶中路123號","121.549683333333","24.9793766666667","6500600","新店區"
"231029","106-UY","2019/10/19 13:49:15","新北市新店區安康路二段156號","121.512361666667","24.9608566666667","6500600","新店區"
"231018","107-UY","2019/10/19 13:49:29","新北市新店區中正路412號","121.534375","24.9776666666667","6500600","新店區"
"231013","108-UY","2019/10/19 13:49:27","新北市新店區二十張路25巷18弄19號","121.539288333333","24.9814966666667","6500600","新店區"
"231036","110-UY","2019/10/19 13:49:25","新北市新店區安祥路110巷30弄1號","121.473908333333","24.9564183333333","6500600","新店區"
"231033","256-BX","2019/10/19 13:49:18","新北市新店區莒光路44巷21弄11-3號","121.51851","24.9521616666667","6500600","新店區"
"231023","260-TV","2019/10/19 13:49:30","新北市新店區文中路51-2號","121.540075","24.9565533333333","6500600","新店區"
"231003","268-BY","2019/10/19 13:49:25","新北市新店區中興路一段162號","121.5426","24.9640216666667","6500600","新店區"
"231035","278-BY","2019/10/19 13:49:11","新北市新店區安忠路57巷5-6號","121.513205","24.958745","6500600","新店區"
"231017","AAD-862","2019/10/19 13:49:26","新北市新店區竹林路75號","121.55378","24.9511266666667","6500600","新店區"
"231006","355-BY","2019/10/19 13:49:22","新北市新店區北宜路一段190號","121.54116","24.9528083333333","6500600","新店區"
"231038","3712-VJ","2019/10/19 13:49:14","新北市新店區安華路30巷3號","121.519606666667","24.9592433333333","6500600","新店區"
"231027","3713-VJ","2019/10/19 13:49:19","新北市新店區能仁街12-1號","121.540641666667","24.95546","6500600","新店區"
"231024","4716-K9","2019/10/19 13:49:22","新北市新店區新生街13巷40號","121.538796666667","24.9668783333333","6500600","新店區"
"231025","4715-K9","2019/10/19 13:49:19","新北市新店區中正路275巷27號","121.537043333333","24.9730966666667","6500600","新店區"
"231020","512-UM","2019/10/19 13:49:26","新北市新店區永興路88-1號","121.544188333333","24.93357","6500600","新店區"
"231002","619-UM","2019/10/19 13:49:13","新北市新店區溪園路393號","121.524251666667","24.9789866666667","6500600","新店區"
"231034","641-BX","2019/10/19 13:49:22","新北市新店區達觀路16號","121.502921666667","24.94116","6500600","新店區"
"231012","KED-0819","2019/10/19 13:49:19","新北市新店區德正街27巷29弄14號","121.545781666667","24.9720466666667","6500600","新店區"
"231010","719-UM","2019/10/19 13:49:25","新北市新店區中正路283號","121.537488333333","24.9744483333333","6500600","新店區"
"231026","720-UM","2019/10/19 13:49:23","新北市新店區中正路178號","121.541116666667","24.9721066666667","6500600","新店區"
"231028","897-TW","2019/10/19 13:49:10","新北市新店區安和路二段181號","121.518456666667","24.9748483333333","6500600","新店區"
"231001","898-TW","2019/10/19 13:49:27","新北市新店區三民路118號","121.53442","24.9743416666667","6500600","新店區"
"231004","899-TW","2019/10/19 13:49:21","新北市新店區寶橋路132號","121.547383333333","24.975985","6500600","新店區"
"231037","AKT-0513","2019/10/19 13:49:11","新北市新店區安康路三段359巷12弄25號","121.484013333333","24.9493416666667","6500600","新店區"
"241002","060-VK","2019/10/19 13:49:17","新北市三重區正義南路107號","121.498683333333","25.0588166666667","6500200","三重區"
"235030","003-UY","2019/10/19 13:49:18","新北市中和區中山路二段131巷21號","121.503498333333","25.0024716666667","6500300","中和區"
"235027","006-UY","2019/10/19 13:49:20","新北市中和區錦和路196巷1號","121.489868333333","24.9949316666667","6500300","中和區"
"235020","096-UM","2019/10/19 13:49:23","新北市中和區中正路1206巷7號","121.480195","25.0110916666667","6500300","中和區"
"235003","097-UM","2019/10/19 13:49:22","新北市中和區大仁街40號","121.5181","24.993915","6500300","中和區"
"235029","098-UM","2019/10/19 13:49:29","新北市中和區勝利路35巷11弄1號","121.499621666667","25.0067866666667","6500300","中和區"
"235004","150-BY","2019/10/19 13:49:28","新北市中和區宜安路119巷16號","121.509753333333","24.9976083333333","6500300","中和區"
"235022","151-BY","2019/10/19 13:49:22","新北市中和區連城路585號","121.478596666667","24.9940666666667","6500300","中和區"
"235019","183-VK","2019/10/19 13:49:22","新北市板橋區民族路310號","121.470708333333","25.006445","6500300","中和區"
"235002","185-VK","2019/10/19 13:49:12","新北市中和區大勇街31巷1號","121.517445","24.9941783333333","6500300","中和區"
"235031","255-BX","2019/10/19 13:49:13","新北市中和區新生街268號","121.483535","24.99714","6500300","中和區"
"235008","293-VK","2019/10/19 13:49:28","新北市中和區中興街123號","121.499958333333","24.9918216666667","6500300","中和區"
"235036","301-VK","2019/10/19 13:49:21","新北市永和區中山路一段324號","121.50638","25.0066233333333","6500300","中和區"
"235007","352-BY","2019/10/19 13:49:27","新北市中和區秀朗路三段36巷2號","121.526518333333","24.9961583333333","6500300","中和區"
"235006","KEA-2878","2019/10/19 13:49:16","新北市中和區秀朗路三段100巷2弄2號","121.52523","24.9934216666667","6500300","中和區"
"235014","4979-A6","2019/10/19 13:49:32","新北市中和區忠孝街62巷9弄10號","121.51317","24.9839666666667","6500300","中和區"
"235033","4980-A6","2019/10/19 13:49:25","新北市中和區南山路52巷14號","121.501446666667","24.9974033333333","6500300","中和區"
"235009","551-UM","2019/10/19 13:49:11","新北市中和區景新街421號","121.512778333333","24.9892016666667","6500300","中和區"
"235034","558-UM","2019/10/19 13:49:19","新北市中和區安和路216-1號","121.505996666667","24.999115","6500300","中和區"
"235024","KED-0823","2019/10/19 13:49:28","新北市中和區民治街28號","121.475218333333","25.0038516666667","6500300","中和區"
"235018","640-BX","2019/10/19 13:49:12","新北市中和區民享街34號","121.473993333333","25.0032233333333","6500300","中和區"
"235011","732-UM","2019/10/19 13:49:14","新北市中和區興南路二段34巷55弄1號","121.504846666667","24.98616","6500300","中和區"
"235010","733-UM","2019/10/19 13:49:19","新北市中和區興南路一段106號","121.50965","24.9887733333333","6500300","中和區"
"235021","801-TS","2019/10/19 13:49:11","新北市中和區民利街40巷1弄12號","121.478985","24.99906","6500300","中和區"
"235005","802-TS","2019/10/19 13:49:23","新北市中和區永貞路251號","121.512876666667","25.004045","6500300","中和區"
"235016","805-TS","2019/10/19 13:49:18","新北市中和區興南路二段399巷37號","121.500608333333","24.9776883333333","6500300","中和區"
"235012","896-TW","2019/10/19 13:49:28","新北市中和區南山路541號","121.507953333333","24.9868083333333","6500300","中和區"
"235017","900-TW","2019/10/19 13:49:25","新北市中和區民德路290號","121.467565","24.9956866666667","6500300","中和區"
"235028","911-UM","2019/10/19 13:49:25","新北市中和區泰和街34號","121.499443333333","25.0002483333333","6500300","中和區"
"235015","157-BY","2019/10/19 13:49:30","新北市中和區華新街109巷11弄3-10號","121.50883","24.9797066666667","6500300","中和區"
"235001","AAC-213","2019/10/19 13:49:27","新北市中和區秀朗路三段10巷37弄1號","121.524196666667","24.9960416666667","6500300","中和區"
"235023","AAC-215","2019/10/19 13:49:21","新北市中和區圓通路393巷21號","121.490205","24.9885","6500300","中和區"
"220013","072-UY","2019/10/19 13:49:28","新北市板橋區四川路一段127號","121.46003","25.004835","6500100","板橋區"
"220034","073-UY","2019/10/19 13:49:22","新北市板橋區南雅南路二段120-2號","121.452358333333","24.999745","6500100","板橋區"
"220105","075-UY","2019/10/19 13:49:29","新北市板橋區文化路二段124巷3號","121.47052","25.0260966666667","6500100","板橋區"
"220017","AAD-861","2019/10/19 13:49:12","新北市板橋區大華街104號","121.459325","25.00541","6500100","板橋區"
"247003","500-BY","2019/10/19 13:49:30","新北市蘆洲區長榮路76號","121.46223","25.08374","6501400","蘆洲區"
"247013","056-VK","2019/10/19 13:49:12","新北市蘆洲區三民路130號","121.47098","25.0875566666667","6501400","蘆洲區"
"247007","002-UY","2019/10/19 13:49:15","新北市蘆洲區集賢路271號","121.481241666667","25.0837866666667","6501400","蘆洲區"
"247001","001-UY","2019/10/19 13:49:29","新北市蘆洲區長榮路709號","121.461048333333","25.0928933333333","6501400","蘆洲區"
"235013","251-BX","2019/10/19 13:49:17","新北市中和區景新街210巷23號","121.507156666667","24.99431","6500300","中和區"
"228005","097-TW","2019/10/19 13:49:22","新北市雙溪區三港里雙澳路100號","121.88898","25.0566566666667","6502600","貢寮區"
"228004","212-TW","2019/10/19 13:45:07","新北市貢寮區龍崗里嵩陽街8號","121.901871666667","25.0107016666667","6502600","貢寮區"
"253003","6232-TK","2019/10/19 13:49:18","新北市石門區尖子鹿16號","121.576508333333","25.279145","6502200","石門區"
"253004","6251-TK","2019/10/19 13:49:20","新北市石門區阿里荖47-3號","121.604373333333","25.2787416666667","6502200","石門區"
"253002","637-UY","2019/10/19 13:49:27","新北市石門區尖山湖3-1號","121.564551666667","25.2412533333333","6502200","石門區"
"253001","KEC-0718","2019/10/19 13:49:08","新北市石門區八甲53-2號","121.521871666667","25.27538","6502200","石門區"
"207002","749-BX","2019/10/19 13:49:19","新北市萬里區崁腳里崁腳路166號","121.645108333333","25.1559533333333","6502800","萬里區"
"207001","662-BX","2019/10/19 13:49:22","新北市萬里區磺潭里公館崙42號","121.6301","25.20773","6502800","萬里區"
"252005","AAC-283","2019/10/19 13:49:26","新北市三芝區圓山里二坪頂47號","121.539363333333","25.24377","6502100","三芝區"
"236040","KED-0685","2019/10/19 13:49:27","新北市土城區城林路6巷80號","121.43848","24.97971","6501300","土城區"
"236074","166-UM","2019/10/19 13:49:25","新北市土城區永寧路35號","121.43008","24.9620333333333","6501300","土城區"
"236013","270-VK","2019/10/19 13:49:12","新北市土城區城林路6巷80號","121.43851","24.97982","6501300","土城區"
"236032","271-VK","2019/10/19 13:49:17","新北市土城區城林路6巷80號","121.438411666667","24.97972","6501300","土城區"
"247011","KED-0683","2019/10/19 13:49:27","新北市蘆洲區中正路520巷9號","121.4624","25.09959","6501400","蘆洲區"
"236068","KEA-2877","2019/10/19 13:49:12","新北市土城區城林路6巷80號","121.438713333333","24.9796616666667","6501300","土城區"
"236017","401-BY","2019/10/19 13:49:15","新北市土城區城林路6巷80號","121.43865","24.979755","6501300","土城區"
"236060","752-BX","2019/10/19 13:49:27","新北市土城區城林路6巷80號","121.4386","24.9796016666667","6501300","土城區"
"236057","912-UM","2019/10/19 13:49:09","新北市土城區中華路二段90號","121.438415","24.974955","6501300","土城區"
"236045","913-UM","2019/10/19 13:49:12","新北市土城區城林路6巷80號","121.438566666667","24.979705","6501300","土城區"
"236054","AAC-216","2019/10/19 13:49:20","新北市土城區城林路6巷80號","121.438786666667","24.9796816666667","6501300","土城區"
"221038","646-BX","2019/10/19 13:49:26","新北市汐止區康寧街901號","121.65145","25.074955","6501100","汐止區"
"220027","145-BY","2019/10/19 13:49:17","新北市板橋區大智街71巷8弄13號","121.452663333333","25.015405","6500100","板橋區"
"220028","200-UY","2019/10/19 13:49:26","新北市板橋區大觀路二段265巷66弄30號","121.44151","24.9970316666667","6500100","板橋區"
"220030","610-BX","2019/10/19 13:49:22","新北市板橋區篤行路三段49號","121.428096666667","24.98616","6500100","板橋區"
"220040","267-BY","2019/10/19 13:49:16","新北市板橋區萬板路165號","121.474033333333","25.0237116666667","6500100","板橋區"
"220004","276-BY","2019/10/19 13:49:21","新北市板橋區四川路一段225號","121.46012","25.0031616666667","6500100","板橋區"
"220020","277-BY","2019/10/19 13:49:17","新北市板橋區大觀路三段8-1號","121.434668333333","24.9955216666667","6500100","板橋區"
"220043","283-UM","2019/10/19 13:49:09","新北市板橋區文化路二段76號","121.469463333333","25.0249766666667","6500100","板橋區"
"220019","283-VK","2019/10/19 13:49:15","新北市板橋區館前東路2-2號","121.459581666667","25.007015","6500100","板橋區"
"220050","285-UM","2019/10/19 13:49:24","新北市板橋區莊敬路99號","121.472495","25.0261866666667","6500100","板橋區"
"220001","285-VK","2019/10/19 13:49:09","新北市板橋區永豐街73號","121.473688333333","25.01879","6500100","板橋區"
"220107","286-VK","2019/10/19 13:49:24","新北市板橋區僑中二街88巷15號","121.445653333333","25.00945","6500100","板橋區"
"220029","287-VK","2019/10/19 13:49:20","新北市板橋區光華街13巷1號","121.453976666667","25.01145","6500100","板橋區"
"220039","288-VK","2019/10/19 13:49:26","新北市板橋區四維路177巷4弄18號","121.463421666667","25.0265533333333","6500100","板橋區"
"220009","293-UM","2019/10/19 13:48:56","新北市板橋區永豐街50-2號","121.474653333333","25.0197166666667","6500100","板橋區"
"220010","295-UM","2019/10/19 13:49:20","新北市板橋區中山路二段27號","121.472663333333","25.0151966666667","6500100","板橋區"
"220032","296-UM","2019/10/19 13:49:26","新北市板橋區大觀路二段154-1號","121.441458333333","24.998865","6500100","板橋區"
"220023","303-R5","2019/10/19 13:49:15","新北市板橋區華東街328號","121.452791666667","25.0034166666667","6500100","板橋區"
"220041","307-R5","2019/10/19 13:49:19","新北市板橋區文化路一段104巷1弄3號","121.465255","25.0178966666667","6500100","板橋區"
"220047","317-R6","2019/10/19 13:49:29","新北市板橋區民生路二段226巷10弄2號","121.4705","25.02178","6500100","板橋區"
"220038","487-VK","2019/10/19 13:49:24","新北市板橋區仁化街66號","121.475918333333","25.0317583333333","6500100","板橋區"
"220037","491-VK","2019/10/19 13:49:13","新北市板橋區民生路二段236號","121.468446666667","25.0230866666667","6500100","板橋區"
"220104","560-BX","2019/10/19 13:49:21","新北市板橋區中正路275巷73號","121.452561666667","25.0180266666667","6500100","板橋區"
"220052","561-BX","2019/10/19 13:49:21","新北市板橋區文化路一段188巷11弄54號","121.469101666667","25.0187066666667","6500100","板橋區"
"220011","609-BX","2019/10/19 13:49:27","新北市板橋區民生路一段46號","121.474268333333","25.0147016666667","6500100","板橋區"
"220005","686-BX","2019/10/19 13:49:24","新北市板橋區重慶路192號","121.46264","25.0031483333333","6500100","板橋區"
"220042","689-BX","2019/10/19 13:49:09","新北市板橋區民生路三段66號","121.467003333333","25.025595","6500100","板橋區"
"220002","741-BX","2019/10/19 13:49:25","新北市板橋區館前西路19號","121.458653333333","25.0068816666667","6500100","板橋區"
"220051","KEA-2699","2019/10/19 13:49:21","新北市板橋區縣民大道三段133巷35號","121.476898333333","25.02453","6500100","板橋區"
"220003","827-TW","2019/10/19 13:49:24","新北市板橋區忠孝路4號","121.459625","25.0017316666667","6500100","板橋區"
"220016","831-TW","2019/10/19 13:49:18","新北市板橋區大同街26巷2號","121.477946666667","25.0271716666667","6500100","板橋區"
"220025","833-TW","2019/10/19 13:49:22","新北市板橋區金門街31巷8號","121.433641666667","24.99388","6500100","板橋區"
"220022","895-R6","2019/10/19 13:49:19","新北市板橋區府中路57號","121.458416666667","25.0094333333333","6500100","板橋區"
"220021","985-R7","2019/10/19 13:49:25","新北市板橋區府中路32號","121.458243333333","25.0095416666667","6500100","板橋區"
"220046","AAC-210","2019/10/19 13:49:17","新北市板橋區陽明街162號","121.463525","25.024485","6500100","板橋區"
"220012","AAC-253","2019/10/19 13:49:23","新北市板橋區漢生東路166號","121.466878333333","25.0147483333333","6500100","板橋區"
"235032","KEA-2873","2019/10/19 13:49:11","新北市中和區圓通路162巷3號","121.497148333333","24.9953016666667","6500300","中和區"
"235025","KEA-2875","2019/10/19 13:49:26","新北市中和區民治街134巷4-3號","121.475196666667","25.0021083333333","6500300","中和區"
"235073","KEA-2876","2019/10/19 13:49:03","新北市中和區中山路二段340巷63號","121.492765","25.0047516666667","6500300","中和區"
