"lineid","car","time","location","longitude","latitude","cityid","cityname"
"234001","209-UY","2019/10/19 14:29:27","新北市永和區保生路55號","121.50465","25.0107783333333","6500400","永和區"
"234078","298-R6","2019/10/19 14:29:13","新北市永和區永貞路35號","121.521105","25.0065866666667","6500400","永和區"
"234036","336-UY","2019/10/19 14:29:23","新北市永和區民樂街31巷10弄11號","121.52897","25.0010116666667","6500400","永和區"
"234062","337-UY","2019/10/19 14:29:10","新北市永和區中正路401號","121.517275","25.004475","6500400","永和區"
"234084","338-UY","2019/10/19 14:29:11","新北市永和區光復街21號","121.516498333333","25.0173683333333","6500400","永和區"
"234068","552-UM","2019/10/19 14:29:26","新北市永和區福和路139號","121.520951666667","25.0075233333333","6500400","永和區"
"234028","746-BX","2019/10/19 14:29:28","新北市永和區中正路92號","121.514125","24.9954133333333","6500400","永和區"
"234052","KEA-2590","2019/10/19 14:29:30","新北市永和區環河東路一段64號","121.519088333333","25.0168533333333","6500400","永和區"
"234060","AAD-866","2019/10/19 14:29:21","新北市永和區秀朗路一段169號","121.516945","25.0039333333333","6500400","永和區"
"234040","862-TW","2019/10/19 14:29:13","新北市永和區安樂路348號","121.514458333333","25.0064733333333","6500400","永和區"
"234048","863-TW","2019/10/19 14:29:12","新北市永和區環河西路二段109號","121.506308333333","25.0145716666667","6500400","永和區"
"234025","9371-KE","2019/10/19 14:29:11","新北市中和區安平路220號","121.513991666667","24.99999","6500400","永和區"
"248017","KED-0813","2019/10/19 14:23:15","新北市五股區外寮路13-1號","121.424375","25.0809483333333","6501500","五股區"
"234072","AAC-211","2019/10/19 14:29:13","新北市永和區環河東路一段126號","121.520685","25.0153683333333","6500400","永和區"
"234001","AAC-295","2019/10/19 14:29:23","新北市永和區大新街36號","121.515511666667","25.0084083333333","6500400","永和區"
"231030","002-UM","2019/10/19 14:29:16","新北市新店區安民街82號","121.516661666667","24.9670916666667","6500600","新店區"
"231005","046-UY","2019/10/19 14:29:29","新北市新店區北新路三段17號","121.542121666667","24.9796116666667","6500600","新店區"
"231029","106-UY","2019/10/19 14:29:15","新北市新店區安康路二段317-1號","121.499216666667","24.95652","6500600","新店區"
"231018","107-UY","2019/10/19 14:29:09","新北市新店區中央三街13號","121.529306666667","24.9736983333333","6500600","新店區"
"231013","108-UY","2019/10/19 14:29:27","新北市新店區民權路108-4號","121.535905","24.9833566666667","6500600","新店區"
"231036","110-UY","2019/10/19 14:29:25","新北市新店區安祥路109巷118號","121.476676666667","24.9583633333333","6500600","新店區"
"231033","256-BX","2019/10/19 14:29:27","新北市新店區安業街151巷2號","121.521486666667","24.9737","6500600","新店區"
"231023","260-TV","2019/10/19 14:29:18","新北市新店區光明街185號","121.539998333333","24.96317","6500600","新店區"
"231003","268-BY","2019/10/19 14:29:24","新北市新店區中興路一段267-4號","121.545128333333","24.96794","6500600","新店區"
"231035","278-BY","2019/10/19 14:29:31","新北市新店區安光路10-1號","121.513791666667","24.9640433333333","6500600","新店區"
"231017","AAD-862","2019/10/19 14:29:24","新北市新店區北宜路三段83號","121.577033333333","24.9517333333333","6500600","新店區"
"231006","355-BY","2019/10/19 14:29:22","新北市新店區北宜路二段581巷1號","121.566078333333","24.95391","6500600","新店區"
"231038","3712-VJ","2019/10/19 14:29:20","新北市新店區溪洲路184號","121.52868","24.9661883333333","6500600","新店區"
"231027","3713-VJ","2019/10/19 14:29:19","新北市新店區中正路75巷61號","121.543151666667","24.96937","6500600","新店區"
"231020","512-UM","2019/10/19 14:29:26","新北市新店區桂山路38號","121.557871666667","24.90301","6500600","新店區"
"231002","619-UM","2019/10/19 14:29:13","新北市新店區中正路397號","121.53449","24.9773066666667","6500600","新店區"
"231034","641-BX","2019/10/19 14:29:22","新北市新店區車子路11號","121.503123333333","24.9520883333333","6500600","新店區"
"231012","KED-0819","2019/10/19 14:29:19","新北市新店區寶興路58巷1號","121.549893333333","24.972115","6500600","新店區"
"231028","897-TW","2019/10/19 14:29:25","新北市新店區安和路一段2-3號","121.516978333333","24.9643466666667","6500600","新店區"
"231001","898-TW","2019/10/19 14:29:18","新北市新店區中正路75巷71號","121.543135","24.9688366666667","6500600","新店區"
"231004","899-TW","2019/10/19 14:29:21","新北市新店區中正路263-1號","121.538521666667","24.9737183333333","6500600","新店區"
"231037","AKT-0513","2019/10/19 14:29:11","新北市新店區車子路1-1號","121.504708333333","24.9577533333333","6500600","新店區"
"241002","060-VK","2019/10/19 14:29:17","新北市八里區中山路三段386號","121.368341666667","25.1362533333333","6500200","三重區"
"235030","003-UY","2019/10/19 14:29:18","新北市中和區景新街48號","121.503755","24.99916","6500300","中和區"
"235027","006-UY","2019/10/19 14:29:20","新北市中和區連城路203巷10弄21號","121.495105","24.9966016666667","6500300","中和區"
"235020","096-UM","2019/10/19 14:29:23","新北市中和區員山路514巷19號","121.479678333333","25.009755","6500300","中和區"
"235003","097-UM","2019/10/19 14:29:22","新北市中和區景平路300號","121.512603333333","24.9927466666667","6500300","中和區"
"235029","098-UM","2019/10/19 14:29:13","新北市中和區福祥路107號","121.498726666667","25.006385","6500300","中和區"
"235004","150-BY","2019/10/19 14:29:08","新北市中和區保健路106巷85號","121.511163333333","24.99442","6500300","中和區"
"235022","151-BY","2019/10/19 14:29:22","新北市中和區員山路132巷1號","121.48156","24.9963166666667","6500300","中和區"
"235019","183-VK","2019/10/19 14:29:21","新北市中和區民生街35巷2弄2號","121.470331666667","25.005055","6500300","中和區"
"235002","185-VK","2019/10/19 14:29:12","新北市中和區自立路107號","121.522053333333","24.9947066666667","6500300","中和區"
"235031","255-BX","2019/10/19 14:29:13","新北市中和區員山路148巷44弄1號","121.482566666667","24.9968816666667","6500300","中和區"
"235008","293-VK","2019/10/19 14:29:28","新北市中和區捷運路149-1號","121.506618333333","24.9910333333333","6500300","中和區"
"235036","301-VK","2019/10/19 14:29:21","新北市中和區中和路74號","121.500835","25.000175","6500300","中和區"
"235007","352-BY","2019/10/19 14:29:27","新北市中和區景平路275號","121.507933333333","24.993105","6500300","中和區"
"235006","KEA-2878","2019/10/19 14:29:15","新北市中和區中和路350巷15弄12號","121.510913333333","25.0011516666667","6500300","中和區"
"247015","KEA-2869","2019/10/19 14:29:23","新北市蘆洲區中正路185巷78弄17號","121.465815","25.0847533333333","6501400","蘆洲區"
"247009","KED-0682","2019/10/19 14:29:27","新北市蘆洲區信義路136號","121.479591666667","25.0830633333333","6501400","蘆洲區"
"235009","551-UM","2019/10/19 14:29:11","新北市中和區景新街368號","121.512183333333","24.9903716666667","6500300","中和區"
"235034","558-UM","2019/10/19 14:29:19","新北市中和區景平路537號","121.498755","24.9992133333333","6500300","中和區"
"235024","KED-0823","2019/10/19 14:29:28","新北市中和區員山路394巷3號","121.480755","25.0046066666667","6500300","中和區"
"235018","640-BX","2019/10/19 14:29:12","新北市中和區莒光路203號","121.472415","24.9988066666667","6500300","中和區"
"235011","732-UM","2019/10/19 14:29:13","新北市中和區景平路259巷30號","121.507108333333","24.9927583333333","6500300","中和區"
"235010","733-UM","2019/10/19 14:29:19","新北市中和區忠孝街37巷52號","121.511113333333","24.9848766666667","6500300","中和區"
"235021","801-TS","2019/10/19 14:29:16","新北市中和區員山路160號","121.481373333333","24.9995033333333","6500300","中和區"
"235005","802-TS","2019/10/19 14:29:23","新北市中和區中和路232號","121.506625","24.9995683333333","6500300","中和區"
"235016","805-TS","2019/10/19 14:29:17","新北市中和區華新街143巷70號","121.506331666667","24.9791716666667","6500300","中和區"
"235012","896-TW","2019/10/19 14:29:12","新北市中和區忠孝街60巷9號","121.511805","24.9838666666667","6500300","中和區"
"235017","900-TW","2019/10/19 14:29:25","新北市中和區民德路197號","121.469376666667","24.9979633333333","6500300","中和區"
"235015","157-BY","2019/10/19 14:29:31","新北市中和區中興街107號","121.499913333333","24.9923666666667","6500300","中和區"
"235001","AAC-213","2019/10/19 14:29:27","新北市中和區秀朗路三段93號","121.526598333333","24.9954416666667","6500300","中和區"
"235023","AAC-215","2019/10/19 14:29:21","新北市中和區圓通路284號","121.491515","24.9905766666667","6500300","中和區"
"220013","072-UY","2019/10/19 14:29:14","新北市板橋區國泰街39巷6弄26號","121.468028333333","25.005575","6500100","板橋區"
"220034","073-UY","2019/10/19 14:29:22","新北市板橋區中正路216巷18號","121.45663","25.018315","6500100","板橋區"
"220105","075-UY","2019/10/19 14:29:29","新北市板橋區文化路二段319號","121.472426666667","25.02997","6500100","板橋區"
"220017","AAD-861","2019/10/19 14:29:12","新北市板橋區稚暉街26號","121.455526666667","25.0042533333333","6500100","板橋區"
"247005","893-R6","2019/10/19 14:29:17","新北市蘆洲區中華街101號","121.461391666667","25.079765","6501400","蘆洲區"
"247019","546-UM","2019/10/19 14:29:23","新北市蘆洲區水湳街102號","121.469566666667","25.09293","6501400","蘆洲區"
"247003","500-BY","2019/10/19 14:29:30","新北市蘆洲區長安街277號","121.458365","25.0841683333333","6501400","蘆洲區"
"247023","057-VK","2019/10/19 14:29:28","新北市蘆洲區中正路263巷2號","121.467221666667","25.0875266666667","6501400","蘆洲區"
"247013","056-VK","2019/10/19 14:29:12","新北市蘆洲區中正路81號","121.470008333333","25.0834366666667","6501400","蘆洲區"
"247017","053-VK","2019/10/19 14:29:18","新北市蘆洲區民族路297號","121.475158333333","25.0911666666667","6501400","蘆洲區"
"247007","002-UY","2019/10/19 14:29:15","新北市蘆洲區民生街101號","121.473641666667","25.0787133333333","6501400","蘆洲區"
"247001","001-UY","2019/10/19 14:29:09","新北市蘆洲區永樂街38巷33弄17號","121.45745","25.0896216666667","6501400","蘆洲區"
"235013","251-BX","2019/10/19 14:29:17","新北市中和區景新街273巷30號","121.510658333333","24.9940583333333","6500300","中和區"
"228005","097-TW","2019/10/19 14:29:22","新北市貢寮區美豐里巫里岸9-1號","121.901975","25.0700733333333","6502600","貢寮區"
"228004","212-TW","2019/10/19 14:29:07","新北市貢寮區雙玉里田寮洋街33-1號","121.933063333333","25.0138016666667","6502600","貢寮區"
"253003","6232-TK","2019/10/19 14:29:18","新北市石門區尖子鹿17-2號","121.575996666667","25.2787","6502200","石門區"
"253004","6251-TK","2019/10/19 14:29:20","新北市石門區內阿里磅5號","121.589911666667","25.2536083333333","6502200","石門區"
"253002","637-UY","2019/10/19 14:29:27","新北市石門區大溪墘2-4號","121.54885","25.289295","6502200","石門區"
"253001","KEC-0718","2019/10/19 14:29:08","新北市石門區崁子腳84號","121.532186666667","25.277685","6502200","石門區"
"207002","749-BX","2019/10/19 14:29:19","新北市萬里區崁腳里崁腳路106-4號","121.646721666667","25.1588883333333","6502800","萬里區"
"207001","662-BX","2019/10/19 14:29:21","新北市萬里區磺潭里清水9號","121.640458333333","25.1998883333333","6502800","萬里區"
"252005","AAC-283","2019/10/19 14:29:26","新北市三芝區橫山里大坑94-1號","121.525931666667","25.2598783333333","6502100","三芝區"
"236040","KED-0685","2019/10/19 14:29:25","新北市土城區學成路91巷20號","121.450255","24.987675","6501300","土城區"
"236074","166-UM","2019/10/19 14:29:25","新北市土城區中央路四段45-1號","121.42245","24.9618833333333","6501300","土城區"
"236029","253-BX","2019/10/19 14:29:29","新北市土城區水源街67號","121.439915","24.9763216666667","6501300","土城區"
"236024","269-VK","2019/10/19 14:29:22","新北市土城區承天路65號","121.439445","24.963715","6501300","土城區"
"236013","270-VK","2019/10/19 14:29:12","新北市土城區青雲路39巷7號","121.460286666667","24.9875383333333","6501300","土城區"
"236032","271-VK","2019/10/19 14:29:17","新北市土城區青雲路449號","121.458831666667","24.9749916666667","6501300","土城區"
"247011","KED-0683","2019/10/19 14:29:27","新北市蘆洲區集賢路224巷46弄58-1號","121.480893333333","25.0878433333333","6501400","蘆洲區"
"236068","KEA-2877","2019/10/19 14:29:12","新北市土城區永豐路205-3號","121.47385","24.977625","6501300","土城區"
"236017","401-BY","2019/10/19 14:29:14","新北市土城區永豐路143號","121.466585","24.983445","6501300","土城區"
"236060","752-BX","2019/10/19 14:28:47","新北市土城區金城路三段245號","121.471581666667","24.9898133333333","6501300","土城區"
"236057","912-UM","2019/10/19 14:29:29","新北市土城區中央路四段138號","121.41746","24.95848","6501300","土城區"
"236045","913-UM","2019/10/19 14:29:28","新北市土城區青雲路475號","121.458761666667","24.973885","6501300","土城區"
"236054","AAC-216","2019/10/19 14:29:20","新北市土城區中華路二段1號","121.439745","24.9792616666667","6501300","土城區"
"221038","646-BX","2019/10/19 14:29:26","新北市汐止區秀山路98巷5-1號","121.667476666667","25.05747","6501100","汐止區"
"220027","145-BY","2019/10/19 14:29:19","新北市板橋區公館街88號","121.461331666667","25.0153866666667","6500100","板橋區"
"220028","200-UY","2019/10/19 14:29:26","新北市板橋區大觀路二段37巷180號","121.449598333333","25.0021133333333","6500100","板橋區"
"220030","610-BX","2019/10/19 14:29:22","新北市板橋區金門街343號","121.428998333333","24.9854033333333","6500100","板橋區"
"220040","267-BY","2019/10/19 14:29:16","新北市板橋區文聖街149巷25號","121.479493333333","25.0285883333333","6500100","板橋區"
"220004","276-BY","2019/10/19 14:29:25","新北市板橋區信義路89號","121.457901666667","24.9941583333333","6500100","板橋區"
"220020","277-BY","2019/10/19 14:29:17","新北市板橋區金門街222號","121.431013333333","24.98797","6500100","板橋區"
"220043","283-UM","2019/10/19 14:29:09","新北市板橋區銘傳街35號","121.468618333333","25.0310166666667","6500100","板橋區"
"220019","283-VK","2019/10/19 14:29:24","新北市板橋區忠孝路24巷29號","121.460393333333","25.000745","6500100","板橋區"
"220050","285-UM","2019/10/19 14:29:24","新北市板橋區莊敬路209號","121.47199","25.0221816666667","6500100","板橋區"
"220001","285-VK","2019/10/19 14:29:29","新北市板橋區富山街53巷1弄3號","121.477606666667","25.0206966666667","6500100","板橋區"
"220107","286-VK","2019/10/19 14:29:24","新北市板橋區龍興街71巷15號","121.443146666667","25.002115","6500100","板橋區"
"220029","287-VK","2019/10/19 14:29:20","新北市板橋區大觀路一段29巷179弄32-1號","121.44946","25.0040833333333","6500100","板橋區"
"220039","288-VK","2019/10/19 14:29:26","新北市板橋區長江路一段48巷9號","121.459191666667","25.0284566666667","6500100","板橋區"
"220009","293-UM","2019/10/19 14:29:17","新北市板橋區漢生東路111-1號","121.467158333333","25.014955","6500100","板橋區"
"220010","295-UM","2019/10/19 14:29:31","新北市板橋區三民路二段95巷23號","121.480583333333","25.0165033333333","6500100","板橋區"
"220032","296-UM","2019/10/19 14:29:16","新北市板橋區滿平街84巷100弄5號","121.426298333333","24.9864016666667","6500100","板橋區"
"220023","303-R5","2019/10/19 14:29:15","新北市板橋區南雅南路一段4巷4號","121.455253333333","25.0053966666667","6500100","板橋區"
"220041","307-R5","2019/10/19 14:29:26","新北市板橋區陽明街164巷30號","121.46484","25.0246016666667","6500100","板橋區"
"220047","317-R6","2019/10/19 14:29:27","新北市板橋區民有街88號","121.465056666667","25.027435","6500100","板橋區"
"220038","487-VK","2019/10/19 14:29:24","新北市板橋區龍泉街152號","121.457261666667","25.02397","6500100","板橋區"
"220037","491-VK","2019/10/19 14:29:13","新北市板橋區雙十路二段37-1號","121.476753333333","25.0259233333333","6500100","板橋區"
"220104","560-BX","2019/10/19 14:29:19","新北市板橋區中正路413巷2弄17號","121.453401666667","25.0230683333333","6500100","板橋區"
"220052","561-BX","2019/10/19 14:29:21","新北市板橋區陽明街29巷10號","121.464795","25.0219716666667","6500100","板橋區"
"220011","609-BX","2019/10/19 14:29:23","新北市板橋區三民路一段31巷28號","121.480436666667","25.0231583333333","6500100","板橋區"
"220005","686-BX","2019/10/19 14:29:24","新北市板橋區廣和街60號","121.462075","24.9939416666667","6500100","板橋區"
"220042","689-BX","2019/10/19 14:29:09","新北市板橋區新海路403巷2號","121.45841","25.0267583333333","6500100","板橋區"
"220002","741-BX","2019/10/19 14:29:24","新北市板橋區四川路一段202號","121.45952","25.002245","6500100","板橋區"
"220051","KEA-2699","2019/10/19 14:29:26","新北市板橋區雙十路二段70巷35號","121.476168333333","25.0287833333333","6500100","板橋區"
"220003","827-TW","2019/10/19 14:29:24","新北市板橋區重慶路278巷3-2號","121.462768333333","24.9996233333333","6500100","板橋區"
"220014","829-TW","2019/10/19 14:29:20","新北市板橋區漢生東路328號","121.47151","25.007775","6500100","板橋區"
"220016","831-TW","2019/10/19 14:29:18","新北市板橋區中山路二段505巷2號","121.482545","25.0214","6500100","板橋區"
"220025","833-TW","2019/10/19 14:29:22","新北市板橋區大觀路一段51號","121.44762","25.0065083333333","6500100","板橋區"
"220022","895-R6","2019/10/19 14:29:19","新北市板橋區北門街48號","121.456826666667","25.01118","6500100","板橋區"
"220021","985-R7","2019/10/19 14:29:25","新北市板橋區中正路360巷61號","121.4567","25.0227616666667","6500100","板橋區"
"220046","AAC-210","2019/10/19 14:29:17","新北市板橋區文化路一段285巷1弄19號","121.464046666667","25.01876","6500100","板橋區"
"220012","AAC-253","2019/10/19 14:29:23","新北市板橋區民權路41號","121.46218","25.01116","6500100","板橋區"
"235032","KEA-2873","2019/10/19 14:29:11","新北市中和區莊敬路16巷9號","121.500068333333","25.0039533333333","6500300","中和區"
"235025","KEA-2875","2019/10/19 14:29:26","新北市中和區員山路226巷12號","121.481695","25.0005916666667","6500300","中和區"
"235073","KEA-2876","2019/10/19 14:29:31","新北市中和區橋和路88-12號","121.49006","25.0051183333333","6500300","中和區"
