"lineid","car","time","location","longitude","latitude","cityid","cityname"
"234078","298-R6","2019/10/19 14:39:13","新北市永和區永貞路82號","121.520233333333","25.0050266666667","6500400","永和區"
"234062","337-UY","2019/10/19 14:39:10","新北市永和區光復街42號","121.516633333333","25.0176616666667","6500400","永和區"
"234068","552-UM","2019/10/19 14:39:26","新北市中和區永和路356巷67-1號","121.487151666667","25.0150283333333","6500400","永和區"
"234040","862-TW","2019/10/19 14:39:13","新北市永和區光復街27號","121.516566666667","25.017555","6500400","永和區"
"234025","9371-KE","2019/10/19 14:39:24","新北市永和區中和路499號","121.510611666667","25.0022933333333","6500400","永和區"
"248017","KED-0813","2019/10/19 14:23:15","新北市五股區外寮路13-1號","121.424375","25.0809483333333","6501500","五股區"
"234072","AAC-211","2019/10/19 14:39:13","新北市永和區環河東路二段54號","121.523278333333","25.0116183333333","6500400","永和區"
"231030","002-UM","2019/10/19 14:39:16","新北市新店區安民街162號","121.516871666667","24.9703666666667","6500600","新店區"
"231005","046-UY","2019/10/19 14:39:29","新北市新店區順安街73號","121.540638333333","24.9868616666667","6500600","新店區"
"231029","106-UY","2019/10/19 14:39:15","新北市新店區安康路三段202號","121.488985","24.951805","6500600","新店區"
"231018","107-UY","2019/10/19 14:39:29","新北市新店區中央五街12號","121.529723333333","24.9741866666667","6500600","新店區"
"231013","108-UY","2019/10/19 14:39:27","新北市新店區明德路38號","121.541448333333","24.9779283333333","6500600","新店區"
"231036","110-UY","2019/10/19 14:39:25","新北市新店區安祥路106巷288號","121.472665","24.9581983333333","6500600","新店區"
"231033","256-BX","2019/10/19 14:39:18","新北市新店區安德街148巷37號","121.507195","24.9612166666667","6500600","新店區"
"231023","260-TV","2019/10/19 14:39:21","新北市新店區檳榔路174號","121.544221666667","24.9618433333333","6500600","新店區"
"231003","268-BY","2019/10/19 14:39:24","新北市新店區中興路一段292號","121.545908333333","24.96922","6500600","新店區"
"231035","278-BY","2019/10/19 14:39:11","新北市新店區安康路二段118-9號","121.512968333333","24.9634366666667","6500600","新店區"
"231017","AAD-862","2019/10/19 14:39:24","新北市新店區北宜路三段221號","121.59244","24.953075","6500600","新店區"
"231006","355-BY","2019/10/19 14:39:22","新北市新店區北宜路二段150-1號","121.557801666667","24.9538933333333","6500600","新店區"
"231038","3712-VJ","2019/10/19 14:39:20","新北市新店區安華路28-1號","121.519811666667","24.9609116666667","6500600","新店區"
"231027","3713-VJ","2019/10/19 14:39:19","新北市新店區北新路一段150號","121.542533333333","24.9706066666667","6500600","新店區"
"231020","512-UM","2019/10/19 14:39:26","新北市新店區桂山路38號","121.558131666667","24.9029766666667","6500600","新店區"
"231002","619-UM","2019/10/19 14:39:13","新北市新店區中正路468-2號","121.533926666667","24.97988","6500600","新店區"
"231034","641-BX","2019/10/19 14:39:23","新北市新店區黎明路53巷1號","121.502285","24.9487116666667","6500600","新店區"
"231012","KED-0819","2019/10/19 14:39:19","新北市新店區寶宏路24號","121.549273333333","24.975925","6500600","新店區"
"231028","897-TW","2019/10/19 14:39:10","新北市新店區安成街31號","121.50987","24.9608883333333","6500600","新店區"
"231001","898-TW","2019/10/19 14:39:18","新北市新店區中正路49號","121.544676666667","24.9698716666667","6500600","新店區"
"231004","899-TW","2019/10/19 14:39:22","新北市新店區中正路293號","121.537236666667","24.97462","6500600","新店區"
"231037","AKT-0513","2019/10/19 14:39:11","新北市新店區柴埕路34-1號","121.513581666667","24.965145","6500600","新店區"
"241002","060-VK","2019/10/19 14:39:17","新北市八里區中山路三段379號","121.372701666667","25.137645","6500200","三重區"
"235030","003-UY","2019/10/19 14:39:18","新北市中和區中和路196巷9弄1號","121.505138333333","24.99918","6500300","中和區"
"235027","006-UY","2019/10/19 14:39:20","新北市中和區連城路263巷6弄8號","121.492291666667","24.995485","6500300","中和區"
"235020","096-UM","2019/10/19 14:39:23","新北市中和區中山路三段114巷68號","121.47586","25.0076316666667","6500300","中和區"
"235003","097-UM","2019/10/19 14:39:22","新北市中和區安平路182號","121.512921666667","24.9988666666667","6500300","中和區"
"235029","098-UM","2019/10/19 14:39:13","新北市中和區永和路90巷2弄16號","121.497881666667","25.0054716666667","6500300","中和區"
"235004","150-BY","2019/10/19 14:39:28","新北市中和區宜安路11巷21號","121.512671666667","24.99484","6500300","中和區"
"235022","151-BY","2019/10/19 14:39:22","新北市中和區員山路150巷2弄17號","121.481705","24.9979533333333","6500300","中和區"
"235019","183-VK","2019/10/19 14:39:21","新北市中和區民生街85巷6弄1號","121.469215","25.0040166666667","6500300","中和區"
"235002","185-VK","2019/10/19 14:39:12","新北市中和區自強路27巷22號","121.521683333333","24.9932066666667","6500300","中和區"
"235031","255-BX","2019/10/19 14:39:18","新北市中和區中正路751巷12號","121.484256666667","24.999735","6500300","中和區"
"235008","293-VK","2019/10/19 14:39:08","新北市中和區南山路487號","121.507978333333","24.98796","6500300","中和區"
"235036","301-VK","2019/10/19 14:39:21","新北市中和區保平路362巷13號","121.505725","25.003865","6500300","中和區"
"235007","352-BY","2019/10/19 14:39:26","新北市中和區景新街153號","121.506493333333","24.9964733333333","6500300","中和區"
"235006","KEA-2878","2019/10/19 14:39:16","新北市中和區保健路2巷30號","121.507073333333","24.9974666666667","6500300","中和區"
"247015","KEA-2869","2019/10/19 14:39:23","新北市蘆洲區正和街25-1號","121.469885","25.081805","6501400","蘆洲區"
"247009","KED-0682","2019/10/19 14:39:27","新北市蘆洲區集賢路300號","121.481408333333","25.08513","6501400","蘆洲區"
"235033","4980-A6","2019/10/19 14:39:25","新北市中和區圓通路208號","121.496138333333","24.99403","6500300","中和區"
"235034","558-UM","2019/10/19 14:39:19","新北市中和區連勝街45號","121.498161666667","24.9975766666667","6500300","中和區"
"235018","640-BX","2019/10/19 14:39:12","新北市中和區莒光路113號","121.47244","25.0025","6500300","中和區"
"235011","732-UM","2019/10/19 14:39:13","新北市中和區興南路一段86號","121.509973333333","24.989325","6500300","中和區"
"235010","733-UM","2019/10/19 14:39:19","新北市中和區景新街496巷29號","121.513398333333","24.9862333333333","6500300","中和區"
"235005","802-TS","2019/10/19 14:39:23","新北市中和區安平路22號","121.50927","24.99429","6500300","中和區"
"235016","805-TS","2019/10/19 14:39:17","新北市中和區華新街192巷8號","121.506615","24.98263","6500300","中和區"
"235012","896-TW","2019/10/19 14:39:12","新北市中和區景新街493號","121.51378","24.987235","6500300","中和區"
"235017","900-TW","2019/10/19 14:39:25","新北市中和區國光街142巷46號","121.467628333333","25.0022183333333","6500300","中和區"
"235015","157-BY","2019/10/19 14:39:10","新北市中和區中興街180巷52弄2號","121.498861666667","24.9887","6500300","中和區"
"235001","AAC-213","2019/10/19 14:39:27","新北市中和區自立路193號","121.524358333333","24.9912933333333","6500300","中和區"
"235023","AAC-215","2019/10/19 14:39:21","新北市中和區圓通路305巷18號","121.494956666667","24.989105","6500300","中和區"
"220013","072-UY","2019/10/19 14:39:14","新北市板橋區國泰街109-1號","121.466245","25.0059783333333","6500100","板橋區"
"220034","073-UY","2019/10/19 14:39:22","新北市板橋區中正路250巷102號","121.459373333333","25.0199416666667","6500100","板橋區"
"220105","075-UY","2019/10/19 14:39:29","新北市板橋區文化路二段608巷42號","121.479223333333","25.0345416666667","6500100","板橋區"
"220017","AAD-861","2019/10/19 14:39:12","新北市板橋區南雅南路二段7巷12號","121.45445","25.0028666666667","6500100","板橋區"
"247005","893-R6","2019/10/19 14:39:17","新北市蘆洲區長安街46巷7弄12號","121.463411666667","25.0806083333333","6501400","蘆洲區"
"247023","057-VK","2019/10/19 14:39:28","新北市蘆洲區正和街63巷18號","121.469196666667","25.0806216666667","6501400","蘆洲區"
"247013","056-VK","2019/10/19 14:39:12","新北市蘆洲區成功路151號","121.47209","25.0826433333333","6501400","蘆洲區"
"247007","002-UY","2019/10/19 14:39:15","新北市蘆洲區信義路44號","121.474961666667","25.0795416666667","6501400","蘆洲區"
"247001","001-UY","2019/10/19 14:39:09","新北市蘆洲區長安街274巷4號","121.45769","25.087015","6501400","蘆洲區"
"235013","251-BX","2019/10/19 14:39:16","新北市中和區景平路385-1號","121.502975","24.9941433333333","6500300","中和區"
"228005","097-TW","2019/10/19 14:39:22","新北市貢寮區美豐里雞母嶺街6-6號","121.902066666667","25.0642216666667","6502600","貢寮區"
"228004","212-TW","2019/10/19 14:39:27","新北市貢寮區福隆里虎子山街28號","121.945566666667","25.0150083333333","6502600","貢寮區"
"253003","6232-TK","2019/10/19 14:39:18","新北市石門區尖子鹿103-1號","121.580568333333","25.2961616666667","6502200","石門區"
"253004","6251-TK","2019/10/19 14:39:20","新北市石門區內阿里磅50號","121.580338333333","25.2451283333333","6502200","石門區"
"253002","637-UY","2019/10/19 14:39:27","新北市三芝區橫山里橫山32號","121.545475","25.26076","6502200","石門區"
"253001","KEC-0718","2019/10/19 14:39:08","新北市石門區崁子腳35-2號","121.539901666667","25.2696216666667","6502200","石門區"
"207002","749-BX","2019/10/19 14:39:19","新北市萬里區崁腳里崁腳路91號","121.647628333333","25.159535","6502800","萬里區"
"207001","662-BX","2019/10/19 14:39:01","新北市萬里區雙興里豐稟路27-2號","121.641423333333","25.1892266666667","6502800","萬里區"
"252005","AAC-283","2019/10/19 14:39:26","新北市三芝區埔坪里埔頭坑91-1號","121.5077","25.2537466666667","6502100","三芝區"
"236040","KED-0685","2019/10/19 14:39:17","新北市土城區裕民路55巷16號","121.44947","24.9884816666667","6501300","土城區"
"236074","166-UM","2019/10/19 14:39:25","新北市土城區中央路四段52巷48號","121.418591666667","24.9602366666667","6501300","土城區"
"236029","253-BX","2019/10/19 14:39:10","新北市土城區慶利街37號","121.439025","24.9743933333333","6501300","土城區"
"236024","269-VK","2019/10/19 14:39:26","新北市土城區忠義路47號","121.440466666667","24.9693233333333","6501300","土城區"
"236013","270-VK","2019/10/19 14:39:12","新北市土城區清水路207巷1號","121.460066666667","24.9819416666667","6501300","土城區"
"236032","271-VK","2019/10/19 14:39:17","新北市土城區明德路一段291巷3號","121.460396666667","24.976965","6501300","土城區"
"236068","KEA-2877","2019/10/19 14:39:12","新北市土城區永豐路356號","121.474485","24.975325","6501300","土城區"
"236017","401-BY","2019/10/19 14:39:21","新北市土城區延吉街261號","121.467213333333","24.9848033333333","6501300","土城區"
"236060","752-BX","2019/10/19 14:39:27","新北市土城區延壽路75巷1號","121.469275","24.9925933333333","6501300","土城區"
"236057","912-UM","2019/10/19 14:39:09","新北市土城區中央路三段159號","121.431971666667","24.96537","6501300","土城區"
"236045","913-UM","2019/10/19 14:39:29","新北市土城區明德路一段38號","121.465195","24.984515","6501300","土城區"
"236054","AAC-216","2019/10/19 14:39:20","新北市土城區中華路一段51號","121.445751666667","24.988205","6501300","土城區"
"221038","646-BX","2019/10/19 14:39:06","新北市汐止區秀山路98巷5-1號","121.667518333333","25.0574366666667","6501100","汐止區"
"220027","145-BY","2019/10/19 14:39:12","新北市板橋區民權路260巷14號","121.45833","25.0153116666667","6500100","板橋區"
"220028","200-UY","2019/10/19 14:39:30","新北市板橋區大觀路二段37巷298號","121.450071666667","25.001985","6500100","板橋區"
"220030","610-BX","2019/10/19 14:39:22","新北市板橋區篤行路一段30號","121.431906666667","24.9940783333333","6500100","板橋區"
"220040","267-BY","2019/10/19 14:39:19","新北市板橋區懷德街191巷18號","121.480528333333","25.0296766666667","6500100","板橋區"
"220004","276-BY","2019/10/19 14:39:21","新北市板橋區干城路10號","121.459605","24.9940883333333","6500100","板橋區"
"220020","277-BY","2019/10/19 14:39:27","新北市板橋區金門街253巷10弄19-1號","121.433415","24.9881666666667","6500100","板橋區"
"220043","283-UM","2019/10/19 14:39:29","新北市板橋區長江路二段146-1號","121.46647","25.0318633333333","6500100","板橋區"
"220019","283-VK","2019/10/19 14:39:15","新北市板橋區信義路16-7號","121.457048333333","24.9955383333333","6500100","板橋區"
"220050","285-UM","2019/10/19 14:39:24","新北市板橋區縣民大道三段93巷2號","121.475723333333","25.02207","6500100","板橋區"
"220001","285-VK","2019/10/19 14:39:09","新北市板橋區中山路二段148巷30號","121.477193333333","25.016105","6500100","板橋區"
"220107","286-VK","2019/10/19 14:39:24","新北市板橋區僑中三街38號","121.445371666667","25.005135","6500100","板橋區"
"220029","287-VK","2019/10/19 14:39:20","新北市板橋區大觀路一段75巷24號","121.447996666667","25.004285","6500100","板橋區"
"220039","288-VK","2019/10/19 14:39:26","新北市板橋區綠堤街29號","121.455833333333","25.0262633333333","6500100","板橋區"
"220009","293-UM","2019/10/19 14:39:25","新北市板橋區板新路106號","121.471728333333","25.0152333333333","6500100","板橋區"
"220010","295-UM","2019/10/19 14:39:20","新北市板橋區三民路二段29巷31弄3號","121.481475","25.01768","6500100","板橋區"
"220032","296-UM","2019/10/19 14:39:20","新北市板橋區溪崑二街112巷33弄7號","121.42547","24.9885583333333","6500100","板橋區"
"220023","303-R5","2019/10/19 14:39:15","新北市板橋區中正路289巷33號","121.454498333333","25.0187183333333","6500100","板橋區"
"220041","307-R5","2019/10/19 14:39:19","新北市板橋區四維路269巷89號","121.45975","25.0266016666667","6500100","板橋區"
"220047","317-R6","2019/10/19 14:39:27","新北市板橋區民生路三段263巷2弄2號","121.463985","25.0293983333333","6500100","板橋區"
"220038","487-VK","2019/10/19 14:39:24","新北市板橋區龍泉街131號","121.45751","25.0238833333333","6500100","板橋區"
"220037","491-VK","2019/10/19 14:39:18","新北市板橋區文化路二段472號","121.475035","25.0327516666667","6500100","板橋區"
"220104","560-BX","2019/10/19 14:39:18","新北市板橋區中正路399巷13弄1號","121.45333","25.0225383333333","6500100","板橋區"
"220052","561-BX","2019/10/19 14:39:21","新北市板橋區自由路42號","121.465665","25.0232416666667","6500100","板橋區"
"220011","609-BX","2019/10/19 14:39:17","新北市板橋區萬安街27巷22號","121.48389","25.022885","6500100","板橋區"
"220005","686-BX","2019/10/19 14:39:24","新北市板橋區廣和街79號","121.462655","24.992185","6500100","板橋區"
"220042","689-BX","2019/10/19 14:39:19","新北市板橋區長江路二段112號","121.46537","25.031565","6500100","板橋區"
"220002","741-BX","2019/10/19 14:39:24","新北市板橋區忠孝路300號","121.46624","25.0028233333333","6500100","板橋區"
"220051","KEA-2699","2019/10/19 14:39:21","新北市板橋區文化路二段406號","121.473935","25.0313816666667","6500100","板橋區"
"220003","827-TW","2019/10/19 14:39:29","新北市板橋區國慶路167巷45號","121.461676666667","24.9984983333333","6500100","板橋區"
"220014","829-TW","2019/10/19 14:39:20","新北市板橋區長安街261巷1號","121.473411666667","25.0106316666667","6500100","板橋區"
"220016","831-TW","2019/10/19 14:39:18","新北市板橋區中山路二段416巷48弄1號","121.483065","25.0198133333333","6500100","板橋區"
"220025","833-TW","2019/10/19 14:39:22","新北市板橋區僑中二街52號","121.44667","25.0101533333333","6500100","板橋區"
"220022","895-R6","2019/10/19 14:39:19","新北市板橋區大東街24號","121.45656","25.008885","6500100","板橋區"
"220021","985-R7","2019/10/19 14:39:25","新北市板橋區瑞安街57號","121.455418333333","25.0220733333333","6500100","板橋區"
"220046","AAC-210","2019/10/19 14:39:26","新北市板橋區光正街45巷17號","121.461786666667","25.0164866666667","6500100","板橋區"
"220012","AAC-253","2019/10/19 14:39:23","新北市板橋區館前東路98-2號","121.462536666667","25.00756","6500100","板橋區"
"235032","KEA-2873","2019/10/19 14:39:11","新北市中和區中山路二段250巷1號","121.49746","25.0027733333333","6500300","中和區"
"235073","KEA-2876","2019/10/19 14:39:03","新北市中和區立業路83巷28號","121.491305","25.0065316666667","6500300","中和區"
