"lineid","car","time","location","longitude","latitude","cityid","cityname"
"234068","552-UM","2019/10/19 14:49:26","新北市五股區中直路11-21號","121.427256666667","25.1093983333333","6500400","永和區"
"234040","862-TW","2019/10/19 14:49:12","新北市板橋區文化路二段656號","121.480668333333","25.0410416666667","6500400","永和區"
"234025","9371-KE","2019/10/19 14:49:11","新北市永和區雙和街52巷2號","121.509058333333","25.0031483333333","6500400","永和區"
"248017","KED-0813","2019/10/19 14:23:15","新北市五股區外寮路13-1號","121.424375","25.0809483333333","6501500","五股區"
"231030","002-UM","2019/10/19 14:49:16","新北市新店區安民街306號","121.517728333333","24.9739016666667","6500600","新店區"
"231005","046-UY","2019/10/19 14:49:29","新北市新店區復興路2號","121.532541666667","24.9882733333333","6500600","新店區"
"231029","106-UY","2019/10/19 14:49:15","新北市新店區安康路三段578-1號","121.481091666667","24.9486683333333","6500600","新店區"
"231018","107-UY","2019/10/19 14:49:29","新北市新店區中央路111號","121.530943333333","24.974605","6500600","新店區"
"231013","108-UY","2019/10/19 14:49:27","新北市新店區北新路二段97巷9弄15號","121.542196666667","24.97383","6500600","新店區"
"231036","110-UY","2019/10/19 14:49:25","新北市新店區安祥路102巷26號","121.483915","24.9639816666667","6500600","新店區"
"231039","187-VK","2019/10/19 14:49:15","新北市新店區安一路一段1-1號","121.519805","24.9618416666667","6500600","新店區"
"231033","256-BX","2019/10/19 14:49:18","新北市新店區安康路二段380號","121.50045","24.9572816666667","6500600","新店區"
"231023","260-TV","2019/10/19 14:49:18","新北市新店區檳榔路150號","121.54422","24.9614316666667","6500600","新店區"
"231003","268-BY","2019/10/19 14:49:24","新北市新店區中興路一段292號","121.546093333333","24.969135","6500600","新店區"
"231035","278-BY","2019/10/19 14:49:11","新北市新店區安利街32號","121.51887","24.9754866666667","6500600","新店區"
"231017","AAD-862","2019/10/19 14:49:24","新北市新店區北宜路三段221號","121.592406666667","24.95308","6500600","新店區"
"231006","355-BY","2019/10/19 14:49:22","新北市新店區北宜路二段48號","121.548676666667","24.9514033333333","6500600","新店區"
"231038","3712-VJ","2019/10/19 14:49:20","新北市新店區安華路28-1號","121.519743333333","24.9610133333333","6500600","新店區"
"231027","3713-VJ","2019/10/19 14:49:20","新北市新店區中正路338號","121.536656666667","24.975","6500600","新店區"
"231024","4716-K9","2019/10/19 14:49:22","新北市新店區中華路83巷45號","121.538651666667","24.9676383333333","6500600","新店區"
"231025","4715-K9","2019/10/19 14:49:27","新北市新店區建國路198巷2號","121.538078333333","24.9803483333333","6500600","新店區"
"231020","512-UM","2019/10/19 14:49:26","新北市新店區桂山路35號","121.558355","24.9030633333333","6500600","新店區"
"231002","619-UM","2019/10/19 14:49:13","新北市新店區民權路42號","121.540381666667","24.98303","6500600","新店區"
"231034","641-BX","2019/10/19 14:49:22","新北市新店區安康路二段341巷3號","121.49724","24.9554266666667","6500600","新店區"
"231012","KED-0819","2019/10/19 14:49:19","新北市新店區寶橋路10號","121.545516666667","24.9747316666667","6500600","新店區"
"231026","720-UM","2019/10/19 14:49:11","新北市新店區安一路一段1-1號","121.519796666667","24.9611783333333","6500600","新店區"
"231028","897-TW","2019/10/19 14:49:30","新北市新店區安德街116巷10號","121.509081666667","24.96095","6500600","新店區"
"231001","898-TW","2019/10/19 14:49:18","新北市新店區中華路74號","121.538653333333","24.9708466666667","6500600","新店區"
"231004","899-TW","2019/10/19 14:49:21","新北市新店區建國路133號","121.53934","24.9781983333333","6500600","新店區"
"231037","AKT-0513","2019/10/19 14:49:11","新北市新店區安民街121巷14號","121.515428333333","24.969065","6500600","新店區"
"241002","060-VK","2019/10/19 14:49:17","新北市五股區成泰路三段544-1號","121.454038333333","25.1019866666667","6500200","三重區"
"235030","003-UY","2019/10/19 14:49:18","新北市中和區南工路70號","121.506523333333","25.0020816666667","6500300","中和區"
"235020","096-UM","2019/10/19 14:49:23","新北市中和區中山路三段118號","121.47551","25.0060716666667","6500300","中和區"
"235003","097-UM","2019/10/19 14:49:22","新北市永和區中正路3-1號","121.51382","24.9955016666667","6500300","中和區"
"235029","098-UM","2019/10/19 14:49:13","新北市中和區橋和路298號","121.496891666667","25.0068716666667","6500300","中和區"
"235004","150-BY","2019/10/19 14:49:28","新北市中和區安和路39號","121.509671666667","24.99491","6500300","中和區"
"235019","183-VK","2019/10/19 14:49:21","新北市中和區中山路三段93號","121.475331666667","25.00596","6500300","中和區"
"235002","185-VK","2019/10/19 14:49:32","新北市永和區民生路46巷56號","121.520555","24.9964083333333","6500300","中和區"
"235008","293-VK","2019/10/19 14:49:28","新北市中和區板南路100號","121.503805","24.99246","6500300","中和區"
"235036","301-VK","2019/10/19 14:49:21","新北市中和區保平路340巷18號","121.50608","25.0045216666667","6500300","中和區"
"235007","352-BY","2019/10/19 14:49:26","新北市中和區安和路1號","121.511801666667","24.993365","6500300","中和區"
"235006","KEA-2878","2019/10/19 14:49:15","新北市永和區中正路4號","121.512406666667","24.9935883333333","6500300","中和區"
"247015","KEA-2869","2019/10/19 14:49:23","新北市蘆洲區光華路165號","121.465148333333","25.082045","6501400","蘆洲區"
"235033","4980-A6","2019/10/19 14:49:25","新北市中和區景新街34巷18弄16-1號","121.503023333333","24.9986966666667","6500300","中和區"
"235034","558-UM","2019/10/19 14:49:19","新北市中和區圓通路120-4號","121.499006666667","24.9959533333333","6500300","中和區"
"235018","640-BX","2019/10/19 14:49:12","新北市中和區民治街32巷10號","121.474628333333","25.0035983333333","6500300","中和區"
"235010","733-UM","2019/10/19 14:49:19","新北市中和區興南路一段63號","121.510476666667","24.9893533333333","6500300","中和區"
"235016","805-TS","2019/10/19 14:49:17","新北市中和區華新街192巷31號","121.50616","24.9833583333333","6500300","中和區"
"235012","896-TW","2019/10/19 14:49:12","新北市中和區忠孝街68號","121.51196","24.984035","6500300","中和區"
"235017","900-TW","2019/10/19 14:49:25","新北市中和區國光街167號","121.468366666667","25.001225","6500300","中和區"
"235015","157-BY","2019/10/19 14:49:30","新北市中和區復興路265號","121.502786666667","24.99013","6500300","中和區"
"235001","AAC-213","2019/10/19 14:49:27","新北市中和區自立路16號","121.522","24.99378","6500300","中和區"
"235023","AAC-215","2019/10/19 14:49:21","新北市中和區圓通路335巷4弄6號","121.491905","24.9897333333333","6500300","中和區"
"220013","072-UY","2019/10/19 14:49:14","新北市板橋區民族路270巷7號","121.469521666667","25.00671","6500100","板橋區"
"220034","073-UY","2019/10/19 14:49:22","新北市板橋區國光路30號","121.457138333333","25.0174233333333","6500100","板橋區"
"220105","075-UY","2019/10/19 14:49:29","新北市板橋區民治街42巷25號","121.478341666667","25.033045","6500100","板橋區"
"220017","AAD-861","2019/10/19 14:49:12","新北市板橋區大明街18-9號","121.458733333333","25.00263","6500100","板橋區"
"247001","001-UY","2019/10/19 14:49:09","新北市蘆洲區永康街58號","121.459163333333","25.0859966666667","6501400","蘆洲區"
"235013","251-BX","2019/10/19 14:49:16","新北市中和區中正路2號","121.503303333333","24.993905","6500300","中和區"
"228005","097-TW","2019/10/19 14:49:22","新北市貢寮區美豐里丹裡街69號","121.90635","25.0577933333333","6502600","貢寮區"
"228004","212-TW","2019/10/19 14:49:27","新北市貢寮區福隆里興隆街21-1號","121.943481666667","25.0164","6502600","貢寮區"
"253003","6232-TK","2019/10/19 14:49:18","新北市石門區尖子鹿104-3號","121.57902","25.29582","6502200","石門區"
"253004","6251-TK","2019/10/19 14:49:20","新北市石門區內阿里磅25號","121.591931666667","25.2448183333333","6502200","石門區"
"253002","637-UY","2019/10/19 14:49:06","新北市石門區七股9-1號","121.547906666667","25.26491","6502200","石門區"
"253001","KEC-0718","2019/10/19 14:49:28","新北市石門區崁子腳47-4號","121.534901666667","25.2840283333333","6502200","石門區"
"207002","749-BX","2019/10/19 14:49:19","新北市萬里區崁腳里崁腳路73號","121.647618333333","25.1595616666667","6502800","萬里區"
"207001","662-BX","2019/10/19 14:49:21","新北市萬里區雙興里二坪路5號","121.648808333333","25.1750066666667","6502800","萬里區"
"252005","AAC-283","2019/10/19 14:49:26","新北市三芝區埔坪里埔頭坑122-1號","121.518968333333","25.24497","6502100","三芝區"
"236040","KED-0685","2019/10/19 14:48:57","新北市土城區裕民路136巷4弄1號","121.45108","24.98563","6501300","土城區"
"236074","166-UM","2019/10/19 14:49:25","新北市土城區中央路四段185巷46號","121.416136666667","24.9558683333333","6501300","土城區"
"236029","253-BX","2019/10/19 14:49:29","新北市土城區忠義路36巷12號","121.439926666667","24.9698883333333","6501300","土城區"
"236024","269-VK","2019/10/19 14:49:22","新北市土城區慶安街56號","121.440956666667","24.97312","6501300","土城區"
"236013","270-VK","2019/10/19 14:49:19","新北市土城區金城路二段372號","121.462696666667","24.9851616666667","6501300","土城區"
"236032","271-VK","2019/10/19 14:49:27","新北市土城區仁愛路25號","121.462591666667","24.978505","6501300","土城區"
"236068","KEA-2877","2019/10/19 14:49:12","新北市土城區青雲路322巷2弄4號","121.458203333333","24.97726","6501300","土城區"
"236017","401-BY","2019/10/19 14:49:14","新北市土城區德峰街39號","121.467451666667","24.9857216666667","6501300","土城區"
"236060","752-BX","2019/10/19 14:49:27","新北市土城區金城路三段207巷8弄10號","121.470285","24.9904216666667","6501300","土城區"
"236057","912-UM","2019/10/19 14:49:29","新北市土城區金城路二段10號","121.449076666667","24.9771483333333","6501300","土城區"
"236045","913-UM","2019/10/19 14:49:12","新北市土城區廣福街68巷18弄2號","121.459316666667","24.9904283333333","6501300","土城區"
"236054","AAC-216","2019/10/19 14:49:20","新北市土城區裕民路193號","121.453606666667","24.9842583333333","6501300","土城區"
"221038","646-BX","2019/10/19 14:49:26","新北市汐止區勤進路85-2號","121.663518333333","25.05813","6501100","汐止區"
"220027","145-BY","2019/10/19 14:49:12","新北市板橋區公館街110號","121.460961666667","25.0168766666667","6500100","板橋區"
"220028","200-UY","2019/10/19 14:49:26","新北市板橋區大觀路二段59巷18號","121.447278333333","25.0024366666667","6500100","板橋區"
"220030","610-BX","2019/10/19 14:49:28","新北市板橋區篤行路一段28號","121.43153","24.9942533333333","6500100","板橋區"
"220040","267-BY","2019/10/19 14:49:16","新北市板橋區懷德街127巷14弄1號","121.47936","25.0310566666667","6500100","板橋區"
"220004","276-BY","2019/10/19 14:49:21","新北市板橋區四川路二段47巷1弄1號","121.45406","24.995","6500100","板橋區"
"220020","277-BY","2019/10/19 14:49:17","新北市板橋區金門街127巷11號","121.433445","24.991275","6500100","板橋區"
"220043","283-UM","2019/10/19 14:49:19","新北市板橋區雨農路19號","121.461893333333","25.024375","6500100","板橋區"
"220019","283-VK","2019/10/19 14:49:29","新北市板橋區廣權路133號","121.465641666667","24.9933433333333","6500100","板橋區"
"220050","285-UM","2019/10/19 14:49:24","新北市板橋區莒光路182號","121.473933333333","25.02277","6500100","板橋區"
"220001","285-VK","2019/10/19 14:49:13","新北市板橋區中山路二段60巷1弄10號","121.474655","25.015455","6500100","板橋區"
"220107","286-VK","2019/10/19 14:49:24","新北市板橋區僑中二街10巷37號","121.445446666667","25.011135","6500100","板橋區"
"220029","287-VK","2019/10/19 14:49:21","新北市板橋區大觀路一段29巷95-1號","121.450555","25.0060216666667","6500100","板橋區"
"220039","288-VK","2019/10/19 14:49:26","新北市板橋區新海路72巷60號","121.462031666667","25.0234766666667","6500100","板橋區"
"220009","293-UM","2019/10/19 14:49:17","新北市板橋區民生路二段107號","121.471123333333","25.01783","6500100","板橋區"
"220010","295-UM","2019/10/19 14:49:20","新北市板橋區光復街24號","121.4816","25.0188533333333","6500100","板橋區"
"220032","296-UM","2019/10/19 14:49:16","新北市板橋區滿平街2巷10號","121.425213333333","24.989415","6500100","板橋區"
"220023","303-R5","2019/10/19 14:49:15","新北市板橋區大勇街79號","121.452765","25.0165766666667","6500100","板橋區"
"220041","307-R5","2019/10/19 14:49:19","新北市板橋區新海路109巷1弄2號","121.460846666667","25.02243","6500100","板橋區"
"220047","317-R6","2019/10/19 14:49:27","新北市板橋區四維路269巷62號","121.46075","25.0272566666667","6500100","板橋區"
"220038","487-VK","2019/10/19 14:49:24","新北市板橋區互助街98號","121.460055","25.0261066666667","6500100","板橋區"
"220037","491-VK","2019/10/19 14:49:13","新北市板橋區仁化街76號","121.476186666667","25.031815","6500100","板橋區"
"220104","560-BX","2019/10/19 14:49:18","新北市板橋區金華街147號","121.45981","25.020965","6500100","板橋區"
"220052","561-BX","2019/10/19 14:49:21","新北市板橋區雨農路19號","121.461818333333","25.0244516666667","6500100","板橋區"
"220011","609-BX","2019/10/19 14:49:17","新北市板橋區三民路一段149號","121.479228333333","25.0196716666667","6500100","板橋區"
"220005","686-BX","2019/10/19 14:49:24","新北市板橋區四川路二段63號","121.453443333333","24.99514","6500100","板橋區"
"220042","689-BX","2019/10/19 14:49:29","新北市板橋區長江路三段107號","121.474983333333","25.03449","6500100","板橋區"
"220002","741-BX","2019/10/19 14:49:25","新北市板橋區忠孝路忠義巷16弄1號","121.465921666667","25.00368","6500100","板橋區"
"220051","KEA-2699","2019/10/19 14:49:21","新北市板橋區松柏街1巷1號","121.473808333333","25.0293266666667","6500100","板橋區"
"220003","827-TW","2019/10/19 14:49:24","新北市板橋區國慶路149巷21弄7號","121.460568333333","24.99734","6500100","板橋區"
"220014","829-TW","2019/10/19 14:49:20","新北市板橋區長安街297號","121.474345","25.011955","6500100","板橋區"
"220016","831-TW","2019/10/19 14:49:18","新北市板橋區光復街147號","121.485501666667","25.01996","6500100","板橋區"
"220025","833-TW","2019/10/19 14:49:22","新北市板橋區僑中二街112巷1號","121.445811666667","25.0068966666667","6500100","板橋區"
"220022","895-R6","2019/10/19 14:49:18","新北市板橋區府中路29-2號","121.458643333333","25.0080266666667","6500100","板橋區"
"220021","985-R7","2019/10/19 14:49:25","新北市板橋區大仁街68號","121.454423333333","25.0166066666667","6500100","板橋區"
"220046","AAC-210","2019/10/19 14:49:28","新北市板橋區光正街18巷1號","121.462463333333","25.0172483333333","6500100","板橋區"
"220012","AAC-253","2019/10/19 14:49:03","新北市板橋區實踐路155號","121.464218333333","25.0041266666667","6500100","板橋區"
"235032","KEA-2873","2019/10/19 14:49:14","新北市中和區勝利路35巷1弄14號","121.499531666667","25.0075966666667","6500300","中和區"
"235073","KEA-2876","2019/10/19 14:49:03","新北市中和區中山路二段332巷15號","121.494313333333","25.0028933333333","6500300","中和區"
