"lineid","car","time","location","longitude","latitude","cityid","cityname"
"231018","107-UY","2019/10/19 16:09:09","新北市新店區中正路700巷82號","121.535941666667","24.9932616666667","6500600","新店區"
"231035","278-BY","2019/10/19 16:09:11","新北市新店區薏仁坑路自強巷1號","121.497608333333","24.9576883333333","6500600","新店區"
"231046","719-UM","2019/10/19 16:08:06","新北市新店區永業路91號","121.529231666667","24.9491066666667","6500600","新店區"
"231026","720-UM","2019/10/19 16:09:11","新北市新店區安康路一段20號","121.53108","24.9610983333333","6500600","新店區"
"241011","013-R5","2019/10/19 16:09:23","新北市三重區正義北路388號","121.493215","25.0716416666667","6500200","三重區"
"241028","022-UY","2019/10/19 16:09:16","新北市三重區正義南路107號","121.49819","25.0585933333333","6500200","三重區"
"241008","059-VK","2019/10/19 16:09:28","新北市蘆洲區國道路二段30巷37號","121.474591666667","25.0728083333333","6500200","三重區"
"241015","062-VK","2019/10/19 16:09:28","新北市三重區三和路一段2號","121.504023333333","25.0642316666667","6500200","三重區"
"241017","063-VK","2019/10/19 16:09:29","新北市三重區民生街76號","121.490241666667","25.0647333333333","6500200","三重區"
"241024","065-VK","2019/10/19 16:09:10","新北市三重區力行路一段52號","121.48549","25.0683066666667","6500200","三重區"
"241007","066-VK","2019/10/19 16:09:18","新北市三重區慈愛街8號","121.48446","25.07843","6500200","三重區"
"241006","262-UM","2019/10/19 16:09:23","新北市三重區自強路三段110巷25-1號","121.486123333333","25.0747883333333","6500200","三重區"
"241016","266-UM","2019/10/19 16:09:29","新北市三重區重新路三段45-1號","121.49306","25.061245","6500200","三重區"
"241018","268-UM","2019/10/19 16:09:31","新北市三重區明志街103號","121.490381666667","25.0636566666667","6500200","三重區"
"241032","269-UM","2019/10/19 16:09:22","新北市三重區三陽路100巷3弄13號","121.483058333333","25.0581133333333","6500200","三重區"
"241013","270-UM","2019/10/19 16:09:13","新北市三重區三和路三段13號","121.49638","25.0707566666667","6500200","三重區"
"241025","271-UM","2019/10/19 16:09:28","新北市三重區中正北路149號","121.482578333333","25.0674033333333","6500200","三重區"
"241020","478-VK","2019/10/19 16:09:24","新北市三重區車路頭街29號","121.483891666667","25.0707483333333","6500200","三重區"
"241026","480-VK","2019/10/19 16:09:25","新北市三重區重新路二段79號","121.497465","25.0614233333333","6500200","三重區"
"241014","543-UM","2019/10/19 16:09:25","新北市三重區環河南路35號","121.503101666667","25.0610866666667","6500200","三重區"
"241023","545-UM","2019/10/19 16:09:21","新北市三重區力行路一段80號","121.48407","25.0695283333333","6500200","三重區"
"241001","547-UM","2019/10/19 16:09:15","新北市三重區自強路四段80號","121.490656666667","25.0788533333333","6500200","三重區"
"241012","743-BX","2019/10/19 16:09:27","新北市三重區正義北路113號","121.496876666667","25.065805","6500200","三重區"
"241029","942-UM","2019/10/19 16:09:27","新北市三重區同安街113號","121.494281666667","25.056315","6500200","三重區"
"241033","AAC-255","2019/10/19 16:09:25","新北市三重區重新路五段408巷21-8號","121.476773333333","25.0457733333333","6500200","三重區"
"235054","640-BX","2019/10/19 16:09:12","新北市中和區員山路36巷16-2號","121.485363333333","24.991625","6500300","中和區"
"235046","733-UM","2019/10/19 15:47:18","新北市中和區員山路36巷13號","121.484181666667","24.9908383333333","6500300","中和區"
"224007","285-BY","2019/10/19 16:09:22","新北市瑞芳區粗坑口路1巷2號","121.762938333333","25.096355","6501200","瑞芳區"
"227002","642-TC","2019/10/19 16:09:21","新北市雙溪區上林里內平林63號","121.831493333333","25.029315","6502500","雙溪區"
"227001","400-TW","2019/10/19 16:09:28","新北市雙溪區三港里雙澳路44號","121.877521666667","25.0524316666667","6502500","雙溪區"
"251013","182-VK","2019/10/19 16:09:26","新北市淡水區新民街320號","121.435243333333","25.183315","6501000","淡水區"
"251014","577-R6","2019/10/19 16:09:30","新北市淡水區中正路二段31號","121.419556666667","25.1812666666667","6501000","淡水區"
"220107","286-VK","2019/10/19 16:09:24","新北市樹林區八德街1168號","121.390383333333","24.96833","6500100","板橋區"
"220029","287-VK","2019/10/19 16:09:20","新北市板橋區大觀路二段431-1號","121.441791666667","24.9946183333333","6500100","板橋區"
"235062","KEA-2876","2019/10/19 15:57:03","新北市中和區員山路36巷16-3號","121.485038333333","24.9914983333333","6500300","中和區"
