"lineid","car","time","location","longitude","latitude","cityid","cityname"
"249005","172-UM","2019/10/19 17:29:16","新北市八里區荖阡坑路30號","121.404811666667","25.1303333333333","6502300","八里區"
"249001","173-UM","2019/10/19 17:29:18","新北市八里區大崁腳47-3號","121.424518333333","25.159015","6502300","八里區"
"249004","303-UY","2019/10/19 17:29:30","新北市八里區賢三街172號","121.414426666667","25.1566866666667","6502300","八里區"
"249002","305-UY","2019/10/19 17:29:25","新北市八里區龍米路一段470號","121.450051666667","25.1355133333333","6502300","八里區"
"249003","593-UM","2019/10/19 17:29:09","新北市八里區中山路二段398號","121.400581666667","25.1478666666667","6502300","八里區"
"232011","375-UM","2019/10/19 17:29:09","新北市坪林區鶯子瀨12-1號","121.714751666667","24.91165","6502000","坪林區"
"244007","080-UY","2019/10/19 17:29:30","新北市林口區文化一路二段303號","121.385696666667","25.08572","6501700","林口區"
"244019","402-UM","2019/10/19 17:29:21","新北市林口區文化二路一段338號","121.372573333333","25.0750166666667","6501700","林口區"
"244013","KEA-2802","2019/10/19 17:29:27","新北市林口區中山路267號","121.385095","25.0796616666667","6501700","林口區"
"244023","483-VK","2019/10/19 17:29:15","新北市林口區東明一街35巷2號","121.392273333333","25.0720533333333","6501700","林口區"
"244017","485-VK","2019/10/19 17:29:19","新北市林口區忠孝路371-1號","121.36908","25.07182","6501700","林口區"
"244009","656-BX","2019/10/19 17:29:26","新北市林口區中北三街124號","121.38397","25.0844","6501700","林口區"
"244011","701-TV","2019/10/19 17:29:17","新北市林口區佳林路154號","121.384108333333","25.077005","6501700","林口區"
"244025","837-TS","2019/10/19 17:29:21","新北市林口區忠孝路308巷19號","121.367386666667","25.07189","6501700","林口區"
"244021","838-TS","2019/10/19 17:29:16","新北市林口區中山路2號","121.396835","25.0784266666667","6501700","林口區"
"231046","719-UM","2019/10/19 17:13:26","新北市新店區直潭六街64號","121.532223333333","24.9400266666667","6500600","新店區"
"241011","013-R5","2019/10/19 17:29:23","新北市三重區河邊北街122-1號","121.503631666667","25.0713816666667","6500200","三重區"
"241015","062-VK","2019/10/19 17:29:28","新北市三重區三和路一段47巷13號","121.503846666667","25.0655","6500200","三重區"
"241017","063-VK","2019/10/19 17:29:24","新北市三重區重新路三段47巷3弄2號","121.49291","25.0618416666667","6500200","三重區"
"241024","065-VK","2019/10/19 17:29:10","新北市三重區國道路一段58巷15號","121.481321666667","25.0720433333333","6500200","三重區"
"241007","066-VK","2019/10/19 17:29:17","新北市三重區溪尾街138號","121.489215","25.0796433333333","6500200","三重區"
"241006","262-UM","2019/10/19 17:29:23","新北市五股區中興路三段2巷10號","121.449048333333","25.081165","6500200","三重區"
"241016","266-UM","2019/10/19 17:29:29","新北市三重區信義西街108號","121.496006666667","25.06421","6500200","三重區"
"241018","268-UM","2019/10/19 17:29:11","新北市三重區新北大道一段7號","121.489653333333","25.06136","6500200","三重區"
"241032","269-UM","2019/10/19 17:29:22","新北市三重區名源街49號","121.482208333333","25.0597866666667","6500200","三重區"
"241013","270-UM","2019/10/19 17:29:13","新北市三重區仁愛街141巷17號","121.496076666667","25.0756916666667","6500200","三重區"
"241030","KED-0822","2019/10/19 17:29:20","新北市三重區中正南路269號","121.49327","25.05225","6500200","三重區"
"241020","478-VK","2019/10/19 17:29:24","新北市三重區忠孝路三段99巷4號","121.480003333333","25.064235","6500200","三重區"
"241014","543-UM","2019/10/19 17:29:25","新北市三重區長壽街96號","121.501795","25.0686266666667","6500200","三重區"
"241023","545-UM","2019/10/19 17:29:21","新北市三重區三民街146巷3弄16號","121.481138333333","25.064985","6500200","三重區"
"241019","KEA-2593","2019/10/19 17:29:22","新北市三重區自強路二段26巷36號","121.488453333333","25.06888","6500200","三重區"
"241012","743-BX","2019/10/19 17:29:27","新北市三重區仁興街39巷12號","121.49958","25.0760183333333","6500200","三重區"
"241033","AAC-255","2019/10/19 17:29:25","新北市三重區興德路133號","121.470143333333","25.052925","6500200","三重區"
"247016","KEA-2869","2019/10/19 17:29:13","新北市蘆洲區光華路29號","121.469248333333","25.0832033333333","6501400","蘆洲區"
"247010","KED-0682","2019/10/19 17:29:16","新北市蘆洲區集賢路406號","121.479915","25.081805","6501400","蘆洲區"
"235064","911-UM","2019/10/19 17:26:40","新北市中和區員山路36巷16-3號","121.48511","24.9912283333333","6500300","中和區"
"247006","893-R6","2019/10/19 17:29:22","新北市蘆洲區長安街46巷21號","121.463938333333","25.08025","6501400","蘆洲區"
"247020","546-UM","2019/10/19 17:29:15","新北市蘆洲區水湳街150號","121.470006666667","25.0937233333333","6501400","蘆洲區"
"247004","500-BY","2019/10/19 17:29:14","新北市蘆洲區長安街229號","121.459465","25.0828033333333","6501400","蘆洲區"
"247024","057-VK","2019/10/19 17:29:21","新北市蘆洲區長興路295號","121.460248333333","25.0892033333333","6501400","蘆洲區"
"247014","056-VK","2019/10/19 17:29:12","新北市蘆洲區三民路33號","121.475418333333","25.0830666666667","6501400","蘆洲區"
"247018","053-VK","2019/10/19 17:29:27","新北市蘆洲區民義街22巷16號","121.471665","25.08819","6501400","蘆洲區"
"247022","007-UY","2019/10/19 17:29:18","新北市蘆洲區中正路314號","121.464556666667","25.0911883333333","6501400","蘆洲區"
"247008","002-UY","2019/10/19 17:29:18","新北市蘆洲區民生街91號","121.473753333333","25.0781","6501400","蘆洲區"
"247002","001-UY","2019/10/19 17:29:25","新北市蘆洲區永樂街38巷57弄23號","121.457793333333","25.0903466666667","6501400","蘆洲區"
"228003","097-TW","2019/10/19 17:29:21","新北市貢寮區仁理村仁和路2-2號","121.923343333333","25.0484333333333","6502600","貢寮區"
"228001","212-TW","2019/10/19 17:29:30","新北市貢寮區仁理村仁愛路62巷1號","121.925616666667","25.0534433333333","6502600","貢寮區"
"228002","663-BX","2019/10/19 17:29:19","新北市貢寮區福隆里福隆街18號","121.944928333333","25.01648","6502600","貢寮區"
"224010","AGQ-8101","2019/10/19 17:29:25","新北市瑞芳區逢甲路45號","121.808275","25.1089766666667","6501200","瑞芳區"
"224006","676-BX","2019/10/19 17:29:13","新北市瑞芳區傑魚坑路30號","121.794151666667","25.1105716666667","6501200","瑞芳區"
"224009","275-VK","2019/10/19 17:29:26","新北市瑞芳區汽車路9-13號","121.845881666667","25.111045","6501200","瑞芳區"
"224008","273-VK","2019/10/19 17:29:22","新北市瑞芳區九芎橋路14號","121.831996666667","25.0909316666667","6501200","瑞芳區"
"224005","271-BY","2019/10/19 17:29:27","新北市瑞芳區南雅路1號","121.895776666667","25.119825","6501200","瑞芳區"
"227002","642-TC","2019/10/19 17:21:22","新北市雙溪區共和里東榮街52號","121.866345","25.0336883333333","6502500","雙溪區"
"227001","400-TW","2019/10/19 17:29:28","新北市雙溪區三貂里定福路1-2號","121.850696666667","25.06341","6502500","雙溪區"
"251009","008-UM","2019/10/19 17:29:20","新北市淡水區建設街6號","121.438988333333","25.1725283333333","6501000","淡水區"
"251005","010-UM","2019/10/19 17:29:25","新北市淡水區鄧公路33巷2號","121.451366666667","25.1709816666667","6501000","淡水區"
"251015","KEA-2871","2019/10/19 17:29:27","新北市淡水區三空泉20號","121.46957","25.165605","6501000","淡水區"
"251016","179-VK","2019/10/19 17:29:30","新北市淡水區埤島39-15號","121.452976666667","25.1954166666667","6501000","淡水區"
"251004","180-VK","2019/10/19 17:11:25","新北市淡水區中正東路二段88巷15號","121.459086666667","25.1505183333333","6501000","淡水區"
"251008","181-VK","2019/10/19 17:29:22","新北市淡水區大同路122巷15號","121.463275","25.1397416666667","6501000","淡水區"
"251013","182-VK","2019/10/19 17:29:26","新北市淡水區水尾子2號","121.464093333333","25.1941366666667","6501000","淡水區"
"251010","413-VK","2019/10/19 17:29:21","新北市淡水區中正路二段211號","121.426183333333","25.18913","6501000","淡水區"
"251012","441-VK","2019/10/19 17:29:15","新北市淡水區北新路111號","121.448103333333","25.1784916666667","6501000","淡水區"
"251007","442-VK","2019/10/19 17:29:25","新北市淡水區民生路47-4號","121.46206","25.137995","6501000","淡水區"
"251006","561-UM","2019/10/19 17:29:25","新北市淡水區大仁街9號","121.442193333333","25.1749466666667","6501000","淡水區"
"251014","577-R6","2019/10/19 17:29:10","新北市淡水區公埔子20-6號","121.469071666667","25.22743","6501000","淡水區"
"251011","650-BX","2019/10/19 17:29:20","新北市淡水區三空泉8-1號","121.475938333333","25.1612116666667","6501000","淡水區"
"251002","672-BX","2019/10/19 17:29:16","新北市淡水區中正路32巷5號","121.430533333333","25.17527","6501000","淡水區"
"251003","766-UM","2019/10/19 17:29:20","新北市淡水區中山路157號","121.440715","25.1728233333333","6501000","淡水區"
"207003","550-UM","2019/10/19 17:29:17","新北市萬里區龜吼里翡翠路17號","121.68344","25.18675","6502800","萬里區"
"252002","178-VK","2019/10/19 17:29:27","新北市三芝區忠孝街1-14號","121.505458333333","25.2539216666667","6502100","三芝區"
"237013","760-BX","2019/10/19 17:29:24","新北市三峽區中山路459巷90-1號","121.355028333333","24.9362333333333","6500900","三峽區"
"247012","KED-0683","2019/10/19 17:29:26","新北市蘆洲區三民路73號","121.475055","25.0838666666667","6501400","蘆洲區"
"252001","KED-0821","2019/10/19 17:29:14","新北市三芝區長安街119號","121.497991666667","25.2596683333333","6502100","三芝區"
"242042","AAC-296","2019/10/19 17:29:25","新北市新莊區新樹路113巷32號","121.438771666667","25.0266866666667","6500500","新莊區"
"242061","986-R7","2019/10/19 17:29:15","新北市新莊區瓊林路59-38號","121.441118333333","25.0234683333333","6500500","新莊區"
"242004","751-BX","2019/10/19 17:29:16","新北市新莊區中港路293號","121.45289","25.0441166666667","6500500","新莊區"
"242029","615-BX","2019/10/19 17:29:23","新北市新莊區復興路二段181號","121.458916666667","25.0444716666667","6500500","新莊區"
"242027","613-BX","2019/10/19 17:29:21","新北市新莊區思源路49號","121.460188333333","25.04008","6500500","新莊區"
"242058","612-BX","2019/10/19 17:29:29","新北市新莊區中正路400號","121.441928333333","25.0340683333333","6500500","新莊區"
"242048","566-BX","2019/10/19 17:29:20","新北市新莊區龍安路256號","121.421251666667","25.019615","6500500","新莊區"
"242053","497-BY","2019/10/19 17:29:13","新北市新莊區瓊林南路305巷35號","121.43582","25.00505","6500500","新莊區"
"242013","442-UM","2019/10/19 17:29:20","新北市新莊區中誠街34號","121.451533333333","25.0480616666667","6500500","新莊區"
"242002","441-UM","2019/10/19 17:29:16","新北市新莊區碧江街11號","121.455878333333","25.0349833333333","6500500","新莊區"
"242007","440-UM","2019/10/19 17:29:20","新北市新莊區中港路286號","121.45307","25.0444","6500500","新莊區"
"242051","400-BY","2019/10/19 17:29:24","新北市新莊區新樹路453號","121.432696666667","25.0134066666667","6500500","新莊區"
"242025","362-BY","2019/10/19 17:29:21","新北市新莊區中港路276號","121.453273333333","25.0441033333333","6500500","新莊區"
"242023","353-BY","2019/10/19 17:29:17","新北市新莊區公園路41號","121.453191666667","25.040155","6500500","新莊區"
"242015","132-UY","2019/10/19 17:29:18","新北市新莊區新泰路154號","121.44769","25.03737","6500500","新莊區"
"242039","135-UY","2019/10/19 17:29:18","新北市新莊區民安路301號","121.429568333333","25.022515","6500500","新莊區"
"242056","172-VK","2019/10/19 17:29:11","新北市新莊區新泰路53號","121.449405","25.0338933333333","6500500","新莊區"
"242017","173-VK","2019/10/19 17:29:23","新北市新莊區中港路307號","121.4528","25.0447016666667","6500500","新莊區"
"242031","175-VK","2019/10/19 17:29:23","新北市新莊區新泰路413巷3號","121.44332","25.044405","6500500","新莊區"
"242019","176-VK","2019/10/19 17:29:10","新北市新莊區中港路50號","121.455373333333","25.0384416666667","6500500","新莊區"
"242021","KED-0687","2019/10/19 17:29:16","新北市新莊區中正路130號","121.452781666667","25.0362116666667","6500500","新莊區"
"242044","346-TH","2019/10/19 17:29:15","新北市新莊區富國路101-1號","121.421368333333","25.0255483333333","6500500","新莊區"
"242034","347-TH","2019/10/19 17:29:20","新北市新莊區新莊路364號","121.449553333333","25.0334833333333","6500500","新莊區"
"242036","348-TH","2019/10/19 17:29:16","新北市新莊區民安路429巷1號","121.433893333333","25.0231283333333","6500500","新莊區"
"242009","349-TH","2019/10/19 17:29:25","新北市新莊區中原路228號","121.453066666667","25.0546416666667","6500500","新莊區"
"238015","755-BX","2019/10/19 17:29:17","新北市樹林區保安街一段179號","121.42157","24.9955833333333","6500700","樹林區"
"238019","571-TV","2019/10/19 17:29:12","新北市樹林區八德街102號","121.420903333333","24.9800783333333","6500700","樹林區"
"238024","5061-A6","2019/10/19 17:29:26","新北市樹林區鎮前街160號","121.424455","24.9901516666667","6500700","樹林區"
"238018","KEA-2217","2019/10/19 17:29:26","新北市樹林區博愛街226巷7號","121.424305","24.9888083333333","6500700","樹林區"
"238022","KEA-2213","2019/10/19 17:29:26","新北市樹林區忠孝街20號","121.423503333333","24.982355","6500700","樹林區"
"238021","KEA-2539","2019/10/19 17:29:32","新北市樹林區佳園路二段39號","121.391805","24.9627633333333","6500700","樹林區"
"238025","303-VK","2019/10/19 17:29:31","新北市樹林區保安街二段2號","121.416801666667","24.9993583333333","6500700","樹林區"
"238017","283-BY","2019/10/19 17:29:29","新北市樹林區中正路460號","121.412903333333","25.0124683333333","6500700","樹林區"
"238014","282-BY","2019/10/19 17:29:16","新北市樹林區保安街一段294巷20號","121.420305","24.99871","6500700","樹林區"
"238020","268-VK","2019/10/19 17:29:20","新北市樹林區俊英街21-5號","121.428955","25.0023133333333","6500700","樹林區"
"238026","172-UY","2019/10/19 17:29:17","新北市樹林區中山路二段219號","121.40272","24.97633","6500700","樹林區"
"238016","169-UY","2019/10/19 17:29:21","新北市樹林區長壽街28巷4弄12號","121.423565","24.9942466666667","6500700","樹林區"
"239007","AAC-297","2019/10/19 17:29:19","新北市鶯歌區國華路3-1號","121.342856666667","24.956785","6500800","鶯歌區"
"239006","891-R6","2019/10/19 17:29:12","新北市鶯歌區鳳鳴路105號","121.334386666667","24.9663433333333","6500800","鶯歌區"
"239008","527-UM","2019/10/19 17:29:14","新北市鶯歌區西湖街289巷5-1號","121.340185","24.9691766666667","6500800","鶯歌區"
"239005","526-UM","2019/10/19 17:29:14","新北市鶯歌區福德一路12號","121.33017","24.9671333333333","6500800","鶯歌區"
"239001","417-VK","2019/10/19 17:29:26","新北市鶯歌區尖山路235號","121.34008","24.943685","6500800","鶯歌區"
"239003","360-BY","2019/10/19 17:29:10","新北市鶯歌區德昌街50號","121.333235","24.9598016666667","6500800","鶯歌區"
"239002","359-BY","2019/10/19 17:29:16","新北市鶯歌區建國路210巷2號","121.349186666667","24.953695","6500800","鶯歌區"
"239004","193-VK","2019/10/19 17:29:18","新北市鶯歌區文化路525號","121.352851666667","24.948135","6500800","鶯歌區"
"233001","KEA-2870","2019/10/19 17:29:11","新北市烏來區瀑布5號","121.551533333333","24.84834","6502900","烏來區"
"242046","281-VK","2019/10/19 17:29:16","新北市新莊區新樹路65-5號","121.439411666667","25.0308616666667","6500500","新莊區"
"242011","280-VK","2019/10/19 17:29:15","新北市新莊區中港路471號","121.452365","25.04911","6500500","新莊區"
"235061","KEA-2875","2019/10/19 17:11:26","新北市中和區員山路36巷16-2號","121.485266666667","24.9917633333333","6500300","中和區"
"235062","KEA-2876","2019/10/19 17:29:04","新北市中和區員山路36巷16-3號","121.485043333333","24.9913166666667","6500300","中和區"
