"lineid","car","time","location","longitude","latitude","cityid","cityname"
"234026","9371-KE","2019/10/19 17:59:20","新北市永和區水源街2巷5-1號","121.512323333333","25.0054983333333","6500400","永和區"
"249005","172-UM","2019/10/19 17:59:16","新北市八里區荖阡坑路16號","121.397861666667","25.1383183333333","6502300","八里區"
"249001","173-UM","2019/10/19 17:59:18","新北市八里區龍米路二段37號","121.448396666667","25.1400566666667","6502300","八里區"
"249004","303-UY","2019/10/19 17:59:30","新北市八里區中山路一段29-1號","121.421573333333","25.1591483333333","6502300","八里區"
"249002","305-UY","2019/10/19 17:59:25","新北市八里區龍米路一段259號","121.450645","25.1336483333333","6502300","八里區"
"249003","593-UM","2019/10/19 17:59:29","新北市八里區中華路二段165巷19弄22號","121.410305","25.1516816666667","6502300","八里區"
"248008","KED-0815","2019/10/19 17:59:13","新北市五股區中興路二段180-1號","121.457638333333","25.0778516666667","6501500","五股區"
"248020","KED-0813","2019/10/19 17:59:21","新北市五股區中興路二段63巷17號","121.460288333333","25.0753066666667","6501500","五股區"
"248012","655-BX","2019/10/19 17:59:10","新北市五股區中興路二段83巷26-6號","121.459853333333","25.07514","6501500","五股區"
"248010","682-TV","2019/10/19 17:59:10","新北市五股區中興路二段182巷3號","121.456626666667","25.0780866666667","6501500","五股區"
"232011","375-UM","2019/10/19 17:59:09","新北市坪林區北宜路八段235號","121.709295","24.9351133333333","6502000","坪林區"
"244007","080-UY","2019/10/19 17:59:30","新北市林口區林口路124巷8號","121.388998333333","25.0818016666667","6501700","林口區"
"244019","402-UM","2019/10/19 17:59:21","新北市林口區忠孝路554號","121.373993333333","25.0680316666667","6501700","林口區"
"244013","KEA-2802","2019/10/19 17:59:27","新北市林口區中山路130-1號","121.392118333333","25.0786466666667","6501700","林口區"
"244023","483-VK","2019/10/19 17:59:15","新北市林口區東湖路93巷102號","121.385486666667","25.0704366666667","6501700","林口區"
"244017","485-VK","2019/10/19 17:59:19","新北市林口區忠孝路470號","121.37008","25.07072","6501700","林口區"
"244009","656-BX","2019/10/19 17:59:26","新北市林口區佳林路56巷6弄3號","121.385766666667","25.0820216666667","6501700","林口區"
"244011","701-TV","2019/10/19 17:59:17","新北市林口區中正路30巷8號","121.395946666667","25.077735","6501700","林口區"
"244025","837-TS","2019/10/19 17:59:21","新北市林口區三民路77-5號","121.358908333333","25.068575","6501700","林口區"
"244021","838-TS","2019/10/19 17:59:15","新北市林口區中正路13號","121.396963333333","25.0774333333333","6501700","林口區"
"222003","436-BY","2019/10/19 17:59:26","新北市深坑區炮子崙9號","121.603543333333","24.987195","6501800","深坑區"
"222002","659-BX","2019/10/19 17:59:16","新北市深坑區深坑街35號","121.615886666667","25.0018883333333","6501800","深坑區"
"231056","4715-K9","2019/10/19 17:59:24","新北市新店區安華路1-1號","121.519173333333","24.9604883333333","6500600","新店區"
"231040","898-TW","2019/10/19 17:59:13","新北市新店區安華路28-1號","121.519401666667","24.9608783333333","6500600","新店區"
"241024","065-VK","2019/10/19 17:59:30","新北市三重區中正北路193巷35弄63號","121.478551666667","25.0713866666667","6500200","三重區"
"241016","266-UM","2019/10/19 17:59:29","新北市五股區凌雲路二段18巷62-5號","121.44073","25.1062966666667","6500200","三重區"
"241033","AAC-255","2019/10/19 17:59:25","新北市三重區光復路一段68巷22號","121.471011666667","25.04921","6500200","三重區"
"235066","003-UY","2019/10/19 17:59:27","新北市中和區員山路36巷16-3號","121.485055","24.9914283333333","6500300","中和區"
"235063","006-UY","2019/10/19 17:59:19","新北市中和區員山路36巷16-3號","121.484926666667","24.9913533333333","6500300","中和區"
"235065","098-UM","2019/10/19 17:59:13","新北市中和區橋和路292號","121.496713333333","25.0069833333333","6500300","中和區"
"235058","151-BY","2019/10/19 17:59:14","新北市中和區圓通路367巷33弄25號","121.495066666667","24.9854783333333","6500300","中和區"
"235038","185-VK","2019/10/19 17:57:50","新北市中和區中正路283號","121.494031666667","24.9937566666667","6500300","中和區"
"235042","KEA-2878","2019/10/19 17:59:14","新北市中和區中正路273-3號","121.49559","24.9935416666667","6500300","中和區"
"247016","KEA-2869","2019/10/19 17:59:13","新北市蘆洲區中正路185巷78弄2號","121.466108333333","25.08449","6501400","蘆洲區"
"235045","551-UM","2019/10/19 17:59:18","新北市中和區員山路36巷16-2號","121.485153333333","24.9916566666667","6500300","中和區"
"235070","558-UM","2019/10/19 17:59:14","新北市中和區中正路637巷52弄1號","121.485431666667","24.9934066666667","6500300","中和區"
"235054","640-BX","2019/10/19 17:59:26","新北市中和區莒光路207號","121.469716666667","24.9955166666667","6500300","中和區"
"235057","801-TS","2019/10/19 17:59:13","新北市中和區民安街127號","121.47694","25.0000083333333","6500300","中和區"
"235064","911-UM","2019/10/19 17:59:20","新北市中和區中正路250號","121.495648333333","24.9938933333333","6500300","中和區"
"235051","157-BY","2019/10/19 17:59:29","新北市中和區錦和路350-1號","121.490343333333","24.99359","6500300","中和區"
"235037","AAC-213","2019/10/19 17:59:31","新北市中和區景平路155號","121.513546666667","24.9923833333333","6500300","中和區"
"247006","893-R6","2019/10/19 17:59:14","新北市蘆洲區中華街20號","121.462935","25.0814016666667","6501400","蘆洲區"
"247014","056-VK","2019/10/19 17:59:12","新北市蘆洲區復興路13-1號","121.472213333333","25.0854166666667","6501400","蘆洲區"
"247018","053-VK","2019/10/19 17:59:26","新北市蘆洲區復興路252號","121.479843333333","25.0896416666667","6501400","蘆洲區"
"247002","001-UY","2019/10/19 17:59:25","新北市蘆洲區永平街32巷45弄35號","121.4582","25.0931283333333","6501400","蘆洲區"
"226004","312-R5","2019/10/19 17:59:16","新北市平溪區石底里公園街18-3號","121.733403333333","25.0257266666667","6502400","平溪區"
"228003","097-TW","2019/10/19 17:59:13","新北市貢寮區真理里美艷山街6-2號","121.928841666667","25.060785","6502600","貢寮區"
"228001","212-TW","2019/10/19 17:59:20","新北市貢寮區真理里新港街26巷53號","121.928018333333","25.05358","6502600","貢寮區"
"228002","663-BX","2019/10/19 17:59:16","新北市貢寮區福隆里桂安街17號","121.965653333333","25.0219066666667","6502600","貢寮區"
"224006","676-BX","2019/10/19 17:59:13","新北市瑞芳區傑魚坑路183號","121.788571666667","25.1081966666667","6501200","瑞芳區"
"224009","275-VK","2019/10/19 17:59:26","新北市瑞芳區山尖路2號","121.854356666667","25.1159166666667","6501200","瑞芳區"
"224008","273-VK","2019/10/19 17:59:22","新北市瑞芳區明燈路一段45巷100號","121.821151666667","25.1040533333333","6501200","瑞芳區"
"224005","271-BY","2019/10/19 17:59:27","新北市瑞芳區深澳路67-1號","121.818345","25.129855","6501200","瑞芳區"
"227001","400-TW","2019/10/19 17:59:28","新北市雙溪區三貂里定福路1-2號","121.850723333333","25.0634266666667","6502500","雙溪區"
"253005","032-BX","2019/10/19 17:59:12","新北市石門區中山路62-7號","121.567303333333","25.29017","6502200","石門區"
"253006","295-VK","2019/10/19 17:59:19","新北市石門區大丘田45-2號","121.549813333333","25.2748333333333","6502200","石門區"
"222001","KEA-2212","2019/10/19 17:59:23","新北市深坑區北深路三段34號","121.609105","25.0009966666667","6501800","深坑區"
"208002","KEA-2872","2019/10/19 17:59:11","新北市金山區三界壇路34號","121.625318333333","25.2285233333333","6502700","金山區"
"208003","665-BX","2019/10/19 17:59:30","新北市金山區磺港里磺港路192-1號","121.646046666667","25.22757","6502700","金山區"
"251009","008-UM","2019/10/19 17:59:20","新北市淡水區原德路3號","121.441911666667","25.171015","6501000","淡水區"
"251005","010-UM","2019/10/19 17:59:25","新北市淡水區英專路133號","121.446446666667","25.1727116666667","6501000","淡水區"
"251015","KEA-2871","2019/10/19 17:59:27","新北市淡水區興福寮100號","121.487063333333","25.164475","6501000","淡水區"
"251016","179-VK","2019/10/19 17:59:10","新北市淡水區埤島28號","121.447625","25.1983266666667","6501000","淡水區"
"251004","180-VK","2019/10/19 17:59:27","新北市淡水區民權路187號","121.459676666667","25.1334683333333","6501000","淡水區"
"251008","181-VK","2019/10/19 17:59:21","新北市淡水區八勢一街67號","121.461915","25.155285","6501000","淡水區"
"251013","182-VK","2019/10/19 17:59:25","新北市淡水區泉洲厝31號","121.479515","25.1910166666667","6501000","淡水區"
"251010","413-VK","2019/10/19 17:59:21","新北市淡水區中正路一段87巷1號","121.421716666667","25.1791466666667","6501000","淡水區"
"251012","441-VK","2019/10/19 17:59:15","新北市淡水區北新路三段33號","121.483755","25.1867316666667","6501000","淡水區"
"251001","559-UM","2019/10/19 17:59:14","新北市淡水區民權路94巷1號","121.463148333333","25.124935","6501000","淡水區"
"251006","561-UM","2019/10/19 17:59:25","新北市淡水區新生街20-4號","121.438845","25.1738","6501000","淡水區"
"251014","577-R6","2019/10/19 17:59:10","新北市淡水區公埔子16-6號","121.481028333333","25.22457","6501000","淡水區"
"251011","650-BX","2019/10/19 17:53:00","新北市淡水區吳(仔)厝7-1號","121.480373333333","25.14722","6501000","淡水區"
"251002","672-BX","2019/10/19 17:59:16","新北市淡水區鼻頭街18-1號","121.446796666667","25.16668","6501000","淡水區"
"251003","766-UM","2019/10/19 17:59:20","新北市淡水區大忠街47號","121.444638333333","25.176455","6501000","淡水區"
"207003","550-UM","2019/10/19 17:59:17","新北市萬里區野柳里東澳路66號","121.692748333333","25.2009466666667","6502800","萬里區"
"207004","291-VK","2019/10/19 17:59:11","新北市萬里區萬里里瑪鋉路5號","121.685958333333","25.17492","6502800","萬里區"
"252002","178-VK","2019/10/19 17:59:27","新北市三芝區中山路二段29號","121.502785","25.2553566666667","6502100","三芝區"
"208001","170-UY","2019/10/19 17:59:24","新北市金山區磺港里磺港路248號","121.643808333333","25.2250483333333","6502700","金山區"
"237004","KEA-2597","2019/10/19 17:59:22","新北市三峽區中正路二段395巷36號","121.366363333333","24.90798","6500900","三峽區"
"237007","153-BY","2019/10/19 17:59:19","新北市三峽區中園街143號","121.367366666667","24.9232066666667","6500900","三峽區"
"237009","210-TH","2019/10/19 17:59:13","新北市三峽區中山路106巷15號","121.366068333333","24.936285","6500900","三峽區"
"237012","275-BY","2019/10/19 17:59:14","新北市三峽區民生街25號","121.375918333333","24.9364766666667","6500900","三峽區"
"237008","302-VK","2019/10/19 17:59:22","新北市三峽區白雞38-7號","121.373245","24.9124633333333","6500900","三峽區"
"237014","433-BY","2019/10/19 17:59:28","新北市三峽區和平街36巷4號","121.370528333333","24.937135","6500900","三峽區"
"237006","5529-G3","2019/10/19 17:59:31","新北市三峽區介壽路二段138巷1弄92-6號","121.397726666667","24.9318266666667","6500900","三峽區"
"237011","KEA-2596","2019/10/19 17:59:26","新北市三峽區中正路一段48號","121.375225","24.9303583333333","6500900","三峽區"
"237015","649-BX","2019/10/19 17:59:13","新北市三峽區紫微路74號","121.412215","24.9159866666667","6500900","三峽區"
"237010","706-TV","2019/10/19 17:59:30","新北市三峽區仁愛街1號","121.368398333333","24.9341566666667","6500900","三峽區"
"237013","760-BX","2019/10/19 17:59:24","新北市三峽區介壽路一段69號","121.37578","24.9325166666667","6500900","三峽區"
"237005","AKY-6261","2019/10/19 17:59:30","新北市三峽區復興路235號","121.36818","24.9387683333333","6500900","三峽區"
"236042","KED-0685","2019/10/19 17:59:22","新北市土城區城林路6巷80號","121.43852","24.9796283333333","6501300","土城區"
"233002","762-BX","2019/10/19 17:59:25","新北市烏來區西羅岸路22號","121.549166666667","24.86744","6502900","烏來區"
"236079","166-UM","2019/10/19 17:59:20","新北市土城區永寧路32巷10弄3號","121.428871666667","24.960995","6501300","土城區"
"236030","253-BX","2019/10/19 17:59:16","新北市土城區城林路6巷80號","121.438363333333","24.9797666666667","6501300","土城區"
"236026","269-VK","2019/10/19 17:59:26","新北市土城區承天路1號","121.435755","24.96652","6501300","土城區"
"236014","270-VK","2019/10/19 17:59:10","新北市土城區城林路6巷80號","121.438461666667","24.9796883333333","6501300","土城區"
"236038","271-VK","2019/10/19 17:59:14","新北市土城區城林路6巷80號","121.438486666667","24.9797833333333","6501300","土城區"
"236070","KEA-2877","2019/10/19 17:59:21","新北市土城區青雲路665-1號","121.466131666667","24.9648933333333","6501300","土城區"
"252001","KED-0821","2019/10/19 17:59:14","新北市三芝區中興街二段2號","121.498405","25.2566766666667","6502100","三芝區"
"236021","401-BY","2019/10/19 17:59:25","新北市土城區城林路6巷80號","121.438408333333","24.9797533333333","6501300","土城區"
"236063","752-BX","2019/10/19 17:59:14","新北市土城區城林路6巷80號","121.438475","24.9797316666667","6501300","土城區"
"236059","912-UM","2019/10/19 17:59:30","新北市土城區中央路三段280號","121.426693333333","24.96374","6501300","土城區"
"236049","913-UM","2019/10/19 17:59:29","新北市土城區中華路一段301號","121.439761666667","24.9794116666667","6501300","土城區"
"236055","AAC-216","2019/10/19 17:59:24","新北市土城區城林路6巷80號","121.438488333333","24.97963","6501300","土城區"
"242042","AAC-296","2019/10/19 17:59:25","新北市泰山區壽山路50號","121.420285","25.029125","6500500","新莊區"
"242061","986-R7","2019/10/19 17:59:18","新北市新莊區新樹路262號","121.432683333333","25.0147383333333","6500500","新莊區"
"242004","751-BX","2019/10/19 17:59:16","新北市新莊區思源路177巷31號","121.45917","25.04666","6500500","新莊區"
"242029","615-BX","2019/10/19 17:59:22","新北市新莊區中平路110巷13號","121.44575","25.04597","6500500","新莊區"
"242027","613-BX","2019/10/19 17:59:24","新北市新莊區思源路379號","121.459686666667","25.0512916666667","6500500","新莊區"
"242058","612-BX","2019/10/19 17:59:09","新北市新莊區雙鳳路134巷5號","121.412716666667","25.0281066666667","6500500","新莊區"
"242048","566-BX","2019/10/19 17:59:20","新北市新莊區萬安街60巷11號","121.420533333333","25.0233116666667","6500500","新莊區"
"242053","497-BY","2019/10/19 17:59:13","新北市新莊區光華街12號","121.428831666667","25.0108583333333","6500500","新莊區"
"242013","442-UM","2019/10/19 17:59:20","新北市新莊區中和街125巷11號","121.446656666667","25.04849","6500500","新莊區"
"242002","441-UM","2019/10/19 17:59:16","新北市新莊區中正路153-3號","121.455896666667","25.0367616666667","6500500","新莊區"
"242007","440-UM","2019/10/19 17:59:20","新北市新莊區自信街75巷11號","121.455693333333","25.048765","6500500","新莊區"
"242051","400-BY","2019/10/19 17:59:24","新北市新莊區龍安路500號","121.426623333333","25.0170833333333","6500500","新莊區"
"242025","362-BY","2019/10/19 17:59:21","新北市三重區新北大道二段65號","121.469155","25.061565","6500500","新莊區"
"242023","353-BY","2019/10/19 17:59:24","新北市新莊區福壽街43號","121.458185","25.0486533333333","6500500","新莊區"
"242015","132-UY","2019/10/19 17:59:17","新北市新莊區中平路87巷8號","121.444288333333","25.045775","6500500","新莊區"
"242039","135-UY","2019/10/19 17:59:18","新北市新莊區民安西路22號","121.426703333333","25.02135","6500500","新莊區"
"242056","172-VK","2019/10/19 17:59:31","新北市新莊區豐年街124巷18號","121.445501666667","25.0298283333333","6500500","新莊區"
"242017","173-VK","2019/10/19 17:59:28","新北市新莊區中和街60巷35號","121.449486666667","25.044955","6500500","新莊區"
"242031","175-VK","2019/10/19 17:59:23","新北市新莊區新泰路349號","121.444633333333","25.0422966666667","6500500","新莊區"
"242019","176-VK","2019/10/19 17:59:30","新北市新莊區明中街49巷15號","121.45674","25.03897","6500500","新莊區"
"242021","KED-0687","2019/10/19 17:59:16","新北市新莊區中正路178號","121.450196666667","25.0357016666667","6500500","新莊區"
"242044","346-TH","2019/10/19 17:59:15","新北市新莊區雙鳳路78號","121.415045","25.027655","6500500","新莊區"
"242034","347-TH","2019/10/19 17:59:20","新北市新莊區中正路421巷22號","121.444595","25.033515","6500500","新莊區"
"242036","348-TH","2019/10/19 17:59:28","新北市新莊區中正路685號","121.42599","25.0297283333333","6500500","新莊區"
"242009","349-TH","2019/10/19 17:59:25","新北市新莊區中華路二段294號","121.452413333333","25.0538866666667","6500500","新莊區"
"238015","755-BX","2019/10/19 17:59:17","新北市樹林區大安路307巷2弄10號","121.417911666667","24.9917283333333","6500700","樹林區"
"238023","601-UM","2019/10/19 17:59:14","新北市樹林區龍興街58號","121.403125","25.0152783333333","6500700","樹林區"
"238019","571-TV","2019/10/19 17:59:12","新北市樹林區太平路148號","121.418528333333","24.9781566666667","6500700","樹林區"
"238018","KEA-2217","2019/10/19 17:59:26","新北市樹林區中正路7-1號","121.43021","24.99759","6500700","樹林區"
"238022","KEA-2213","2019/10/19 17:59:26","新北市樹林區太順街51巷1號","121.417635","24.9791066666667","6500700","樹林區"
"238021","KEA-2539","2019/10/19 17:59:12","新北市樹林區柑園街一段192號","121.395261666667","24.95654","6500700","樹林區"
"238025","303-VK","2019/10/19 17:59:11","新北市樹林區三俊街14號","121.411278333333","25.015365","6500700","樹林區"
"238017","283-BY","2019/10/19 17:59:30","新北市樹林區中正路620號","121.41024","25.0158933333333","6500700","樹林區"
"238014","282-BY","2019/10/19 17:59:16","新北市樹林區千歲街61巷40弄9號","121.425946666667","24.99901","6500700","樹林區"
"238020","268-VK","2019/10/19 17:59:20","新北市樹林區三俊街199巷29-1號","121.42038","25.0174216666667","6500700","樹林區"
"238026","172-UY","2019/10/19 17:59:19","新北市樹林區中洲街30巷13弄41號","121.398211666667","24.9724466666667","6500700","樹林區"
"238016","169-UY","2019/10/19 17:59:21","新北市樹林區啟智街151巷2號","121.416616666667","24.9879983333333","6500700","樹林區"
"239007","AAC-297","2019/10/19 17:59:19","新北市鶯歌區鶯桃路45-2號","121.342131666667","24.95173","6500800","鶯歌區"
"239006","891-R6","2019/10/19 17:59:32","新北市鶯歌區鶯桃路413巷39號","121.330421666667","24.9633016666667","6500800","鶯歌區"
"239008","527-UM","2019/10/19 17:59:30","新北市鶯歌區香賓街11巷17號","121.33615","24.9796416666667","6500800","鶯歌區"
"239005","526-UM","2019/10/19 17:59:14","新北市鶯歌區鳳吉五街11號","121.326663333333","24.9724416666667","6500800","鶯歌區"
"239001","417-VK","2019/10/19 17:59:27","新北市鶯歌區中正三路472號","121.320976666667","24.93413","6500800","鶯歌區"
"239003","360-BY","2019/10/19 17:59:09","新北市鶯歌區鶯桃路213-1號","121.336983333333","24.9589566666667","6500800","鶯歌區"
"239002","359-BY","2019/10/19 17:59:16","新北市鶯歌區育英街17巷1弄3號","121.347471666667","24.95525","6500800","鶯歌區"
"239004","193-VK","2019/10/19 17:59:18","新北市鶯歌區中正二路91號","121.348623333333","24.9495733333333","6500800","鶯歌區"
"221008","489-VK","2019/10/19 17:59:24","新北市汐止區康寧街607號","121.635903333333","25.0708616666667","6501100","汐止區"
"221010","269-BY","2019/10/19 17:59:19","新北市汐止區汐萬路二段218-1號","121.646891666667","25.087495","6501100","汐止區"
"221023","279-VK","2019/10/19 17:59:19","新北市汐止區明峰街45號","121.633626666667","25.0713116666667","6501100","汐止區"
"221029","298-VK","2019/10/19 17:59:15","新北市汐止區樟樹二路264號","121.640773333333","25.0682266666667","6501100","汐止區"
"221031","353-TW","2019/10/19 17:59:25","新北市汐止區中興路96巷1-3號","121.635245","25.0625333333333","6501100","汐止區"
"221035","622-UM","2019/10/19 17:59:29","新北市汐止區汐萬路一段211巷13號","121.651725","25.0719716666667","6501100","汐止區"
"221025","623-UM","2019/10/19 17:59:15","新北市汐止區仁愛路17號","121.659246666667","25.0639966666667","6501100","汐止區"
"221038","646-BX","2019/10/19 17:59:27","新北市汐止區新台五路一段148號","121.653341666667","25.06205","6501100","汐止區"
"221033","647-BX","2019/10/19 17:59:25","新北市汐止區合順街52號","121.620676666667","25.0431666666667","6501100","汐止區"
"221018","753-BX","2019/10/19 17:59:09","新北市汐止區忠孝東路339巷8號","121.664478333333","25.0702016666667","6501100","汐止區"
"233001","KEA-2870","2019/10/19 17:59:31","新北市烏來區西羅岸路22號","121.549326666667","24.867365","6502900","烏來區"
"224002","257-TC","2019/10/19 17:59:17","新北市瑞芳區三爪子坑路2號","121.810226666667","25.106895","6501200","瑞芳區"
"242046","281-VK","2019/10/19 17:59:31","新北市新莊區福營路171號","121.431615","25.0311516666667","6500500","新莊區"
"242011","280-VK","2019/10/19 17:59:15","新北市新莊區中港路中慶巷27弄4號","121.450025","25.0536483333333","6500500","新莊區"
"235061","KEA-2875","2019/10/19 17:58:59","新北市中和區連城路569巷9弄24號","121.479496666667","24.9934866666667","6500300","中和區"
"235062","KEA-2876","2019/10/19 17:59:16","新北市中和區民樂路77號","121.484515","25.001325","6500300","中和區"
