"lineid","car","time","location","longitude","latitude","cityid","cityname"
"234046","148-BY","2019/10/19 19:49:26","新北市永和區永利路125號","121.524118333333","25.0030083333333","6500400","永和區"
"234081","298-R6","2019/10/19 19:49:17","新北市永和區永亨路98號","121.523065","25.0049116666667","6500400","永和區"
"234038","336-UY","2019/10/19 19:49:22","新北市永和區成功路二段129巷10-1號","121.527296666667","24.998225","6500400","永和區"
"234064","337-UY","2019/10/19 19:49:18","新北市永和區中正路404號","121.517725","25.0018983333333","6500400","永和區"
"234086","338-UY","2019/10/19 19:49:23","新北市永和區永利路6-1號","121.517636666667","25.0059133333333","6500400","永和區"
"234070","552-UM","2019/10/19 19:49:28","新北市永和區竹林路88號","121.519463333333","25.012585","6500400","永和區"
"234017","745-BX","2019/10/19 19:49:24","新北市永和區永和路二段299號","121.516096666667","25.0160783333333","6500400","永和區"
"234030","746-BX","2019/10/19 19:49:16","新北市永和區民生路22巷9號","121.52195","24.99717","6500400","永和區"
"234054","KEA-2590","2019/10/19 19:49:25","新北市永和區竹林路39巷28弄25號","121.519798333333","25.014405","6500400","永和區"
"234007","KED-0605","2019/10/19 19:49:17","新北市中和區中山路二段67號","121.504085","25.00454","6500400","永和區"
"234013","KEA-2591","2019/10/19 19:49:27","新北市永和區仁愛路247號","121.508671666667","25.0117483333333","6500400","永和區"
"234042","862-TW","2019/10/19 19:49:12","新北市永和區中和路389巷39號","121.508115","25.0016133333333","6500400","永和區"
"234050","863-TW","2019/10/19 19:49:18","新北市永和區保安路144號","121.50852","25.014855","6500400","永和區"
"234026","9371-KE","2019/10/19 19:49:18","新北市永和區雙和街52巷2號","121.508963333333","25.0031083333333","6500400","永和區"
"234011","9373-KE","2019/10/19 19:49:19","新北市永和區仁愛路352巷112弄12號","121.501133333333","25.008555","6500400","永和區"
"249005","172-UM","2019/10/19 19:49:15","新北市八里區中華路三段192-1號","121.391146666667","25.1278066666667","6502300","八里區"
"249001","173-UM","2019/10/19 19:49:30","新北市八里區中華路二段201-27號","121.405758333333","25.1499033333333","6502300","八里區"
"249004","303-UY","2019/10/19 19:49:15","新北市八里區仁愛路15號","121.413743333333","25.1611633333333","6502300","八里區"
"249002","305-UY","2019/10/19 19:49:25","新北市八里區頂寮五街17號","121.451483333333","25.1259666666667","6502300","八里區"
"249003","593-UM","2019/10/19 19:49:18","新北市八里區華峰三街37號","121.398545","25.145435","6502300","八里區"
"248014","025-BX","2019/10/19 19:49:20","","121.434803333333","25.088745","6501500","五股區"
"248016","026-BX","2019/10/19 19:49:10","","121.453811666667","25.106715","6501500","五股區"
"248008","KED-0815","2019/10/19 19:49:15","新北市五股區四維路169號","121.467681666667","25.0750833333333","6501500","五股區"
"248020","KED-0813","2019/10/19 19:49:21","新北市五股區中直路23號","121.422338333333","25.1134383333333","6501500","五股區"
"248012","655-BX","2019/10/19 19:49:31","","121.435621666667","25.0794566666667","6501500","五股區"
"248004","677-BX","2019/10/19 19:49:30","","121.434881666667","25.0670166666667","6501500","五股區"
"248002","678-BX","2019/10/19 19:49:20","","121.453405","25.1067183333333","6501500","五股區"
"248010","682-TV","2019/10/19 19:49:10","","121.429648333333","25.069935","6501500","五股區"
"234023","9380-KE","2019/10/19 19:49:28","新北市永和區保生路64號","121.504735","25.0089433333333","6500400","永和區"
"234077","969-R7","2019/10/19 19:49:28","新北市永和區民治街97巷7號","121.516875","24.9980333333333","6500400","永和區"
"234074","AAC-211","2019/10/19 19:49:22","新北市永和區豫溪街136巷5號","121.521303333333","25.00993","6500400","永和區"
"234067","AAC-212","2019/10/19 19:49:14","新北市永和區中山路一段147號","121.510115","25.0095583333333","6500400","永和區"
"234003","AAC-295","2019/10/19 19:49:24","","121.516133333333","25.0073233333333","6500400","永和區"
"243012","AAD-798","2019/10/19 19:49:24","新北市泰山區仁愛路100巷40號","121.433576666667","25.0545416666667","6501600","泰山區"
"243002","297-R6","2019/10/19 19:23:26","新北市泰山區明志路二段34號","121.429521666667","25.0533716666667","6501600","泰山區"
"243014","KEA-2801","2019/10/19 19:49:10","新北市泰山區泰林路二段33-7號","121.435413333333","25.056665","6501600","泰山區"
"243016","421-VK","2019/10/19 19:49:15","新北市泰山區新北大道六段347號","121.42315","25.0333816666667","6501600","泰山區"
"243009","KEA-2215","2019/10/19 19:49:29","新北市泰山區美寧街60號","121.430975","25.0646583333333","6501600","泰山區"
"243011","KEA-2216","2019/10/19 19:49:20","新北市泰山區明志路三段204巷10弄15號","121.422888333333","25.0387733333333","6501600","泰山區"
"222003","436-BY","2019/10/19 19:49:26","新北市深坑區深南路51-1號","121.621151666667","25.0099133333333","6501800","深坑區"
"222002","659-BX","2019/10/19 19:49:15","新北市深坑區北深路一段177號","121.632558333333","25.0108366666667","6501800","深坑區"
"231061","002-UM","2019/10/19 19:49:25","新北市新店區安民街259號","121.517331666667","24.9726383333333","6500600","新店區"
"231044","046-UY","2019/10/19 19:49:19","新北市新店區復興路46號","121.538271666667","24.986745","6500600","新店區"
"231060","106-UY","2019/10/19 19:49:12","新北市新店區安康路二段161號","121.51019","24.9593","6500600","新店區"
"231051","107-UY","2019/10/19 19:49:24","新北市新店區中央三街50號","121.527475","24.9746283333333","6500600","新店區"
"231049","108-UY","2019/10/19 19:49:12","新北市新店區民權路123號","121.53569","24.982685","6500600","新店區"
"231065","110-UY","2019/10/19 19:49:19","新北市新店區安祥路109巷151弄16號","121.47778","24.9588066666667","6500600","新店區"
"231068","187-VK","2019/10/19 19:49:27","新北市新店區安一路一段1-1號","121.519705","24.961215","6500600","新店區"
"231062","256-BX","2019/10/19 19:49:29","新北市新店區永業路97號","121.52885","24.9488016666667","6500600","新店區"
"231054","260-TV","2019/10/19 19:49:26","新北市新店區光明街11號","121.538391666667","24.9592766666667","6500600","新店區"
"231042","268-BY","2019/10/19 19:49:29","新北市新店區中興路一段266-6號","121.545053333333","24.9677183333333","6500600","新店區"
"231064","278-BY","2019/10/19 19:49:21","新北市新店區光華街8巷17號","121.51798","24.9693783333333","6500600","新店區"
"231050","AAD-862","2019/10/19 19:49:16","新北市新店區北宜路二段196-1號","121.559046666667","24.9543183333333","6500600","新店區"
"231045","355-BY","2019/10/19 19:49:27","新北市新店區北宜路二段443號","121.561226666667","24.9542116666667","6500600","新店區"
"231055","4716-K9","2019/10/19 19:49:15","新北市新店區力行路90-1號","121.538431666667","24.9664783333333","6500600","新店區"
"231052","512-UM","2019/10/19 19:49:19","新北市新店區新烏路三段251號","121.546371666667","24.895335","6500600","新店區"
"231041","619-UM","2019/10/19 19:49:11","新北市新店區中央路155號","121.529648333333","24.9727333333333","6500600","新店區"
"231063","641-BX","2019/10/19 19:49:13","新北市新店區黎明路3號","121.503155","24.9521283333333","6500600","新店區"
"231048","KED-0819","2019/10/19 19:49:27","新北市新店區五峰路61巷4號","121.547945","24.9698333333333","6500600","新店區"
"231046","719-UM","2019/10/19 19:45:26","新北市新店區福園街10巷3號","121.53265","24.9728366666667","6500600","新店區"
"231057","720-UM","2019/10/19 19:49:15","新北市新店區梅崗三路1號","121.558403333333","24.9313","6500600","新店區"
"231059","897-TW","2019/10/19 19:49:31","新北市新店區安和路二段177號","121.518416666667","24.974595","6500600","新店區"
"231040","898-TW","2019/10/19 19:49:13","新北市新店區中正路75巷71號","121.543135","24.96879","6500600","新店區"
"231043","899-TW","2019/10/19 19:49:16","新北市新店區中正路263-3號","121.538393333333","24.9738566666667","6500600","新店區"
"231066","AKT-0513","2019/10/19 19:49:12","新北市新店區安康路三段165巷4號","121.489605","24.9512933333333","6500600","新店區"
"241011","013-R5","2019/10/19 19:49:18","新北市三重區介壽路41號","121.498625","25.07003","6500200","三重區"
"241028","022-UY","2019/10/19 19:49:25","新北市三重區中正南路113號","121.494138333333","25.0576066666667","6500200","三重區"
"241008","059-VK","2019/10/19 19:49:19","新北市三重區永福街98巷1號","121.47907","25.0758083333333","6500200","三重區"
"241031","061-VK","2019/10/19 19:49:20","新北市三重區重新路四段206-5號","121.485873333333","25.0544783333333","6500200","三重區"
"241015","062-VK","2019/10/19 19:49:12","新北市三重區重新路一段1號","121.50379","25.0642983333333","6500200","三重區"
"241017","063-VK","2019/10/19 19:49:24","新北市三重區重陽路三段5巷8弄20號","121.489606666667","25.0665316666667","6500200","三重區"
"241024","065-VK","2019/10/19 19:49:10","新北市三重區大勇街82巷15弄11號","121.480208333333","25.0719933333333","6500200","三重區"
"241007","066-VK","2019/10/19 19:49:17","新北市三重區三和路四段145巷5號","121.484506666667","25.078325","6500200","三重區"
"241003","091-VK","2019/10/19 19:49:17","新北市三重區五華街93巷87號","121.493823333333","25.08488","6500200","三重區"
"241006","262-UM","2019/10/19 19:49:22","新北市三重區力行路二段76巷1弄12號","121.481458333333","25.0739666666667","6500200","三重區"
"241016","266-UM","2019/10/19 19:49:29","新北市三重區正德街45號","121.495778333333","25.06283","6500200","三重區"
"241009","267-UM","2019/10/19 19:49:26","新北市三重區三和路四段225號","121.481381666667","25.0797133333333","6500200","三重區"
"241018","268-UM","2019/10/19 19:49:15","新北市三重區雙園街57巷1號","121.494865","25.0675666666667","6500200","三重區"
"241032","269-UM","2019/10/19 19:49:23","新北市三重區重陽路一段44巷14號","121.485628333333","25.057755","6500200","三重區"
"241013","270-UM","2019/10/19 19:49:11","新北市三重區三和路三段105號","121.494213333333","25.0726883333333","6500200","三重區"
"241025","271-UM","2019/10/19 19:49:22","新北市三重區頂崁街210巷3號","121.476793333333","25.0677683333333","6500200","三重區"
"241030","KED-0822","2019/10/19 19:49:20","新北市三重區環河南路254巷21號","121.490201666667","25.0510516666667","6500200","三重區"
"241035","462-BY","2019/10/19 19:49:15","新北市三重區文化北路8號","121.499325","25.063535","6500200","三重區"
"241004","475-VK","2019/10/19 19:49:20","新北市三重區五華街74號","121.493391666667","25.08201","6500200","三重區"
"241020","478-VK","2019/10/19 19:49:17","新北市三重區忠孝路一段87號","121.48983","25.0721566666667","6500200","三重區"
"241026","480-VK","2019/10/19 19:49:29","新北市三重區中央南路47號","121.501296666667","25.061865","6500200","三重區"
"241014","543-UM","2019/10/19 19:49:24","新北市三重區長元街98巷18弄7號","121.502245","25.0676033333333","6500200","三重區"
"241001","547-UM","2019/10/19 19:49:22","新北市三重區仁愛街325號","121.492313333333","25.0795316666667","6500200","三重區"
"241019","KEA-2593","2019/10/19 19:49:16","新北市三重區自強路二段74巷17號","121.488058333333","25.0699916666667","6500200","三重區"
"241005","AAD-863","2019/10/19 19:49:21","新北市三重區溪尾街396號","121.489126666667","25.085855","6500200","三重區"
"241012","743-BX","2019/10/19 19:49:27","新北市三重區仁興街56巷12號","121.498666666667","25.0756866666667","6500200","三重區"
"241023","887-TS","2019/10/19 19:49:27","新北市三重區頂崁街168號","121.477506666667","25.0658766666667","6500200","三重區"
"241029","942-UM","2019/10/19 19:49:12","新北市三重區重安街12號","121.490231666667","25.058265","6500200","三重區"
"241033","AAC-255","2019/10/19 19:49:18","新北市三重區中興南街62號","121.47056","25.044075","6500200","三重區"
"235066","003-UY","2019/10/19 19:49:27","新北市中和區景新街57巷30號","121.504588333333","24.9993733333333","6500300","中和區"
"235056","096-UM","2019/10/19 19:49:14","新北市中和區漢民路410號","121.472243333333","25.006995","6500300","中和區"
"235039","097-UM","2019/10/19 19:49:22","新北市中和區大勇街27巷18號","121.516535","24.9938183333333","6500300","中和區"
"235065","098-UM","2019/10/19 19:49:13","新北市中和區福美路269號","121.49813","25.0049833333333","6500300","中和區"
"235040","150-BY","2019/10/19 19:49:24","新北市中和區安平路59號","121.509648333333","24.9949283333333","6500300","中和區"
"235058","151-BY","2019/10/19 19:49:14","新北市中和區員山路167號","121.481133333333","24.99681","6500300","中和區"
"235055","183-VK","2019/10/19 19:49:23","","121.471243333333","25.0038633333333","6500300","中和區"
"235038","185-VK","2019/10/19 19:49:10","新北市中和區自立路6號","121.52241","24.9965833333333","6500300","中和區"
"235067","255-BX","2019/10/19 19:49:25","新北市中和區員山路148巷23弄7號","121.482146666667","24.99765","6500300","中和區"
"235044","293-VK","2019/10/19 19:49:28","新北市中和區板南路132號","121.502508333333","24.992515","6500300","中和區"
"235072","301-VK","2019/10/19 19:49:26","新北市中和區中正路434號","121.491236666667","24.9943016666667","6500300","中和區"
"235043","352-BY","2019/10/19 19:49:21","新北市中和區興南路二段159巷12號","121.505128333333","24.9830383333333","6500300","中和區"
"235042","KEA-2878","2019/10/19 19:49:14","新北市中和區宜安路159號","121.508921666667","24.998935","6500300","中和區"
"247016","KEA-2869","2019/10/19 19:49:26","新北市蘆洲區中正路245號","121.467786666667","25.0869583333333","6501400","蘆洲區"
"235050","4979-A6","2019/10/19 19:49:30","新北市中和區景平路241巷84弄54號","121.506078333333","24.9924233333333","6500300","中和區"
"235069","4980-A6","2019/10/19 19:49:25","新北市中和區圓通路207號","121.497091666667","24.9944083333333","6500300","中和區"
"235070","558-UM","2019/10/19 19:49:14","新北市中和區圓通路208號","121.49606","24.9939033333333","6500300","中和區"
"235047","732-UM","2019/10/19 19:49:13","新北市中和區和平街74號","121.507765","24.9911466666667","6500300","中和區"
"235046","733-UM","2019/10/19 19:49:09","新北市中和區仁愛街2號","121.510476666667","24.989295","6500300","中和區"
"235041","802-TS","2019/10/19 19:49:28","新北市中和區中安街166號","121.510868333333","25.00009","6500300","中和區"
"235052","805-TS","2019/10/19 19:49:23","新北市中和區華新街30巷41號","121.50648","24.9838733333333","6500300","中和區"
"235048","896-TW","2019/10/19 19:49:15","新北市中和區興南路一段47號","121.510921666667","24.9903366666667","6500300","中和區"
"235053","900-TW","2019/10/19 19:49:24","新北市中和區民德路216號","121.468175","24.9980933333333","6500300","中和區"
"235051","157-BY","2019/10/19 19:49:09","新北市中和區中興街180巷33號","121.498276666667","24.98905","6500300","中和區"
"235037","AAC-213","2019/10/19 19:49:11","","121.522333333333","24.9932283333333","6500300","中和區"
"235059","AAC-215","2019/10/19 19:49:25","新北市中和區圓通路305巷29弄2號","121.495026666667","24.9891116666667","6500300","中和區"
"220065","072-UY","2019/10/19 19:49:19","新北市板橋區國泰街39巷5弄4號","121.468626666667","25.0059833333333","6500100","板橋區"
"220086","073-UY","2019/10/19 19:49:13","新北市板橋區國光路166號","121.460303333333","25.0181866666667","6500100","板橋區"
"220106","075-UY","2019/10/19 19:49:23","新北市板橋區民治街52巷1號","121.479426666667","25.03321","6500100","板橋區"
"220069","AAD-861","2019/10/19 19:49:23","新北市板橋區大明街20巷19弄9號","121.458081666667","25.0032016666667","6500100","板橋區"
"247004","341-TH","2019/10/19 19:49:23","新北市蘆洲區長安街207巷8號","121.459503333333","25.0821566666667","6501400","蘆洲區"
"247014","056-VK","2019/10/19 19:49:17","新北市蘆洲區中央路155號","121.472706666667","25.0846033333333","6501400","蘆洲區"
"247008","002-UY","2019/10/19 19:49:25","新北市蘆洲區信義路135號","121.479073333333","25.080325","6501400","蘆洲區"
"247002","001-UY","2019/10/19 19:49:09","新北市蘆洲區永樂街38巷57弄1號","121.458375","25.0901433333333","6501400","蘆洲區"
"226004","312-R5","2019/10/19 19:37:36","新北市平溪區靜安路三段355號","121.779841666667","25.0447833333333","6502400","平溪區"
"235049","251-BX","2019/10/19 19:49:13","新北市中和區景平路385巷34號","121.501668333333","24.994455","6500300","中和區"
"228003","097-TW","2019/10/19 19:49:13","新北市貢寮區真理里美艷山街3-1號","121.926186666667","25.05963","6502600","貢寮區"
"228001","212-TW","2019/10/19 19:49:29","新北市貢寮區真理里大澳街10巷54號","121.925795","25.0564516666667","6502600","貢寮區"
"224010","AGQ-8101","2019/10/19 19:49:25","新北市瑞芳區豎崎路18號","121.84357","25.1086933333333","6501200","瑞芳區"
"227002","642-TC","2019/10/19 19:49:27","新北市雙溪區雙溪里內挖路36號","121.863176666667","25.0367966666667","6502500","雙溪區"
"227001","400-TW","2019/10/19 19:49:28","新北市雙溪區新基里自強路2號","121.866383333333","25.0388983333333","6502500","雙溪區"
"222001","KEA-2212","2019/10/19 19:49:03","新北市深坑區北深路三段71號","121.606838333333","25.0014716666667","6501800","深坑區"
"208002","KEA-2872","2019/10/19 19:49:31","新北市金山區環金路147號","121.63451","25.2172383333333","6502700","金山區"
"208003","665-BX","2019/10/19 19:49:26","新北市金山區海興路112-1號","121.631138333333","25.2386316666667","6502700","金山區"
"251009","008-UM","2019/10/19 19:49:19","新北市淡水區中正路38-1號","121.443755","25.169245","6501000","淡水區"
"251005","010-UM","2019/10/19 19:49:25","新北市淡水區中正東路6號","121.446925","25.16717","6501000","淡水區"
"251015","KEA-2871","2019/10/19 19:49:27","新北市淡水區山子頂24-1號","121.49131","25.1871416666667","6501000","淡水區"
"251016","179-VK","2019/10/19 19:49:30","新北市淡水區三塊厝3-2號","121.456183333333","25.2091083333333","6501000","淡水區"
"251004","180-VK","2019/10/19 19:49:27","新北市淡水區民權路177巷53號","121.460525","25.13383","6501000","淡水區"
"251008","181-VK","2019/10/19 19:49:22","新北市淡水區中正路一段24巷11號","121.426715","25.1771166666667","6501000","淡水區"
"251013","182-VK","2019/10/19 19:49:25","新北市淡水區頂田寮路109號","121.458596666667","25.216205","6501000","淡水區"
"251012","441-VK","2019/10/19 19:49:15","新北市淡水區淡金路三段56號","121.448196666667","25.19961","6501000","淡水區"
"251007","442-VK","2019/10/19 19:49:25","新北市淡水區中正東路一段3巷33號","121.451985","25.1663016666667","6501000","淡水區"
"251001","559-UM","2019/10/19 19:49:14","新北市淡水區淡金路一段150號","121.458568333333","25.1653383333333","6501000","淡水區"
"251006","561-UM","2019/10/19 19:49:25","新北市淡水區水碓街15號","121.443506666667","25.1769583333333","6501000","淡水區"
"251014","577-R6","2019/10/19 19:49:30","新北市淡水區番社前1號","121.468015","25.2362216666667","6501000","淡水區"
"251011","650-BX","2019/10/19 19:49:19","新北市淡水區八勢一街77號","121.461388333333","25.1550366666667","6501000","淡水區"
"207003","550-UM","2019/10/19 19:49:17","新北市萬里區大鵬里萬里加投239號","121.642406666667","25.2166583333333","6502800","萬里區"
"207004","291-VK","2019/10/19 19:49:31","新北市萬里區萬里里瑪鋉路130號","121.690505","25.1792416666667","6502800","萬里區"
"252002","178-VK","2019/10/19 19:49:27","新北市三芝區三民街33號","121.504673333333","25.2585533333333","6502100","三芝區"
"208001","170-UY","2019/10/19 19:49:24","新北市金山區重和里六股林口81-1號","121.602986666667","25.2181666666667","6502700","金山區"
"237004","KEA-2597","2019/10/19 19:49:29","新北市三峽區添福263號","121.375491666667","24.8935616666667","6500900","三峽區"
"237007","153-BY","2019/10/19 19:49:19","新北市三峽區二鬮路136巷24弄21號","121.35619","24.910515","6500900","三峽區"
"237009","210-TH","2019/10/19 19:49:12","新北市三峽區清水街437號","121.368556666667","24.9254716666667","6500900","三峽區"
"237012","275-BY","2019/10/19 19:49:14","新北市三峽區中華路26號","121.373938333333","24.9323833333333","6500900","三峽區"
"237008","302-VK","2019/10/19 19:49:22","新北市三峽區中正路一段108巷30號","121.373221666667","24.9305066666667","6500900","三峽區"
"237014","433-BY","2019/10/19 19:49:28","新北市三峽區添福141-13號","121.374201666667","24.9010416666667","6500900","三峽區"
"237006","5529-G3","2019/10/19 19:49:11","新北市三峽區中正路一段336巷15弄2號","121.369936666667","24.9249383333333","6500900","三峽區"
"237015","649-BX","2019/10/19 19:49:13","新北市三峽區橫溪路99巷16弄1號","121.400116666667","24.93629","6500900","三峽區"
"237004","756-BX","2019/10/19 19:23:13","新北市三峽區中山路459巷135號","121.348846666667","24.9331133333333","6500900","三峽區"
"237013","760-BX","2019/10/19 19:49:29","新北市三峽區溪北街95號","121.397856666667","24.9355566666667","6500900","三峽區"
"237005","AKY-6261","2019/10/19 19:49:10","新北市三峽區長泰街38號","121.3785","24.9321283333333","6500900","三峽區"
"236042","KED-0685","2019/10/19 19:49:22","新北市土城區裕民路259巷7號","121.455353333333","24.9830366666667","6501300","土城區"
"236079","166-UM","2019/10/19 19:49:16","新北市土城區溪頭路28-1號","121.412328333333","24.9552266666667","6501300","土城區"
"236030","253-BX","2019/10/19 19:49:15","新北市土城區中央路一段290號","121.443355","24.9824483333333","6501300","土城區"
"236026","269-VK","2019/10/19 19:49:26","新北市土城區中央路二段61巷26號","121.443318333333","24.9787283333333","6501300","土城區"
"236038","271-VK","2019/10/19 19:49:14","新北市土城區仁愛路54巷2-4號","121.462303333333","24.9787016666667","6501300","土城區"
"236070","KEA-2877","2019/10/19 19:49:21","新北市土城區中央路二段346巷11號","121.43958","24.972205","6501300","土城區"
"252001","KED-0821","2019/10/19 19:49:14","新北市三芝區公正街66號","121.499825","25.257455","6502100","三芝區"
"236021","401-BY","2019/10/19 19:49:26","新北市土城區延吉街119號","121.471078333333","24.986525","6501300","土城區"
"236063","752-BX","2019/10/19 19:47:56","新北市土城區延和路105巷5弄1號","121.467226666667","24.9911133333333","6501300","土城區"
"236059","912-UM","2019/10/19 19:49:10","新北市土城區中央路一段127號","121.446876666667","24.9882816666667","6501300","土城區"
"236049","913-UM","2019/10/19 19:49:29","新北市土城區青雲路222號","121.458958333333","24.98122","6501300","土城區"
"236055","AAC-216","2019/10/19 19:49:24","新北市土城區金城路三段193-1號","121.470001666667","24.9889833333333","6501300","土城區"
"242061","986-R7","2019/10/19 19:49:20","新北市新莊區中正路471號","121.441921666667","25.03397","6500500","新莊區"
"242004","751-BX","2019/10/19 19:49:20","新北市新莊區化成路63巷16號","121.464055","25.04591","6500500","新莊區"
"242029","615-BX","2019/10/19 19:49:22","新北市新莊區新泰路357巷3弄1號","121.442396666667","25.04135","6500500","新莊區"
"242048","566-BX","2019/10/19 19:49:20","新北市新莊區後港一路28巷4弄1號","121.425431666667","25.0253983333333","6500500","新莊區"
"242053","497-BY","2019/10/19 19:49:13","新北市新莊區民安西路411號","121.430495","25.0089016666667","6500500","新莊區"
"242013","442-UM","2019/10/19 19:49:25","新北市新莊區中泰街62巷3號","121.45013","25.04707","6500500","新莊區"
"242025","362-BY","2019/10/19 19:49:21","新北市新莊區五工路98號","121.4566","25.0644116666667","6500500","新莊區"
"242023","353-BY","2019/10/19 19:49:24","新北市新莊區化成路144號","121.46539","25.0448233333333","6500500","新莊區"
"242039","135-UY","2019/10/19 19:49:29","新北市新莊區民安路299巷26號","121.429381666667","25.0232233333333","6500500","新莊區"
"242056","172-VK","2019/10/19 19:49:30","新北市新莊區新泰路63號","121.449348333333","25.0341533333333","6500500","新莊區"
"242017","173-VK","2019/10/19 19:49:29","新北市新莊區公園路128號","121.451961666667","25.0400783333333","6500500","新莊區"
"242031","175-VK","2019/10/19 19:49:22","新北市新莊區公園一路104號","121.443796666667","25.03748","6500500","新莊區"
"242034","347-TH","2019/10/19 19:49:20","新北市新莊區仁愛街73號","121.444143333333","25.0377733333333","6500500","新莊區"
"242036","348-TH","2019/10/19 19:49:21","新北市新莊區建安街101巷34號","121.427148333333","25.0235633333333","6500500","新莊區"
"242009","349-TH","2019/10/19 19:49:25","新北市新莊區三和路12-21號","121.442281666667","25.0383616666667","6500500","新莊區"
"238015","755-BX","2019/10/19 19:48:58","新北市樹林區中山路一段108巷22-1號","121.421956666667","24.99132","6500700","樹林區"
"238023","601-UM","2019/10/19 19:49:14","新北市樹林區中正路421-1號","121.416831666667","25.0078","6500700","樹林區"
"238019","571-TV","2019/10/19 19:49:12","新北市樹林區鎮前街317號","121.417386666667","24.9846816666667","6500700","樹林區"
"238024","5061-A6","2019/10/19 19:49:25","新北市樹林區育德街113號","121.389525","24.9682616666667","6500700","樹林區"
"238022","KEA-2213","2019/10/19 19:49:26","新北市樹林區國凱街32-2號","121.41965","24.9785583333333","6500700","樹林區"
"238021","KEA-2539","2019/10/19 19:49:28","新北市樹林區田尾街208號","121.39879","24.9474133333333","6500700","樹林區"
"238025","303-VK","2019/10/19 19:49:30","新北市樹林區中山路一段406號","121.418128333333","24.98529","6500700","樹林區"
"238017","283-BY","2019/10/19 19:49:29","新北市樹林區保安街二段165號","121.41524","25.0028966666667","6500700","樹林區"
"238014","282-BY","2019/10/19 19:49:19","新北市樹林區千歲街48號","121.426071666667","24.9969916666667","6500700","樹林區"
"239007","AAC-297","2019/10/19 19:49:19","新北市鶯歌區大湖路161巷5號","121.34376","24.966215","6500800","鶯歌區"
"239006","891-R6","2019/10/19 19:49:12","新北市鶯歌區尖山埔路144號","121.34345","24.9497466666667","6500800","鶯歌區"
"239005","526-UM","2019/10/19 19:49:14","新北市鶯歌區中湖街315巷39號","121.345541666667","24.9773016666667","6500800","鶯歌區"
"239001","417-VK","2019/10/19 19:49:26","新北市鶯歌區鶯桃路21號","121.34369","24.95047","6500800","鶯歌區"
"239002","359-BY","2019/10/19 19:49:16","新北市鶯歌區西湖街191號","121.338498333333","24.9638116666667","6500800","鶯歌區"
"239004","193-VK","2019/10/19 19:49:18","新北市鶯歌區二甲路47-1號","121.33626","24.93407","6500800","鶯歌區"
"221008","489-VK","2019/10/19 19:49:24","新北市汐止區康寧街83巷11號","121.620013333333","25.06698","6501100","汐止區"
"221010","269-BY","2019/10/19 19:49:19","新北市汐止區汐萬路一段411號","121.649223333333","25.0793783333333","6501100","汐止區"
"221012","278-VK","2019/10/19 19:49:12","新北市汐止區大同路三段334號","121.679646666667","25.0709366666667","6501100","汐止區"
"221023","279-VK","2019/10/19 19:49:19","新北市汐止區中興路284號","121.628338333333","25.0694716666667","6501100","汐止區"
"221021","299-VK","2019/10/19 19:49:12","新北市汐止區復興路58巷11弄2號","121.656125","25.061865","6501100","汐止區"
"221031","353-TW","2019/10/19 19:49:25","新北市汐止區伯爵街1巷8號","121.641501666667","25.07521","6501100","汐止區"
"221025","623-UM","2019/10/19 19:49:15","新北市汐止區新台五路二段20巷8號","121.660718333333","25.0646666666667","6501100","汐止區"
"221038","646-BX","2019/10/19 19:49:27","新北市汐止區忠孝東路421號","121.66573","25.0716116666667","6501100","汐止區"
"220079","145-BY","2019/10/19 19:49:20","新北市板橋區民權路202巷17弄42號","121.459068333333","25.0165733333333","6500100","板橋區"
"220080","200-UY","2019/10/19 19:49:30","新北市板橋區大觀路二段37巷30號","121.448325","25.00267","6500100","板橋區"
"220082","610-BX","2019/10/19 19:49:16","新北市板橋區溪崑一街92號","121.429046666667","24.9894033333333","6500100","板橋區"
"220091","267-BY","2019/10/19 19:49:22","新北市板橋區民治街81巷7號","121.479941666667","25.0322683333333","6500100","板橋區"
"220056","276-BY","2019/10/19 19:49:26","新北市板橋區四川路二段47巷4弄1號","121.45417","24.9946233333333","6500100","板橋區"
"220072","277-BY","2019/10/19 19:49:12","新北市板橋區金門街215巷22號","121.433286666667","24.9896066666667","6500100","板橋區"
"220094","283-UM","2019/10/19 19:49:22","新北市板橋區雨農路13號","121.462216666667","25.0247266666667","6500100","板橋區"
"220071","283-VK","2019/10/19 19:49:25","新北市板橋區和平路174巷33號","121.465066666667","24.99437","6500100","板橋區"
"220101","285-UM","2019/10/19 19:48:02","新北市板橋區莊敬路247號","121.47313","25.0216183333333","6500100","板橋區"
"220053","285-VK","2019/10/19 19:49:28","新北市板橋區中山路二段139號","121.475025","25.0166766666667","6500100","板橋區"
"220083","286-VK","2019/10/19 19:49:15","新北市板橋區僑中二街10巷39-1號","121.445403333333","25.011125","6500100","板橋區"
"220081","287-VK","2019/10/19 19:49:25","新北市板橋區大觀路一段29巷179弄20號","121.449095","25.0046816666667","6500100","板橋區"
"220090","288-VK","2019/10/19 19:49:19","新北市板橋區雨農路27巷6號","121.461435","25.0237916666667","6500100","板橋區"
"220061","293-UM","2019/10/19 19:49:25","新北市板橋區板新路128號","121.470928333333","25.015595","6500100","板橋區"
"220062","295-UM","2019/10/19 19:49:15","新北市板橋區中山路二段416巷52-1號","121.483023333333","25.0192433333333","6500100","板橋區"
"220084","296-UM","2019/10/19 19:49:22","新北市板橋區滿平二街12號","121.42538","24.98676","6500100","板橋區"
"220075","303-R5","2019/10/19 19:49:21","新北市板橋區大勇街59號","121.453545","25.016845","6500100","板橋區"
"220092","307-R5","2019/10/19 19:49:13","新北市板橋區新海路93號","121.461635","25.021955","6500100","板橋區"
"220098","317-R6","2019/10/19 19:49:28","新北市板橋區四維路279巷64號","121.460503333333","25.02752","6500100","板橋區"
"220089","487-VK","2019/10/19 19:49:16","新北市板橋區四維路174號","121.464593333333","25.026355","6500100","板橋區"
"220088","491-VK","2019/10/19 19:49:29","新北市板橋區民治街111號","121.478645","25.0310983333333","6500100","板橋區"
"220035","560-BX","2019/10/19 19:49:09","新北市板橋區金華街85巷19號","121.458348333333","25.0214666666667","6500100","板橋區"
"220103","561-BX","2019/10/19 19:49:20","新北市板橋區英士路58巷13號","121.46061","25.025295","6500100","板橋區"
"220063","609-BX","2019/10/19 19:49:28","新北市板橋區三民路一段66號","121.479528333333","25.022315","6500100","板橋區"
"220057","686-BX","2019/10/19 19:49:22","新北市板橋區四川路二段245巷52號","121.452","24.9923866666667","6500100","板橋區"
"220093","689-BX","2019/10/19 19:49:18","新北市板橋區文化路二段654號","121.478685","25.0357133333333","6500100","板橋區"
"220054","741-BX","2019/10/19 19:49:29","新北市板橋區忠孝路241號","121.46626","25.0028933333333","6500100","板橋區"
"220102","KEA-2699","2019/10/19 19:49:20","新北市板橋區松柏街18號","121.474378333333","25.0297016666667","6500100","板橋區"
"220055","827-TW","2019/10/19 19:49:25","新北市板橋區國慶路149巷4弄18-3號","121.461975","24.9970266666667","6500100","板橋區"
"220067","829-TW","2019/10/19 19:49:31","新北市板橋區長安街331巷19弄13號","121.473453333333","25.0122483333333","6500100","板橋區"
"220068","831-TW","2019/10/19 19:49:28","新北市板橋區光復街145號","121.485396666667","25.01991","6500100","板橋區"
"220077","833-TW","2019/10/19 19:49:29","新北市板橋區僑中二街116巷1號","121.4456","25.0061133333333","6500100","板橋區"
"220074","895-R6","2019/10/19 19:49:18","新北市板橋區府中路44號","121.457225","25.0095316666667","6500100","板橋區"
"220073","985-R7","2019/10/19 19:49:30","新北市板橋區國光路47號","121.457973333333","25.01798","6500100","板橋區"
"220097","AAC-210","2019/10/19 19:49:24","新北市板橋區光正街18巷11號","121.462621666667","25.0176833333333","6500100","板橋區"
"220064","AAC-253","2019/10/19 19:49:30","新北市板橋區民族路213號","121.469345","25.0072466666667","6500100","板橋區"
"235068","KEA-2873","2019/10/19 19:49:16","新北市中和區莊敬路10號","121.499683333333","25.0043466666667","6500300","中和區"
"235026","KEA-2876","2019/10/19 19:49:00","新北市中和區員山路36巷16-3號","121.48501","24.99144","6500300","中和區"
