"lineid","car","time","location","longitude","latitude","cityid","cityname"
"231061","002-UM","2019/10/19 20:59:25","新北市新店區永安街64號","121.519386666667","24.98691","6500600","新店區"
"231060","106-UY","2019/10/19 20:59:12","新北市新店區安康路三段620號","121.479783333333","24.9467783333333","6500600","新店區"
"231051","107-UY","2019/10/19 20:59:24","新北市新店區中正路663巷7弄15號","121.533003333333","24.99015","6500600","新店區"
"231049","108-UY","2019/10/19 20:59:12","新北市新店區薏仁坑路2-4號","121.501846666667","24.958835","6500600","新店區"
"231065","110-UY","2019/10/19 20:59:19","新北市新店區安祥路67巷50弄7號","121.484473333333","24.958935","6500600","新店區"
"231068","187-VK","2019/10/19 20:59:27","新北市新店區寶中路75號","121.547541666667","24.9805333333333","6500600","新店區"
"231062","256-BX","2019/10/19 20:59:19","新北市新店區雙城路12號","121.490506666667","24.9501733333333","6500600","新店區"
"231054","260-TV","2019/10/19 20:59:25","新北市新店區大新街7巷26號","121.544088333333","24.9678733333333","6500600","新店區"
"231042","268-BY","2019/10/19 20:59:29","新北市新店區寶興路60巷3號","121.549885","24.9718733333333","6500600","新店區"
"231064","278-BY","2019/10/19 20:59:20","新北市新店區安民街180號","121.516995","24.9710966666667","6500600","新店區"
"231050","AAD-862","2019/10/19 20:59:16","新北市新店區三民路49號","121.537031666667","24.9709566666667","6500600","新店區"
"231063","641-BX","2019/10/19 20:59:13","新北市新店區如意街97號","121.49549","24.9469016666667","6500600","新店區"
"231048","KED-0819","2019/10/19 20:59:08","新北市新店區文化路19號","121.543248333333","24.9795716666667","6500600","新店區"
"231059","897-TW","2019/10/19 20:59:16","新北市新店區僑信路74巷2號","121.499471666667","24.94866","6500600","新店區"
"231040","898-TW","2019/10/19 20:59:13","新北市新店區中正路135號","121.54179","24.9714583333333","6500600","新店區"
"231043","899-TW","2019/10/19 20:59:15","新北市新店區中央路151號","121.52939","24.9723416666667","6500600","新店區"
"231066","AKT-0513","2019/10/19 20:59:12","新北市新店區安光路16號","121.513688333333","24.9648216666667","6500600","新店區"
"241011","013-R5","2019/10/19 20:59:18","新北市三重區秀江街117號","121.49977","25.0722333333333","6500200","三重區"
"241028","022-UY","2019/10/19 20:59:25","新北市三重區正義南路53號","121.498226666667","25.0606383333333","6500200","三重區"
"241008","059-VK","2019/10/19 20:59:19","新北市三重區車路頭街135-1號","121.484205","25.0759583333333","6500200","三重區"
"241002","060-VK","2019/10/19 20:59:17","新北市三重區五華街7巷8號","121.495473333333","25.0802383333333","6500200","三重區"
"241031","061-VK","2019/10/19 20:59:20","新北市三重區重陽路一段113巷1弄1號","121.487473333333","25.0598283333333","6500200","三重區"
"241015","062-VK","2019/10/19 20:59:12","新北市三重區福德北路61號","121.502073333333","25.0654916666667","6500200","三重區"
"241017","063-VK","2019/10/19 20:59:24","新北市三重區大仁街52號","121.492015","25.0647383333333","6500200","三重區"
"241024","065-VK","2019/10/19 20:59:30","新北市三重區大勇街82巷15弄21號","121.48072","25.0720416666667","6500200","三重區"
"241007","066-VK","2019/10/19 20:59:17","新北市三重區三和路四段145巷85號","121.486403333333","25.0787383333333","6500200","三重區"
"241003","091-VK","2019/10/19 20:59:17","新北市三重區五華街141巷58號","121.493536666667","25.08673","6500200","三重區"
"241006","262-UM","2019/10/19 20:59:22","新北市三重區永福街46巷15弄7號","121.481398333333","25.0779416666667","6500200","三重區"
"241016","266-UM","2019/10/19 20:59:09","新北市三重區正義北路150號","121.49646","25.0661233333333","6500200","三重區"
"241009","267-UM","2019/10/19 20:59:26","新北市三重區力行路二段121號","121.483106666667","25.07649","6500200","三重區"
"241018","268-UM","2019/10/19 20:59:15","新北市三重區雙園街57巷1號","121.494881666667","25.067575","6500200","三重區"
"241032","269-UM","2019/10/19 20:59:30","新北市三重區三陽路133號","121.483265","25.05887","6500200","三重區"
"241013","270-UM","2019/10/19 20:59:31","新北市三重區仁賢街12-1號","121.495706666667","25.0748783333333","6500200","三重區"
"241025","271-UM","2019/10/19 20:59:22","新北市三重區貴陽街14號","121.484181666667","25.0618233333333","6500200","三重區"
"241030","KED-0822","2019/10/19 20:59:20","新北市三重區中正南路252巷5號","121.493293333333","25.0522466666667","6500200","三重區"
"241004","475-VK","2019/10/19 20:59:19","新北市三重區仁愛街420號","121.490375","25.0814316666667","6500200","三重區"
"241020","478-VK","2019/10/19 20:59:17","新北市三重區忠孝路二段34號","121.485815","25.0710216666667","6500200","三重區"
"241026","480-VK","2019/10/19 20:59:26","新北市三重區文化南路46號","121.500485","25.060065","6500200","三重區"
"241014","543-UM","2019/10/19 20:59:24","新北市三重區長壽街120巷11號","121.502513333333","25.0690816666667","6500200","三重區"
"241001","547-UM","2019/10/19 20:59:21","新北市三重區三和路四段140號","121.48852","25.0754333333333","6500200","三重區"
"241019","KEA-2593","2019/10/19 20:59:16","新北市三重區自強路二段74巷19號","121.487938333333","25.0699216666667","6500200","三重區"
"241005","AAD-863","2019/10/19 20:59:21","新北市三重區三信路186號","121.487991666667","25.086045","6500200","三重區"
"241012","743-BX","2019/10/19 20:59:26","新北市三重區仁信街29號","121.501246666667","25.07553","6500200","三重區"
"241022","KED-0820","2019/10/19 20:59:26","新北市三重區中正北路20巷12號","121.487986666667","25.0624766666667","6500200","三重區"
"241023","887-TS","2019/10/19 20:59:27","新北市三重區洛陽街45巷11號","121.48235","25.0637383333333","6500200","三重區"
"241029","942-UM","2019/10/19 20:59:12","新北市三重區正義南路111號","121.498223333333","25.0585616666667","6500200","三重區"
"241033","AAC-255","2019/10/19 20:59:18","新北市三重區光復路二段1號","121.472243333333","25.0533066666667","6500200","三重區"
"235055","183-VK","2019/10/19 20:59:23","新北市中和區中正路1155號","121.482158333333","25.0086333333333","6500300","中和區"
"247016","KEA-2869","2019/10/19 20:59:25","新北市蘆洲區正和街79號","121.468445","25.0809066666667","6501400","蘆洲區"
"247010","KED-0682","2019/10/19 20:59:12","新北市蘆洲區鷺江街74號","121.477051666667","25.0837683333333","6501400","蘆洲區"
"235069","4980-A6","2019/10/19 20:59:25","新北市中和區中正路637巷52弄1號","121.485498333333","24.9936383333333","6500300","中和區"
"235009","551-UM","2019/10/19 20:30:06","新北市中和區員山路36巷16-2號","121.485291666667","24.99173","6500300","中和區"
"235018","640-BX","2019/10/19 20:59:26","新北市中和區員山路36巷16-2號","121.485275","24.9916133333333","6500300","中和區"
"247006","893-R6","2019/10/19 20:59:14","新北市蘆洲區永安南路二段16巷8號","121.467768333333","25.07727","6501400","蘆洲區"
"247020","546-UM","2019/10/19 20:59:31","新北市蘆洲區民族路371號","121.471126666667","25.0912666666667","6501400","蘆洲區"
"247004","341-TH","2019/10/19 20:59:21","新北市蘆洲區永安南路二段256號","121.459615","25.080485","6501400","蘆洲區"
"247024","057-VK","2019/10/19 20:59:29","新北市蘆洲區長興路213號","121.461116666667","25.0863416666667","6501400","蘆洲區"
"247014","056-VK","2019/10/19 20:59:17","新北市蘆洲區中山二路36巷13號","121.474355","25.0828333333333","6501400","蘆洲區"
"247018","053-VK","2019/10/19 20:59:24","新北市蘆洲區民權路87號","121.473143333333","25.08877","6501400","蘆洲區"
"247008","002-UY","2019/10/19 20:59:25","新北市蘆洲區民生街125號","121.472803333333","25.07902","6501400","蘆洲區"
"247002","001-UY","2019/10/19 20:59:29","新北市蘆洲區永平街28號","121.458871666667","25.090855","6501400","蘆洲區"
"251005","010-UM","2019/10/19 20:59:25","新北市淡水區學府路51巷2弄6號","121.44782","25.169685","6501000","淡水區"
"251015","KEA-2871","2019/10/19 20:59:25","新北市淡水區淡金路四段542巷17號","121.452833333333","25.2270766666667","6501000","淡水區"
"251016","179-VK","2019/10/19 20:59:19","新北市淡水區牛埔子11-1號","121.450171666667","25.2184483333333","6501000","淡水區"
"251013","182-VK","2019/10/19 20:59:25","新北市淡水區番子厝13號","121.461368333333","25.2014233333333","6501000","淡水區"
"251010","413-VK","2019/10/19 20:59:21","新北市淡水區淡海路22號","121.423966666667","25.17871","6501000","淡水區"
"251012","441-VK","2019/10/19 20:59:14","新北市淡水區淡金路五段108號","121.456473333333","25.2365866666667","6501000","淡水區"
"251007","442-VK","2019/10/19 20:59:25","新北市淡水區仁愛街2巷2號","121.446246666667","25.1706916666667","6501000","淡水區"
"251001","559-UM","2019/10/19 20:59:14","新北市淡水區新市一路三段117號","121.446826666667","25.18299","6501000","淡水區"
"251014","577-R6","2019/10/19 20:59:10","新北市淡水區溪口16號","121.455795","25.2365216666667","6501000","淡水區"
"251011","650-BX","2019/10/19 20:59:19","新北市淡水區新春街2號","121.436218333333","25.1810183333333","6501000","淡水區"
"251002","672-BX","2019/10/19 20:59:16","新北市淡水區英專路56-1號","121.445781666667","25.1708466666667","6501000","淡水區"
"251003","766-UM","2019/10/19 20:59:20","新北市淡水區新春街136號","121.441466666667","25.1816433333333","6501000","淡水區"
"252002","178-VK","2019/10/19 20:59:27","新北市三芝區埔坪里埔頭坑41號","121.504488333333","25.2646616666667","6502100","三芝區"
"247012","KED-0683","2019/10/19 20:59:18","新北市蘆洲區民權路5號","121.476703333333","25.08571","6501400","蘆洲區"
"242025","362-BY","2019/10/19 20:59:21","新北市八里區中山路三段409號","121.36858","25.1356133333333","6500500","新莊區"
"242036","348-TH","2019/10/19 20:59:21","新北市新莊區中環路一段299號","121.442011666667","25.0324316666667","6500500","新莊區"
"242009","349-TH","2019/10/19 20:59:25","新北市三重區五谷王北街181-1號","121.47767","25.0541466666667","6500500","新莊區"
"221036","130-UY","2019/10/19 20:59:16","新北市汐止區新台五路二段91號","121.665121666667","25.0671466666667","6501100","汐止區"
"221029","298-VK","2019/10/19 20:59:14","台北市南港區研究院路三段279號","121.607475","25.027965","6501100","汐止區"
"221035","622-UM","2019/10/19 20:59:29","新北市汐止區汐萬路一段115巷1號","121.65459","25.0700783333333","6501100","汐止區"
