"lineid","car","time","location","longitude","latitude","cityid","cityname"
"231061","002-UM","2019/10/19 21:09:25","新北市新店區永平街31號","121.516536666667","24.9835966666667","6500600","新店區"
"231060","106-UY","2019/10/19 21:09:12","新北市新店區安康路三段131號","121.489898333333","24.95177","6500600","新店區"
"231051","107-UY","2019/10/19 21:09:24","新北市新店區中正路680巷33弄1號","121.535086666667","24.9893566666667","6500600","新店區"
"231065","110-UY","2019/10/19 21:09:19","新北市新店區安祥路98號","121.487345","24.9594416666667","6500600","新店區"
"231068","187-VK","2019/10/19 21:09:27","新北市新店區安光路30號","121.513748333333","24.9645366666667","6500600","新店區"
"231062","256-BX","2019/10/19 21:09:19","新北市新店區安康路二段341巷11號","121.497755","24.9556","6500600","新店區"
"231054","260-TV","2019/10/19 21:09:25","新北市新店區北新路一段105號","121.539156666667","24.96222","6500600","新店區"
"231042","268-BY","2019/10/19 21:09:09","新北市新店區吉安街37-1號","121.515786666667","24.966095","6500600","新店區"
"231064","278-BY","2019/10/19 21:09:20","新北市新店區薏仁坑路自強巷1號","121.497325","24.957725","6500600","新店區"
"231050","AAD-862","2019/10/19 21:09:16","新北市新店區中華路83號","121.539375","24.96865","6500600","新店區"
"231063","641-BX","2019/10/19 21:09:13","新北市新店區玫瑰路59巷2號","121.495953333333","24.9456983333333","6500600","新店區"
"231048","KED-0819","2019/10/19 21:09:30","新北市新店區民生路158巷89號","121.526718333333","24.9814033333333","6500600","新店區"
"231059","897-TW","2019/10/19 21:09:16","新北市新店區僑信路25號","121.499481666667","24.951305","6500600","新店區"
"231040","898-TW","2019/10/19 21:09:13","新北市新店區北新路一段193號","121.540338333333","24.9647033333333","6500600","新店區"
"241011","013-R5","2019/10/19 21:09:18","新北市三重區龍濱路249號","121.501556666667","25.0723866666667","6500200","三重區"
"241028","022-UY","2019/10/19 21:09:25","新北市三重區正義南路169號","121.49899","25.057465","6500200","三重區"
"241008","059-VK","2019/10/19 21:09:19","新北市三重區自強路一段62號","121.497253333333","25.06668","6500200","三重區"
"241002","060-VK","2019/10/19 21:09:17","新北市三重區五華街11號","121.494988333333","25.08034","6500200","三重區"
"241031","061-VK","2019/10/19 21:09:20","新北市三重區重新路五段406-1號","121.476333333333","25.047845","6500200","三重區"
"241015","062-VK","2019/10/19 21:09:31","新北市三重區長元街61號","121.502625","25.066505","6500200","三重區"
"241017","063-VK","2019/10/19 21:09:24","新北市三重區國隆路30號","121.492265","25.0644283333333","6500200","三重區"
"241024","065-VK","2019/10/19 21:09:30","新北市三重區大勇街82巷15弄21號","121.480705","25.0720533333333","6500200","三重區"
"241007","066-VK","2019/10/19 21:09:17","新北市三重區仁美街67號","121.486521666667","25.07854","6500200","三重區"
"241003","091-VK","2019/10/19 21:09:17","新北市三重區仁義街224號","121.494985","25.084635","6500200","三重區"
"241006","262-UM","2019/10/19 21:09:22","新北市三重區重陽路三段5巷1號","121.490665","25.0656616666667","6500200","三重區"
"241016","266-UM","2019/10/19 21:09:29","新北市三重區信義西街41號","121.49534","25.0642916666667","6500200","三重區"
"241009","267-UM","2019/10/19 21:09:26","新北市三重區忠孝路二段124號","121.482966666667","25.068915","6500200","三重區"
"241018","268-UM","2019/10/19 21:09:15","新北市三重區正義北路330號","121.494436666667","25.0705416666667","6500200","三重區"
"241032","269-UM","2019/10/19 21:09:23","新北市三重區中興北街245號","121.469045","25.0592","6500200","三重區"
"241013","270-UM","2019/10/19 21:09:18","新北市三重區仁愛街72號","121.495716666667","25.0733683333333","6500200","三重區"
"241025","271-UM","2019/10/19 21:09:22","新北市三重區中正北路208巷8號","121.482351666667","25.066945","6500200","三重區"
"241030","KED-0822","2019/10/19 21:09:20","新北市三重區五谷王北街20巷15弄1號","121.475035","25.0485016666667","6500200","三重區"
"241004","475-VK","2019/10/19 21:09:19","新北市三重區仁愛街420號","121.490406666667","25.0814266666667","6500200","三重區"
"241026","480-VK","2019/10/19 21:09:26","新北市三重區大同南路210號","121.49667","25.0564483333333","6500200","三重區"
"241014","543-UM","2019/10/19 21:09:24","新北市三重區三和路二段37-9號","121.501358333333","25.0676666666667","6500200","三重區"
"241001","547-UM","2019/10/19 21:09:21","新北市三重區福隆路50號","121.492461666667","25.0783966666667","6500200","三重區"
"241019","KEA-2593","2019/10/19 21:09:16","新北市三重區自強路二段74巷19號","121.487938333333","25.0699166666667","6500200","三重區"
"241005","AAD-863","2019/10/19 21:09:21","新北市三重區仁華街85號","121.485728333333","25.08295","6500200","三重區"
"241012","743-BX","2019/10/19 21:09:26","新北市三重區龍門路274巷45號","121.50122","25.0755333333333","6500200","三重區"
"241022","KED-0820","2019/10/19 21:09:26","新北市三重區中正北路64巷23號","121.486025","25.0637416666667","6500200","三重區"
"241023","887-TS","2019/10/19 21:09:27","新北市三重區忠孝路三段50巷43號","121.482876666667","25.0644933333333","6500200","三重區"
"241029","942-UM","2019/10/19 21:09:12","新北市三重區正義南路111號","121.498216666667","25.0585533333333","6500200","三重區"
"241033","AAC-255","2019/10/19 21:09:18","新北市三重區新北大道二段65號","121.4692","25.061475","6500200","三重區"
"235055","183-VK","2019/10/19 21:09:23","新北市中和區員山路36巷13號","121.484021666667","24.9909133333333","6500300","中和區"
"247016","KEA-2869","2019/10/19 21:09:25","新北市蘆洲區中正路185巷76號","121.4663","25.0843833333333","6501400","蘆洲區"
"247010","KED-0682","2019/10/19 21:09:12","新北市蘆洲區鷺江街38號","121.477313333333","25.0830016666667","6501400","蘆洲區"
"235018","640-BX","2019/10/19 20:59:36","新北市中和區員山路36巷16-2號","121.485275","24.9916133333333","6500300","中和區"
"247006","893-R6","2019/10/19 21:09:14","新北市蘆洲區長安街22巷31弄2號","121.46467","25.0799516666667","6501400","蘆洲區"
"247004","341-TH","2019/10/19 21:09:24","新北市蘆洲區永安南路二段286號","121.457511666667","25.081335","6501400","蘆洲區"
"247024","057-VK","2019/10/19 21:09:29","新北市蘆洲區長興路50巷1號","121.463745","25.08377","6501400","蘆洲區"
"247014","056-VK","2019/10/19 21:09:17","新北市蘆洲區中央路155號","121.472601666667","25.084705","6501400","蘆洲區"
"247022","007-UY","2019/10/19 21:09:31","新北市蘆洲區三民路229號","121.469486666667","25.0885233333333","6501400","蘆洲區"
"247008","002-UY","2019/10/19 21:09:25","新北市蘆洲區民生街26號","121.474898333333","25.0789483333333","6501400","蘆洲區"
"247002","001-UY","2019/10/19 21:09:09","新北市蘆洲區永樂街38巷40號","121.458571666667","25.09006","6501400","蘆洲區"
"251009","008-UM","2019/10/19 21:09:19","新北市淡水區民族路112巷57號","121.462031666667","25.1343166666667","6501000","淡水區"
"251005","010-UM","2019/10/19 21:09:25","新北市淡水區英專路2巷27號","121.44648","25.169325","6501000","淡水區"
"251015","KEA-2871","2019/10/19 21:09:25","新北市淡水區淡金路四段542巷91號","121.454241666667","25.2252333333333","6501000","淡水區"
"251016","179-VK","2019/10/19 21:09:19","新北市淡水區前洲子28號","121.441036666667","25.2192333333333","6501000","淡水區"
"251004","180-VK","2019/10/19 21:09:31","新北市淡水區民族路33號","121.462301666667","25.1358216666667","6501000","淡水區"
"251008","181-VK","2019/10/19 21:09:22","新北市淡水區北新路一段7號","121.453388333333","25.1808716666667","6501000","淡水區"
"251013","182-VK","2019/10/19 21:09:25","新北市淡水區水汴頭12號","121.469816666667","25.20353","6501000","淡水區"
"251010","413-VK","2019/10/19 21:09:21","新北市淡水區中正路一段63巷7弄2號","121.423068333333","25.1773316666667","6501000","淡水區"
"251012","441-VK","2019/10/19 21:09:14","新北市淡水區淡金路五段168號","121.456858333333","25.2392966666667","6501000","淡水區"
"251001","559-UM","2019/10/19 21:09:14","新北市淡水區新市一路三段2號","121.444865","25.1829233333333","6501000","淡水區"
"251014","577-R6","2019/10/19 21:09:30","新北市淡水區六塊厝2-6號","121.449485","25.2419866666667","6501000","淡水區"
"251011","650-BX","2019/10/19 21:09:19","新北市淡水區新民街222巷16弄15號","121.437261666667","25.1797616666667","6501000","淡水區"
"251002","672-BX","2019/10/19 21:09:16","新北市淡水區水源街一段141號","121.447271666667","25.1718733333333","6501000","淡水區"
"251003","766-UM","2019/10/19 21:09:20","新北市淡水區新春街103-9號","121.440411666667","25.181855","6501000","淡水區"
"252002","178-VK","2019/10/19 21:09:27","新北市三芝區埔坪里埔頭坑41號","121.504573333333","25.2647","6502100","三芝區"
"247012","KED-0683","2019/10/19 21:09:18","新北市蘆洲區民族路30號","121.476305","25.084245","6501400","蘆洲區"
"252001","KED-0821","2019/10/19 20:59:37","新北市三芝區埔坪里埔頭坑41號","121.504658333333","25.2645283333333","6502100","三芝區"
"242009","349-TH","2019/10/19 21:08:05","新北市五股區中直路21號","121.421745","25.1117516666667","6500500","新莊區"
"221029","298-VK","2019/10/19 21:09:14","新北市新店區安平路53-2號","121.520366666667","24.965995","6501100","汐止區"
