"lineid","car","time","location","longitude","latitude","cityid","cityname"
"231060","106-UY","2019/10/19 21:19:12","新北市新店區薏仁坑路自強巷1號","121.496903333333","24.9580366666667","6500600","新店區"
"231051","107-UY","2019/10/19 21:19:24","新北市新店區安和路三段4巷3號","121.520378333333","24.9808316666667","6500600","新店區"
"231050","AAD-862","2019/10/19 21:19:16","新北市新店區中正路183巷10號","121.540326666667","24.9718366666667","6500600","新店區"
"231063","641-BX","2019/10/19 21:19:13","新北市新店區吉祥街11巷1號","121.497605","24.94646","6500600","新店區"
"231059","897-TW","2019/10/19 21:19:16","新北市新店區安豐路30-1號","121.500623333333","24.956905","6500600","新店區"
"241011","013-R5","2019/10/19 21:19:18","新北市三重區龍濱路197號","121.501898333333","25.071385","6500200","三重區"
"241028","022-UY","2019/10/19 21:19:25","新北市三重區新北大道一段226號","121.482263333333","25.0615616666667","6500200","三重區"
"241008","059-VK","2019/10/19 21:19:19","新北市三重區長壽西街143-3號","121.49438","25.0665933333333","6500200","三重區"
"241002","060-VK","2019/10/19 21:19:17","新北市三重區自強路五段43號","121.494195","25.0813266666667","6500200","三重區"
"241031","061-VK","2019/10/19 21:19:20","新北市三重區重新路五段408巷19號","121.475731666667","25.0455516666667","6500200","三重區"
"241015","062-VK","2019/10/19 21:19:12","新北市三重區重新路二段106號","121.496688333333","25.0617316666667","6500200","三重區"
"241017","063-VK","2019/10/19 21:19:24","新北市三重區中正北路25巷25弄1號","121.49319","25.0626233333333","6500200","三重區"
"241024","065-VK","2019/10/19 21:19:10","新北市三重區中正北路145巷14號","121.484133333333","25.0677333333333","6500200","三重區"
"241007","066-VK","2019/10/19 21:19:17","新北市三重區忠孝路一段123號","121.488743333333","25.072015","6500200","三重區"
"241003","091-VK","2019/10/19 21:19:17","新北市三重區仁義街220巷2號","121.495331666667","25.084125","6500200","三重區"
"241006","262-UM","2019/10/19 21:19:22","新北市三重區新北大道一段115號","121.483661666667","25.0613816666667","6500200","三重區"
"241016","266-UM","2019/10/19 21:18:29","新北市三重區自強路一段101號","121.49565","25.0664183333333","6500200","三重區"
"241009","267-UM","2019/10/19 21:19:26","新北市新莊區化成路585-8號","121.46338","25.0668016666667","6500200","三重區"
"241018","268-UM","2019/10/19 21:19:15","新北市三重區忠孝路三段2號","121.481988333333","25.0677483333333","6500200","三重區"
"241032","269-UM","2019/10/19 21:19:23","新北市五股區五工二路136號","121.454353333333","25.073135","6500200","三重區"
"241013","270-UM","2019/10/19 21:19:10","新北市三重區仁愛街66號","121.495841666667","25.0731666666667","6500200","三重區"
"241025","271-UM","2019/10/19 21:19:22","新北市三重區中正北路208巷10弄4號","121.482371666667","25.0669433333333","6500200","三重區"
"241030","KED-0822","2019/10/19 21:19:20","新北市三重區光復路二段192號","121.470976666667","25.0628283333333","6500200","三重區"
"241004","475-VK","2019/10/19 21:19:19","新北市三重區碧華街213號","121.488613333333","25.0828466666667","6500200","三重區"
"241026","480-VK","2019/10/19 21:19:26","新北市三重區中華路48號","121.483353333333","25.0614716666667","6500200","三重區"
"241014","543-UM","2019/10/19 21:19:24","新北市三重區萬全街11號","121.499363333333","25.0696016666667","6500200","三重區"
"241001","547-UM","2019/10/19 21:19:21","新北市三重區五華街141巷58號","121.493578333333","25.0867633333333","6500200","三重區"
"241005","AAD-863","2019/10/19 21:19:21","新北市三重區碧華街1號","121.483535","25.0811883333333","6500200","三重區"
"241023","887-TS","2019/10/19 21:19:27","新北市三重區忠孝路三段28號","121.481351666667","25.0668233333333","6500200","三重區"
"241033","AAC-255","2019/10/19 21:19:18","新北市三重區光復路二段86號","121.471853333333","25.0575083333333","6500200","三重區"
"235018","640-BX","2019/10/19 20:59:36","新北市中和區員山路36巷16-2號","121.485275","24.9916133333333","6500300","中和區"
"247006","893-R6","2019/10/19 21:19:23","新北市蘆洲區中華街6號","121.463508333333","25.0816716666667","6501400","蘆洲區"
"247024","057-VK","2019/10/19 21:19:29","新北市蘆洲區永康街16號","121.459058333333","25.0857883333333","6501400","蘆洲區"
"247022","007-UY","2019/10/19 21:19:11","新北市蘆洲區三民路128巷166-1號","121.468366666667","25.09254","6501400","蘆洲區"
"247008","002-UY","2019/10/19 21:19:25","新北市蘆洲區中山一路161號","121.47561","25.0814616666667","6501400","蘆洲區"
"247002","001-UY","2019/10/19 21:19:29","新北市蘆洲區永樂街90號","121.456728333333","25.0886783333333","6501400","蘆洲區"
"251009","008-UM","2019/10/19 21:19:19","新北市淡水區民族路35號","121.462528333333","25.1357533333333","6501000","淡水區"
"251005","010-UM","2019/10/19 21:19:25","新北市淡水區水源街一段122巷39號","121.447146666667","25.1703483333333","6501000","淡水區"
"251015","KEA-2871","2019/10/19 21:19:25","新北市淡水區淡金路四段518號","121.451833333333","25.226195","6501000","淡水區"
"251016","179-VK","2019/10/19 21:18:59","新北市淡水區前洲子28號","121.441036666667","25.2192366666667","6501000","淡水區"
"251004","180-VK","2019/10/19 21:19:11","新北市淡水區民族路33號","121.462308333333","25.1358316666667","6501000","淡水區"
"251008","181-VK","2019/10/19 21:19:22","新北市淡水區水源街二段222號","121.460085","25.1764533333333","6501000","淡水區"
"251013","182-VK","2019/10/19 21:19:25","新北市淡水區行忠路330號","121.46067","25.1999","6501000","淡水區"
"251010","413-VK","2019/10/19 21:19:21","新北市淡水區中正路一段156巷51號","121.421806666667","25.18096","6501000","淡水區"
"251012","441-VK","2019/10/19 21:19:14","新北市淡水區淡金路五段35巷46號","121.452498333333","25.2347433333333","6501000","淡水區"
"251001","559-UM","2019/10/19 21:19:14","新北市淡水區濱海路一段308號","121.440773333333","25.189405","6501000","淡水區"
"251014","577-R6","2019/10/19 21:19:10","新北市淡水區六塊厝2-1號","121.450156666667","25.240465","6501000","淡水區"
"251011","650-BX","2019/10/19 21:19:19","新北市淡水區新民街120巷29號","121.438948333333","25.17879","6501000","淡水區"
"251002","672-BX","2019/10/19 21:19:16","新北市淡水區學府路172巷21號","121.448335","25.1748633333333","6501000","淡水區"
"251003","766-UM","2019/10/19 21:19:20","新北市淡水區崁頂15-5號","121.438953333333","25.1860866666667","6501000","淡水區"
"247012","KED-0683","2019/10/19 21:19:18","新北市蘆洲區中興街115號","121.482295","25.0889866666667","6501400","蘆洲區"
"252001","KED-0821","2019/10/19 20:59:37","新北市三芝區埔坪里埔頭坑41號","121.504658333333","25.2645283333333","6502100","三芝區"
"221029","298-VK","2019/10/19 21:19:14","新北市新店區薏仁坑路自強巷1號","121.497373333333","24.9577416666667","6501100","汐止區"
