"lineid","car","time","location","longitude","latitude","cityid","cityname"
"231063","641-BX","2019/10/19 21:29:13","新北市新店區如意街45號","121.493393333333","24.9483383333333","6500600","新店區"
"241028","022-UY","2019/10/19 21:28:45","新北市五股區中直路17-4號","121.422468333333","25.1114466666667","6500200","三重區"
"241017","063-VK","2019/10/19 21:29:24","新北市三重區中正北路25巷25弄1號","121.493181666667","25.0626333333333","6500200","三重區"
"241024","065-VK","2019/10/19 21:29:30","新北市三重區中正北路145巷14號","121.484123333333","25.0677433333333","6500200","三重區"
"241003","091-VK","2019/10/19 21:29:30","新北市三重區仁義街387號","121.49452","25.08536","6500200","三重區"
"241016","266-UM","2019/10/19 21:28:29","新北市三重區自強路一段95號","121.49582","25.0663466666667","6500200","三重區"
"241005","AAD-863","2019/10/19 21:29:21","新北市三重區仁愛街670號","121.482366666667","25.0804833333333","6500200","三重區"
"247006","893-R6","2019/10/19 21:29:14","新北市五股區天乙路101-6號","121.445981666667","25.1070783333333","6501400","蘆洲區"
"251009","008-UM","2019/10/19 21:29:19","新北市淡水區民族路29巷3弄12號","121.463838333333","25.137025","6501000","淡水區"
"251005","010-UM","2019/10/19 21:29:25","新北市淡水區水源街一段52-1號","121.444148333333","25.172255","6501000","淡水區"
"251016","179-VK","2019/10/19 21:29:19","新北市淡水區前洲子28號","121.441038333333","25.2192416666667","6501000","淡水區"
"251004","180-VK","2019/10/19 21:29:11","新北市淡水區民族路2號","121.460353333333","25.1369466666667","6501000","淡水區"
"251008","181-VK","2019/10/19 21:29:22","新北市淡水區水源街二段160-8號","121.454826666667","25.1752316666667","6501000","淡水區"
"251013","182-VK","2019/10/19 21:29:25","新北市淡水區埤島58-2號","121.458941666667","25.195075","6501000","淡水區"
"251010","413-VK","2019/10/19 21:29:21","新北市淡水區沙崙路25巷21號","121.420555","25.18239","6501000","淡水區"
"251012","441-VK","2019/10/19 21:29:14","新北市淡水區淡金路五段35巷46號","121.452495","25.23475","6501000","淡水區"
"251001","559-UM","2019/10/19 21:29:13","新北市淡水區新市二路三段18號","121.432881666667","25.1937116666667","6501000","淡水區"
"251014","577-R6","2019/10/19 21:29:30","新北市淡水區六塊厝2-1號","121.450145","25.24048","6501000","淡水區"
"251011","650-BX","2019/10/19 21:29:19","新北市淡水區新民街166號","121.437","25.1786733333333","6501000","淡水區"
"251003","766-UM","2019/10/19 21:29:20","新北市淡水區新春街65巷13號","121.437878333333","25.1824616666667","6501000","淡水區"
"221029","298-VK","2019/10/19 21:29:14","新北市新店區車子路115-10號","121.506643333333","24.9544583333333","6501100","汐止區"
