"lineid","car","time","location","longitude","latitude","cityid","cityname"
"251005","010-UM","2019/10/19 21:59:25","新北市淡水區鄧公路30巷1弄67號","121.454451666667","25.1695416666667","6501000","淡水區"
"251004","180-VK","2019/10/19 21:59:11","新北市淡水區自強路201巷39號","121.462146666667","25.126775","6501000","淡水區"
"251008","181-VK","2019/10/19 21:59:22","新北市淡水區學府路104號","121.449873333333","25.1717916666667","6501000","淡水區"
"251010","413-VK","2019/10/19 21:59:21","新北市淡水區中正路二段211號","121.426213333333","25.1891066666667","6501000","淡水區"
"251007","442-VK","2019/10/19 21:59:25","新北市淡水區北新路184巷43號","121.450821666667","25.1777683333333","6501000","淡水區"
"251011","650-BX","2019/10/19 21:59:19","新北市淡水區中山北路一段108號","121.442905","25.1767683333333","6501000","淡水區"
"251003","766-UM","2019/10/19 21:59:20","新北市淡水區新春街81號","121.438713333333","25.1824616666667","6501000","淡水區"
"221029","298-VK","2019/10/19 21:59:14","新北市汐止區汐萬路一段310號","121.650381666667","25.0748066666667","6501100","汐止區"
