"lineid","car","time","location","longitude","latitude","cityid","cityname"
"251004","180-VK","2019/10/19 22:19:11","新北市淡水區民族路33號","121.462216666667","25.13576","6501000","淡水區"
"251008","181-VK","2019/10/19 22:19:22","新北市淡水區學府路104號","121.449888333333","25.17182","6501000","淡水區"
"251010","413-VK","2019/10/19 22:19:21","新北市淡水區沙崙路200號","121.424658333333","25.1838966666667","6501000","淡水區"
"251007","442-VK","2019/10/19 22:19:25","新北市淡水區北新路180號","121.449431666667","25.1786266666667","6501000","淡水區"
"251011","650-BX","2019/10/19 22:19:19","新北市淡水區水碓街7號","121.443155","25.1771266666667","6501000","淡水區"
"221029","298-VK","2019/10/19 22:18:25","新北市汐止區康寧街901號","121.65172","25.07491","6501100","汐止區"
