"lineid","car","time","location","longitude","latitude","cityid","cityname"
"244006","080-UY","2019/06/27 08:39:40","新北市林口區佳林路23號","121.386873333333","25.0820733333333","6501700","林口區"
"244003","248-BX","2019/06/27 08:39:35","新北市林口區下福里153號","121.300476666667","25.1162083333333","6501700","林口區"
"244018","402-UM","2019/06/27 08:39:27","新北市林口區公園路163號","121.370706666667","25.0714916666667","6501700","林口區"
"244012","KEA-2802","2019/06/27 08:39:41","新北市林口區中山路158號","121.390618333333","25.0787933333333","6501700","林口區"
"244022","483-VK","2019/06/27 08:39:32","新北市林口區東明一街142巷16號","121.389866666667","25.071305","6501700","林口區"
"244016","485-VK","2019/06/27 08:39:30","新北市林口區忠孝路504巷21號","121.369665","25.0696183333333","6501700","林口區"
"244008","656-BX","2019/06/27 08:39:27","新北市林口區寶林路40號","121.385491666667","25.08436","6501700","林口區"
"244010","701-TV","2019/06/27 08:39:35","新北市林口區中正路69號","121.395176666667","25.07735","6501700","林口區"
"244024","837-TS","2019/06/27 08:39:33","新北市林口區文化北路一段261號","121.358523333333","25.0714466666667","6501700","林口區"
"244020","838-TS","2019/06/27 08:39:27","新北市林口區自強一街91號","121.40016","25.0769083333333","6501700","林口區"
"222006","289-BY","2019/06/27 08:39:34","新北市深坑區風格街13號","121.626091666667","25.016495","6501800","深坑區"
"231009","512-UM","2019/06/27 08:39:33","新北市新店區新烏路三段165巷36號","121.553373333333","24.9011683333333","6500600","新店區"
"231069","719-UM","2019/06/27 08:36:44","新北市新店區新潭路二段66號","121.52116","24.92622","6500600","新店區"
"226007","8452-VL","2019/06/27 08:39:40","新北市平溪區東勢里芊蓁坑29號","121.72887","24.978895","6502400","平溪區"
"226003","AGD-0702","2019/06/27 08:39:38","新北市平溪區新寮里新寮路6號","121.792851666667","25.05945","6502400","平溪區"
"223003","205-TH","2019/06/27 08:39:31","新北市石碇區北宜路六段柑腳巷2號","121.659603333333","24.9380266666667","6501900","石碇區"
"223008","406-TH","2019/06/27 08:39:30","新北市石碇區十八重溪13號","121.677836666667","25.0112433333333","6501900","石碇區"
"223001","592-UM","2019/06/27 08:39:30","新北市石碇區北宜路六段直潭巷10-3號","121.661386666667","24.934805","6501900","石碇區"
"223004","660-BX","2019/06/27 08:39:40","新北市石碇區崩山3號","121.675875","24.9752766666667","6501900","石碇區"
"223007","661-BX","2019/06/27 08:39:25","新北市石碇區十八重溪76號","121.672731666667","25.0137283333333","6501900","石碇區"
"223005","677-TV","2019/06/27 08:39:39","新北市石碇區崩山22號","121.677216666667","24.971945","6501900","石碇區"
"252004","249-BX","2019/06/27 08:39:43","新北市三芝區興華里田心子10-5號","121.495708333333","25.20585","6502100","三芝區"
"252007","AAC-283","2019/06/27 08:39:40","新北市三芝區後厝里北勢子35號","121.477985","25.2462916666667","6502100","三芝區"
"237014","760-BX","2019/06/27 08:39:29","新北市三峽區有木6-8號","121.422025","24.8692683333333","6500900","三峽區"
"226005","ANY-2373","2019/06/27 08:39:32","新北市平溪區南山里南山坪101-1號","121.779068333333","25.0425983333333","6502400","平溪區"
"242038","AAC-296","2019/06/27 08:39:34","新北市新莊區民安路302號","121.428271666667","25.0218366666667","6500500","新莊區"
"242059","986-R7","2019/06/27 08:39:41","新北市新莊區新樹路73號","121.437716666667","25.027735","6500500","新莊區"
"242047","751-BX","2019/06/27 08:39:29","新北市新莊區民安路98巷29號","121.423278333333","25.0250333333333","6500500","新莊區"
"242028","615-BX","2019/06/27 08:39:39","新北市新莊區中平路298號","121.444776666667","25.051655","6500500","新莊區"
"242026","613-BX","2019/06/27 08:39:39","新北市新莊區幸福路763-3號","121.447675","25.049","6500500","新莊區"
"242057","612-BX","2019/06/27 08:39:35","新北市新莊區中正路742-2號","121.413525","25.022925","6500500","新莊區"
"242045","566-BX","2019/06/27 08:39:33","新北市新莊區福營路227巷25號","121.430186666667","25.0292033333333","6500500","新莊區"
"242049","497-BY","2019/06/27 08:39:31","新北市新莊區西盛街137號","121.42824","25.0185566666667","6500500","新莊區"
"242055","442-UM","2019/06/27 08:39:35","新北市新莊區豐年街53-1號","121.446495","25.0314433333333","6500500","新莊區"
"242003","440-UM","2019/06/27 08:39:39","新北市新莊區復興路二段151號","121.45795","25.0443983333333","6500500","新莊區"
"242010","413-TV","2019/06/27 08:39:26","新北市新莊區中港路589號","121.451116666667","25.0522433333333","6500500","新莊區"
"242024","362-BY","2019/06/27 08:39:41","新北市新莊區五權一路5-7號","121.458168333333","25.0663133333333","6500500","新莊區"
"242022","353-BY","2019/06/27 08:39:34","新北市新莊區化成路218號","121.465636666667","25.0466133333333","6500500","新莊區"
"242012","132-UY","2019/06/27 08:39:26","新北市新莊區中泰街86號","121.449581666667","25.0468133333333","6500500","新莊區"
"242052","172-VK","2019/06/27 08:39:32","新北市新莊區民安西路416-1號","121.42933","25.00977","6500500","新莊區"
"242014","173-VK","2019/06/27 08:39:43","新北市新莊區中平路184巷10弄14號","121.445623333333","25.0481983333333","6500500","新莊區"
"242020","175-VK","2019/06/27 08:39:45","新北市新莊區新興街38巷2號","121.45079","25.037135","6500500","新莊區"
"242018","KED-0687","2019/06/27 08:39:25","新北市新莊區中港路132巷12號","121.455936666667","25.0406533333333","6500500","新莊區"
"242040","346-TH","2019/06/27 08:39:27","新北市新莊區雙鳳路116巷6號","121.413401666667","25.0284583333333","6500500","新莊區"
"242001","347-TH","2019/06/27 08:39:38","新北市新莊區碧江街11號","121.45583","25.0349883333333","6500500","新莊區"
"242033","348-TH","2019/06/27 08:39:41","新北市新莊區仁愛街4號","121.444305","25.0348366666667","6500500","新莊區"
"242006","349-TH","2019/06/27 08:39:36","新北市新莊區思源路593巷6弄23號","121.457773333333","25.0599816666667","6500500","新莊區"
"242030","350-TH","2019/06/27 08:39:30","新北市新莊區新泰路255巷10號","121.445511666667","25.0398616666667","6500500","新莊區"
"242016","351-TH","2019/06/27 08:39:26","新北市新莊區中安街33號","121.452528333333","25.0459883333333","6500500","新莊區"
"233003","KEA-2870","2019/06/27 08:39:28","新北市烏來區屯鹿51-1號","121.495001666667","24.7952566666667","6502900","烏來區"
"242043","281-VK","2019/06/27 08:39:30","新北市新莊區中正路702-3號","121.417423333333","25.02604","6500500","新莊區"
"242008","280-VK","2019/06/27 08:39:42","新北市新莊區昌盛街35巷1弄19號","121.453273333333","25.0501766666667","6500500","新莊區"
