"lineid","car","time","location","longitude","latitude","cityid","cityname"
"234001","AAC-295","2019/06/27 12:08:58","新北市永和區福和路1號","121.526613333333","25.00988","6500400","永和區"
"235005","802-TS","2019/06/27 12:09:04","新北市中和區和城路一段271巷1號","121.485481666667","24.9917883333333","6500300","中和區"
"228005","097-TW","2019/06/27 12:09:12","新北市貢寮區福隆里興隆街36號","121.941568333333","25.0169916666667","6502600","貢寮區"
"228004","212-TW","2019/06/27 12:09:15","新北市貢寮區貢寮里貢寮街2號","121.907796666667","25.0188633333333","6502600","貢寮區"
"207002","749-BX","2019/06/27 12:09:01","新北市萬里區中幅里大湖路6號","121.660648333333","25.1711133333333","6502800","萬里區"
"207001","662-BX","2019/06/27 12:09:14","新北市萬里區萬里里獅頭路15-1號","121.697563333333","25.18001","6502800","萬里區"
