"lineid","car","time","location","longitude","latitude","cityid","cityname"
"234044","148-BY","2019/06/27 13:59:04","新北市永和區林森路65號","121.524191666667","25.004005","6500400","永和區"
"234036","336-UY","2019/06/27 13:59:08","新北市永和區成功路二段152-2號","121.526481666667","24.99672","6500400","永和區"
"234062","337-UY","2019/06/27 13:59:17","新北市永和區中正路368巷1弄51號","121.519281666667","25.0010683333333","6500400","永和區"
"234084","338-UY","2019/06/27 13:59:02","新北市永和區中正路467號","121.517066666667","25.0059283333333","6500400","永和區"
"234068","552-UM","2019/06/27 13:59:17","新北市永和區國光路37號","121.519253333333","25.0083266666667","6500400","永和區"
"234015","745-BX","2019/06/27 13:59:12","新北市永和區文化路103號","121.513065","25.01523","6500400","永和區"
"234028","746-BX","2019/06/27 13:59:17","新北市永和區民生路67巷26號","121.524045","24.9972583333333","6500400","永和區"
"234052","KEA-2590","2019/06/27 13:59:11","新北市永和區竹林路39巷38號","121.519908333333","25.015085","6500400","永和區"
"234005","KED-0605","2019/06/27 13:59:15","新北市中和區中和路382號","121.510801666667","25.002295","6500400","永和區"
"234012","KEA-2591","2019/06/27 13:59:08","新北市永和區保生路55號","121.504715","25.0106383333333","6500400","永和區"
"234060","AAD-866","2019/06/27 13:59:12","新北市永和區中正路283巷55弄3號","121.515905","24.999135","6500400","永和區"
"234078","748-BX","2019/06/27 13:59:12","新北市永和區林森路112巷9弄1號","121.522276666667","25.0042666666667","6500400","永和區"
"234040","862-TW","2019/06/27 13:59:09","新北市永和區中和路335巷18弄1號","121.507555","25.0003266666667","6500400","永和區"
"234048","863-TW","2019/06/27 13:59:03","新北市永和區保安路151號","121.506978333333","25.0129983333333","6500400","永和區"
"234010","9373-KE","2019/06/27 13:59:07","新北市永和區仁愛路352巷92弄5號","121.501228333333","25.008135","6500400","永和區"
"248015","026-BX","2019/06/27 13:59:15","新北市五股區凌雲路一段116巷8號","121.450438333333","25.1022366666667","6501500","五股區"
"248007","KED-0815","2019/06/27 13:59:06","新北市五股區中興路一段128巷26號","121.46571","25.0749666666667","6501500","五股區"
"248017","KED-0813","2019/06/27 13:59:14","新北市五股區民義路一段220巷32號","121.428513333333","25.093935","6501500","五股區"
"248012","247-BX","2019/06/27 13:58:56","新北市五股區成泰路二段195巷1號","121.440271666667","25.087345","6501500","五股區"
"248001","678-BX","2019/06/27 13:59:03","新北市五股區凌雲路一段136號","121.449535","25.1021633333333","6501500","五股區"
"248003","682-TV","2019/06/27 13:59:18","新北市五股區民義路二段54-3號","121.407843333333","25.1062933333333","6501500","五股區"
"234022","9380-KE","2019/06/27 13:59:09","新北市永和區永和路二段168號","121.515528333333","25.0129466666667","6500400","永和區"
"234076","969-R7","2019/06/27 13:59:11","新北市永和區民權路58巷1弄10號","121.5198","24.9978033333333","6500400","永和區"
"234072","AAC-211","2019/06/27 13:59:20","新北市永和區豫溪街185號","121.522495","25.0103883333333","6500400","永和區"
"234066","AAC-212","2019/06/27 13:59:14","新北市永和區永貞路362號","121.510235","25.00671","6500400","永和區"
"234001","AAC-295","2019/06/27 13:59:18","新北市永和區中正路609巷26號","121.515893333333","25.0089433333333","6500400","永和區"
"244003","248-BX","2019/06/27 13:59:07","新北市林口區太平里12鄰2號","121.361501666667","25.132915","6501700","林口區"
"243004","AAD-798","2019/06/27 13:59:04","新北市泰山區福興三街13號","121.434398333333","25.05779","6501600","泰山區"
"243002","297-R6","2019/06/27 13:59:03","新北市泰山區辭修路30號","121.428951666667","25.0582166666667","6501600","泰山區"
"243006","KEA-2801","2019/06/27 13:59:06","新北市泰山區黎明路2-5號","121.420873333333","25.062615","6501600","泰山區"
"243008","421-VK","2019/06/27 13:59:14","新北市泰山區明志路二段137號","121.42766","25.0506383333333","6501600","泰山區"
"243003","KEA-2216","2019/06/27 13:59:11","新北市泰山區明志路二段235號","121.427265","25.0482266666667","6501600","泰山區"
"243007","680-BX","2019/06/27 13:59:15","新北市泰山區美寧街50號","121.430565","25.0644633333333","6501600","泰山區"
"231030","002-UM","2019/06/27 13:59:01","新北市新店區安康路一段230-3號","121.522426666667","24.9637416666667","6500600","新店區"
"231027","0293-UT","2019/06/27 13:59:18","新北市新店區中興路一段24-2號","121.538563333333","24.9582733333333","6500600","新店區"
"231028","046-UY","2019/06/27 13:59:04","新北市新店區安和路三段9巷1號","121.518006666667","24.9806683333333","6500600","新店區"
"231029","106-UY","2019/06/27 13:59:20","新北市新店區安康路二段4號","121.516381666667","24.96376","6500600","新店區"
"231018","107-UY","2019/06/27 13:59:00","新北市新店區中央路192號","121.530941666667","24.9748616666667","6500600","新店區"
"231013","108-UY","2019/06/27 13:59:12","新北市新店區明德路64號","121.541731666667","24.9795183333333","6500600","新店區"
"231036","110-UY","2019/06/27 13:59:18","新北市新店區安祥路108巷53號","121.474398333333","24.9570566666667","6500600","新店區"
"231023","260-TV","2019/06/27 13:59:06","新北市新店區文中路45號","121.539583333333","24.95658","6500600","新店區"
"231003","268-BY","2019/06/27 13:59:00","新北市新店區中興路一段41號","121.539333333333","24.95982","6500600","新店區"
"231035","278-BY","2019/06/27 13:59:05","新北市新店區安和路一段47號","121.517428333333","24.96576","6500600","新店區"
"231017","AAD-862","2019/06/27 13:59:19","新北市新店區北宜路二段82-1號","121.553483333333","24.9533116666667","6500600","新店區"
"231006","355-BY","2019/06/27 13:59:20","新北市新店區北宜路二段50號","121.54881","24.9514016666667","6500600","新店區"
"231038","3712-VJ","2019/06/27 13:59:13","新北市新店區安康路一段321巷5號","121.521778333333","24.9627283333333","6500600","新店區"
"231024","4716-K9","2019/06/27 13:59:09","新北市新店區北新路一段271巷31號","121.540073333333","24.96721","6500600","新店區"
"231025","4715-K9","2019/06/27 13:59:13","新北市新店區中正路328巷42弄4號","121.538303333333","24.9762166666667","6500600","新店區"
"231021","513-UM","2019/06/27 13:59:15","新北市新店區新烏路二段40-2號","121.544875","24.9283016666667","6500600","新店區"
"231002","619-UM","2019/06/27 13:59:02","新北市新店區復興路106-24號","121.532213333333","24.990275","6500600","新店區"
"231034","641-BX","2019/06/27 13:59:12","新北市新店區達觀路41號","121.502916666667","24.9387583333333","6500600","新店區"
"231011","KED-0819","2019/06/27 13:59:19","新北市新店區中興路二段59號","121.546455","24.9704533333333","6500600","新店區"
"231031","718-UY","2019/06/27 13:59:17","新北市新店區莒光路44巷21弄11號","121.520118333333","24.95215","6500600","新店區"
"231010","719-UM","2019/06/27 13:59:16","新北市新店區中正路224號","121.540188333333","24.9727133333333","6500600","新店區"
"231026","720-UM","2019/06/27 13:59:01","新北市新店區福園街9號","121.533305","24.9729616666667","6500600","新店區"
"231005","897-TW","2019/06/27 13:59:00","新北市新店區寶中路86號","121.548641666667","24.9804966666667","6500600","新店區"
"231001","898-TW","2019/06/27 13:59:14","新北市新店區三民路58號","121.535231666667","24.972215","6500600","新店區"
"231004","899-TW","2019/06/27 13:59:07","新北市新店區寶橋路8號","121.544001666667","24.97373","6500600","新店區"
"231037","AKT-0513","2019/06/27 13:59:11","新北市新店區安康路三段355巷6號","121.484775","24.9504316666667","6500600","新店區"
"235030","003-UY","2019/06/27 13:59:03","新北市中和區光華街32號","121.504745","25.0039583333333","6500300","中和區"
"235028","005-UY","2019/06/27 13:59:16","新北市中和區泰和街30巷16號","121.49917","25.0010866666667","6500300","中和區"
"235027","006-UY","2019/06/27 13:59:10","新北市中和區中正路559號","121.487131666667","24.994375","6500300","中和區"
"235020","096-UM","2019/06/27 13:59:12","新北市板橋區三民路二段228號","121.478793333333","25.0114933333333","6500300","中和區"
"235003","097-UM","2019/06/27 13:59:11","新北市中和區秀朗路三段175巷6號","121.524625","24.9910533333333","6500300","中和區"
"235029","098-UM","2019/06/27 13:59:03","新北市中和區中山路二段2巷45弄2號","121.502338333333","25.007045","6500300","中和區"
"235004","150-BY","2019/06/27 13:59:06","新北市中和區保健路65號","121.50966","24.9971766666667","6500300","中和區"
"235022","151-BY","2019/06/27 13:59:18","新北市中和區連城路607號","121.478041666667","24.9930533333333","6500300","中和區"
"235019","183-VK","2019/06/27 13:59:14","新北市中和區德光路92-2號","121.46876","25.0035266666667","6500300","中和區"
"235002","185-VK","2019/06/27 13:59:02","新北市中和區立人街24-4號","121.518966666667","24.9941683333333","6500300","中和區"
"235013","186-VK","2019/06/27 13:59:04","新北市中和區景安路163號","121.505485","24.9945366666667","6500300","中和區"
"235031","255-BX","2019/06/27 13:59:18","新北市中和區中正路701號","121.485025","24.9983533333333","6500300","中和區"
"235008","293-VK","2019/06/27 13:59:04","新北市中和區中興街161巷2弄3號","121.500281666667","24.990815","6500300","中和區"
"235036","301-VK","2019/06/27 13:59:13","新北市中和區中山路二段62號","121.504015","25.0047083333333","6500300","中和區"
"235007","352-BY","2019/06/27 13:59:09","新北市中和區成功路115號","121.525973333333","24.9910483333333","6500300","中和區"
"235006","KEA-2878","2019/06/27 13:59:13","新北市永和區成功路二段193號","121.526576666667","24.9964683333333","6500300","中和區"
"247013","KEA-2869","2019/06/27 13:59:04","新北市蘆洲區中正路156-1號","121.468813333333","25.085495","6501400","蘆洲區"
"247007","KED-0682","2019/06/27 13:59:04","新北市蘆洲區重陽一街1號","121.481756666667","25.0813966666667","6501400","蘆洲區"
"235014","4979-A6","2019/06/27 13:59:09","新北市中和區忠孝街60巷2弄6號","121.511546666667","24.9836733333333","6500300","中和區"
"235033","4980-A6","2019/06/27 13:58:59","新北市中和區圓通路109巷20號","121.500001666667","24.9963","6500300","中和區"
"235034","558-UM","2019/06/27 13:59:12","新北市中和區中和路194號","121.505041666667","24.999615","6500300","中和區"
"235001","565-BX","2019/06/27 13:59:04","新北市中和區景新街467巷35弄1號","121.514625","24.9890783333333","6500300","中和區"
"235024","KED-0823","2019/06/27 13:59:15","新北市中和區民有街21號","121.47572","25.0052616666667","6500300","中和區"
"235011","732-UM","2019/06/27 13:59:16","新北市中和區興南路二段54巷11弄3號","121.505701666667","24.9855633333333","6500300","中和區"
"235010","733-UM","2019/06/27 13:59:06","新北市中和區興南路二段21號","121.507885","24.9859583333333","6500300","中和區"
"235035","783-BX","2019/06/27 13:59:15","新北市中和區立業路103號","121.490381666667","25.007725","6500300","中和區"
"235026","800-TS","2019/06/27 13:59:10","新北市中和區中山路二段332巷65號","121.493333333333","25.0046433333333","6500300","中和區"
"235021","801-TS","2019/06/27 13:59:12","新北市中和區民利街58巷5弄15號","121.477925","24.9991983333333","6500300","中和區"
"235005","802-TS","2019/06/27 13:59:04","新北市中和區永貞路237號","121.51308","25.003665","6500300","中和區"
"235016","805-TS","2019/06/27 13:59:17","新北市中和區興南路二段131-6號","121.503928333333","24.98119","6500300","中和區"
"235012","896-TW","2019/06/27 13:59:13","新北市中和區華新街9號","121.507523333333","24.9851633333333","6500300","中和區"
"235017","900-TW","2019/06/27 13:59:04","新北市中和區和平路200巷1-7號","121.464455","24.99522","6500300","中和區"
"235018","911-UM","2019/06/27 13:59:06","新北市中和區民德路181號","121.468441666667","24.9994133333333","6500300","中和區"
"235015","157-BY","2019/06/27 13:59:06","新北市中和區忠孝街19巷58號","121.50935","24.9855633333333","6500300","中和區"
"235001","AAC-213","2019/06/27 13:58:59","新北市中和區秀朗路三段58-1號","121.525993333333","24.9951883333333","6500300","中和區"
"235023","AAC-215","2019/06/27 13:59:03","新北市中和區圓通路367巷20弄23號","121.491376666667","24.98837","6500300","中和區"
"220020","015-TV","2019/06/27 13:59:18","新北市板橋區大觀路三段36巷48號","121.434535","24.9969083333333","6500100","板橋區"
"220013","072-UY","2019/06/27 13:59:04","新北市板橋區漢生東路330-1號","121.471823333333","25.0077966666667","6500100","板橋區"
"220034","073-UY","2019/06/27 13:59:14","新北市板橋區大智街22號","121.455665","25.0148666666667","6500100","板橋區"
"220105","075-UY","2019/06/27 13:59:02","新北市板橋區雙十路三段9號","121.471663333333","25.0303133333333","6500100","板橋區"
"220017","AAD-861","2019/06/27 13:59:07","新北市板橋區貴興路5號","121.457761666667","25.0044633333333","6500100","板橋區"
"247003","893-R6","2019/06/27 13:59:18","新北市蘆洲區長安街98巷10號","121.462578333333","25.0814733333333","6501400","蘆洲區"
"247017","546-UM","2019/06/27 13:59:15","新北市蘆洲區民族路257巷17號","121.475088333333","25.0902133333333","6501400","蘆洲區"
"247001","500-BY","2019/06/27 13:59:16","新北市蘆洲區三民路605號","121.460643333333","25.09373","6501400","蘆洲區"
"247023","337-TH","2019/06/27 13:59:12","新北市蘆洲區光榮路118-2號","121.464868333333","25.0892366666667","6501400","蘆洲區"
"247021","057-VK","2019/06/27 13:59:14","新北市蘆洲區中正路263巷2號","121.46735","25.0873733333333","6501400","蘆洲區"
"247011","056-VK","2019/06/27 13:59:09","新北市蘆洲區民族路156號","121.479618333333","25.0861083333333","6501400","蘆洲區"
"247015","053-VK","2019/06/27 13:59:11","新北市蘆洲區光華路42號","121.468858333333","25.08308","6501400","蘆洲區"
"247019","007-UY","2019/06/27 13:59:13","新北市蘆洲區民族路422巷8號","121.474151666667","25.0920666666667","6501400","蘆洲區"
"247005","002-UY","2019/06/27 13:59:21","新北市蘆洲區永安南路二段14號","121.467365","25.07704","6501400","蘆洲區"
"228005","097-TW","2019/06/27 13:58:12","新北市貢寮區美豐里雞母嶺街52-1號","121.888673333333","25.0681316666667","6502600","貢寮區"
"228004","212-TW","2019/06/27 13:59:15","新北市貢寮區龍崗里泮宮路43號","121.908011666667","25.0173733333333","6502600","貢寮區"
"253003","4710-YM","2019/06/27 13:58:57","新北市石門區尖子鹿51號","121.580655","25.273115","6502200","石門區"
"253004","6251-TK","2019/06/27 13:59:15","新北市石門區草埔尾20-4號","121.602986666667","25.2627616666667","6502200","石門區"
"253002","637-UY","2019/06/27 13:57:52","新北市石門區尖山湖18號","121.559023333333","25.2471016666667","6502200","石門區"
"253001","KEC-0718","2019/06/27 13:59:07","新北市石門區八甲74號","121.529566666667","25.2642516666667","6502200","石門區"
"208001","AAC-292","2019/06/27 13:59:02","基隆市安樂區武訓街88號","121.698208333333","25.1516116666667","6502700","金山區"
"207002","749-BX","2019/06/27 13:59:01","新北市萬里區溪底里烏塗炭12-1號","121.635731666667","25.150635","6502800","萬里區"
"252005","073-UM","2019/06/27 13:59:19","新北市三芝區橫山里大坑43號","121.53551","25.2461683333333","6502100","三芝區"
"207001","662-BX","2019/06/27 13:59:14","新北市萬里區磺潭里清水4-3號","121.642768333333","25.201815","6502800","萬里區"
"236040","KED-0685","2019/06/27 13:59:05","新北市土城區城林路6巷80號","121.438528333333","24.9797033333333","6501300","土城區"
"236074","166-UM","2019/06/27 13:59:04","新北市土城區永寧路29號","121.43045","24.9631166666667","6501300","土城區"
"236029","253-BX","2019/06/27 13:59:05","新北市土城區城林路6巷80號","121.438505","24.9797366666667","6501300","土城區"
"236024","269-VK","2019/06/27 13:59:14","新北市土城區中華路二段210號","121.437618333333","24.968685","6501300","土城區"
"236012","270-VK","2019/06/27 13:59:17","新北市土城區中華路二段2號","121.438806666667","24.979875","6501300","土城區"
"236032","271-VK","2019/06/27 13:59:17","新北市土城區中正路75號","121.444906666667","24.97564","6501300","土城區"
"247009","KED-0683","2019/06/27 13:59:11","新北市蘆洲區集賢路224巷21號","121.481645","25.0869266666667","6501400","蘆洲區"
"236068","KEA-2877","2019/06/27 13:59:20","新北市土城區金城路一段88巷26號","121.446193333333","24.973365","6501300","土城區"
"236017","401-BY","2019/06/27 13:59:19","新北市土城區清水路26號","121.455106666667","24.979555","6501300","土城區"
"236057","912-UM","2019/06/27 13:59:18","新北市土城區中央路三段244巷5號","121.427778333333","24.964225","6501300","土城區"
"236045","913-UM","2019/06/27 13:59:13","新北市土城區城林路6巷80號","121.43849","24.9797","6501300","土城區"
"236060","915-UM","2019/06/27 13:59:01","新北市土城區城林路6巷80號","121.438735","24.9797133333333","6501300","土城區"
"236054","AAC-216","2019/06/27 13:59:15","新北市土城區城林路6巷80號","121.438248333333","24.9793983333333","6501300","土城區"
"220027","145-BY","2019/06/27 13:59:18","新北市板橋區大仁街102-1號","121.453328333333","25.01604","6500100","板橋區"
"220028","200-UY","2019/06/27 13:59:14","新北市板橋區大觀路二段265巷1弄52號","121.445128333333","24.9979083333333","6500100","板橋區"
"220030","610-BX","2019/06/27 13:59:04","新北市板橋區篤行路三段76號","121.426833333333","24.9851383333333","6500100","板橋區"
"220050","245-BX","2019/06/27 13:59:07","新北市板橋區萬板路11號","121.470458333333","25.020865","6500100","板橋區"
"220004","276-BY","2019/06/27 13:59:13","新北市板橋區信義路40號","121.457125","24.9946766666667","6500100","板橋區"
"220019","283-VK","2019/06/27 13:59:10","新北市板橋區忠孝路176巷5弄4號","121.46482","25.0020083333333","6500100","板橋區"
"220043","285-UM","2019/06/27 13:59:18","新北市板橋區光武街123巷1號","121.466246666667","25.02828","6500100","板橋區"
"220001","285-VK","2019/06/27 13:58:59","新北市板橋區懷仁街10巷1號","121.475128333333","25.019565","6500100","板橋區"
"220031","286-VK","2019/06/27 13:59:03","新北市板橋區大觀路一段38巷156弄71號","121.442593333333","25.006895","6500100","板橋區"
"220029","287-VK","2019/06/27 13:59:17","新北市板橋區光華街48號","121.453753333333","25.01309","6500100","板橋區"
"220039","288-VK","2019/06/27 13:59:05","新北市板橋區裕民街52號","121.461488333333","25.0287183333333","6500100","板橋區"
"220009","293-UM","2019/06/27 13:59:02","新北市板橋區中山路二段295巷24號","121.477871666667","25.0186883333333","6500100","板橋區"
"220032","296-UM","2019/06/27 13:59:03","新北市板橋區龍興街2號","121.44271","24.9993083333333","6500100","板橋區"
"220014","299-UM","2019/06/27 13:59:08","新北市板橋區民享街116巷2弄17號","121.477318333333","25.01502","6500100","板橋區"
"220023","303-R5","2019/06/27 13:59:21","新北市板橋區南興路30號","121.45475","25.00774","6500100","板橋區"
"220010","305-R5","2019/06/27 13:58:59","新北市板橋區三民路二段245巷36號","121.480635","25.0124966666667","6500100","板橋區"
"220041","307-R5","2019/06/27 13:59:05","新北市板橋區文化路二段225巷60弄14號","121.46921","25.028825","6500100","板橋區"
"220047","317-R6","2019/06/27 13:59:14","新北市板橋區民生路二段226巷42號","121.47145","25.022195","6500100","板橋區"
"220038","487-VK","2019/06/27 13:59:09","新北市板橋區文化路二段331號","121.472645","25.0302716666667","6500100","板橋區"
"220037","491-VK","2019/06/27 13:59:20","新北市板橋區莒光路165巷42-1號","121.474393333333","25.025115","6500100","板橋區"
"220052","561-BX","2019/06/27 13:59:07","新北市板橋區介壽街22-1號","121.467726666667","25.02007","6500100","板橋區"
"220011","609-BX","2019/06/27 13:59:08","新北市板橋區中山路二段258號","121.478866666667","25.01839","6500100","板橋區"
"220104","630-UY","2019/06/27 13:59:17","新北市板橋區中正路325巷8號","121.454391666667","25.0198783333333","6500100","板橋區"
"220040","637-BX","2019/06/27 13:59:19","新北市板橋區大同街8巷29號","121.477436666667","25.026115","6500100","板橋區"
"220005","686-BX","2019/06/27 13:58:45","新北市板橋區重慶路253號","121.463468333333","25.000065","6500100","板橋區"
"220025","687-BX","2019/06/27 13:59:10","新北市板橋區大觀路二段431-1號","121.441103333333","24.9947366666667","6500100","板橋區"
"220042","689-BX","2019/06/27 13:59:06","新北市板橋區民生路三段113號","121.466386666667","25.0254466666667","6500100","板橋區"
"220002","741-BX","2019/06/27 13:59:04","新北市板橋區重慶路93巷32號","121.463365","25.0058766666667","6500100","板橋區"
"220051","KEA-2699","2019/06/27 13:59:11","新北市板橋區田單街2巷29號","121.4822","25.02803","6500100","板橋區"
"220016","831-TW","2019/06/27 13:59:14","新北市板橋區中山路二段443巷58號","121.481121666667","25.0217316666667","6500100","板橋區"
"220022","895-R6","2019/06/27 13:58:59","新北市板橋區南雅南路一段127號","121.455385","25.0044966666667","6500100","板橋區"
"220021","985-R7","2019/06/27 13:59:05","新北市板橋區館前西路興義巷3號","121.454988333333","25.0082033333333","6500100","板橋區"
"220046","AAC-210","2019/06/27 13:59:21","新北市板橋區新海路135巷29號","121.460045","25.0228616666667","6500100","板橋區"
"220012","AAC-253","2019/06/27 13:59:09","新北市板橋區板新路95號","121.472943333333","25.013885","6500100","板橋區"
"235032","KEA-2873","2019/06/27 13:59:10","新北市中和區連勝街38巷20號","121.497748333333","24.99815","6500300","中和區"
"235025","KEA-2875","2019/06/27 13:59:04","新北市中和區員山路394巷12弄4號","121.481246666667","25.00432","6500300","中和區"
