"lineid","car","time","location","longitude","latitude","cityid","cityname"
"234036","336-UY","2019/06/27 14:29:22","新北市永和區民樂街31巷17弄4號","121.528605","25.0019716666667","6500400","永和區"
"234062","337-UY","2019/06/27 14:29:17","新北市永和區中正路526號","121.517231666667","25.0049783333333","6500400","永和區"
"234084","338-UY","2019/06/27 14:29:09","新北市永和區永和路二段49號","121.514593333333","25.0107416666667","6500400","永和區"
"234068","552-UM","2019/06/27 14:29:13","新北市永和區永寧街65號","121.519935","25.006845","6500400","永和區"
"234028","746-BX","2019/06/27 14:29:18","新北市永和區民權路55號","121.5201","24.99695","6500400","永和區"
"234052","KEA-2590","2019/06/27 14:29:11","新北市永和區光復街60巷31號","121.51823","25.0172533333333","6500400","永和區"
"234005","KED-0605","2019/06/27 14:29:15","新北市永和區豫溪街50號","121.51582","25.0099016666667","6500400","永和區"
"234012","KEA-2591","2019/06/27 14:29:08","新北市永和區仁愛路352巷140號","121.499645","25.0090716666667","6500400","永和區"
"234060","AAD-866","2019/06/27 14:29:17","新北市永和區秀安街15巷1號","121.515988333333","25.0036166666667","6500400","永和區"
"234078","748-BX","2019/06/27 14:29:21","新北市永和區永貞路2號","121.520771666667","25.00751","6500400","永和區"
"234040","862-TW","2019/06/27 14:29:09","新北市永和區自由街20號","121.514398333333","25.00648","6500400","永和區"
"234048","863-TW","2019/06/27 14:29:15","新北市永和區新生路113號","121.507805","25.0152816666667","6500400","永和區"
"234025","9371-KE","2019/06/27 14:29:12","新北市永和區安樂路144巷6號","121.514643333333","25.000075","6500400","永和區"
"248015","026-BX","2019/06/27 14:29:17","新北市五股區成泰路四段22巷29-6號","121.455768333333","25.1084316666667","6501500","五股區"
"248007","KED-0815","2019/06/27 14:29:06","新北市五股區中興路二段83巷26-6號","121.460046666667","25.0752716666667","6501500","五股區"
"248017","KED-0813","2019/06/27 14:29:14","新北市五股區外寮路13-1號","121.424853333333","25.0812383333333","6501500","五股區"
"248012","247-BX","2019/06/27 14:29:16","新北市五股區蓬萊路6巷2號","121.4356","25.079605","6501500","五股區"
"248013","261-SL","2019/06/27 14:29:00","新北市五股區工商路164-1號","121.433478333333","25.088","6501500","五股區"
"248001","678-BX","2019/06/27 14:29:18","新北市五股區成泰路三段493號","121.450956666667","25.0996566666667","6501500","五股區"
"248003","682-TV","2019/06/27 14:29:18","新北市五股區成泰路二段38號","121.437083333333","25.0813466666667","6501500","五股區"
"234072","AAC-211","2019/06/27 14:29:00","新北市永和區環河東路一段126號","121.520665","25.0153516666667","6500400","永和區"
"234001","AAC-295","2019/06/27 14:29:18","新北市永和區福和路160號","121.521448333333","25.0078833333333","6500400","永和區"
"244003","248-BX","2019/06/27 14:29:07","新北市林口區寶斗厝坑42號","121.334368333333","25.12299","6501700","林口區"
"243004","AAD-798","2019/06/27 14:29:04","新北市泰山區仁義路160號","121.43264","25.054395","6501600","泰山區"
"243002","297-R6","2019/06/27 14:29:03","新北市泰山區民生路17巷6號","121.429885","25.052205","6501600","泰山區"
"243006","KEA-2801","2019/06/27 14:29:06","新北市泰山區中港西路410號","121.434223333333","25.0542633333333","6501600","泰山區"
"243008","421-VK","2019/06/27 14:29:14","新北市泰山區中山路三段6號","121.420971666667","25.03236","6501600","泰山區"
"243001","KEA-2215","2019/06/27 14:29:15","新北市五股區成泰路一段7巷7號","121.43325","25.06673","6501600","泰山區"
"243003","KEA-2216","2019/06/27 14:29:11","新北市泰山區貴子路67巷35號","121.431228333333","25.0414166666667","6501600","泰山區"
"243005","646-TV","2019/06/27 14:29:10","新北市泰山區貴子路36巷2號","121.42588","25.0415183333333","6501600","泰山區"
"243007","680-BX","2019/06/27 14:29:16","新北市泰山區明志路二段103號","121.428248333333","25.05178","6501600","泰山區"
"231030","002-UM","2019/06/27 14:29:01","新北市新店區安民街50號","121.516083333333","24.9657833333333","6500600","新店區"
"231027","0293-UT","2019/06/27 14:29:18","新北市新店區永華街5號","121.543301666667","24.977125","6500600","新店區"
"231028","046-UY","2019/06/27 14:29:04","新北市新店區安和路二段79號","121.518408333333","24.968885","6500600","新店區"
"231029","106-UY","2019/06/27 14:29:12","新北市新店區安康路二段350-1號","121.502731666667","24.95763","6500600","新店區"
"231018","107-UY","2019/06/27 14:29:20","新北市新店區中央五街8號","121.529905","24.974145","6500600","新店區"
"231013","108-UY","2019/06/27 14:29:12","新北市新店區民權路108-4號","121.536075","24.9833683333333","6500600","新店區"
"231036","110-UY","2019/06/27 14:29:18","新北市新店區安祥路109巷151弄9號","121.477748333333","24.9585433333333","6500600","新店區"
"231023","260-TV","2019/06/27 14:29:06","新北市新店區光明街185號","121.539951666667","24.9631833333333","6500600","新店區"
"231003","268-BY","2019/06/27 14:29:00","新北市新店區中興路一段268-1號","121.545135","24.9677233333333","6500600","新店區"
"231035","278-BY","2019/06/27 14:29:05","新北市新店區安和路一段43號","121.517093333333","24.96557","6500600","新店區"
"231017","AAD-862","2019/06/27 14:29:19","新北市新店區北宜路三段83-1號","121.57708","24.9517683333333","6500600","新店區"
"231006","355-BY","2019/06/27 14:29:08","新北市新店區北宜路二段521號","121.563503333333","24.953615","6500600","新店區"
"231038","3712-VJ","2019/06/27 14:29:14","新北市新店區安康路一段76號","121.528228333333","24.9619083333333","6500600","新店區"
"231021","513-UM","2019/06/27 14:29:15","新北市新店區新烏路三段69號","121.555203333333","24.9037816666667","6500600","新店區"
"231002","619-UM","2019/06/27 14:29:02","新北市新店區中央路155號","121.529938333333","24.9727616666667","6500600","新店區"
"231034","641-BX","2019/06/27 14:29:12","新北市新店區車子路11號","121.502953333333","24.9517266666667","6500600","新店區"
"231011","KED-0819","2019/06/27 14:29:19","新北市新店區寶興路61巷1號","121.55086","24.9720616666667","6500600","新店區"
"231031","718-UY","2019/06/27 14:29:17","新北市新店區溪洲路187-2號","121.529541666667","24.96421","6500600","新店區"
"231005","897-TW","2019/06/27 14:29:00","新北市新店區中興路三段219-1號","121.543421666667","24.9822566666667","6500600","新店區"
"231001","898-TW","2019/06/27 14:29:14","新北市新店區中正路75巷71號","121.543121666667","24.9687266666667","6500600","新店區"
"231004","899-TW","2019/06/27 14:29:02","新北市新店區中正路263-2號","121.538456666667","24.9737666666667","6500600","新店區"
"231037","AKT-0513","2019/06/27 14:29:11","新北市新店區安康路二段269號","121.504576666667","24.9574816666667","6500600","新店區"
"235030","003-UY","2019/06/27 14:29:03","新北市中和區中和路136號","121.503546666667","24.9993633333333","6500300","中和區"
"235028","005-UY","2019/06/27 14:29:18","新北市中和區南山路125號","121.502383333333","24.9971916666667","6500300","中和區"
"235027","006-UY","2019/06/27 14:29:10","新北市中和區連城路203巷5號","121.49491","24.9975933333333","6500300","中和區"
"235020","096-UM","2019/06/27 14:29:12","新北市中和區員山路514巷2號","121.479448333333","25.009675","6500300","中和區"
"235003","097-UM","2019/06/27 14:29:10","新北市中和區景平路274-1號","121.51439","24.9924883333333","6500300","中和區"
"235029","098-UM","2019/06/27 14:29:03","新北市中和區永和路1-4號","121.499735","25.0031316666667","6500300","中和區"
"235004","150-BY","2019/06/27 14:29:06","新北市中和區安樂路51巷22號","121.511516666667","24.9941233333333","6500300","中和區"
"235022","151-BY","2019/06/27 14:29:18","新北市中和區員山路132巷3號","121.481643333333","24.99627","6500300","中和區"
"235019","183-VK","2019/06/27 14:29:14","新北市中和區德光路38-1號","121.470436666667","25.00484","6500300","中和區"
"235002","185-VK","2019/06/27 14:29:22","新北市中和區自立路107號","121.521971666667","24.99474","6500300","中和區"
"235013","186-VK","2019/06/27 14:29:04","新北市中和區景新街273巷8號","121.509815","24.99381","6500300","中和區"
"235031","255-BX","2019/06/27 14:29:18","新北市中和區員山路148巷30號","121.482171666667","24.9971066666667","6500300","中和區"
"235008","293-VK","2019/06/27 14:29:04","新北市中和區捷運路111號","121.507983333333","24.9902433333333","6500300","中和區"
"235036","301-VK","2019/06/27 14:29:13","新北市中和區中和路115號","121.501481666667","25.000375","6500300","中和區"
"235007","352-BY","2019/06/27 14:29:08","新北市中和區景平路404號","121.5092","24.992975","6500300","中和區"
"235006","KEA-2878","2019/06/27 14:29:12","新北市中和區中和路262巷43弄4號","121.509795","24.9997716666667","6500300","中和區"
"247013","KEA-2869","2019/06/27 14:29:04","新北市蘆洲區中山二路225號","121.470311666667","25.0801016666667","6501400","蘆洲區"
"247007","KED-0682","2019/06/27 14:29:04","新北市蘆洲區信義路74號","121.476325","25.07927","6501400","蘆洲區"
"235033","4980-A6","2019/06/27 14:29:19","新北市中和區連城路134巷18-1號","121.495208333333","25.0001866666667","6500300","中和區"
"235034","558-UM","2019/06/27 14:29:12","新北市中和區泰和街45號","121.499013333333","24.99941","6500300","中和區"
"235001","565-BX","2019/06/27 14:29:04","新北市中和區安樂路1號","121.511683333333","24.9918466666667","6500300","中和區"
"235024","KED-0823","2019/06/27 14:29:11","新北市中和區新生街16巷21弄4號","121.482321666667","25.0042616666667","6500300","中和區"
"235011","732-UM","2019/06/27 14:29:16","新北市中和區景平路241巷64弄8號","121.50782","24.9925766666667","6500300","中和區"
"235010","733-UM","2019/06/27 14:29:06","新北市中和區忠孝街37巷52號","121.51114","24.9849333333333","6500300","中和區"
"235035","783-BX","2019/06/27 14:29:15","新北市中和區連城路270號","121.484846666667","24.996245","6500300","中和區"
"235026","800-TS","2019/06/27 14:29:10","新北市中和區中山路二段403號","121.486275","25.0048133333333","6500300","中和區"
"235021","801-TS","2019/06/27 14:29:10","新北市中和區員山路259號","121.481376666667","24.9990266666667","6500300","中和區"
"235005","802-TS","2019/06/27 14:29:03","新北市中和區景安路53號","121.507321666667","24.998195","6500300","中和區"
"235016","805-TS","2019/06/27 14:29:17","新北市中和區華新街143巷69弄2號","121.507345","24.97871","6500300","中和區"
"235012","896-TW","2019/06/27 14:29:13","新北市中和區忠孝街15號","121.510148333333","24.9827783333333","6500300","中和區"
"235017","900-TW","2019/06/27 14:29:03","新北市中和區民德路197號","121.469373333333","24.9980066666667","6500300","中和區"
"235018","911-UM","2019/06/27 14:29:06","新北市中和區莒光路131號","121.472558333333","25.00179","6500300","中和區"
"235015","157-BY","2019/06/27 14:29:06","新北市中和區中興街123號","121.499916666667","24.9917416666667","6500300","中和區"
"235001","AAC-213","2019/06/27 14:29:20","新北市中和區秀朗路三段10巷21弄8號","121.525201666667","24.9959966666667","6500300","中和區"
"235023","AAC-215","2019/06/27 14:29:03","新北市中和區圓通路252-3號","121.493601666667","24.9911866666667","6500300","中和區"
"220020","015-TV","2019/06/27 14:29:18","新北市板橋區金門街337巷9弄5號","121.430518333333","24.9847033333333","6500100","板橋區"
"220013","072-UY","2019/06/27 14:29:09","新北市板橋區國泰街75巷62號","121.46812","25.004885","6500100","板橋區"
"220034","073-UY","2019/06/27 14:29:14","新北市板橋區中正路216巷9號","121.456336666667","25.0184866666667","6500100","板橋區"
"220105","075-UY","2019/06/27 14:29:02","新北市板橋區文化路二段317號","121.472033333333","25.03008","6500100","板橋區"
"220017","AAD-861","2019/06/27 14:29:07","新北市板橋區縣民大道一段64巷27號","121.456086666667","25.0032583333333","6500100","板橋區"
"247003","893-R6","2019/06/27 14:29:18","新北市蘆洲區長安街220巷7號","121.459168333333","25.0849916666667","6501400","蘆洲區"
"247017","546-UM","2019/06/27 14:29:15","新北市蘆洲區民族路237號","121.477325","25.0900666666667","6501400","蘆洲區"
"247001","500-BY","2019/06/27 14:29:12","新北市蘆洲區環堤大道166號","121.456081666667","25.0896","6501400","蘆洲區"
"247023","337-TH","2019/06/27 14:29:12","新北市蘆洲區中正路263巷2號","121.467128333333","25.0874433333333","6501400","蘆洲區"
"247021","057-VK","2019/06/27 14:29:14","新北市蘆洲區民族路520號","121.469128333333","25.0899766666667","6501400","蘆洲區"
"247011","056-VK","2019/06/27 14:29:09","新北市蘆洲區民族路193號","121.4785","25.08897","6501400","蘆洲區"
"247015","053-VK","2019/06/27 14:29:14","新北市蘆洲區中正路185巷25弄22號","121.467301666667","25.083755","6501400","蘆洲區"
"247019","007-UY","2019/06/27 14:29:13","新北市蘆洲區仁愛街102-7號","121.469893333333","25.0949083333333","6501400","蘆洲區"
"247005","002-UY","2019/06/27 14:29:22","新北市蘆洲區中華街101號","121.461396666667","25.079735","6501400","蘆洲區"
"228005","097-TW","2019/06/27 14:29:12","新北市貢寮區美豐里巫里岸9-1號","121.901935","25.0700766666667","6502600","貢寮區"
"228004","212-TW","2019/06/27 14:29:15","新北市貢寮區雙玉里田寮洋街34-1號","121.931078333333","25.0149816666667","6502600","貢寮區"
"253003","4710-YM","2019/06/27 14:29:17","新北市石門區尖子鹿36號","121.581998333333","25.256415","6502200","石門區"
"253004","6251-TK","2019/06/27 14:29:15","新北市石門區內阿里磅1號","121.592246666667","25.2544583333333","6502200","石門區"
"253002","637-UY","2019/06/27 14:29:12","新北市石門區楓林35號","121.545286666667","25.2779933333333","6502200","石門區"
"253001","KEC-0718","2019/06/27 14:29:07","新北市石門區崁子腳65-3號","121.532608333333","25.2852383333333","6502200","石門區"
"208001","AAC-292","2019/06/27 14:29:02","新北市新店區寶高路102巷9號","121.55425","24.9739683333333","6502700","金山區"
"207002","749-BX","2019/06/27 14:29:01","新北市萬里區溪底里福德坑路2號","121.626048333333","25.1563816666667","6502800","萬里區"
"252005","073-UM","2019/06/27 14:28:59","新北市三芝區橫山里大坑12-1號","121.523288333333","25.25599","6502100","三芝區"
"207001","662-BX","2019/06/27 14:29:14","新北市萬里區磺潭里清水5-1號","121.641105","25.2003733333333","6502800","萬里區"
"236040","KED-0685","2019/06/27 14:29:05","新北市土城區裕民路67巷18號","121.44996","24.988285","6501300","土城區"
"236074","166-UM","2019/06/27 14:29:21","新北市土城區中央路四段27巷10弄2號","121.424678333333","24.9618733333333","6501300","土城區"
"236029","253-BX","2019/06/27 14:29:05","新北市土城區順風路8號","121.440168333333","24.97623","6501300","土城區"
"236024","269-VK","2019/06/27 14:29:14","新北市土城區承天路18號","121.439431666667","24.9633866666667","6501300","土城區"
"236012","270-VK","2019/06/27 14:29:17","新北市土城區青雲路39巷7號","121.46038","24.9875","6501300","土城區"
"236032","271-VK","2019/06/27 14:29:17","新北市土城區明德路一段287巷12號","121.460963333333","24.976865","6501300","土城區"
"247009","KED-0683","2019/06/27 14:29:11","新北市蘆洲區鷺江街38號","121.477336666667","25.0830116666667","6501400","蘆洲區"
"236068","KEA-2877","2019/06/27 14:29:20","新北市土城區永豐路348號","121.474603333333","24.97567","6501300","土城區"
"236017","401-BY","2019/06/27 14:29:19","新北市土城區永豐路202巷14號","121.466268333333","24.9834266666667","6501300","土城區"
"236057","912-UM","2019/06/27 14:29:18","新北市土城區中央路四段245號","121.413118333333","24.9546533333333","6501300","土城區"
"236045","913-UM","2019/06/27 14:29:16","新北市土城區明德路一段319號","121.45921","24.9770816666667","6501300","土城區"
"236060","915-UM","2019/06/27 14:29:06","新北市土城區延壽路111巷23號","121.46838","24.9936","6501300","土城區"
"236054","AAC-216","2019/06/27 14:29:15","新北市土城區中華路一段249號","121.44074","24.9813183333333","6501300","土城區"
"220027","145-BY","2019/06/27 14:29:18","新北市板橋區民權路202巷18弄1號","121.460885","25.01664","6500100","板橋區"
"220028","200-UY","2019/06/27 14:29:07","新北市板橋區大觀路二段3巷56號","121.448983333333","25.0033966666667","6500100","板橋區"
"220030","610-BX","2019/06/27 14:29:04","新北市板橋區金門街369巷99號","121.4281","24.9815216666667","6500100","板橋區"
"220050","245-BX","2019/06/27 14:29:06","新北市板橋區莊敬路220巷29弄1號","121.472528333333","25.0205033333333","6500100","板橋區"
"220004","276-BY","2019/06/27 14:29:13","新北市板橋區信義路68-1號","121.457341666667","24.993575","6500100","板橋區"
"220019","283-VK","2019/06/27 14:29:10","新北市板橋區忠孝路48巷7弄10號","121.46152","25.0003883333333","6500100","板橋區"
"220043","285-UM","2019/06/27 14:29:16","新北市板橋區吳鳳路50巷53弄1號","121.469076666667","25.0306483333333","6500100","板橋區"
"220001","285-VK","2019/06/27 14:29:19","新北市板橋區永豐街205號","121.476608333333","25.021015","6500100","板橋區"
"220031","286-VK","2019/06/27 14:29:03","新北市板橋區龍興街73巷43號","121.442153333333","25.0027816666667","6500100","板橋區"
"220029","287-VK","2019/06/27 14:29:21","新北市板橋區大觀路一段75巷2號","121.44731","25.0043583333333","6500100","板橋區"
"220039","288-VK","2019/06/27 14:29:05","新北市板橋區長江路一段48巷1弄2號","121.459063333333","25.0287583333333","6500100","板橋區"
"220009","293-UM","2019/06/27 14:29:02","新北市板橋區中山路一段265巷32號","121.468965","25.01486","6500100","板橋區"
"220032","296-UM","2019/06/27 14:29:06","新北市板橋區滿平街136巷3弄1號","121.428466666667","24.987745","6500100","板橋區"
"220014","299-UM","2019/06/27 14:29:21","新北市板橋區漢生東路313巷2弄68號","121.472856666667","25.00813","6500100","板橋區"
"220023","303-R5","2019/06/27 14:29:21","新北市板橋區南雅東路1-12號","121.45494","25.0054333333333","6500100","板橋區"
"220010","305-R5","2019/06/27 14:29:19","新北市板橋區三民路二段153巷2弄12-5號","121.479551666667","25.0143766666667","6500100","板橋區"
"220041","307-R5","2019/06/27 14:29:05","新北市板橋區陽明街27巷3號","121.465791666667","25.0216766666667","6500100","板橋區"
"220047","317-R6","2019/06/27 14:29:14","新北市板橋區民有街87號","121.464725","25.0275883333333","6500100","板橋區"
"220038","487-VK","2019/06/27 14:29:09","新北市板橋區英士路13號","121.461958333333","25.0251933333333","6500100","板橋區"
"220037","491-VK","2019/06/27 14:29:20","新北市板橋區雙十路一段3號","121.478121666667","25.0240583333333","6500100","板橋區"
"220052","561-BX","2019/06/27 14:29:07","新北市板橋區陽明街29巷36號","121.463588333333","25.0227466666667","6500100","板橋區"
"220011","609-BX","2019/06/27 14:29:08","新北市板橋區三民路二段202-20號","121.478968333333","25.0132683333333","6500100","板橋區"
"220104","630-UY","2019/06/27 14:29:02","新北市板橋區中正路433巷27號","121.45321","25.0236116666667","6500100","板橋區"
"220040","637-BX","2019/06/27 14:29:13","新北市板橋區文聖街141號","121.478371666667","25.0282733333333","6500100","板橋區"
"220005","686-BX","2019/06/27 14:29:04","新北市板橋區和平路22號","121.460186666667","24.994445","6500100","板橋區"
"220025","687-BX","2019/06/27 14:29:10","新北市板橋區大觀路二段303號","121.442031666667","24.9987033333333","6500100","板橋區"
"220042","689-BX","2019/06/27 14:29:19","新北市板橋區新海路411號","121.45842","25.027005","6500100","板橋區"
"220002","741-BX","2019/06/27 14:29:04","新北市板橋區四川路一段281號","121.459328333333","25.00181","6500100","板橋區"
"220051","KEA-2699","2019/06/27 14:29:11","新北市板橋區松柏街25號","121.474888333333","25.0301366666667","6500100","板橋區"
"220016","831-TW","2019/06/27 14:29:20","新北市板橋區中山路二段591-3號","121.484765","25.022145","6500100","板橋區"
"220022","895-R6","2019/06/27 14:29:19","新北市板橋區府中路99號","121.456883333333","25.009515","6500100","板橋區"
"220021","985-R7","2019/06/27 14:29:05","新北市板橋區瑞安街2號","121.454285","25.023335","6500100","板橋區"
"220046","AAC-210","2019/06/27 14:29:04","新北市板橋區文化路一段285巷1弄7號","121.464398333333","25.018705","6500100","板橋區"
"220012","AAC-253","2019/06/27 14:29:08","新北市板橋區館前西路46巷2號","121.459063333333","25.0071","6500100","板橋區"
"235032","KEA-2873","2019/06/27 14:29:10","新北市中和區莊敬路16巷8號","121.500033333333","25.0039383333333","6500300","中和區"
"235025","KEA-2875","2019/06/27 14:29:04","新北市中和區員山路174巷11號","121.48212","24.9999433333333","6500300","中和區"
