"lineid","car","time","location","longitude","latitude","cityid","cityname"
"234040","862-TW","2019/06/27 14:49:09","新北市板橋區文化路二段656號","121.480505","25.0413116666667","6500400","永和區"
"234025","9371-KE","2019/06/27 14:49:12","新北市永和區中和路501巷5號","121.51046","25.00265","6500400","永和區"
"248015","026-BX","2019/06/27 14:49:15","新北市五股區成泰路三段577巷80弄78號","121.448483333333","25.1047066666667","6501500","五股區"
"248007","KED-0815","2019/06/27 14:49:06","新北市五股區中興路一段95巷22號","121.466533333333","25.0721816666667","6501500","五股區"
"248017","KED-0813","2019/06/27 14:49:14","新北市五股區外寮路13-1號","121.424836666667","25.0812266666667","6501500","五股區"
"248012","247-BX","2019/06/27 14:49:16","新北市五股區民義路一段208號","121.430603333333","25.0893083333333","6501500","五股區"
"248013","261-SL","2019/06/27 14:49:20","新北市五股區五福路14巷20號","121.435268333333","25.088865","6501500","五股區"
"248009","272-BY","2019/06/27 14:49:11","新北市五股區登林路64-1號","121.43157","25.0690266666667","6501500","五股區"
"248001","678-BX","2019/06/27 14:48:36","新北市五股區成泰路三段173號","121.445246666667","25.091965","6501500","五股區"
"248003","682-TV","2019/06/27 14:49:18","新北市五股區成泰路一段8巷4號","121.435001666667","25.0667916666667","6501500","五股區"
"244003","248-BX","2019/06/27 14:49:07","新北市林口區林口路76號","121.38966","25.0806633333333","6501700","林口區"
"243004","AAD-798","2019/06/27 14:49:04","新北市泰山區楓江路46巷1號","121.435196666667","25.0621433333333","6501600","泰山區"
"243002","297-R6","2019/06/27 14:49:23","新北市泰山區明志路二段257號","121.42708","25.0476216666667","6501600","泰山區"
"243006","KEA-2801","2019/06/27 14:49:06","新北市泰山區明志路一段24號","121.43355","25.0655766666667","6501600","泰山區"
"243008","421-VK","2019/06/27 14:49:14","新北市泰山區明志路三段277號","121.422821666667","25.0365166666667","6501600","泰山區"
"243001","KEA-2215","2019/06/27 14:49:15","新北市泰山區泰林路二段116巷1弄1號","121.434763333333","25.0593933333333","6501600","泰山區"
"243003","KEA-2216","2019/06/27 14:49:11","新北市泰山區明志路三段166號","121.424206666667","25.0393766666667","6501600","泰山區"
"243005","646-TV","2019/06/27 14:49:21","新北市泰山區應化街7號","121.423863333333","25.0437916666667","6501600","泰山區"
"243007","680-BX","2019/06/27 14:49:16","新北市泰山區明志路二段68號","121.428896666667","25.0524766666667","6501600","泰山區"
"231030","002-UM","2019/06/27 14:49:07","新北市新店區安民街202號","121.517271666667","24.9718433333333","6500600","新店區"
"231027","0293-UT","2019/06/27 14:49:18","新北市新店區中正路332號","121.536846666667","24.9751966666667","6500600","新店區"
"231028","046-UY","2019/06/27 14:49:04","新北市新店區安德街60巷35號","121.511186666667","24.9636816666667","6500600","新店區"
"231029","106-UY","2019/06/27 14:49:12","新北市新店區安康路三段578-1號","121.481081666667","24.9486983333333","6500600","新店區"
"231018","107-UY","2019/06/27 14:49:20","新北市新店區中央一街39號","121.527438333333","24.9736933333333","6500600","新店區"
"231013","108-UY","2019/06/27 14:49:12","新北市新店區北新路二段121巷1-1號","121.542186666667","24.97492","6500600","新店區"
"231036","110-UY","2019/06/27 14:49:18","新北市新店區安祥路106巷6弄1號","121.478831666667","24.962605","6500600","新店區"
"231023","260-TV","2019/06/27 14:49:06","新北市新店區檳榔路109號","121.544416666667","24.9615133333333","6500600","新店區"
"231003","268-BY","2019/06/27 14:49:20","新北市新店區中興路二段55號","121.546455","24.9701633333333","6500600","新店區"
"231035","278-BY","2019/06/27 14:49:14","新北市新店區安利街18號","121.519356666667","24.9742766666667","6500600","新店區"
"231017","AAD-862","2019/06/27 14:49:19","新北市新店區北宜路三段221號","121.592345","24.9531583333333","6500600","新店區"
"231006","355-BY","2019/06/27 14:49:08","新北市新店區北宜路二段15號","121.547826666667","24.9518466666667","6500600","新店區"
"231038","3712-VJ","2019/06/27 14:49:13","新北市新店區安華路28-1號","121.519526666667","24.9608333333333","6500600","新店區"
"231024","4716-K9","2019/06/27 14:49:09","新北市新店區力行路14巷8號","121.539316666667","24.9649633333333","6500600","新店區"
"231025","4715-K9","2019/06/27 14:49:13","新北市新店區建國路194號","121.537951666667","24.9805133333333","6500600","新店區"
"231021","513-UM","2019/06/27 14:49:15","新北市新店區桂山路81巷1號","121.567281666667","24.8992383333333","6500600","新店區"
"231002","619-UM","2019/06/27 14:49:02","新北市新店區中正路491號","121.533778333333","24.9825033333333","6500600","新店區"
"231034","641-BX","2019/06/27 14:49:11","新北市新店區車子路1-1號","121.504668333333","24.9575233333333","6500600","新店區"
"231011","KED-0819","2019/06/27 14:49:19","新北市新店區寶橋路69-1號","121.545528333333","24.9750933333333","6500600","新店區"
"231031","718-UY","2019/06/27 14:49:17","新北市新店區薏仁坑路自強巷6號","121.49628","24.95811","6500600","新店區"
"231026","720-UM","2019/06/27 14:49:10","新北市新店區安一路一段1-1號","121.519785","24.96118","6500600","新店區"
"231005","897-TW","2019/06/27 14:49:20","新北市新店區順安街73號","121.540633333333","24.9867316666667","6500600","新店區"
"231001","898-TW","2019/06/27 14:49:14","新北市新店區北新路一段146號","121.542945","24.9705966666667","6500600","新店區"
"231004","899-TW","2019/06/27 14:49:02","新北市新店區建國路133號","121.539298333333","24.978125","6500600","新店區"
"231037","AKT-0513","2019/06/27 14:49:11","新北市新店區柴埕路60巷1-1號","121.510266666667","24.9634433333333","6500600","新店區"
"235030","003-UY","2019/06/27 14:49:03","新北市中和區南工路34號","121.505768333333","25.0010816666667","6500300","中和區"
"235020","096-UM","2019/06/27 14:49:12","新北市中和區中山路三段120號","121.475528333333","25.0067583333333","6500300","中和區"
"235003","097-UM","2019/06/27 14:49:10","新北市永和區中正路3號","121.513781666667","24.9955416666667","6500300","中和區"
"235029","098-UM","2019/06/27 14:49:12","新北市中和區福祥路83號","121.499123333333","25.0056666666667","6500300","中和區"
"235004","150-BY","2019/06/27 14:49:06","新北市中和區景安路85號","121.506283333333","24.99697","6500300","中和區"
"235022","151-BY","2019/06/27 14:49:18","新北市中和區民樂路81號","121.484588333333","25.0013916666667","6500300","中和區"
"235019","183-VK","2019/06/27 14:49:14","新北市中和區中山路三段203號","121.472158333333","25.0064283333333","6500300","中和區"
"235002","185-VK","2019/06/27 14:49:22","新北市中和區自立路14號","121.522096666667","24.9961633333333","6500300","中和區"
"235013","186-VK","2019/06/27 14:49:04","新北市中和區景平路385巷81號","121.50098","24.994285","6500300","中和區"
"235008","293-VK","2019/06/27 14:49:04","新北市中和區板南路128巷1號","121.502721666667","24.992455","6500300","中和區"
"235036","301-VK","2019/06/27 14:49:13","新北市中和區保平路340巷16號","121.506148333333","25.00457","6500300","中和區"
"235007","352-BY","2019/06/27 14:49:08","新北市中和區安樂路37號","121.511885","24.9930566666667","6500300","中和區"
"247013","KEA-2869","2019/06/27 14:49:04","新北市蘆洲區中央路54號","121.473355","25.08355","6501400","蘆洲區"
"235034","558-UM","2019/06/27 14:49:12","新北市中和區連勝街34號","121.498181666667","24.9977766666667","6500300","中和區"
"235011","732-UM","2019/06/27 14:49:16","新北市中和區和平街33號","121.506665","24.9914816666667","6500300","中和區"
"235010","733-UM","2019/06/27 14:49:06","新北市中和區仁愛街8號","121.510601666667","24.9891533333333","6500300","中和區"
"235035","783-BX","2019/06/27 14:48:15","新北市中和區建八路116號","121.488055","24.9984433333333","6500300","中和區"
"235026","800-TS","2019/06/27 14:49:10","新北市中和區中山路二段361號","121.487921666667","25.0047216666667","6500300","中和區"
"235016","805-TS","2019/06/27 14:49:17","新北市中和區華新街30巷15號","121.507065","24.9842166666667","6500300","中和區"
"235012","896-TW","2019/06/27 14:49:13","新北市中和區四維街40號","121.512308333333","24.9869616666667","6500300","中和區"
"235017","900-TW","2019/06/27 14:49:03","新北市中和區國光街189巷12弄4號","121.467445","25.0013883333333","6500300","中和區"
"235018","911-UM","2019/06/27 14:49:06","新北市中和區中山路三段167號","121.473226666667","25.0062733333333","6500300","中和區"
"235015","157-BY","2019/06/27 14:49:06","新北市中和區景安路247巷7號","121.504276666667","24.99067","6500300","中和區"
"235001","AAC-213","2019/06/27 14:49:19","新北市中和區自立路22號","121.522298333333","24.99331","6500300","中和區"
"235023","AAC-215","2019/06/27 14:49:03","新北市中和區圓通路305巷5弄55號","121.494961666667","24.9901583333333","6500300","中和區"
"220020","015-TV","2019/06/27 14:49:18","新北市板橋區金門街215巷2弄20號","121.432456666667","24.9889983333333","6500100","板橋區"
"220013","072-UY","2019/06/27 14:49:09","新北市板橋區民族路256號","121.469225","25.0071116666667","6500100","板橋區"
"220034","073-UY","2019/06/27 14:49:19","新北市板橋區復興街95號","121.459638333333","25.0180116666667","6500100","板橋區"
"220105","075-UY","2019/06/27 14:49:22","新北市板橋區民治街52巷20號","121.478815","25.0328766666667","6500100","板橋區"
"220017","AAD-861","2019/06/27 14:49:21","新北市板橋區大明街20巷5-2號","121.458673333333","25.0028683333333","6500100","板橋區"
"247001","500-BY","2019/06/27 14:49:12","新北市蘆洲區長安街246巷35號","121.458588333333","25.0864383333333","6501400","蘆洲區"
"247023","337-TH","2019/06/27 14:49:12","新北市蘆洲區和平路100號","121.46862","25.0792916666667","6501400","蘆洲區"
"247012","335-TH","2019/06/27 14:49:17","新北市蘆洲區三民路96號","121.473113333333","25.0857183333333","6501400","蘆洲區"
"247021","057-VK","2019/06/27 14:49:14","新北市蘆洲區三民路296號","121.466771666667","25.0905016666667","6501400","蘆洲區"
"247015","053-VK","2019/06/27 14:49:11","新北市蘆洲區正和街96巷23號","121.46764","25.08128","6501400","蘆洲區"
"247019","007-UY","2019/06/27 14:49:13","新北市蘆洲區民義街68巷42號","121.473755","25.0895483333333","6501400","蘆洲區"
"247005","002-UY","2019/06/27 14:49:22","新北市蘆洲區中華街3號","121.463995","25.08185","6501400","蘆洲區"
"228005","097-TW","2019/06/27 14:49:12","新北市貢寮區美豐里文秀坑1-3號","121.905786666667","25.0548133333333","6502600","貢寮區"
"228004","212-TW","2019/06/27 14:49:15","新北市貢寮區福隆里龜壽谷街31號","121.94736","25.015385","6502600","貢寮區"
"253003","4710-YM","2019/06/27 14:49:17","新北市石門區尖子鹿101號","121.58006","25.29263","6502200","石門區"
"253004","6251-TK","2019/06/27 14:49:15","新北市石門區內阿里磅31-2號","121.586398333333","25.24038","6502200","石門區"
"253002","637-UY","2019/06/27 14:49:12","新北市石門區七股10-5號","121.544913333333","25.2690233333333","6502200","石門區"
"253001","KEC-0718","2019/06/27 14:49:14","新北市石門區崁子腳53號","121.536478333333","25.2824466666667","6502200","石門區"
"208001","AAC-292","2019/06/27 14:49:02","新北市樹林區佳園路三段99巷31-1號","121.390925","24.9520166666667","6502700","金山區"
"207002","749-BX","2019/06/27 14:49:21","新北市萬里區崁腳里崁腳路73號","121.647635","25.1595916666667","6502800","萬里區"
"252005","073-UM","2019/06/27 14:48:59","新北市三芝區埔坪里埔頭坑97號","121.511048333333","25.2490583333333","6502100","三芝區"
"207001","662-BX","2019/06/27 14:49:14","新北市萬里區雙興里豐稟路32號","121.643725","25.18057","6502800","萬里區"
"236040","KED-0685","2019/06/27 14:49:08","新北市土城區裕民路136巷13號","121.451203333333","24.985715","6501300","土城區"
"236074","166-UM","2019/06/27 14:49:17","新北市土城區中央路四段125巷2弄1號","121.416718333333","24.957115","6501300","土城區"
"236029","253-BX","2019/06/27 14:49:05","新北市土城區忠義路26巷10號","121.439833333333","24.96993","6501300","土城區"
"236024","269-VK","2019/06/27 14:49:14","新北市土城區慶安街91號","121.440585","24.9722633333333","6501300","土城區"
"236012","270-VK","2019/06/27 14:49:17","新北市土城區金城路二段354巷16號","121.460871666667","24.984355","6501300","土城區"
"236032","271-VK","2019/06/27 14:49:17","新北市土城區仁愛路54巷13號","121.461975","24.9783366666667","6501300","土城區"
"236068","KEA-2877","2019/06/27 14:49:20","新北市土城區明德路一段365-1號","121.45357","24.979025","6501300","土城區"
"236017","401-BY","2019/06/27 14:49:19","新北市土城區延安街42-1號","121.467521666667","24.9854183333333","6501300","土城區"
"236057","912-UM","2019/06/27 14:49:19","新北市土城區中央路三段93號","121.43732","24.9675033333333","6501300","土城區"
"236045","913-UM","2019/06/27 14:49:13","新北市土城區青雲路35號","121.460041666667","24.9886683333333","6501300","土城區"
"236060","915-UM","2019/06/27 14:49:21","新北市土城區延壽路2號","121.471526666667","24.9902116666667","6501300","土城區"
"236054","AAC-216","2019/06/27 14:49:15","新北市土城區裕民路193號","121.453593333333","24.9842883333333","6501300","土城區"
"238010","601-UM","2019/06/27 14:49:05","新北市樹林區中洲街20巷1弄27號","121.398026666667","24.9716883333333","6500700","樹林區"
"220027","145-BY","2019/06/27 14:49:18","新北市板橋區民權路202巷21弄3號","121.460516666667","25.0172033333333","6500100","板橋區"
"220028","200-UY","2019/06/27 14:49:07","新北市板橋區大觀路二段37巷47號","121.449068333333","25.00261","6500100","板橋區"
"220030","610-BX","2019/06/27 14:49:04","新北市板橋區大觀路三段131號","121.432491666667","24.9941283333333","6500100","板橋區"
"220050","245-BX","2019/06/27 14:49:07","新北市板橋區縣民大道三段79巷13號","121.47513","25.0220233333333","6500100","板橋區"
"220004","276-BY","2019/06/27 14:49:12","新北市板橋區信義路1巷24號","121.4579","24.9972616666667","6500100","板橋區"
"220019","283-VK","2019/06/27 14:49:10","新北市板橋區和平路174巷1弄7號","121.464345","24.9953116666667","6500100","板橋區"
"220043","285-UM","2019/06/27 14:49:16","新北市板橋區雨農路16號","121.462143333333","25.024735","6500100","板橋區"
"220001","285-VK","2019/06/27 14:49:19","新北市板橋區中山路二段60巷1弄2號","121.47445","25.0153383333333","6500100","板橋區"
"220031","286-VK","2019/06/27 14:49:03","新北市板橋區龍興街73巷2號","121.443883333333","25.0020933333333","6500100","板橋區"
"220029","287-VK","2019/06/27 14:49:21","新北市板橋區大觀路一段28巷75號","121.450073333333","25.011175","6500100","板橋區"
"220039","288-VK","2019/06/27 14:49:05","新北市板橋區龍泉街130號","121.457096666667","25.024085","6500100","板橋區"
"220009","293-UM","2019/06/27 14:49:02","新北市板橋區觀光街33巷17號","121.471021666667","25.015795","6500100","板橋區"
"220032","296-UM","2019/06/27 14:49:03","新北市板橋區溪崑二街112巷33弄20號","121.425206666667","24.9886166666667","6500100","板橋區"
"220014","299-UM","2019/06/27 14:49:20","新北市板橋區長安街138巷1弄83號","121.47484","25.0112116666667","6500100","板橋區"
"220023","303-R5","2019/06/27 14:49:21","新北市板橋區中正路253巷72弄1號","121.452566666667","25.01729","6500100","板橋區"
"220010","305-R5","2019/06/27 14:49:19","新北市板橋區中山路二段416巷52-2號","121.482906666667","25.019275","6500100","板橋區"
"220041","307-R5","2019/06/27 14:49:05","新北市板橋區裕民街126號","121.459043333333","25.0274383333333","6500100","板橋區"
"220047","317-R6","2019/06/27 14:49:14","新北市板橋區四維路269巷45號","121.461355","25.027365","6500100","板橋區"
"220038","487-VK","2019/06/27 14:49:09","新北市板橋區英士路192號","121.458043333333","25.02369","6500100","板橋區"
"220037","491-VK","2019/06/27 14:49:12","新北市板橋區文化路二段582號","121.476821666667","25.034635","6500100","板橋區"
"220052","561-BX","2019/06/27 14:49:08","新北市板橋區陽明街279巷12-3號","121.46161","25.0259716666667","6500100","板橋區"
"220011","609-BX","2019/06/27 14:49:15","新北市板橋區三民路一段31巷87弄1號","121.481543333333","25.0233366666667","6500100","板橋區"
"220104","630-UY","2019/06/27 14:49:02","新北市板橋區新生街98巷14號","121.45887","25.0217283333333","6500100","板橋區"
"220040","637-BX","2019/06/27 14:49:19","新北市板橋區懷德街127巷14弄1號","121.47945","25.0311166666667","6500100","板橋區"
"220005","686-BX","2019/06/27 14:49:04","新北市板橋區廣權路16號","121.461113333333","24.991535","6500100","板橋區"
"220025","687-BX","2019/06/27 14:49:10","新北市板橋區僑中二街90巷1號","121.446386666667","25.0090233333333","6500100","板橋區"
"220042","689-BX","2019/06/27 14:49:06","新北市板橋區長江路三段31-1號","121.472848333333","25.033895","6500100","板橋區"
"220002","741-BX","2019/06/27 14:49:16","新北市板橋區忠孝路忠義巷18弄2號","121.46612","25.00373","6500100","板橋區"
"220051","KEA-2699","2019/06/27 14:49:11","新北市板橋區仁化街66號","121.475773333333","25.031805","6500100","板橋區"
"220016","831-TW","2019/06/27 14:49:14","新北市板橋區光復街103號","121.48407","25.01919","6500100","板橋區"
"220022","895-R6","2019/06/27 14:48:59","新北市板橋區縣民大道一段193號","121.459093333333","25.0084833333333","6500100","板橋區"
"220021","985-R7","2019/06/27 14:49:09","新北市板橋區中正路262號","121.45539","25.0195633333333","6500100","板橋區"
"220046","AAC-210","2019/06/27 14:49:21","新北市板橋區光正街18巷7號","121.462541666667","25.0175633333333","6500100","板橋區"
"220012","AAC-253","2019/06/27 14:49:08","新北市板橋區公園街50-3號","121.462293333333","25.0081116666667","6500100","板橋區"
"235032","KEA-2873","2019/06/27 14:49:10","新北市中和區勝利路35巷14號","121.49893","25.0072683333333","6500300","中和區"
