"lineid","car","time","location","longitude","latitude","cityid","cityname"
"249005","172-UM","2019/06/27 16:59:17","新北市八里區渡船頭3-19號","121.433943333333","25.151725","6502300","八里區"
"249001","173-UM","2019/06/27 16:59:20","新北市八里區商港路48號","121.395825","25.1454433333333","6502300","八里區"
"249004","303-UY","2019/06/27 16:59:05","新北市八里區忠孝路353號","121.416476666667","25.1611466666667","6502300","八里區"
"249002","305-UY","2019/06/27 16:58:54","新北市八里區牛寮埔29號","121.43171","25.14542","6502300","八里區"
"249003","593-UM","2019/06/27 16:59:17","新北市八里區中山路二段289號","121.40157","25.1486216666667","6502300","八里區"
"244007","080-UY","2019/06/27 16:59:08","新北市林口區中湖8鄰50號","121.376695","25.09122","6501700","林口區"
"244019","402-UM","2019/06/27 16:59:21","新北市林口區仁愛路二段46號","121.385131666667","25.075865","6501700","林口區"
"244023","483-VK","2019/06/27 16:59:10","新北市林口區粉寮69號","121.405065","25.09076","6501700","林口區"
"244009","656-BX","2019/06/27 16:59:08","新北市林口區粉寮路23號","121.400355","25.0831383333333","6501700","林口區"
"244025","837-TS","2019/06/27 16:59:13","新北市林口區粉寮路二段128號","121.404633333333","25.0906883333333","6501700","林口區"
"244021","838-TS","2019/06/27 16:59:09","新北市林口區粉寮一街124號","121.404918333333","25.0860083333333","6501700","林口區"
"231046","719-UM","2019/06/27 16:59:14","新北市新店區灣潭路15-8號","121.541406666667","24.9394833333333","6500600","新店區"
"241011","013-R5","2019/06/27 16:59:03","新北市三重區龍門路183號","121.499421666667","25.0731633333333","6500200","三重區"
"241028","022-UY","2019/06/27 16:59:06","新北市三重區光興街207號","121.494761666667","25.0595266666667","6500200","三重區"
"241008","059-VK","2019/06/27 16:59:16","新北市三重區永安北路一段11巷20號","121.47737","25.074855","6500200","三重區"
"241016","060-VK","2019/06/27 16:59:13","新北市三重區大同北路98號","121.493523333333","25.0640033333333","6500200","三重區"
"241031","061-VK","2019/06/27 16:59:17","新北市三重區重新路三段115巷18號","121.490123333333","25.0606866666667","6500200","三重區"
"241015","062-VK","2019/06/27 16:59:05","新北市三重區長元街72-1號","121.501036666667","25.0662383333333","6500200","三重區"
"241017","063-VK","2019/06/27 16:59:21","新北市三重區國隆路18號","121.492616666667","25.0639383333333","6500200","三重區"
"241024","065-VK","2019/06/27 16:59:08","新北市三重區力行路二段29號","121.481818333333","25.072745","6500200","三重區"
"241001","066-VK","2019/06/27 16:59:23","新北市三重區仁政街11號","121.49346","25.0764733333333","6500200","三重區"
"241002","090-VK","2019/06/27 16:59:07","新北市三重區仁義街101巷2號","121.49757","25.080245","6500200","三重區"
"241003","091-VK","2019/06/27 16:59:09","新北市三重區五華街87巷40-1號","121.493356666667","25.0841983333333","6500200","三重區"
"241005","262-UM","2019/06/27 16:59:13","新北市三重區仁華街76號","121.484623333333","25.083035","6500200","三重區"
"241009","267-UM","2019/06/27 16:59:17","新北市三重區溪尾街218巷38號","121.486578333333","25.0809416666667","6500200","三重區"
"241018","268-UM","2019/06/27 16:59:17","新北市三重區民生東街6號","121.492658333333","25.0684833333333","6500200","三重區"
"241032","269-UM","2019/06/27 16:59:14","新北市三重區重陽路一段120巷19號","121.485936666667","25.0601416666667","6500200","三重區"
"241013","270-UM","2019/06/27 16:59:20","新北市三重區仁和街97號","121.498023333333","25.0740733333333","6500200","三重區"
"241025","271-UM","2019/06/27 16:59:11","新北市三重區中正北路357號","121.472736666667","25.071665","6500200","三重區"
"241007","398-BY","2019/06/27 16:59:12","新北市三重區溪尾街182號","121.488448333333","25.08069","6500200","三重區"
"241004","475-VK","2019/06/27 16:59:09","新北市三重區五華街92巷9號","121.492128333333","25.081905","6500200","三重區"
"241020","478-VK","2019/06/27 16:59:02","新北市三重區後竹圍街175巷20號","121.485658333333","25.072725","6500200","三重區"
"241026","480-VK","2019/06/27 16:59:10","新北市三重區光興街3號","121.500226666667","25.0603633333333","6500200","三重區"
"241014","543-UM","2019/06/27 16:59:16","新北市三重區三和路二段173巷51號","121.499405","25.07025","6500200","三重區"
"241023","545-UM","2019/06/27 16:59:21","新北市三重區中華路48號","121.48347","25.0615483333333","6500200","三重區"
"241006","AAD-863","2019/06/27 16:59:17","新北市三重區車路頭街120號","121.484078333333","25.0751633333333","6500200","三重區"
"241019","743-BX","2019/06/27 16:59:06","新北市三重區三張街149巷13號","121.486686666667","25.0699866666667","6500200","三重區"
"241022","KED-0820","2019/06/27 16:59:07","新北市三重區中華路125號","121.483606666667","25.0639583333333","6500200","三重區"
"241012","941-UM","2019/06/27 16:59:05","新北市三重區仁和街161號","121.499626666667","25.074625","6500200","三重區"
"241029","942-UM","2019/06/27 16:59:24","新北市三重區重安街107號","121.4943","25.0550283333333","6500200","三重區"
"241033","AAC-255","2019/06/27 16:59:21","新北市三重區中興北街271號","121.46911","25.060595","6500200","三重區"
"247014","KEA-2869","2019/06/27 16:59:22","新北市蘆洲區復興路40號","121.472471666667","25.085395","6501400","蘆洲區"
"247008","KED-0682","2019/06/27 16:59:16","新北市蘆洲區信義路59巷5弄7號","121.474991666667","25.080075","6501400","蘆洲區"
"235062","800-TS","2019/06/27 16:38:02","新北市中和區員山路36巷16-3號","121.48497","24.9914733333333","6500300","中和區"
"235054","911-UM","2019/06/27 16:58:05","新北市中和區員山路36巷16-2號","121.485276666667","24.9917333333333","6500300","中和區"
"247004","893-R6","2019/06/27 16:59:21","新北市蘆洲區長安街110號","121.461013333333","25.0814733333333","6501400","蘆洲區"
"247018","546-UM","2019/06/27 16:59:19","新北市蘆洲區民族路201巷20-1號","121.477108333333","25.0892416666667","6501400","蘆洲區"
"247024","337-TH","2019/06/27 16:59:24","新北市蘆洲區長興路245號","121.460516666667","25.0874583333333","6501400","蘆洲區"
"247022","057-VK","2019/06/27 16:59:17","新北市蘆洲區三民路128巷166-1號","121.468391666667","25.0925033333333","6501400","蘆洲區"
"247012","056-VK","2019/06/27 16:59:19","新北市蘆洲區復興路170號","121.477661666667","25.0883016666667","6501400","蘆洲區"
"247016","053-VK","2019/06/27 16:59:07","新北市蘆洲區中正路69號","121.470346666667","25.0827316666667","6501400","蘆洲區"
"247020","007-UY","2019/06/27 16:59:11","新北市蘆洲區民族路422巷35號","121.473495","25.093625","6501400","蘆洲區"
"247006","002-UY","2019/06/27 16:59:14","新北市蘆洲區長安街99巷25號","121.460941666667","25.07984","6501400","蘆洲區"
"228003","097-TW","2019/06/27 16:59:08","新北市貢寮區福隆里興隆街13-5號","121.944213333333","25.0165366666667","6502600","貢寮區"
"228001","212-TW","2019/06/27 16:59:16","新北市貢寮區貢寮里朝陽街1-2號","121.912283333333","25.0212733333333","6502600","貢寮區"
"228002","663-BX","2019/06/27 16:59:19","新北市貢寮區貢寮里朝陽街2號","121.912176666667","25.0215866666667","6502600","貢寮區"
"224006","676-BX","2019/06/27 16:59:09","新北市瑞芳區大寮路356-1號","121.784856666667","25.103385","6501200","瑞芳區"
"224007","285-BY","2019/06/27 16:59:16","新北市瑞芳區頂埔巷51-3號","121.767151666667","25.1042266666667","6501200","瑞芳區"
"224009","275-VK","2019/06/27 16:59:03","新北市瑞芳區明燈路一段1號","121.82659","25.1093466666667","6501200","瑞芳區"
"224008","273-VK","2019/06/27 16:59:20","新北市瑞芳區瑞柑新村33號","121.829695","25.1074266666667","6501200","瑞芳區"
"224005","271-BY","2019/06/27 16:59:18","新北市瑞芳區南雅路81號","121.88712","25.1211033333333","6501200","瑞芳區"
"227002","642-TC","2019/06/27 16:59:19","新北市雙溪區上林里內平林90號","121.82757","25.027485","6502500","雙溪區"
"227001","400-TW","2019/06/27 16:59:15","新北市雙溪區三貂里十三層41號","121.855125","25.0811433333333","6502500","雙溪區"
"251004","009-UM","2019/06/27 16:58:53","新北市淡水區中正東路36-1號","121.448741666667","25.1657316666667","6501000","淡水區"
"251015","KEA-2871","2019/06/27 16:59:11","新北市淡水區忠愛街5-2號","121.460685","25.1715383333333","6501000","淡水區"
"251016","179-VK","2019/06/27 16:59:09","新北市淡水區瓦坑3號","121.477643333333","25.1809483333333","6501000","淡水區"
"251008","181-VK","2019/06/27 16:59:10","新北市淡水區樹梅坑9號","121.472811666667","25.1426966666667","6501000","淡水區"
"251013","182-VK","2019/06/27 16:59:22","新北市淡水區泉洲厝32號","121.48925","25.1925033333333","6501000","淡水區"
"251012","441-VK","2019/06/27 16:59:10","新北市淡水區新民街一段93-1號","121.430393333333","25.1843233333333","6501000","淡水區"
"251007","442-VK","2019/06/27 16:59:12","新北市淡水區中正東路36-1號","121.448871666667","25.165785","6501000","淡水區"
"251006","561-UM","2019/06/27 16:59:13","新北市淡水區中正路一段87巷1號","121.421733333333","25.1790966666667","6501000","淡水區"
"251009","575-R6","2019/06/27 16:59:11","新北市淡水區中正路二段31號","121.419516666667","25.181605","6501000","淡水區"
"251014","577-R6","2019/06/27 16:58:58","新北市淡水區淡金路四段476號","121.452451666667","25.2238666666667","6501000","淡水區"
"251011","650-BX","2019/06/27 16:59:12","新北市淡水區淡金路51-1號","121.456165","25.1610666666667","6501000","淡水區"
"252002","178-VK","2019/06/27 16:59:07","新北市三芝區忠孝街168號","121.50623","25.259045","6502100","三芝區"
"233002","762-BX","2019/06/27 16:59:10","新北市烏來區環山路47號","121.549401666667","24.86306","6502900","烏來區"
"247010","KED-0683","2019/06/27 16:59:25","新北市蘆洲區信義路172號","121.479185","25.0839333333333","6501400","蘆洲區"
"252001","KED-0821","2019/06/27 16:59:07","新北市三芝區淡金路二段76-1號","121.503963333333","25.2608933333333","6502100","三芝區"
"242039","AAC-296","2019/06/27 16:59:11","新北市新莊區新泰路357巷3弄57號","121.442136666667","25.03942","6500500","新莊區"
"242027","613-BX","2019/06/27 16:59:17","新北市新莊區新泰路255巷83號","121.442056666667","25.0388683333333","6500500","新莊區"
"242058","612-BX","2019/06/27 16:59:09","新北市新莊區新泰路357巷3弄57號","121.442108333333","25.0391433333333","6500500","新莊區"
"242021","175-VK","2019/06/27 16:59:23","新北市新莊區三和路12-21號","121.44201","25.03879","6500500","新莊區"
"242019","KED-0687","2019/06/27 16:59:12","新北市新莊區三和路12-21號","121.44213","25.0382566666667","6500500","新莊區"
"242017","351-TH","2019/06/27 16:59:20","新北市新莊區新泰路357巷3弄57號","121.441736666667","25.0393916666667","6500500","新莊區"
"238023","601-UM","2019/06/27 16:59:12","新北市樹林區中正路433-2號","121.415061666667","25.0084266666667","6500700","樹林區"
"238019","599-UM","2019/06/27 16:59:19","新北市樹林區育德街78-1號","121.387715","24.9680583333333","6500700","樹林區"
"238022","KEA-2213","2019/06/27 16:59:08","新北市樹林區八德街263-1號","121.419446666667","24.973705","6500700","樹林區"
"238025","303-VK","2019/06/27 16:59:23","新北市樹林區中正路22-1號","121.427858333333","24.9993533333333","6500700","樹林區"
"238001","282-BY","2019/06/27 16:59:13","新北市樹林區中正路22-1號","121.427828333333","24.999625","6500700","樹林區"
"239007","AAC-297","2019/06/27 16:59:18","新北市鶯歌區環河路85-1號","121.347873333333","24.9403133333333","6500800","鶯歌區"
"239006","891-R6","2019/06/27 16:59:21","新北市鶯歌區二甲路12-2號","121.345785","24.935105","6500800","鶯歌區"
"239008","527-UM","2019/06/27 16:59:23","新北市鶯歌區二甲路12-2號","121.345501666667","24.9350416666667","6500800","鶯歌區"
"239001","417-VK","2019/06/27 16:59:22","新北市鶯歌區環河路81號","121.349648333333","24.9424283333333","6500800","鶯歌區"
"239002","359-BY","2019/06/27 16:59:07","新北市鶯歌區環河路79號","121.349866666667","24.94269","6500800","鶯歌區"
"239004","193-VK","2019/06/27 16:59:24","新北市鶯歌區環河路177-6號","121.34575","24.9356116666667","6500800","鶯歌區"
"233001","KEA-2870","2019/06/27 16:59:15","新北市烏來區溫泉街86巷20號","121.550805","24.8604283333333","6502900","烏來區"
"242044","281-VK","2019/06/27 16:59:21","新北市新莊區三和路12-21號","121.442156666667","25.0381","6500500","新莊區"
"242009","280-VK","2019/06/27 16:59:09","新北市新莊區三和路12-21號","121.44204","25.03818","6500500","新莊區"
