"lineid","car","time","location","longitude","latitude","cityid","cityname"
"249005","172-UM","2019/06/27 17:09:21","新北市八里區華富山5-5號","121.417276666667","25.1449583333333","6502300","八里區"
"249001","173-UM","2019/06/27 17:09:20","新北市八里區中華路二段312號","121.40377","25.1481816666667","6502300","八里區"
"249004","303-UY","2019/06/27 17:09:06","新北市八里區忠孝路171號","121.423431666667","25.160705","6502300","八里區"
"249002","305-UY","2019/06/27 17:09:13","新北市八里區米倉13-1號","121.43857","25.1495033333333","6502300","八里區"
"249003","593-UM","2019/06/27 17:09:18","新北市八里區中山路二段405號","121.397756666667","25.146705","6502300","八里區"
"244007","080-UY","2019/06/27 17:09:08","新北市林口區菁埔路15號","121.378125","25.0963066666667","6501700","林口區"
"244019","402-UM","2019/06/27 17:09:21","新北市林口區四維路156-1號","121.38073","25.0752766666667","6501700","林口區"
"244023","483-VK","2019/06/27 17:09:10","新北市林口區仁愛路一段619號","121.389878333333","25.0766333333333","6501700","林口區"
"244017","485-VK","2019/06/27 17:09:11","新北市林口區粉寮69號","121.40503","25.0908666666667","6501700","林口區"
"244009","656-BX","2019/06/27 17:09:08","新北市林口區民享路419號","121.384045","25.0891983333333","6501700","林口區"
"244025","837-TS","2019/06/27 17:09:13","新北市林口區文化一路二段202號","121.383263333333","25.0807133333333","6501700","林口區"
"244021","838-TS","2019/06/27 17:09:09","新北市林口區粉寮62號","121.407291666667","25.0893766666667","6501700","林口區"
"231046","719-UM","2019/06/27 17:05:54","新北市新店區灣潭路15-15號","121.5425","24.9431566666667","6500600","新店區"
"241011","013-R5","2019/06/27 17:09:23","新北市三重區龍門路203號","121.499953333333","25.0734383333333","6500200","三重區"
"241028","022-UY","2019/06/27 17:09:06","新北市三重區重新路三段110號","121.492331666667","25.0603183333333","6500200","三重區"
"241008","059-VK","2019/06/27 17:09:16","新北市三重區力行路二段136巷17弄2號","121.48159","25.0756216666667","6500200","三重區"
"241016","060-VK","2019/06/27 17:09:13","新北市三重區中正北路25巷2號","121.493316666667","25.0627266666667","6500200","三重區"
"241031","061-VK","2019/06/27 17:09:17","新北市三重區過圳街5號","121.489213333333","25.0589166666667","6500200","三重區"
"241015","062-VK","2019/06/27 17:09:25","新北市三重區長安街23號","121.499228333333","25.0668833333333","6500200","三重區"
"241017","063-VK","2019/06/27 17:09:21","新北市三重區中正北路25巷2號","121.493161666667","25.06275","6500200","三重區"
"241024","065-VK","2019/06/27 17:09:08","新北市三重區大勇街82巷26弄19-2號","121.478628333333","25.07207","6500200","三重區"
"241001","066-VK","2019/06/27 17:09:23","新北市三重區仁愛街255巷42-1號","121.494111666667","25.0788683333333","6500200","三重區"
"241002","090-VK","2019/06/27 17:09:07","新北市三重區五華街35巷59號","121.495925","25.0817283333333","6500200","三重區"
"241003","091-VK","2019/06/27 17:09:09","新北市三重區五華街141巷58號","121.493568333333","25.0867783333333","6500200","三重區"
"241005","262-UM","2019/06/27 17:09:13","新北市三重區碧華街39號","121.48429","25.0815116666667","6500200","三重區"
"241009","267-UM","2019/06/27 17:09:17","新北市三重區三和路四段215巷52號","121.483496666667","25.0802516666667","6500200","三重區"
"241018","268-UM","2019/06/27 17:09:17","新北市三重區大智街85號","121.49208","25.068865","6500200","三重區"
"241032","269-UM","2019/06/27 17:09:14","新北市三重區三陽路13巷7號","121.486023333333","25.0596516666667","6500200","三重區"
"241013","270-UM","2019/06/27 17:09:20","新北市三重區仁愛街88號","121.49549","25.0738333333333","6500200","三重區"
"241025","271-UM","2019/06/27 17:09:11","新北市三重區中正北路560巷89號","121.470931666667","25.0687683333333","6500200","三重區"
"241007","398-BY","2019/06/27 17:09:12","新北市三重區仁美街67號","121.48654","25.0785533333333","6500200","三重區"
"241004","475-VK","2019/06/27 17:09:09","新北市三重區五華街92巷3號","121.492523333333","25.082145","6500200","三重區"
"241020","478-VK","2019/06/27 17:09:04","新北市三重區後竹圍街161號","121.486286666667","25.0719666666667","6500200","三重區"
"241026","480-VK","2019/06/27 17:09:10","新北市三重區重新路一段51-3號","121.501856666667","25.0637633333333","6500200","三重區"
"241014","543-UM","2019/06/27 17:09:16","新北市三重區龍濱路172號","121.501298333333","25.0727033333333","6500200","三重區"
"241023","545-UM","2019/06/27 17:09:21","新北市三重區忠孝路三段84巷1號","121.480243333333","25.06457","6500200","三重區"
"241006","AAD-863","2019/06/27 17:09:17","新北市三重區車路頭街131巷1號","121.484473333333","25.0756616666667","6500200","三重區"
"241019","743-BX","2019/06/27 17:09:06","新北市三重區自強路二段93號","121.488133333333","25.0704966666667","6500200","三重區"
"241022","KED-0820","2019/06/27 17:09:07","新北市三重區三民街131號","121.484923333333","25.0639533333333","6500200","三重區"
"241012","941-UM","2019/06/27 17:09:05","新北市三重區仁壽街198號","121.500846666667","25.0747916666667","6500200","三重區"
"241029","942-UM","2019/06/27 17:09:24","新北市三重區中正南路173號","121.49351","25.05566","6500200","三重區"
"241033","AAC-255","2019/06/27 17:09:21","新北市三重區中興北街271號","121.46906","25.060675","6500200","三重區"
"247014","KEA-2869","2019/06/27 17:09:22","新北市蘆洲區中央路56號","121.473281666667","25.08357","6501400","蘆洲區"
"247008","KED-0682","2019/06/27 17:09:16","新北市蘆洲區民生街30號","121.47461","25.0788533333333","6501400","蘆洲區"
"235054","911-UM","2019/06/27 16:58:05","新北市中和區員山路36巷16-2號","121.485276666667","24.9917333333333","6500300","中和區"
"247004","893-R6","2019/06/27 17:09:20","新北市蘆洲區長安街193巷10號","121.459983333333","25.0817783333333","6501400","蘆洲區"
"247018","546-UM","2019/06/27 17:09:19","新北市蘆洲區復興路154號","121.477373333333","25.0879833333333","6501400","蘆洲區"
"247002","500-BY","2019/06/27 17:09:26","新北市蘆洲區永樂街77號","121.456088333333","25.08872","6501400","蘆洲區"
"247024","337-TH","2019/06/27 17:09:04","新北市蘆洲區光復路13號","121.462578333333","25.08456","6501400","蘆洲區"
"247022","057-VK","2019/06/27 17:09:17","新北市蘆洲區民族路377號","121.46996","25.0905483333333","6501400","蘆洲區"
"247012","056-VK","2019/06/27 17:09:19","新北市蘆洲區信義路292巷7號","121.477958333333","25.0877033333333","6501400","蘆洲區"
"247016","053-VK","2019/06/27 17:09:07","新北市蘆洲區光華路73巷27-1號","121.468643333333","25.0822266666667","6501400","蘆洲區"
"247020","007-UY","2019/06/27 17:09:11","新北市蘆洲區仁愛街70巷3號","121.471226666667","25.0943633333333","6501400","蘆洲區"
"247006","002-UY","2019/06/27 17:09:14","新北市蘆洲區長安街102巷63號","121.46258","25.0820433333333","6501400","蘆洲區"
"228003","097-TW","2019/06/27 17:09:14","新北市貢寮區福隆里東興街6-14號","121.952146666667","25.020415","6502600","貢寮區"
"228001","212-TW","2019/06/27 17:09:16","新北市貢寮區仁理村研海街21號","121.926975","25.039345","6502600","貢寮區"
"228002","663-BX","2019/06/27 17:09:19","新北市貢寮區龍崗里泮宮路51-1號","121.908141666667","25.0166683333333","6502600","貢寮區"
"224006","676-BX","2019/06/27 17:09:09","新北市瑞芳區大寮路58-2號","121.781686666667","25.0980716666667","6501200","瑞芳區"
"224007","285-BY","2019/06/27 17:09:16","新北市瑞芳區大寮路116-1號","121.779518333333","25.0985033333333","6501200","瑞芳區"
"224009","275-VK","2019/06/27 17:09:03","新北市瑞芳區濱二路30號","121.841135","25.1151266666667","6501200","瑞芳區"
"224008","273-VK","2019/06/27 17:09:20","新北市瑞芳區柴寮路40號","121.827563333333","25.0868733333333","6501200","瑞芳區"
"224005","271-BY","2019/06/27 17:09:18","新北市瑞芳區鼻頭路127號","121.916525","25.12211","6501200","瑞芳區"
"227002","642-TC","2019/06/27 17:09:19","新北市雙溪區上林里新寮子1號","121.84112","25.0320666666667","6502500","雙溪區"
"227001","400-TW","2019/06/27 17:09:07","新北市雙溪區三貂里定福路1-2號","121.85075","25.063435","6502500","雙溪區"
"251004","009-UM","2019/06/27 17:09:16","新北市淡水區中正東路二段88巷15號","121.459053333333","25.150495","6501000","淡水區"
"251005","010-UM","2019/06/27 17:09:21","新北市淡水區鄧公路23巷1-5號","121.450221666667","25.1700033333333","6501000","淡水區"
"251015","KEA-2871","2019/06/27 17:09:11","新北市淡水區忠愛街2號","121.45561","25.171955","6501000","淡水區"
"251016","179-VK","2019/06/27 17:09:09","新北市淡水區社厝坑3-11號","121.475156666667","25.1888366666667","6501000","淡水區"
"251008","181-VK","2019/06/27 17:09:09","新北市淡水區樹梅坑6-2號","121.473171666667","25.14603","6501000","淡水區"
"251013","182-VK","2019/06/27 17:09:22","新北市淡水區桂花樹1號","121.482625","25.1965033333333","6501000","淡水區"
"251010","413-VK","2019/06/27 17:09:04","新北市淡水區中正路二段31號","121.419468333333","25.18146","6501000","淡水區"
"251012","441-VK","2019/06/27 17:09:10","新北市淡水區中山北路一段158號","121.444251666667","25.1779316666667","6501000","淡水區"
"251007","442-VK","2019/06/27 17:09:12","新北市淡水區民生路101號","121.46399","25.1383783333333","6501000","淡水區"
"251006","561-UM","2019/06/27 17:09:13","新北市淡水區真理街6號","121.438411666667","25.1744916666667","6501000","淡水區"
"251009","575-R6","2019/06/27 17:09:11","新北市淡水區中正路一段87巷1-2號","121.421483333333","25.178945","6501000","淡水區"
"251014","577-R6","2019/06/27 17:09:18","新北市淡水區八里堆8-3號","121.46159","25.2244483333333","6501000","淡水區"
"251011","650-BX","2019/06/27 17:09:12","新北市淡水區坪頂路50號","121.45795","25.1626","6501000","淡水區"
"251003","673-BX","2019/06/27 17:09:18","新北市淡水區中正路二段31號","121.419555","25.1815216666667","6501000","淡水區"
"252002","178-VK","2019/06/27 17:09:07","新北市三芝區忠孝街1-19號","121.505701666667","25.2535833333333","6502100","三芝區"
"233002","762-BX","2019/06/27 17:09:10","新北市烏來區野要街36號","121.549475","24.85539","6502900","烏來區"
"247010","KED-0683","2019/06/27 17:09:05","新北市蘆洲區民族路7號","121.475661666667","25.0839416666667","6501400","蘆洲區"
"252001","KED-0821","2019/06/27 17:09:07","新北市三芝區埔頭里埔頭37號","121.498406666667","25.2602833333333","6502100","三芝區"
"242039","AAC-296","2019/06/27 17:09:11","新北市新莊區新泰路357巷3弄41號","121.44237","25.0402833333333","6500500","新莊區"
"242029","615-BX","2019/06/27 17:09:21","新北市新莊區新泰路357巷3弄57號","121.441851666667","25.0392816666667","6500500","新莊區"
"242027","613-BX","2019/06/27 17:09:17","新北市新莊區新泰路255巷83號","121.442056666667","25.0388683333333","6500500","新莊區"
"242058","612-BX","2019/06/27 17:09:09","新北市新莊區新泰路357巷3弄57號","121.442136666667","25.0392016666667","6500500","新莊區"
"242051","497-BY","2019/06/27 17:09:18","新北市泰山區磚雅厝3號","121.442011666667","25.0416266666667","6500500","新莊區"
"242048","442-UM","2019/06/27 17:09:17","新北市新莊區三和路18-23號","121.441843333333","25.0389633333333","6500500","新莊區"
"242011","413-TV","2019/06/27 17:09:08","新北市新莊區新泰路357巷3弄57號","121.441896666667","25.0394066666667","6500500","新莊區"
"242025","362-BY","2019/06/27 17:09:05","新北市新莊區三和路18-25號","121.441468333333","25.0392633333333","6500500","新莊區"
"242023","353-BY","2019/06/27 17:09:17","新北市新莊區新泰路357巷3弄57號","121.441915","25.039175","6500500","新莊區"
"242013","132-UY","2019/06/27 17:08:51","新北市新莊區三和路12-21號","121.442201666667","25.0386366666667","6500500","新莊區"
"242015","173-VK","2019/06/27 17:09:12","新北市新莊區三和路12-21號","121.441946666667","25.0386966666667","6500500","新莊區"
"242021","175-VK","2019/06/27 17:09:23","新北市新莊區三和路12-21號","121.441991666667","25.038565","6500500","新莊區"
"242019","KED-0687","2019/06/27 17:09:12","新北市新莊區三和路12-21號","121.442115","25.0383683333333","6500500","新莊區"
"242007","349-TH","2019/06/27 17:09:18","新北市新莊區三和路12-21號","121.442271666667","25.0384316666667","6500500","新莊區"
"242017","351-TH","2019/06/27 17:09:20","新北市新莊區新泰路357巷3弄57號","121.441863333333","25.0395333333333","6500500","新莊區"
"238023","601-UM","2019/06/27 17:09:12","新北市樹林區中正路433-2號","121.415101666667","25.0083783333333","6500700","樹林區"
"238019","599-UM","2019/06/27 17:09:19","新北市樹林區育德街78-1號","121.387708333333","24.96805","6500700","樹林區"
"238022","KEA-2213","2019/06/27 17:09:08","新北市樹林區太平路247巷30號","121.420933333333","24.9759","6500700","樹林區"
"238021","KEA-2539","2019/06/27 17:09:17","新北市樹林區西圳街一段165巷20弄11號","121.39567","24.9601716666667","6500700","樹林區"
"238025","303-VK","2019/06/27 17:09:23","新北市樹林區中正路22-1號","121.427868333333","24.999425","6500700","樹林區"
"238017","283-BY","2019/06/27 17:09:22","新北市樹林區光武街7-3號","121.415756666667","25.005325","6500700","樹林區"
"238001","282-BY","2019/06/27 17:09:13","新北市樹林區中正路22-1號","121.42787","24.99957","6500700","樹林區"
"238020","268-VK","2019/06/27 17:09:15","新北市樹林區中正路22-1號","121.42798","24.9992716666667","6500700","樹林區"
"238016","169-UY","2019/06/27 17:09:22","新北市樹林區八德街1號","121.4176","24.9849716666667","6500700","樹林區"
"239007","AAC-297","2019/06/27 17:09:18","新北市鶯歌區行政路48號","121.353086666667","24.956005","6500800","鶯歌區"
"239006","891-R6","2019/06/27 17:09:22","新北市鶯歌區八德路2巷20弄2號","121.336266666667","24.9466683333333","6500800","鶯歌區"
"239008","527-UM","2019/06/27 17:09:24","新北市鶯歌區尖山路57-1號","121.350013333333","24.9496916666667","6500800","鶯歌區"
"239005","526-UM","2019/06/27 17:09:17","新北市鶯歌區鶯桃路514號","121.33172","24.966515","6500800","鶯歌區"
"239001","417-VK","2019/06/27 17:09:22","新北市鶯歌區尖山路156巷19號","121.345795","24.949265","6500800","鶯歌區"
"239003","360-BY","2019/06/27 17:09:03","新北市鶯歌區德昌二街70巷32弄89號","121.329981666667","24.9569866666667","6500800","鶯歌區"
"239002","359-BY","2019/06/27 17:09:07","新北市鶯歌區建國路255號","121.347995","24.9533883333333","6500800","鶯歌區"
"239004","193-VK","2019/06/27 17:09:08","新北市鶯歌區文化路324巷11弄1號","121.3505","24.94514","6500800","鶯歌區"
"233001","KEA-2870","2019/06/27 17:09:20","新北市烏來區溫泉街2號","121.549596666667","24.8652833333333","6502900","烏來區"
"242044","281-VK","2019/06/27 17:09:21","新北市新莊區中正路400號","121.441906666667","25.0344483333333","6500500","新莊區"
"242009","280-VK","2019/06/27 17:09:09","新北市新莊區三和路12-21號","121.441846666667","25.0383466666667","6500500","新莊區"
