"lineid","car","time","location","longitude","latitude","cityid","cityname"
"249005","172-UM","2019/06/27 17:29:14","新北市八里區荖阡坑路30號","121.404871666667","25.1302383333333","6502300","八里區"
"249001","173-UM","2019/06/27 17:29:20","新北市八里區中華路一段1-5號","121.42331","25.15866","6502300","八里區"
"249004","303-UY","2019/06/27 17:29:05","新北市八里區賢三街162號","121.414638333333","25.15679","6502300","八里區"
"249002","305-UY","2019/06/27 17:29:13","新北市八里區龍米路二段39號","121.448348333333","25.14016","6502300","八里區"
"249003","593-UM","2019/06/27 17:29:18","新北市八里區中山路二段315號","121.400626666667","25.1478066666667","6502300","八里區"
"232011","375-UM","2019/06/27 17:29:03","新北市坪林區鶯子瀨12-1號","121.712321666667","24.9149166666667","6502000","坪林區"
"244007","080-UY","2019/06/27 17:29:08","新北市林口區菁埔45-2號","121.384035","25.094895","6501700","林口區"
"244019","402-UM","2019/06/27 17:29:21","新北市林口區公園路183號","121.371638333333","25.07197","6501700","林口區"
"244013","KEA-2802","2019/06/27 17:29:16","新北市林口區中正路514巷6弄5號","121.38265","25.0782133333333","6501700","林口區"
"244023","483-VK","2019/06/27 17:29:10","新北市林口區東明一街55巷2號","121.391655","25.0716316666667","6501700","林口區"
"244017","485-VK","2019/06/27 17:29:11","新北市林口區麗園一街1號","121.375696666667","25.0730533333333","6501700","林口區"
"244009","656-BX","2019/06/27 17:29:08","新北市林口區中湖39-54號","121.385018333333","25.0862316666667","6501700","林口區"
"244011","701-TV","2019/06/27 17:29:16","新北市林口區中正路429號","121.385195","25.0777183333333","6501700","林口區"
"244025","837-TS","2019/06/27 17:29:13","新北市林口區文化二路一段289-5號","121.367511666667","25.0718216666667","6501700","林口區"
"244021","838-TS","2019/06/27 17:29:09","新北市林口區粉寮路17巷1號","121.39846","25.0807033333333","6501700","林口區"
"231046","719-UM","2019/06/27 17:19:14","新北市新店區直潭六街64號","121.532228333333","24.9400133333333","6500600","新店區"
"241016","060-VK","2019/06/27 17:29:13","新北市三重區信義西街118號","121.495785","25.064355","6500200","三重區"
"241015","062-VK","2019/06/27 17:29:05","新北市三重區長元街100-6號","121.50311","25.0668166666667","6500200","三重區"
"241017","063-VK","2019/06/27 17:29:21","新北市三重區中正北路25巷13號","121.492911666667","25.0624266666667","6500200","三重區"
"241024","065-VK","2019/06/27 17:29:08","新北市三重區中正北路221號","121.4763","25.0704283333333","6500200","三重區"
"241003","091-VK","2019/06/27 17:29:09","新北市三重區富福街8號","121.490065","25.0832116666667","6500200","三重區"
"241005","262-UM","2019/06/27 17:29:13","新北市三重區永安北路二段43巷22號","121.48306","25.0827216666667","6500200","三重區"
"241009","267-UM","2019/06/27 17:29:17","新北市三重區慈愛街39號","121.485438333333","25.078885","6500200","三重區"
"241018","268-UM","2019/06/27 17:29:17","新北市三重區大仁街52號","121.4921","25.06471","6500200","三重區"
"241032","269-UM","2019/06/27 17:29:14","新北市三重區名源街59號","121.482351666667","25.05946","6500200","三重區"
"241025","271-UM","2019/06/27 17:29:11","新北市三重區中正北路382號","121.476141666667","25.0698833333333","6500200","三重區"
"241007","398-BY","2019/06/27 17:29:12","新北市三重區三和路四段145巷102號","121.486913333333","25.0790816666667","6500200","三重區"
"241020","478-VK","2019/06/27 17:29:02","新北市三重區忠孝路二段34號","121.485595","25.0708516666667","6500200","三重區"
"241014","543-UM","2019/06/27 17:29:16","新北市三重區安和路15號","121.501171666667","25.068415","6500200","三重區"
"241019","743-BX","2019/06/27 17:29:06","新北市三重區忠孝路二段80號","121.484153333333","25.0696583333333","6500200","三重區"
"241012","941-UM","2019/06/27 17:29:05","新北市三重區仁興街31巷2號","121.499366666667","25.07526","6500200","三重區"
"241033","AAC-255","2019/06/27 17:29:21","新北市三重區興德路129號","121.470255","25.053145","6500200","三重區"
"235064","005-UY","2019/06/27 17:29:21","新北市中和區員山路36巷16-3號","121.485008333333","24.9911816666667","6500300","中和區"
"247014","KEA-2869","2019/06/27 17:29:22","新北市蘆洲區三民路105號","121.472761666667","25.0854966666667","6501400","蘆洲區"
"247008","KED-0682","2019/06/27 17:29:16","新北市蘆洲區信義路30巷15號","121.474438333333","25.0787616666667","6501400","蘆洲區"
"247004","893-R6","2019/06/27 17:29:20","新北市蘆洲區長安街229號","121.459411666667","25.0827733333333","6501400","蘆洲區"
"247002","500-BY","2019/06/27 17:29:06","新北市蘆洲區永樂街38巷57弄37-1號","121.457281666667","25.0905483333333","6501400","蘆洲區"
"247024","337-TH","2019/06/27 17:29:04","新北市蘆洲區長興路409號","121.461645","25.0922883333333","6501400","蘆洲區"
"247022","057-VK","2019/06/27 17:29:17","新北市蘆洲區三民路301號","121.465361666667","25.0908233333333","6501400","蘆洲區"
"247012","056-VK","2019/06/27 17:29:19","新北市蘆洲區民族路56號","121.477088333333","25.0845416666667","6501400","蘆洲區"
"247016","053-VK","2019/06/27 17:29:07","新北市蘆洲區光華路22巷24號","121.468743333333","25.0843083333333","6501400","蘆洲區"
"247020","007-UY","2019/06/27 17:29:11","新北市蘆洲區水湳街397號","121.470266666667","25.0939233333333","6501400","蘆洲區"
"247006","002-UY","2019/06/27 17:29:14","新北市蘆洲區長安街22巷31弄28號","121.464003333333","25.080715","6501400","蘆洲區"
"228003","097-TW","2019/06/27 17:29:08","新北市貢寮區仁理村研海街62-2號","121.925761666667","25.043745","6502600","貢寮區"
"228001","212-TW","2019/06/27 17:29:15","新北市貢寮區仁理村仁愛路62巷1號","121.925645","25.0533966666667","6502600","貢寮區"
"228002","663-BX","2019/06/27 17:29:19","新北市貢寮區福隆里福隆街16號","121.944916666667","25.0164116666667","6502600","貢寮區"
"224010","AGQ-8101","2019/06/27 17:29:07","新北市瑞芳區逢甲路40號","121.811248333333","25.108245","6501200","瑞芳區"
"224006","676-BX","2019/06/27 17:29:09","新北市瑞芳區傑魚坑路88號","121.79249","25.1104566666667","6501200","瑞芳區"
"224009","275-VK","2019/06/27 17:29:23","新北市瑞芳區輕便路30號","121.846118333333","25.11075","6501200","瑞芳區"
"224008","273-VK","2019/06/27 17:29:20","新北市瑞芳區九芎橋路196號","121.834131666667","25.0975533333333","6501200","瑞芳區"
"224005","271-BY","2019/06/27 17:29:18","新北市瑞芳區明里路88號","121.868163333333","25.1221683333333","6501200","瑞芳區"
"227001","400-TW","2019/06/27 17:29:07","新北市雙溪區三貂里定福路1-2號","121.85072","25.0633966666667","6502500","雙溪區"
"251004","009-UM","2019/06/27 17:13:20","新北市淡水區中正東路二段88巷15號","121.459055","25.1504966666667","6501000","淡水區"
"251005","010-UM","2019/06/27 17:29:21","新北市淡水區鄧公路31巷1號","121.451313333333","25.17091","6501000","淡水區"
"251015","KEA-2871","2019/06/27 17:29:11","新北市淡水區三空泉16-10號","121.472648333333","25.1649666666667","6501000","淡水區"
"251016","179-VK","2019/06/27 17:29:09","新北市淡水區埤島75號","121.454591666667","25.1944583333333","6501000","淡水區"
"251008","181-VK","2019/06/27 17:29:09","新北市淡水區大同路89號","121.462418333333","25.14021","6501000","淡水區"
"251013","182-VK","2019/06/27 17:29:02","新北市淡水區水尾子2-2號","121.464476666667","25.1951983333333","6501000","淡水區"
"251010","413-VK","2019/06/27 17:29:04","新北市淡水區中正路二段211號","121.426215","25.1891183333333","6501000","淡水區"
"251012","441-VK","2019/06/27 17:29:10","新北市淡水區北新路110號","121.447673333333","25.1783583333333","6501000","淡水區"
"251007","442-VK","2019/06/27 17:29:12","新北市淡水區民生路47-4號","121.462078333333","25.1380133333333","6501000","淡水區"
"251006","561-UM","2019/06/27 17:29:18","新北市淡水區大仁街13號","121.442333333333","25.1749583333333","6501000","淡水區"
"251009","575-R6","2019/06/27 17:29:11","新北市淡水區建設街1巷1號","121.438925","25.17274","6501000","淡水區"
"251014","577-R6","2019/06/27 17:28:18","新北市淡水區北勢子16號","121.473955","25.227635","6501000","淡水區"
"251011","650-BX","2019/06/27 17:29:12","新北市淡水區三空泉8-1號","121.475945","25.161265","6501000","淡水區"
"251003","673-BX","2019/06/27 17:29:18","新北市淡水區中山路158號","121.440785","25.1728766666667","6501000","淡水區"
"207004","681-TV","2019/06/27 17:29:11","新北市萬里區萬里里景美路11-3號","121.68596","25.1729216666667","6502800","萬里區"
"207003","550-UM","2019/06/27 17:29:15","新北市萬里區龜吼里美崙路91號","121.685601666667","25.1850316666667","6502800","萬里區"
"252002","178-VK","2019/06/27 17:29:07","新北市三芝區忠孝街1-14號","121.505518333333","25.2539533333333","6502100","三芝區"
"233002","762-BX","2019/06/27 17:29:10","新北市烏來區環山路82巷28號","121.547986666667","24.863815","6502900","烏來區"
"247010","KED-0683","2019/06/27 17:29:05","新北市蘆洲區信義路132-1號","121.47951","25.082925","6501400","蘆洲區"
"252001","KED-0821","2019/06/27 17:29:07","新北市三芝區長安街119號","121.498018333333","25.259645","6502100","三芝區"
"242039","AAC-296","2019/06/27 17:29:11","新北市新莊區民安路284號","121.427883333333","25.021605","6500500","新莊區"
"242061","986-R7","2019/06/27 17:29:18","新北市新莊區瓊林路188-1號","121.440565","25.0224233333333","6500500","新莊區"
"242048","751-BX","2019/06/27 17:29:13","新北市新莊區龍安路252號","121.421186666667","25.0195816666667","6500500","新莊區"
"242029","615-BX","2019/06/27 17:29:21","新北市新莊區復興路二段174號","121.458686666667","25.0442983333333","6500500","新莊區"
"242027","613-BX","2019/06/27 17:29:18","新北市新莊區思源路32號","121.460308333333","25.0405166666667","6500500","新莊區"
"242058","612-BX","2019/06/27 17:29:09","新北市新莊區中正路400號","121.44192","25.0342133333333","6500500","新莊區"
"242046","566-BX","2019/06/27 17:29:18","新北市新莊區新樹路65-7號","121.439403333333","25.030745","6500500","新莊區"
"242051","497-BY","2019/06/27 17:29:18","新北市新莊區新樹路449巷8弄2號","121.433106666667","25.0136116666667","6500500","新莊區"
"242056","442-UM","2019/06/27 17:29:17","新北市新莊區新泰路53號","121.449413333333","25.0338866666667","6500500","新莊區"
"242004","440-UM","2019/06/27 17:29:09","新北市新莊區中港路286號","121.452925","25.0442316666667","6500500","新莊區"
"242042","415-TV","2019/06/27 17:29:20","新北市新莊區新樹路113巷25號","121.4395","25.0263966666667","6500500","新莊區"
"242011","413-TV","2019/06/27 17:29:08","新北市新莊區中港路471號","121.452405","25.0491366666667","6500500","新莊區"
"242025","362-BY","2019/06/27 17:29:06","新北市新莊區中港路272號","121.453203333333","25.0440133333333","6500500","新莊區"
"242023","353-BY","2019/06/27 17:29:17","新北市新莊區中華路一段158號","121.452641666667","25.0413","6500500","新莊區"
"242013","132-UY","2019/06/27 17:29:11","新北市新莊區中誠街38號","121.45145","25.04808","6500500","新莊區"
"242036","135-UY","2019/06/27 17:29:20","新北市新莊區建國一路113-1號","121.434923333333","25.0278833333333","6500500","新莊區"
"242053","172-VK","2019/06/27 17:29:19","新北市新莊區環河路658-8號","121.436235","25.0077683333333","6500500","新莊區"
"242015","173-VK","2019/06/27 17:29:15","新北市新莊區新泰路159號","121.447638333333","25.0369866666667","6500500","新莊區"
"242021","175-VK","2019/06/27 17:29:23","新北市新莊區中正路134號","121.45269","25.0362166666667","6500500","新莊區"
"242019","KED-0687","2019/06/27 17:29:12","新北市新莊區中港路56號","121.455435","25.0386516666667","6500500","新莊區"
"242002","347-TH","2019/06/27 17:29:16","新北市新莊區新莊路211號","121.455313333333","25.035465","6500500","新莊區"
"242034","348-TH","2019/06/27 17:29:17","新北市新莊區新泰路1號","121.449825","25.0320833333333","6500500","新莊區"
"242007","349-TH","2019/06/27 17:29:18","新北市新莊區自強街34號","121.454746666667","25.0462916666667","6500500","新莊區"
"242031","350-TH","2019/06/27 17:29:15","新北市新莊區新泰路462號","121.443268333333","25.0447516666667","6500500","新莊區"
"242017","351-TH","2019/06/27 17:29:20","新北市新莊區中華路一段103號","121.452723333333","25.043925","6500500","新莊區"
"238015","755-BX","2019/06/27 17:29:18","新北市樹林區保安街一段73號","121.42293","24.99506","6500700","樹林區"
"238023","601-UM","2019/06/27 17:29:12","新北市樹林區三福街114號","121.406458333333","25.01635","6500700","樹林區"
"238019","599-UM","2019/06/27 17:29:19","新北市樹林區國凱街82-2號","121.421363333333","24.9791966666667","6500700","樹林區"
"238024","5061-A6","2019/06/27 17:29:04","新北市樹林區鎮前街142號","121.424646666667","24.9904433333333","6500700","樹林區"
"238018","KEA-2217","2019/06/27 17:29:02","新北市樹林區鎮前街97巷6號","121.424678333333","24.9896566666667","6500700","樹林區"
"238022","KEA-2213","2019/06/27 17:29:08","新北市樹林區仁愛街23-4號","121.421695","24.9818233333333","6500700","樹林區"
"238021","KEA-2539","2019/06/27 17:29:17","新北市樹林區民權街5巷7號","121.395081666667","24.9579533333333","6500700","樹林區"
"238025","303-VK","2019/06/27 17:29:23","新北市樹林區保安街一段384號","121.417311666667","24.9988216666667","6500700","樹林區"
"238017","283-BY","2019/06/27 17:29:02","新北市樹林區三德街8號","121.413306666667","25.01281","6500700","樹林區"
"238014","282-BY","2019/06/27 17:29:13","新北市樹林區長壽街92號","121.41982","24.9961833333333","6500700","樹林區"
"238020","268-VK","2019/06/27 17:29:15","新北市樹林區千歲街101-2號","121.428521666667","25.00089","6500700","樹林區"
"238026","172-UY","2019/06/27 17:29:07","新北市樹林區中山路三段27巷2號","121.401613333333","24.9746","6500700","樹林區"
"238016","169-UY","2019/06/27 17:29:22","新北市樹林區中山路一段90號","121.423325","24.991355","6500700","樹林區"
"239007","AAC-297","2019/06/27 17:29:18","新北市鶯歌區國華路2號","121.342875","24.956665","6500800","鶯歌區"
"239006","891-R6","2019/06/27 17:29:22","新北市鶯歌區鶯桃路311號","121.33392","24.9608133333333","6500800","鶯歌區"
"239008","527-UM","2019/06/27 17:29:15","新北市鶯歌區大湖路540號","121.33703","24.9728233333333","6500800","鶯歌區"
"239005","526-UM","2019/06/27 17:29:17","新北市鶯歌區福隆一街62號","121.324643333333","24.9712166666667","6500800","鶯歌區"
"239001","417-VK","2019/06/27 17:29:22","新北市鶯歌區高職西街19號","121.33742","24.9425033333333","6500800","鶯歌區"
"239003","360-BY","2019/06/27 17:29:23","新北市鶯歌區德昌街19號","121.333451666667","24.9600466666667","6500800","鶯歌區"
"239002","359-BY","2019/06/27 17:29:22","新北市鶯歌區國慶街69號","121.34999","24.95516","6500800","鶯歌區"
"239004","193-VK","2019/06/27 17:29:08","新北市三峽區復興路553號","121.356628333333","24.9404566666667","6500800","鶯歌區"
"233001","KEA-2870","2019/06/27 17:29:15","新北市烏來區信福路151-1號","121.523156666667","24.8351966666667","6502900","烏來區"
"242044","281-VK","2019/06/27 17:29:21","新北市新莊區富國路87號","121.420518333333","25.0257466666667","6500500","新莊區"
"242009","280-VK","2019/06/27 17:29:09","新北市新莊區中原路185號","121.453038333333","25.0543683333333","6500500","新莊區"
