"lineid","car","time","location","longitude","latitude","cityid","cityname"
"234046","148-BY","2019/06/27 18:59:22","新北市永和區得和路373巷31弄9號","121.524713333333","25.0006216666667","6500400","永和區"
"234081","298-R6","2019/06/27 18:59:14","新北市永和區福和路57巷14弄1號","121.522663333333","25.0069283333333","6500400","永和區"
"234038","336-UY","2019/06/27 18:59:22","新北市永和區成功路二段207號","121.526551666667","24.995925","6500400","永和區"
"234064","337-UY","2019/06/27 18:59:24","新北市永和區秀朗路一段140號","121.517978333333","25.003435","6500400","永和區"
"234086","338-UY","2019/06/27 18:59:24","新北市永和區永寧街131巷2號","121.518033333333","25.005055","6500400","永和區"
"234017","745-BX","2019/06/27 18:59:26","新北市永和區永和路二段299號","121.51611","25.016115","6500400","永和區"
"234030","746-BX","2019/06/27 18:59:19","新北市永和區秀朗路二段264號","121.526061666667","24.9983966666667","6500400","永和區"
"234054","KEA-2590","2019/06/27 18:59:13","新北市永和區竹林路66巷2號","121.518205","25.0134583333333","6500400","永和區"
"234007","KED-0605","2019/06/27 18:59:15","新北市永和區中山路一段30號","121.513596666667","25.0105883333333","6500400","永和區"
"234013","KEA-2591","2019/06/27 18:59:09","新北市永和區中山路一段58號","121.512986666667","25.01088","6500400","永和區"
"234061","AAD-866","2019/06/27 18:59:18","新北市永和區福和路307號","121.516273333333","25.0070966666667","6500400","永和區"
"234070","748-BX","2019/06/27 18:59:25","新北市永和區中興街68巷5弄4號","121.518455","25.0116033333333","6500400","永和區"
"234042","862-TW","2019/06/27 18:59:10","新北市永和區永貞路267號","121.511885","25.0047266666667","6500400","永和區"
"234050","863-TW","2019/06/27 18:59:25","新北市永和區文化路147號","121.510761666667","25.01618","6500400","永和區"
"234026","9371-KE","2019/06/27 18:59:20","新北市永和區自由街49號","121.513951666667","25.0059316666667","6500400","永和區"
"234011","9373-KE","2019/06/27 18:59:09","新北市永和區文化路111號","121.512765","25.01524","6500400","永和區"
"249005","172-UM","2019/06/27 18:59:14","新北市八里區長道坑6號","121.397856666667","25.123505","6502300","八里區"
"249001","173-UM","2019/06/27 18:59:20","新北市八里區渡船頭街3-1號","121.434391666667","25.1583516666667","6502300","八里區"
"248016","026-BX","2019/06/27 18:59:11","新北市五股區成泰路三段543巷12弄11號","121.451291666667","25.102425","6501500","五股區"
"248006","077-UY","2019/06/27 18:59:19","新北市五股區四維路117號","121.467468333333","25.0736416666667","6501500","五股區"
"248008","KED-0815","2019/06/27 18:59:09","新北市五股區中興路一段128巷20號","121.46568","25.0747433333333","6501500","五股區"
"248020","KED-0813","2019/06/27 18:59:17","新北市五股區凌雲路三段57號","121.425296666667","25.125015","6501500","五股區"
"248012","247-BX","2019/06/27 18:59:26","新北市五股區中興路四段48巷16號","121.438616666667","25.0834183333333","6501500","五股區"
"248010","272-BY","2019/06/27 18:59:17","新北市五股區水碓五路52-1號","121.42997","25.071665","6501500","五股區"
"248002","678-BX","2019/06/27 18:59:09","新北市五股區凌雲路一段156巷1號","121.448973333333","25.102615","6501500","五股區"
"248004","682-TV","2019/06/27 18:59:07","新北市五股區民義路二段42號","121.414896666667","25.1006283333333","6501500","五股區"
"234023","9380-KE","2019/06/27 18:59:24","新北市永和區竹林路75巷33弄1號","121.520651666667","25.01432","6500400","永和區"
"234077","969-R7","2019/06/27 18:59:24","新北市永和區智光街18號","121.518105","24.9993633333333","6500400","永和區"
"234067","AAC-212","2019/06/27 18:59:15","新北市永和區自由街76號","121.513271666667","25.00526","6500400","永和區"
"234003","AAC-295","2019/06/27 18:59:18","新北市永和區和平街38號","121.512973333333","25.0099316666667","6500400","永和區"
"232011","375-UM","2019/06/27 18:59:20","新北市坪林區坪林街10號","121.711801666667","24.935995","6502000","坪林區"
"244019","402-UM","2019/06/27 18:59:21","新北市林口區麗園一街35號","121.377635","25.0688233333333","6501700","林口區"
"244013","KEA-2802","2019/06/27 18:59:16","新北市林口區麗園一街9巷1號","121.376533333333","25.0713283333333","6501700","林口區"
"244023","483-VK","2019/06/27 18:59:10","新北市林口區民權路106號","121.373691666667","25.082785","6501700","林口區"
"244017","485-VK","2019/06/27 18:59:11","新北市林口區公園路125號","121.369081666667","25.0700833333333","6501700","林口區"
"244009","656-BX","2019/06/27 18:59:08","新北市林口區竹林路276巷1號","121.389953333333","25.0817516666667","6501700","林口區"
"244011","701-TV","2019/06/27 18:59:16","新北市林口區中興街3-1號","121.389003333333","25.077695","6501700","林口區"
"244025","837-TS","2019/06/27 18:59:12","新北市林口區南勢街196號","121.360418333333","25.0747166666667","6501700","林口區"
"243012","AAD-798","2019/06/27 18:59:08","新北市泰山區泰林路二段73巷27號","121.434476666667","25.0578516666667","6501600","泰山區"
"243010","297-R6","2019/06/27 18:59:25","新北市泰山區辭修路24號","121.429023333333","25.0581566666667","6501600","泰山區"
"243014","KEA-2801","2019/06/27 18:59:23","新北市泰山區黎明路23-1號","121.421276666667","25.0612916666667","6501600","泰山區"
"243016","421-VK","2019/06/27 18:59:10","新北市泰山區明志路二段152-1號","121.427468333333","25.050695","6501600","泰山區"
"243009","KEA-2215","2019/06/27 18:59:21","新北市泰山區泰林路二段362號","121.428751666667","25.063645","6501600","泰山區"
"243011","KEA-2216","2019/06/27 18:59:24","新北市泰山區明志路二段235號","121.427231666667","25.04824","6501600","泰山區"
"243015","680-BX","2019/06/27 18:59:21","新北市泰山區美寧街39號","121.430333333333","25.0643733333333","6501600","泰山區"
"222003","436-BY","2019/06/27 18:59:17","新北市深坑區深南路88巷1號","121.621406666667","25.010795","6501800","深坑區"
"222002","659-BX","2019/06/27 18:59:16","新北市深坑區文山路一段31巷2號","121.629886666667","25.0033416666667","6501800","深坑區"
"231061","002-UM","2019/06/27 18:59:13","新北市新店區安華路28-1號","121.519705","24.9608466666667","6500600","新店區"
"231058","0293-UT","2019/06/27 18:59:21","新北市新店區中正路1巷2號","121.545581666667","24.9689616666667","6500600","新店區"
"231059","046-UY","2019/06/27 18:59:04","新北市新店區安華路28-1號","121.51967","24.9607966666667","6500600","新店區"
"231060","106-UY","2019/06/27 18:59:10","新北市新店區安華路30巷12-1號","121.518406666667","24.9580183333333","6500600","新店區"
"231051","107-UY","2019/06/27 18:59:18","新北市新店區中正路360號","121.535555","24.97578","6500600","新店區"
"231049","108-UY","2019/06/27 18:59:22","新北市新店區中正路454-5號","121.534485","24.979045","6500600","新店區"
"231065","110-UY","2019/06/27 18:59:19","新北市新店區建業路43號","121.480116666667","24.9549966666667","6500600","新店區"
"231054","260-TV","2019/06/27 18:59:22","新北市新店區光明街95號","121.538883333333","24.9611","6500600","新店區"
"231042","268-BY","2019/06/27 18:59:10","新北市新店區中正路51號","121.544631666667","24.96988","6500600","新店區"
"231064","278-BY","2019/06/27 18:59:12","新北市新店區安一路一段1-1號","121.519768333333","24.9619816666667","6500600","新店區"
"231050","AAD-862","2019/06/27 18:59:19","新北市新店區北宜路一段191號","121.547186666667","24.9523416666667","6500600","新店區"
"231045","355-BY","2019/06/27 18:59:16","新北市新店區安康路一段75-1號","121.530168333333","24.96112","6500600","新店區"
"231055","4716-K9","2019/06/27 18:59:22","新北市新店區中華路47巷2弄1號","121.539625","24.967445","6500600","新店區"
"231056","4715-K9","2019/06/27 18:59:25","新北市新店區二十張路46巷37弄45號","121.535428333333","24.9812583333333","6500600","新店區"
"231067","4772-VM","2019/06/27 18:59:22","新北市新店區安康路一段76巷10-1號","121.5287","24.9625533333333","6500600","新店區"
"231052","513-UM","2019/06/27 18:59:10","新北市新店區新烏路二段42-1號","121.5459","24.9293666666667","6500600","新店區"
"231041","619-UM","2019/06/27 18:59:21","新北市新店區安康路一段85號","121.529498333333","24.9613916666667","6500600","新店區"
"231063","641-BX","2019/06/27 18:59:06","新北市新店區安華路1-1號","121.51957","24.9604866666667","6500600","新店區"
"231047","KED-0819","2019/06/27 18:59:15","新北市新店區德正街23巷12-1號","121.5447","24.9722","6500600","新店區"
"231062","718-UY","2019/06/27 18:59:17","新北市新店區安豐路24號","121.500723333333","24.95658","6500600","新店區"
"231046","719-UM","2019/06/27 18:54:14","新北市新店區直潭七街30號","121.533248333333","24.9399983333333","6500600","新店區"
"231057","720-UM","2019/06/27 18:59:09","新北市新店區百齡一路12號","121.553033333333","24.932465","6500600","新店區"
"231044","897-TW","2019/06/27 18:59:27","新北市新店區寶中路72號","121.547863333333","24.9806233333333","6500600","新店區"
"231040","898-TW","2019/06/27 18:59:16","新北市新店區中央路81號","121.53221","24.9765666666667","6500600","新店區"
"231043","899-TW","2019/06/27 18:59:22","新北市新店區安康路一段24巷2號","121.533023333333","24.960385","6500600","新店區"
"231066","AKT-0513","2019/06/27 18:59:14","新北市新店區安豐路54-1號","121.500011666667","24.9539983333333","6500600","新店區"
"241035","462-BY","2019/06/27 18:59:07","新北市三重區重新路四段121號","121.484865","25.0519116666667","6500200","三重區"
"241029","942-UM","2019/06/27 18:59:24","新北市三重區重安街6號","121.49014","25.0582216666667","6500200","三重區"
"235066","003-UY","2019/06/27 18:59:07","新北市中和區中山路二段131巷5弄4號","121.502971666667","25.002885","6500300","中和區"
"235064","005-UY","2019/06/27 18:59:21","新北市中和區泰和街30巷14號","121.499105","25.0009416666667","6500300","中和區"
"235063","006-UY","2019/06/27 18:59:23","新北市中和區中正路578號","121.486185","24.9947583333333","6500300","中和區"
"235056","096-UM","2019/06/27 18:59:16","新北市中和區中正路1196號","121.480418333333","25.0103683333333","6500300","中和區"
"235039","097-UM","2019/06/27 18:59:24","新北市中和區自強路52號","121.52015","24.9948516666667","6500300","中和區"
"235065","098-UM","2019/06/27 18:59:23","新北市中和區福祥路129號","121.498646666667","25.0071216666667","6500300","中和區"
"235040","150-BY","2019/06/27 18:59:17","新北市中和區安樂路81號","121.512565","24.9943866666667","6500300","中和區"
"235058","151-BY","2019/06/27 18:59:06","新北市中和區連城路567-1號","121.479343333333","24.9944883333333","6500300","中和區"
"235055","183-VK","2019/06/27 18:59:09","新北市中和區民德路12號","121.468771666667","25.002725","6500300","中和區"
"235038","185-VK","2019/06/27 18:59:13","新北市中和區立人街24-4號","121.518958333333","24.9941783333333","6500300","中和區"
"235049","186-VK","2019/06/27 18:59:23","新北市中和區景安路78號","121.505705","24.9964666666667","6500300","中和區"
"235067","255-BX","2019/06/27 18:59:13","新北市中和區新生街166巷2號","121.483445","25.00021","6500300","中和區"
"235044","293-VK","2019/06/27 18:59:08","新北市中和區中興街202巷35號","121.499045","24.9898183333333","6500300","中和區"
"235072","301-VK","2019/06/27 18:59:07","新北市中和區永和路24號","121.499461666667","25.003585","6500300","中和區"
"235043","352-BY","2019/06/27 18:59:11","新北市中和區秀朗路三段117號","121.525993333333","24.9933833333333","6500300","中和區"
"235042","KEA-2878","2019/06/27 18:59:07","新北市中和區秀朗路三段22巷15號","121.525526666667","24.9961133333333","6500300","中和區"
"235050","4979-A6","2019/06/27 18:59:24","新北市中和區忠孝街58巷16弄8號","121.511923333333","24.9829966666667","6500300","中和區"
"235069","4980-A6","2019/06/27 18:59:10","新北市中和區景平路618巷3號","121.500846666667","24.99719","6500300","中和區"
"235070","558-UM","2019/06/27 18:58:53","新北市中和區中和路198號","121.50527","24.999695","6500300","中和區"
"235045","565-BX","2019/06/27 18:59:16","新北市中和區景新街467巷15弄12號","121.513861666667","24.9887166666667","6500300","中和區"
"235060","KED-0823","2019/06/27 18:59:12","新北市中和區民治街25巷2號","121.475506666667","25.0017283333333","6500300","中和區"
"235047","732-UM","2019/06/27 18:59:15","新北市中和區興南路二段54巷9弄1號","121.506136666667","24.9853116666667","6500300","中和區"
"235046","733-UM","2019/06/27 18:59:22","新北市中和區南山路322號","121.50791","24.9864666666667","6500300","中和區"
"235062","800-TS","2019/06/27 18:59:12","新北市中和區中山路二段408號","121.48993","25.0038233333333","6500300","中和區"
"235057","801-TS","2019/06/27 18:59:13","新北市中和區民利街58巷5弄13號","121.47797","24.99916","6500300","中和區"
"235041","802-TS","2019/06/27 18:59:21","新北市中和區中和路262號","121.508481666667","24.9993116666667","6500300","中和區"
"235052","805-TS","2019/06/27 18:59:15","新北市中和區興南路二段347號","121.500145","24.980075","6500300","中和區"
"235048","896-TW","2019/06/27 18:59:21","新北市中和區華新街109巷16號","121.508686666667","24.981115","6500300","中和區"
"235053","900-TW","2019/06/27 18:59:25","新北市中和區和平路200巷3號","121.464548333333","24.995115","6500300","中和區"
"235054","911-UM","2019/06/27 18:59:07","新北市中和區民德路81號","121.46891","25.001155","6500300","中和區"
"235051","157-BY","2019/06/27 18:59:11","新北市中和區忠孝街11巷34號","121.509766666667","24.9838483333333","6500300","中和區"
"235037","AAC-213","2019/06/27 18:59:09","新北市中和區秀朗路三段60巷23號","121.525503333333","24.9950016666667","6500300","中和區"
"235059","AAC-215","2019/06/27 18:59:26","新北市中和區圓通路367巷20弄23號","121.491343333333","24.9882983333333","6500300","中和區"
"220065","072-UY","2019/06/27 18:59:10","新北市板橋區漢生東路315號","121.471943333333","25.00807","6500100","板橋區"
"220086","073-UY","2019/06/27 18:59:22","新北市板橋區大智街18號","121.45577","25.0148733333333","6500100","板橋區"
"220106","075-UY","2019/06/27 18:59:15","新北市板橋區雙十路三段12號","121.471965","25.0306533333333","6500100","板橋區"
"220069","AAD-861","2019/06/27 18:59:16","新北市板橋區東興街41號","121.457873333333","25.00523","6500100","板橋區"
"226004","312-R5","2019/06/27 18:59:08","新北市平溪區平溪里平溪街24號","121.738788333333","25.025465","6502400","平溪區"
"228003","097-TW","2019/06/27 18:59:08","新北市貢寮區和美里龍洞街60號","121.914193333333","25.1162083333333","6502600","貢寮區"
"228001","212-TW","2019/06/27 18:59:19","新北市貢寮區仁理村研海街12-1號","121.923768333333","25.0516616666667","6502600","貢寮區"
"228002","663-BX","2019/06/27 18:59:19","新北市貢寮區福隆里東興街106巷25弄1號","121.946368333333","25.018375","6502600","貢寮區"
"224006","676-BX","2019/06/27 18:59:09","新北市瑞芳區中正路2號","121.808956666667","25.1070516666667","6501200","瑞芳區"
"224007","285-BY","2019/06/27 18:59:15","新北市瑞芳區大埔路慶安新村44-1號","121.762823333333","25.1001166666667","6501200","瑞芳區"
"224009","275-VK","2019/06/27 18:59:23","新北市瑞芳區長仁路40號","121.864528333333","25.118475","6501200","瑞芳區"
"224008","273-VK","2019/06/27 18:59:00","新北市瑞芳區逢甲路343-13號","121.799226666667","25.1125183333333","6501200","瑞芳區"
"224005","271-BY","2019/06/27 18:59:18","新北市瑞芳區瑞濱路185號","121.817025","25.1136566666667","6501200","瑞芳區"
"227002","642-TC","2019/06/27 18:59:11","新北市雙溪區平林里康福家園9號","121.858701666667","25.0372616666667","6502500","雙溪區"
"227001","400-TW","2019/06/27 18:59:07","新北市雙溪區牡丹里中正路58巷23號","121.866405","25.041605","6502500","雙溪區"
"253006","032-BX","2019/06/27 18:59:14","新北市石門區下員坑42-2號","121.517513333333","25.27735","6502200","石門區"
"253005","295-VK","2019/06/27 18:59:07","新北市石門區中央路37-2號","121.568611666667","25.29513","6502200","石門區"
"222001","KEA-2212","2019/06/27 18:59:11","新北市深坑區北深路一段170號","121.634106666667","25.0107433333333","6501800","深坑區"
"208002","KEA-2872","2019/06/27 18:59:18","新北市金山區信義路78號","121.634886666667","25.219515","6502700","金山區"
"208003","665-BX","2019/06/27 18:59:08","新北市金山區中正路20號","121.635896666667","25.2222733333333","6502700","金山區"
"251005","010-UM","2019/06/27 18:59:21","新北市淡水區中山北路二段200號","121.444221666667","25.1867066666667","6501000","淡水區"
"251015","KEA-2871","2019/06/27 18:59:11","新北市淡水區糞箕湖60號","121.485208333333","25.1723083333333","6501000","淡水區"
"251016","179-VK","2019/06/27 18:59:08","新北市淡水區淡金路三段333號","121.448893333333","25.2063016666667","6501000","淡水區"
"251013","182-VK","2019/06/27 18:59:02","新北市淡水區安子內3號","121.487688333333","25.2161216666667","6501000","淡水區"
"251010","413-VK","2019/06/27 18:59:24","新北市淡水區淡海路69巷8弄6號","121.422626666667","25.181485","6501000","淡水區"
"251012","441-VK","2019/06/27 18:59:10","新北市淡水區新春街126巷15弄21號","121.440875","25.180935","6501000","淡水區"
"251007","442-VK","2019/06/27 18:59:12","新北市淡水區民生路113巷1弄27號","121.463455","25.13865","6501000","淡水區"
"251001","559-UM","2019/06/27 18:59:05","新北市淡水區自強路60號","121.463141666667","25.127585","6501000","淡水區"
"251009","575-R6","2019/06/27 18:59:11","新北市淡水區文化路15號","121.439581666667","25.1726016666667","6501000","淡水區"
"251014","577-R6","2019/06/27 18:59:18","新北市淡水區小中寮31號","121.490601666667","25.227335","6501000","淡水區"
"251011","650-BX","2019/06/27 18:59:12","新北市淡水區鄧公路30巷2弄6號","121.452591666667","25.1691283333333","6501000","淡水區"
"251002","672-BX","2019/06/27 18:59:22","新北市淡水區中正東路65號","121.447098333333","25.1676483333333","6501000","淡水區"
"251003","673-BX","2019/06/27 18:59:18","新北市淡水區中山北路一段149巷24號","121.442936666667","25.177965","6501000","淡水區"
"207004","681-TV","2019/06/27 18:59:11","新北市萬里區萬里里獅頭路23號","121.69327","25.1782116666667","6502800","萬里區"
"207003","550-UM","2019/06/27 18:59:15","新北市萬里區大鵬里頂社23號","121.656941666667","25.21047","6502800","萬里區"
"252002","178-VK","2019/06/27 18:59:07","新北市三芝區中正路一段39號","121.503201666667","25.2583033333333","6502100","三芝區"
"252003","249-BX","2019/06/27 18:59:10","新北市三芝區後厝里北勢子44-3號","121.471021666667","25.2516783333333","6502100","三芝區"
"208001","170-UY","2019/06/27 18:59:15","新北市金山區中山路69號","121.640788333333","25.2182033333333","6502700","金山區"
"237004","KEA-2597","2019/06/27 18:59:08","新北市三峽區有木183-2號","121.445565","24.837045","6500900","三峽區"
"237007","153-BY","2019/06/27 18:59:20","新北市三峽區大埔路163號","121.366635","24.9055233333333","6500900","三峽區"
"237013","252-BX","2019/06/27 18:59:17","新北市三峽區光明路69巷25號","121.376691666667","24.9292116666667","6500900","三峽區"
"237012","275-BY","2019/06/27 18:59:25","新北市三峽區三樹路253號","121.379023333333","24.9426683333333","6500900","三峽區"
"237008","302-VK","2019/06/27 18:59:15","新北市三峽區大同路174巷11號","121.37261","24.927325","6500900","三峽區"
"237014","433-BY","2019/06/27 18:59:22","新北市三峽區隆恩街158巷46號","121.365591666667","24.9459866666667","6500900","三峽區"
"237006","5529-G3","2019/06/27 18:59:07","新北市三峽區溪東路233巷4弄19號","121.407251666667","24.9337883333333","6500900","三峽區"
"237011","KEA-2596","2019/06/27 18:59:13","新北市三峽區橫溪路12號","121.396135","24.93598","6500900","三峽區"
"237015","649-BX","2019/06/27 18:59:19","新北市三峽區建安71-3號","121.447988333333","24.9265783333333","6500900","三峽區"
"237010","706-TV","2019/06/27 18:59:11","新北市三峽區復興路341號","121.364196666667","24.9386933333333","6500900","三峽區"
"237005","AKY-6261","2019/06/27 18:59:24","新北市三峽區中山路459巷163-3號","121.34867","24.9329883333333","6500900","三峽區"
"236042","KED-0685","2019/06/27 18:59:09","新北市土城區學府路一段229巷4號","121.45136","24.9838866666667","6501300","土城區"
"236078","166-UM","2019/06/27 18:59:11","新北市土城區中央路四段125巷2弄10號","121.416416666667","24.957005","6501300","土城區"
"236030","253-BX","2019/06/27 18:59:20","新北市土城區中央路二段223-9號","121.440548333333","24.97325","6501300","土城區"
"236026","269-VK","2019/06/27 18:59:20","新北市土城區中央路二段246號","121.441893333333","24.9747883333333","6501300","土城區"
"236014","270-VK","2019/06/27 18:59:27","新北市土城區立德路29巷6號","121.4621","24.988345","6501300","土城區"
"236038","271-VK","2019/06/27 18:59:19","新北市土城區仁愛路38號","121.461558333333","24.979445","6501300","土城區"
"236070","KEA-2877","2019/06/27 18:59:08","新北市土城區清水路99巷13號","121.45678","24.9823633333333","6501300","土城區"
"252001","KED-0821","2019/06/27 18:59:07","新北市三芝區中興街二段260號","121.501748333333","25.253035","6502100","三芝區"
"236021","401-BY","2019/06/27 18:59:26","新北市土城區明峰街53巷8號","121.467575","24.98684","6501300","土城區"
"236059","912-UM","2019/06/27 18:59:14","新北市土城區明德路一段385-1號","121.452463333333","24.9798166666667","6501300","土城區"
"236049","913-UM","2019/06/27 18:59:11","新北市土城區青雲路261號","121.459088333333","24.9807","6501300","土城區"
"236063","915-UM","2019/06/27 18:59:21","新北市土城區金城路三段139巷11號","121.467825","24.9887133333333","6501300","土城區"
"236055","AAC-216","2019/06/27 18:59:15","新北市土城區學成路147號","121.448638333333","24.9894783333333","6501300","土城區"
"242007","349-TH","2019/06/27 18:59:18","新北市樹林區中山路三段214號","121.379993333333","24.9678916666667","6500500","新莊區"
"238023","601-UM","2019/06/27 18:59:27","新北市樹林區大慶街70號","121.396336666667","25.01399","6500700","樹林區"
"238019","599-UM","2019/06/27 18:59:19","新北市樹林區東榮街147巷4弄3號","121.414638333333","24.980865","6500700","樹林區"
"238018","KEA-2217","2019/06/27 18:42:55","新北市樹林區太平路48號","121.419051666667","24.9825416666667","6500700","樹林區"
"238022","KEA-2213","2019/06/27 18:59:08","新北市樹林區東興街14-2號","121.409938333333","24.9783716666667","6500700","樹林區"
"238021","KEA-2539","2019/06/27 18:59:16","新北市樹林區柑園街二段276巷26號","121.372465","24.9533233333333","6500700","樹林區"
"238025","303-VK","2019/06/27 18:59:23","新北市樹林區民和街53號","121.382101666667","24.970005","6500700","樹林區"
"238017","283-BY","2019/06/27 18:59:22","新北市樹林區中山路三段125-11號","121.39873","24.9739433333333","6500700","樹林區"
"238014","282-BY","2019/06/27 18:59:12","新北市樹林區千歲街61巷42號","121.425511666667","24.9985","6500700","樹林區"
"238020","268-VK","2019/06/27 18:59:15","新北市樹林區俊英街240號","121.42463","25.01059","6500700","樹林區"
"238026","172-UY","2019/06/27 18:59:07","新北市樹林區中和街8號","121.391653333333","24.97311","6500700","樹林區"
"238016","169-UY","2019/06/27 18:59:22","新北市樹林區文化街28-1號","121.419221666667","24.9877783333333","6500700","樹林區"
"239007","AAC-297","2019/06/27 18:59:18","新北市鶯歌區中正一路203號","121.353535","24.9573633333333","6500800","鶯歌區"
"239008","527-UM","2019/06/27 18:59:23","新北市鶯歌區國際二路20巷17號","121.337016666667","24.9754216666667","6500800","鶯歌區"
"239005","526-UM","2019/06/27 18:59:16","新北市鶯歌區鳳吉一街99號","121.327361666667","24.9744316666667","6500800","鶯歌區"
"239001","417-VK","2019/06/27 18:59:22","新北市鶯歌區永明街58號","121.340475","24.956095","6500800","鶯歌區"
"239003","360-BY","2019/06/27 18:59:23","新北市鶯歌區鶯桃路658巷125號","121.332583333333","24.9712233333333","6500800","鶯歌區"
"239004","193-VK","2019/06/27 18:59:18","新北市鶯歌區中正三路156巷1號","121.334143333333","24.9390016666667","6500800","鶯歌區"
"221008","489-VK","2019/06/27 18:59:16","新北市汐止區康寧街582號","121.634925","25.0698333333333","6501100","汐止區"
"221036","130-UY","2019/06/27 18:59:12","新北市汐止區忠孝東路339巷1號","121.66502","25.0699416666667","6501100","汐止區"
"221015","131-UY","2019/06/27 18:59:11","新北市汐止區吉祥街12巷12-1號","121.668833333333","25.0805","6501100","汐止區"
"221032","280-BY","2019/06/27 18:59:15","新北市汐止區橫科路407巷25弄5號","121.625828333333","25.0483966666667","6501100","汐止區"
"221029","298-VK","2019/06/27 18:59:19","新北市汐止區樟樹一路230號","121.642238333333","25.0666483333333","6501100","汐止區"
"221031","353-TW","2019/06/27 18:59:08","新北市汐止區福德一路300巷51號","121.63024","25.0646666666667","6501100","汐止區"
"221035","622-UM","2019/06/27 18:59:20","新北市汐止區大同路二段298號","121.655168333333","25.0665666666667","6501100","汐止區"
"221002","707-TV","2019/06/27 18:59:22","新北市汐止區大同路一段2號","121.620988333333","25.0549633333333","6501100","汐止區"
"220079","145-BY","2019/06/27 18:59:27","新北市板橋區大智街71巷8弄2號","121.453461666667","25.0152933333333","6500100","板橋區"
"220080","200-UY","2019/06/27 18:59:22","新北市板橋區大觀路二段265巷1弄52號","121.44516","24.99784","6500100","板橋區"
"220082","610-BX","2019/06/27 18:59:25","新北市板橋區滿平街135號","121.428896666667","24.9882283333333","6500100","板橋區"
"220101","245-BX","2019/06/27 18:59:26","新北市板橋區萬板路15號","121.470575","25.0209766666667","6500100","板橋區"
"220056","276-BY","2019/06/27 18:59:23","新北市板橋區信義路48號","121.457156666667","24.9943633333333","6500100","板橋區"
"220072","277-BY","2019/06/27 18:59:16","新北市樹林區樹新路205-3號","121.429595","24.9978516666667","6500100","板橋區"
"220071","283-VK","2019/06/27 18:59:14","新北市板橋區忠孝路176巷48號","121.465423333333","25.0016816666667","6500100","板橋區"
"220094","285-UM","2019/06/27 18:59:23","新北市板橋區光武街151號","121.465541666667","25.0294633333333","6500100","板橋區"
"220053","285-VK","2019/06/27 18:59:12","新北市板橋區中山路二段89巷58號","121.473735","25.0172733333333","6500100","板橋區"
"220083","286-VK","2019/06/27 18:59:22","新北市板橋區大觀路一段38巷158號","121.44231","25.00458","6500100","板橋區"
"220081","287-VK","2019/06/27 18:59:14","新北市板橋區光華街19巷8號","121.453686666667","25.0121033333333","6500100","板橋區"
"220090","288-VK","2019/06/27 18:59:18","新北市板橋區裕民街54號","121.461425","25.0286733333333","6500100","板橋區"
"220061","293-UM","2019/06/27 18:59:13","新北市板橋區懷仁街52號","121.476841666667","25.0189333333333","6500100","板橋區"
"220084","296-UM","2019/06/27 18:59:11","新北市板橋區大觀路二段174巷118弄6號","121.44252","25.0012683333333","6500100","板橋區"
"220067","299-UM","2019/06/27 18:59:15","新北市板橋區三民路二段正泰2巷15號","121.478025","25.01435","6500100","板橋區"
"220075","303-R5","2019/06/27 18:59:17","新北市板橋區茶館街21號","121.456495","25.010495","6500100","板橋區"
"220062","305-R5","2019/06/27 18:59:13","新北市板橋區中山路二段176號","121.477251666667","25.017355","6500100","板橋區"
"220092","307-R5","2019/06/27 18:59:23","新北市板橋區文化路二段225巷60弄45號","121.469071666667","25.029495","6500100","板橋區"
"220098","317-R6","2019/06/27 18:59:19","新北市板橋區民生路二段226巷20號","121.47088","25.021895","6500100","板橋區"
"220089","487-VK","2019/06/27 18:59:26","新北市板橋區文化路二段169號","121.470385","25.027455","6500100","板橋區"
"220088","491-VK","2019/06/27 18:59:07","新北市板橋區莒光路158號","121.473691666667","25.0239433333333","6500100","板橋區"
"220103","561-BX","2019/06/27 18:59:26","新北市板橋區介壽街47號","121.468845","25.0197866666667","6500100","板橋區"
"220063","609-BX","2019/06/27 18:59:25","新北市板橋區三民路二段75號","121.47936","25.016815","6500100","板橋區"
"220035","630-UY","2019/06/27 18:59:22","新北市板橋區中正路273-1號","121.455376666667","25.0188766666667","6500100","板橋區"
"220091","637-BX","2019/06/27 18:59:08","新北市板橋區大同街14-4號","121.477476666667","25.02696","6500100","板橋區"
"220057","686-BX","2019/06/27 18:59:24","新北市板橋區重慶路336號","121.464091666667","24.997505","6500100","板橋區"
"220077","687-BX","2019/06/27 18:59:22","新北市板橋區僑中二街152號","121.44489","25.0043266666667","6500100","板橋區"
"220093","689-BX","2019/06/27 18:59:24","新北市板橋區民生路三段201號","121.465148333333","25.0277166666667","6500100","板橋區"
"220054","741-BX","2019/06/27 18:59:17","新北市板橋區實踐路82號","121.463873333333","25.0052866666667","6500100","板橋區"
"220102","KEA-2699","2019/06/27 18:59:19","新北市板橋區萬板路810號","121.482656666667","25.0273233333333","6500100","板橋區"
"220068","831-TW","2019/06/27 18:59:25","新北市板橋區縣民大道三段310號","121.478843333333","25.023775","6500100","板橋區"
"220074","895-R6","2019/06/27 18:59:15","新北市板橋區林園街52號","121.453631666667","25.0106983333333","6500100","板橋區"
"220073","985-R7","2019/06/27 18:59:09","新北市板橋區民權路258-2號","121.458031666667","25.0150833333333","6500100","板橋區"
"220097","AAC-210","2019/06/27 18:59:14","新北市板橋區新海路135巷2號","121.459938333333","25.0229583333333","6500100","板橋區"
"220064","AAC-253","2019/06/27 18:59:24","新北市板橋區板新路69號","121.474226666667","25.01324","6500100","板橋區"
"235068","KEA-2873","2019/06/27 18:59:21","新北市中和區圓通路171號","121.497575","24.995245","6500300","中和區"
"235061","KEA-2875","2019/06/27 18:59:03","新北市中和區民享街89巷9弄3號","121.474898333333","25.002025","6500300","中和區"
