"lineid","car","time","location","longitude","latitude","cityid","cityname"
"234046","148-BY","2019/06/27 19:09:22","新北市永和區永元路18巷38弄1號","121.524053333333","25.0002416666667","6500400","永和區"
"234081","298-R6","2019/06/27 19:09:14","新北市永和區福和路143號","121.520795","25.0076266666667","6500400","永和區"
"234038","336-UY","2019/06/27 19:09:22","新北市永和區民樂街92巷1號","121.527253333333","24.9971733333333","6500400","永和區"
"234064","337-UY","2019/06/27 19:09:24","新北市永和區秀朗路二段15號","121.520971666667","25.0026633333333","6500400","永和區"
"234086","338-UY","2019/06/27 19:09:24","新北市永和區永貞路98號","121.519241666667","25.004465","6500400","永和區"
"234017","745-BX","2019/06/27 19:09:06","新北市永和區忠孝街27號","121.513981666667","25.0155616666667","6500400","永和區"
"234030","746-BX","2019/06/27 19:09:19","新北市永和區四維街78號","121.5234","24.998345","6500400","永和區"
"234054","KEA-2590","2019/06/27 19:09:13","新北市永和區中興街133巷8號","121.518576666667","25.0126316666667","6500400","永和區"
"234007","KED-0605","2019/06/27 19:09:15","新北市永和區中山路一段232號","121.50795","25.008","6500400","永和區"
"234013","KEA-2591","2019/06/27 19:09:09","新北市永和區永和路二段70號","121.514915","25.01118","6500400","永和區"
"234061","AAD-866","2019/06/27 19:09:18","新北市永和區安樂路304巷7號","121.51447","25.0050583333333","6500400","永和區"
"234070","748-BX","2019/06/27 19:09:05","新北市永和區豫溪街137巷1弄22號","121.518515","25.01047","6500400","永和區"
"234042","862-TW","2019/06/27 19:09:10","新北市永和區永貞路334號","121.511193333333","25.0055016666667","6500400","永和區"
"234050","863-TW","2019/06/27 19:09:25","新北市永和區仁愛路104巷7弄62號","121.510848333333","25.014155","6500400","永和區"
"234026","9371-KE","2019/06/27 19:09:21","新北市永和區安樂路272巷11號","121.514963333333","25.0044583333333","6500400","永和區"
"234011","9373-KE","2019/06/27 19:09:09","新北市永和區保福路二段44巷2弄10號","121.511616666667","25.0118666666667","6500400","永和區"
"249005","172-UM","2019/06/27 19:09:14","新北市八里區中華路三段99巷10號","121.393646666667","25.1384516666667","6502300","八里區"
"249001","173-UM","2019/06/27 19:09:20","新北市八里區龍米路二段203-3號","121.43273","25.1583083333333","6502300","八里區"
"248016","026-BX","2019/06/27 19:09:11","新北市五股區成泰路三段543巷41-1號","121.44973","25.10294","6501500","五股區"
"248008","KED-0815","2019/06/27 19:09:09","新北市五股區中興路一段118巷3號","121.465905","25.0737866666667","6501500","五股區"
"248020","KED-0813","2019/06/27 19:09:17","新北市五股區凌雲路三段57號","121.425303333333","25.12501","6501500","五股區"
"248012","247-BX","2019/06/27 19:09:26","新北市五股區中興路四段48巷16號","121.438613333333","25.08343","6501500","五股區"
"248010","272-BY","2019/06/27 19:09:17","新北市五股區水碓一路23號","121.430636666667","25.07126","6501500","五股區"
"248002","678-BX","2019/06/27 19:09:09","新北市五股區凌雲路一段158巷6號","121.447805","25.1029566666667","6501500","五股區"
"248004","682-TV","2019/06/27 19:09:27","新北市五股區五福路34號","121.434","25.0891083333333","6501500","五股區"
"234023","9380-KE","2019/06/27 19:09:22","新北市永和區中興街10巷19號","121.515908333333","25.011175","6500400","永和區"
"234077","969-R7","2019/06/27 19:09:24","新北市永和區民族街25號","121.518746666667","24.9996266666667","6500400","永和區"
"234074","AAC-211","2019/06/27 19:09:25","新北市永和區福和路16號","121.524211666667","25.008695","6500400","永和區"
"234067","AAC-212","2019/06/27 19:09:15","新北市永和區保平路25號","121.512566666667","25.0074366666667","6500400","永和區"
"234003","AAC-295","2019/06/27 19:09:18","新北市永和區保福路一段96號","121.51197","25.0104316666667","6500400","永和區"
"244019","402-UM","2019/06/27 19:09:21","新北市林口區四維路114號","121.377245","25.0781683333333","6501700","林口區"
"244023","483-VK","2019/06/27 19:09:10","新北市林口區仁愛路二段371號","121.370666666667","25.079655","6501700","林口區"
"244011","701-TV","2019/06/27 19:09:16","新北市林口區中正路363號","121.3875","25.0776516666667","6501700","林口區"
"244025","837-TS","2019/06/27 19:09:12","新北市林口區文化北路一段409-1號","121.364401666667","25.0763166666667","6501700","林口區"
"243012","AAD-798","2019/06/27 19:09:08","新北市泰山區辭修路10-11號","121.429633333333","25.0580466666667","6501600","泰山區"
"243010","297-R6","2019/06/27 19:09:25","新北市泰山區明志路一段483巷1弄4號","121.43121","25.0554133333333","6501600","泰山區"
"243014","KEA-2801","2019/06/27 19:09:23","新北市泰山區泰林路二段410號","121.427343333333","25.064335","6501600","泰山區"
"243016","421-VK","2019/06/27 19:09:26","新北市泰山區明志路三段8號","121.424751666667","25.0434966666667","6501600","泰山區"
"243009","KEA-2215","2019/06/27 19:09:21","新北市泰山區福德街35號","121.43227","25.0632916666667","6501600","泰山區"
"243011","KEA-2216","2019/06/27 19:09:24","新北市泰山區明志路二段318號","121.426233333333","25.0460683333333","6501600","泰山區"
"243013","646-TV","2019/06/27 19:09:18","新北市泰山區明志路三段277號","121.423181666667","25.0367366666667","6501600","泰山區"
"243015","680-BX","2019/06/27 19:09:21","新北市泰山區明志路一段398號","121.430735","25.0570916666667","6501600","泰山區"
"222003","436-BY","2019/06/27 19:09:17","新北市深坑區深南路162號","121.626145","25.0147983333333","6501800","深坑區"
"222002","659-BX","2019/06/27 19:09:17","新北市深坑區烏月路1號","121.633431666667","25.0082566666667","6501800","深坑區"
"231061","002-UM","2019/06/27 19:09:13","新北市新店區安康路一段355號","121.519828333333","24.96384","6500600","新店區"
"231058","0293-UT","2019/06/27 19:09:21","新北市新店區光明街61號","121.538775","24.9603733333333","6500600","新店區"
"231059","046-UY","2019/06/27 19:09:24","新北市新店區安康路一段351-1號","121.51938","24.964045","6500600","新店區"
"231060","106-UY","2019/06/27 19:09:10","新北市新店區安康路二段330號","121.50422","24.9578383333333","6500600","新店區"
"231051","107-UY","2019/06/27 19:09:18","新北市新店區中正路383號","121.534721666667","24.97692","6500600","新店區"
"231049","108-UY","2019/06/27 19:09:22","新北市新店區二十張路25巷3號","121.53899","24.9820916666667","6500600","新店區"
"231065","110-UY","2019/06/27 19:08:19","新北市新店區安祥路147巷22號","121.475653333333","24.9561983333333","6500600","新店區"
"231054","260-TV","2019/06/27 19:09:22","新北市新店區新店路137號","121.537015","24.9546183333333","6500600","新店區"
"231042","268-BY","2019/06/27 19:09:10","新北市新店區中興路一段203號","121.543603333333","24.9656616666667","6500600","新店區"
"231064","278-BY","2019/06/27 19:09:12","新北市新店區安忠路75號","121.511205","24.9572316666667","6500600","新店區"
"231050","AAD-862","2019/06/27 19:09:19","新北市新店區竹林路2巷30號","121.550078333333","24.9504316666667","6500600","新店區"
"231045","355-BY","2019/06/27 19:09:16","新北市新店區北宜路一段66號","121.53852","24.95595","6500600","新店區"
"231055","4716-K9","2019/06/27 19:09:22","新北市新店區北新路一段271巷9號","121.540458333333","24.966755","6500600","新店區"
"231056","4715-K9","2019/06/27 19:09:05","新北市新店區安和路三段7號","121.518006666667","24.98028","6500600","新店區"
"231067","4772-VM","2019/06/27 19:09:15","新北市新店區安康路一段263巷19號","121.52395","24.9619016666667","6500600","新店區"
"231052","513-UM","2019/06/27 19:09:10","新北市新店區自強路23巷1號","121.546118333333","24.9266216666667","6500600","新店區"
"231041","619-UM","2019/06/27 19:09:21","新北市新店區環河路121號","121.529631666667","24.9717433333333","6500600","新店區"
"231063","641-BX","2019/06/27 19:09:26","新北市新店區車子路117號","121.505411666667","24.9516133333333","6500600","新店區"
"231047","KED-0819","2019/06/27 19:09:15","新北市新店區德正街27巷29弄135號","121.54571","24.973295","6500600","新店區"
"231062","718-UY","2019/06/27 19:09:17","新北市新店區安平路35巷2-1號","121.521358333333","24.96793","6500600","新店區"
"231046","719-UM","2019/06/27 19:09:14","新北市新店區華潭街52號","121.528745","24.9547966666667","6500600","新店區"
"231057","720-UM","2019/06/27 19:09:09","新北市新店區百齡一路12號","121.553021666667","24.9324783333333","6500600","新店區"
"231044","897-TW","2019/06/27 19:09:27","新北市新店區中興路三段133號","121.544645","24.9792883333333","6500600","新店區"
"231040","898-TW","2019/06/27 19:09:16","新北市新店區三民路114號","121.534306666667","24.9742416666667","6500600","新店區"
"231043","899-TW","2019/06/27 19:09:22","新北市新店區北新路二段27-3號","121.542753333333","24.9719083333333","6500600","新店區"
"231066","AKT-0513","2019/06/27 19:09:14","新北市新店區安康路二段337-1號","121.49838","24.9559416666667","6500600","新店區"
"241011","013-R5","2019/06/27 19:09:23","新北市三重區河邊北街100巷6號","121.503623333333","25.0703383333333","6500200","三重區"
"241035","462-BY","2019/06/27 19:09:27","新北市三重區中正北路2號","121.489306666667","25.0628633333333","6500200","三重區"
"241026","480-VK","2019/06/27 19:09:10","新北市三重區泉州街59號","121.494533333333","25.054715","6500200","三重區"
"241022","KED-0820","2019/06/27 19:09:26","新北市三重區三民街155巷5號","121.484356666667","25.0646216666667","6500200","三重區"
"241029","942-UM","2019/06/27 19:09:23","新北市三重區集美街263號","121.49249","25.0557483333333","6500200","三重區"
"235066","003-UY","2019/06/27 19:09:07","新北市中和區廣福路48號","121.504105","25.00202","6500300","中和區"
"235064","005-UY","2019/06/27 19:09:21","新北市中和區中和路26巷3號","121.499601666667","25.001615","6500300","中和區"
"235063","006-UY","2019/06/27 19:09:23","新北市中和區連城路249巷5號","121.493673333333","24.9967966666667","6500300","中和區"
"235056","096-UM","2019/06/27 19:09:16","新北市中和區員山路611巷11弄3號","121.478518333333","25.01062","6500300","中和區"
"235039","097-UM","2019/06/27 19:09:24","新北市中和區秀朗路三段179號","121.524405","24.9906433333333","6500300","中和區"
"235065","098-UM","2019/06/27 19:09:09","新北市中和區中山路二段136巷25號","121.501358333333","25.0042283333333","6500300","中和區"
"235040","150-BY","2019/06/27 19:09:18","新北市中和區宜安路11巷5號","121.513118333333","24.99542","6500300","中和區"
"235058","151-BY","2019/06/27 19:09:26","新北市中和區連城路523巷11弄12號","121.481916666667","24.9941516666667","6500300","中和區"
"235055","183-VK","2019/06/27 19:09:09","新北市中和區莒光路2號","121.471663333333","25.0047566666667","6500300","中和區"
"235038","185-VK","2019/06/27 19:09:13","新北市中和區大仁街10巷27弄4號","121.519211666667","24.9927283333333","6500300","中和區"
"235049","186-VK","2019/06/27 19:09:23","新北市中和區景新街141號","121.50614","24.9966","6500300","中和區"
"235067","255-BX","2019/06/27 19:09:23","新北市中和區新生街177巷5號","121.48411","25.0007116666667","6500300","中和區"
"235044","293-VK","2019/06/27 19:09:08","新北市中和區中興街266巷1號","121.498435","24.987605","6500300","中和區"
"235072","301-VK","2019/06/27 19:09:07","新北市中和區連城路126號","121.496026666667","24.99942","6500300","中和區"
"235043","352-BY","2019/06/27 19:09:16","新北市中和區景平路134號","121.518815","24.9919016666667","6500300","中和區"
"235042","KEA-2878","2019/06/27 19:09:07","新北市中和區自強路15巷2號","121.520598333333","24.9935","6500300","中和區"
"235050","4979-A6","2019/06/27 19:09:24","新北市中和區南山路238號","121.507083333333","24.9896883333333","6500300","中和區"
"235069","4980-A6","2019/06/27 19:09:10","新北市中和區中和路217巷10號","121.504348333333","25.0004766666667","6500300","中和區"
"235070","558-UM","2019/06/27 19:09:13","新北市中和區中和路6號","121.49959","25.0022883333333","6500300","中和區"
"235045","565-BX","2019/06/27 19:09:16","新北市中和區景新街423巷35弄1號","121.514093333333","24.9897466666667","6500300","中和區"
"235060","KED-0823","2019/06/27 19:09:22","新北市中和區民有街92號","121.476236666667","25.0036866666667","6500300","中和區"
"235047","732-UM","2019/06/27 19:09:15","新北市中和區興南路一段106-1號","121.509461666667","24.98844","6500300","中和區"
"235046","733-UM","2019/06/27 19:09:22","新北市中和區華新街150號","121.50785","24.982485","6500300","中和區"
"235071","783-BX","2019/06/27 19:09:28","新北市中和區連城路362號","121.481948333333","24.995375","6500300","中和區"
"235057","801-TS","2019/06/27 19:09:13","新北市中和區員山路423巷12弄1號","121.480395","25.0031666666667","6500300","中和區"
"235041","802-TS","2019/06/27 19:09:21","新北市永和區中和路373號","121.508428333333","24.9997083333333","6500300","中和區"
"235052","805-TS","2019/06/27 19:09:15","新北市中和區興南路二段142巷19弄9號","121.502811666667","24.9833616666667","6500300","中和區"
"235048","896-TW","2019/06/27 19:09:21","新北市中和區忠孝街3號","121.509576666667","24.9829166666667","6500300","中和區"
"235053","900-TW","2019/06/27 19:09:25","新北市中和區華福街71巷2號","121.467296666667","24.9968416666667","6500300","中和區"
"235054","911-UM","2019/06/27 19:09:07","新北市中和區國光街109巷27號","121.469448333333","24.9995083333333","6500300","中和區"
"235051","157-BY","2019/06/27 19:09:11","新北市中和區興南路一段86號","121.510018333333","24.9893033333333","6500300","中和區"
"235037","AAC-213","2019/06/27 19:09:09","新北市中和區秀朗路三段10巷37弄4號","121.524038333333","24.9958616666667","6500300","中和區"
"235059","AAC-215","2019/06/27 19:09:06","新北市中和區圓通路294巷17-5號","121.488641666667","24.99044","6500300","中和區"
"220065","072-UY","2019/06/27 19:09:10","新北市板橋區民族路223號","121.46958","25.00731","6500100","板橋區"
"220086","073-UY","2019/06/27 19:09:22","新北市板橋區中正路250巷18號","121.456206666667","25.0193883333333","6500100","板橋區"
"220106","075-UY","2019/06/27 19:09:15","新北市板橋區雙十路三段67號","121.470255","25.0323983333333","6500100","板橋區"
"220069","AAD-861","2019/06/27 19:09:17","新北市板橋區大華街49號","121.459546666667","25.0035166666667","6500100","板橋區"
"226004","312-R5","2019/06/27 19:09:08","新北市平溪區嶺腳里田子20號","121.746381666667","25.0288283333333","6502400","平溪區"
"228003","097-TW","2019/06/27 19:09:08","新北市貢寮區和美里和美街40號","121.912453333333","25.08984","6502600","貢寮區"
"228001","212-TW","2019/06/27 19:09:19","新北市貢寮區真理里新港街10號","121.925543333333","25.0543983333333","6502600","貢寮區"
"228002","663-BX","2019/06/27 19:09:19","新北市貢寮區福隆里福隆街32-1號","121.945096666667","25.0174","6502600","貢寮區"
"224010","AGQ-8101","2019/06/27 19:09:27","新北市瑞芳區基山街169號","121.843293333333","25.1081016666667","6501200","瑞芳區"
"224006","676-BX","2019/06/27 19:09:09","新北市瑞芳區中山路216號","121.80064","25.1068566666667","6501200","瑞芳區"
"224007","285-BY","2019/06/27 19:09:16","新北市瑞芳區瑞竹路76號","121.763276666667","25.10343","6501200","瑞芳區"
"224009","275-VK","2019/06/27 19:09:23","新北市瑞芳區洞頂路101巷58號","121.860466666667","25.1218866666667","6501200","瑞芳區"
"224008","273-VK","2019/06/27 19:09:20","新北市瑞芳區瑞芳街92號","121.802186666667","25.1102816666667","6501200","瑞芳區"
"224005","271-BY","2019/06/27 19:09:18","新北市瑞芳區傑魚坑路324號","121.786031666667","25.1042216666667","6501200","瑞芳區"
"227002","642-TC","2019/06/27 19:09:11","新北市雙溪區平林里外平林8-1號","121.859386666667","25.0382483333333","6502500","雙溪區"
"227001","400-TW","2019/06/27 19:09:27","新北市雙溪區牡丹里中正路37號","121.864695","25.0384016666667","6502500","雙溪區"
"253006","032-BX","2019/06/27 19:09:14","新北市石門區八甲4-3號","121.520841666667","25.2832983333333","6502200","石門區"
"253005","295-VK","2019/06/27 19:09:07","新北市石門區阿里荖42號","121.605325","25.2802766666667","6502200","石門區"
"222001","KEA-2212","2019/06/27 19:09:11","新北市深坑區北深路一段300號","121.624268333333","25.0057383333333","6501800","深坑區"
"208002","KEA-2872","2019/06/27 19:09:22","新北市金山區中華路122巷14號","121.633758333333","25.2209483333333","6502700","金山區"
"208003","665-BX","2019/06/27 19:09:08","新北市金山區中正路135號","121.632406666667","25.2215133333333","6502700","金山區"
"251005","010-UM","2019/06/27 19:09:21","新北市淡水區中山路127號","121.44151","25.1710916666667","6501000","淡水區"
"251015","KEA-2871","2019/06/27 19:09:18","新北市淡水區南勢埔32-1號","121.484095","25.1802716666667","6501000","淡水區"
"251016","179-VK","2019/06/27 19:09:08","新北市淡水區淡金路三段361-1號","121.448823333333","25.2072866666667","6501000","淡水區"
"251013","182-VK","2019/06/27 19:09:22","新北市淡水區安子內12號","121.480943333333","25.2193033333333","6501000","淡水區"
"251010","413-VK","2019/06/27 19:09:04","新北市淡水區中正路一段156巷3號","121.421128333333","25.1802933333333","6501000","淡水區"
"251007","442-VK","2019/06/27 19:09:12","新北市淡水區民生路133號","121.465515","25.13884","6501000","淡水區"
"251001","559-UM","2019/06/27 19:09:25","新北市淡水區自強路201巷43號","121.462148333333","25.1268183333333","6501000","淡水區"
"251009","575-R6","2019/06/27 19:09:11","新北市淡水區重建街36號","121.439928333333","25.1712533333333","6501000","淡水區"
"251014","577-R6","2019/06/27 19:09:18","新北市淡水區小中寮39號","121.487143333333","25.2273366666667","6501000","淡水區"
"251002","672-BX","2019/06/27 19:09:14","新北市淡水區清水街58號","121.443968333333","25.1702933333333","6501000","淡水區"
"251003","673-BX","2019/06/27 19:09:18","新北市淡水區大義街3號","121.443705","25.1781733333333","6501000","淡水區"
"207004","681-TV","2019/06/27 19:09:22","新北市萬里區萬里里瑪鋉下街46-1號","121.691511666667","25.179315","6502800","萬里區"
"207003","550-UM","2019/06/27 19:09:15","新北市萬里區大鵬里萬里加投24-2號","121.649136666667","25.20734","6502800","萬里區"
"252002","178-VK","2019/06/27 19:09:07","新北市三芝區埔坪里埔頭坑84號","121.50823","25.2542416666667","6502100","三芝區"
"252003","249-BX","2019/06/27 19:09:10","新北市三芝區錫板里南勢崗7號","121.479331666667","25.2617666666667","6502100","三芝區"
"208001","170-UY","2019/06/27 19:09:15","新北市金山區金包里街66號","121.639063333333","25.2213533333333","6502700","金山區"
"237004","KEA-2597","2019/06/27 19:09:08","新北市三峽區有木205-1號","121.439056666667","24.851675","6500900","三峽區"
"237007","153-BY","2019/06/27 19:09:20","新北市三峽區中正路二段81號","121.366576666667","24.91807","6500900","三峽區"
"237013","252-BX","2019/06/27 19:09:17","新北市三峽區大同路48巷17弄8-1號","121.37672","24.928975","6500900","三峽區"
"237012","275-BY","2019/06/27 19:09:05","新北市三峽區三樹路222巷236弄2號","121.390651666667","24.9427033333333","6500900","三峽區"
"237008","302-VK","2019/06/27 19:09:15","新北市三峽區光明路106巷20號","121.376085","24.9272583333333","6500900","三峽區"
"237014","433-BY","2019/06/27 19:09:22","新北市三峽區隆恩街246-1號","121.357436666667","24.94099","6500900","三峽區"
"237006","5529-G3","2019/06/27 19:09:27","新北市三峽區溪東路201號","121.404206666667","24.93356","6500900","三峽區"
"237011","KEA-2596","2019/06/27 19:09:13","新北市三峽區介壽路三段245號","121.407945","24.9494633333333","6500900","三峽區"
"237015","649-BX","2019/06/27 19:09:19","新北市三峽區安坑38號","121.454508333333","24.9319833333333","6500900","三峽區"
"237010","706-TV","2019/06/27 19:09:11","新北市三峽區復興路174巷4號","121.37074","24.9389116666667","6500900","三峽區"
"237005","AKY-6261","2019/06/27 19:09:24","新北市三峽區中山路459巷163-3號","121.348643333333","24.9329316666667","6500900","三峽區"
"236078","166-UM","2019/06/27 19:09:11","新北市土城區龍泉路32號","121.41142","24.947065","6501300","土城區"
"236026","269-VK","2019/06/27 19:09:20","新北市土城區中正路56巷2號","121.443895","24.9753033333333","6501300","土城區"
"236014","270-VK","2019/06/27 19:09:27","新北市土城區學府路一段75巷16弄1號","121.457271666667","24.9875866666667","6501300","土城區"
"236070","KEA-2877","2019/06/27 19:09:08","新北市土城區明德路二段207號","121.44656","24.9836983333333","6501300","土城區"
"252001","KED-0821","2019/06/27 19:09:07","新北市三芝區長勤街82號","121.500286666667","25.2550833333333","6502100","三芝區"
"236021","401-BY","2019/06/27 19:09:26","新北市土城區延吉街217巷11弄1號","121.469011666667","24.9843783333333","6501300","土城區"
"236059","912-UM","2019/06/27 19:09:16","新北市土城區金城路二段218-1號","121.455981666667","24.9826433333333","6501300","土城區"
"236049","913-UM","2019/06/27 19:09:10","新北市土城區明德路一段365-1號","121.453608333333","24.9791383333333","6501300","土城區"
"236063","915-UM","2019/06/27 19:09:21","新北市土城區金城路三段93巷14號","121.466911666667","24.98819","6501300","土城區"
"236055","AAC-216","2019/06/27 19:09:22","新北市土城區學府路一段211號","121.45166","24.9844983333333","6501300","土城區"
"242007","349-TH","2019/06/27 19:09:18","新北市樹林區八德街588-1號","121.39853","24.9692266666667","6500500","新莊區"
"238015","755-BX","2019/06/27 19:09:27","新北市樹林區光明街18號","121.411261666667","24.9897516666667","6500700","樹林區"
"238023","601-UM","2019/06/27 19:09:12","新北市樹林區三興路87巷5號","121.39462","25.0125466666667","6500700","樹林區"
"238019","599-UM","2019/06/27 19:09:19","新北市樹林區東榮街91巷2弄7號","121.415885","24.9821966666667","6500700","樹林區"
"238018","KEA-2217","2019/06/27 18:42:55","新北市樹林區太平路48號","121.419051666667","24.9825416666667","6500700","樹林區"
"238022","KEA-2213","2019/06/27 19:08:48","新北市樹林區中山路二段151巷8弄41號","121.405863333333","24.9774516666667","6500700","樹林區"
"238021","KEA-2539","2019/06/27 19:09:16","新北市樹林區柑園街二段376巷1號","121.368971666667","24.94994","6500700","樹林區"
"238025","303-VK","2019/06/27 19:09:23","新北市樹林區中山路三段323號","121.390948333333","24.971515","6500700","樹林區"
"238017","283-BY","2019/06/27 19:09:22","新北市樹林區保安街一段238號","121.420175","24.9965766666667","6500700","樹林區"
"238014","282-BY","2019/06/27 19:09:12","新北市樹林區千歲街94號","121.426516666667","24.9979133333333","6500700","樹林區"
"238020","268-VK","2019/06/27 19:09:15","新北市樹林區俊英街133巷1弄1號","121.424066666667","25.0113866666667","6500700","樹林區"
"238026","172-UY","2019/06/27 19:09:07","新北市樹林區佳園路一段68號","121.393161666667","24.9701766666667","6500700","樹林區"
"238016","169-UY","2019/06/27 19:09:22","新北市樹林區復興路335巷8號","121.418385","24.98758","6500700","樹林區"
"239007","AAC-297","2019/06/27 19:09:18","新北市鶯歌區中山路138巷3-1號","121.349726666667","24.9575016666667","6500800","鶯歌區"
"239006","891-R6","2019/06/27 19:09:22","新北市鶯歌區鶯桃路296巷55弄10號","121.336066666667","24.961655","6500800","鶯歌區"
"239008","527-UM","2019/06/27 19:09:23","新北市鶯歌區國際二路18巷1號","121.337175","24.9749183333333","6500800","鶯歌區"
"239005","526-UM","2019/06/27 19:09:16","新北市鶯歌區大湖路361巷24弄26號","121.329696666667","24.9779216666667","6500800","鶯歌區"
"239001","417-VK","2019/06/27 19:09:22","新北市鶯歌區鶯桃路129巷14號","121.337651666667","24.954045","6500800","鶯歌區"
"239003","360-BY","2019/06/27 19:09:23","新北市鶯歌區鶯桃路405號","121.333113333333","24.9641816666667","6500800","鶯歌區"
"239004","193-VK","2019/06/27 19:09:18","新北市鶯歌區中正三路230巷12號","121.33008","24.939115","6500800","鶯歌區"
"221008","489-VK","2019/06/27 19:09:15","新北市汐止區康寧街418-1號","121.630586666667","25.0680433333333","6501100","汐止區"
"221036","130-UY","2019/06/27 19:09:12","新北市汐止區南昌街31號","121.663088333333","25.0691933333333","6501100","汐止區"
"221015","131-UY","2019/06/27 19:09:11","新北市汐止區鄉長路一段55巷22號","121.664806666667","25.076335","6501100","汐止區"
"221032","280-BY","2019/06/27 19:09:15","新北市汐止區新台五路一段91號","121.649798333333","25.0614216666667","6501100","汐止區"
"221031","353-TW","2019/06/27 19:09:08","新北市汐止區中興路181巷20號","121.629531666667","25.06613","6501100","汐止區"
"221035","622-UM","2019/06/27 19:09:26","新北市汐止區禮門街10號","121.656721666667","25.0676066666667","6501100","汐止區"
"221002","707-TV","2019/06/27 19:09:22","新北市汐止區大同路一段288號","121.634896666667","25.0577216666667","6501100","汐止區"
"220079","145-BY","2019/06/27 19:09:07","新北市板橋區中正路43號","121.456288333333","25.01345","6500100","板橋區"
"220080","200-UY","2019/06/27 19:09:22","新北市板橋區大觀路二段265巷1弄14號","121.443518333333","24.99841","6500100","板橋區"
"220082","610-BX","2019/06/27 19:09:25","新北市板橋區溪崑二街38號","121.428333333333","24.9909716666667","6500100","板橋區"
"220101","245-BX","2019/06/27 19:09:13","新北市板橋區莊敬路39號","121.473423333333","25.02731","6500100","板橋區"
"220056","276-BY","2019/06/27 19:09:15","新北市板橋區信義路150巷36號","121.457393333333","24.9918216666667","6500100","板橋區"
"220072","277-BY","2019/06/27 19:09:16","新北市板橋區金門街369巷57弄2號","121.42899","24.98415","6500100","板橋區"
"220071","283-VK","2019/06/27 19:09:26","新北市板橋區忠孝路154巷32號","121.464025","25.0017266666667","6500100","板橋區"
"220094","285-UM","2019/06/27 19:09:09","新北市板橋區吳鳳路82號","121.466965","25.03127","6500100","板橋區"
"220053","285-VK","2019/06/27 19:09:26","新北市板橋區懷仁街35巷2弄2號","121.476768333333","25.019575","6500100","板橋區"
"220083","286-VK","2019/06/27 19:09:21","新北市板橋區大觀路二段174巷176弄15號","121.442808333333","25.00323","6500100","板橋區"
"220081","287-VK","2019/06/27 19:09:14","新北市板橋區南雅西路二段156巷17號","121.452326666667","25.0132283333333","6500100","板橋區"
"220090","288-VK","2019/06/27 19:09:18","新北市板橋區長江路一段106巷13弄27號","121.461048333333","25.0296216666667","6500100","板橋區"
"220061","293-UM","2019/06/27 19:09:13","新北市板橋區三民路二段21巷47號","121.480665","25.0182766666667","6500100","板橋區"
"220084","296-UM","2019/06/27 19:09:11","新北市板橋區篤行路二段130巷4號","121.430828333333","24.9907","6500100","板橋區"
"220067","299-UM","2019/06/27 19:09:07","新北市板橋區三民路二段正隆巷42號","121.477006666667","25.0137783333333","6500100","板橋區"
"220075","303-R5","2019/06/27 19:09:17","新北市板橋區南雅南路一段1巷34號","121.457185","25.00661","6500100","板橋區"
"220062","305-R5","2019/06/27 19:09:13","新北市板橋區三民路二段245巷69弄3號","121.48106","25.0128816666667","6500100","板橋區"
"220092","307-R5","2019/06/27 19:09:23","新北市板橋區松江街74號","121.468696666667","25.02784","6500100","板橋區"
"220098","317-R6","2019/06/27 19:09:24","新北市板橋區民有街45-1號","121.465691666667","25.0258616666667","6500100","板橋區"
"220089","487-VK","2019/06/27 19:09:26","新北市板橋區文化路一段269號","121.464661666667","25.0182866666667","6500100","板橋區"
"220088","491-VK","2019/06/27 19:09:27","新北市板橋區雙十路二段193號","121.473553333333","25.0289633333333","6500100","板橋區"
"220103","561-BX","2019/06/27 19:09:25","新北市板橋區文化路一段210號","121.466531666667","25.020155","6500100","板橋區"
"220063","609-BX","2019/06/27 19:09:25","新北市板橋區三民路二段202-9號","121.479063333333","25.014185","6500100","板橋區"
"220035","630-UY","2019/06/27 19:09:22","新北市板橋區中正路399巷13弄1號","121.453291666667","25.0224683333333","6500100","板橋區"
"220091","637-BX","2019/06/27 19:09:22","新北市板橋區縣民大道三段211號","121.480255","25.0251266666667","6500100","板橋區"
"220057","686-BX","2019/06/27 19:09:22","新北市板橋區五權街59號","121.464788333333","24.9934733333333","6500100","板橋區"
"220077","687-BX","2019/06/27 19:09:22","新北市板橋區龍興街43號","121.443015","25.0006433333333","6500100","板橋區"
"220093","689-BX","2019/06/27 19:09:24","新北市板橋區文化路一段241號","121.464206666667","25.0177916666667","6500100","板橋區"
"220054","741-BX","2019/06/27 19:08:57","新北市板橋區重慶路69巷5-2號","121.462285","25.006985","6500100","板橋區"
"220102","KEA-2699","2019/06/27 19:09:18","新北市板橋區文聖街207號","121.479756666667","25.0263483333333","6500100","板橋區"
"220068","831-TW","2019/06/27 19:09:25","新北市板橋區中山路二段465巷10號","121.48172","25.0209216666667","6500100","板橋區"
"220074","895-R6","2019/06/27 19:09:15","新北市板橋區西門街1號","121.456213333333","25.011665","6500100","板橋區"
"220073","985-R7","2019/06/27 19:09:09","新北市板橋區中正路301號","121.45516","25.0196266666667","6500100","板橋區"
"220097","AAC-210","2019/06/27 19:09:16","新北市板橋區幸福路32巷3弄11號","121.46088","25.0205416666667","6500100","板橋區"
"220064","AAC-253","2019/06/27 19:09:15","新北市板橋區板新路178號","121.469826666667","25.0158716666667","6500100","板橋區"
"235068","KEA-2873","2019/06/27 19:09:21","新北市中和區連城路139巷66號","121.496985","24.9968966666667","6500300","中和區"
"235061","KEA-2875","2019/06/27 19:09:03","新北市中和區中山路三段73號","121.476315","25.0057466666667","6500300","中和區"
