"lineid","car","time","location","longitude","latitude","cityid","cityname"
"234046","148-BY","2019/06/27 19:19:22","新北市永和區得和路361號","121.524611666667","24.9995316666667","6500400","永和區"
"234081","298-R6","2019/06/27 19:19:26","新北市永和區福和路57巷7號","121.523101666667","25.0074683333333","6500400","永和區"
"234038","336-UY","2019/06/27 19:19:22","新北市永和區民樂街59巷1-1號","121.527741666667","24.9982933333333","6500400","永和區"
"234064","337-UY","2019/06/27 19:19:24","新北市永和區永元路17巷6弄2號","121.521361666667","25.0007033333333","6500400","永和區"
"234086","338-UY","2019/06/27 19:19:25","新北市永和區永利路82號","121.520561666667","25.0040233333333","6500400","永和區"
"234017","745-BX","2019/06/27 19:19:06","新北市永和區文化路144巷31弄8號","121.512421666667","25.01675","6500400","永和區"
"234030","746-BX","2019/06/27 19:19:25","新北市永和區厚德街91號","121.523885","24.99884","6500400","永和區"
"234054","KEA-2590","2019/06/27 19:19:13","新北市永和區中興街50號","121.516691666667","25.0116416666667","6500400","永和區"
"234007","KED-0605","2019/06/27 19:19:15","新北市永和區中山路一段230號","121.508028333333","25.00799","6500400","永和區"
"234013","KEA-2591","2019/06/27 19:19:20","新北市永和區仁愛路102號","121.512158333333","25.0131866666667","6500400","永和區"
"234061","AAD-866","2019/06/27 19:19:18","新北市永和區秀朗路一段175號","121.517093333333","25.00365","6500400","永和區"
"234070","748-BX","2019/06/27 19:19:25","新北市永和區豫溪街49號","121.517048333333","25.00994","6500400","永和區"
"234042","862-TW","2019/06/27 19:19:10","新北市永和區保平路203巷33號","121.509701666667","25.0050316666667","6500400","永和區"
"234050","863-TW","2019/06/27 19:19:25","新北市永和區保福路二段88巷18號","121.51152","25.0136633333333","6500400","永和區"
"234026","9371-KE","2019/06/27 19:19:20","新北市永和區安樂路144巷31號","121.515308333333","24.9997433333333","6500400","永和區"
"234011","9373-KE","2019/06/27 19:19:09","新北市永和區保福路二段14-1號","121.510926666667","25.0114483333333","6500400","永和區"
"249005","172-UM","2019/06/27 19:19:14","新北市八里區中華路三段73號","121.394598333333","25.1409433333333","6502300","八里區"
"249001","173-UM","2019/06/27 19:19:20","新北市八里區中華路一段246號","121.416858333333","25.1556866666667","6502300","八里區"
"249003","593-UM","2019/06/27 19:19:17","新北市八里區中山路二段452號","121.399243333333","25.1478616666667","6502300","八里區"
"248016","026-BX","2019/06/27 19:19:11","新北市五股區成洲五路12號","121.45227","25.1015833333333","6501500","五股區"
"248008","KED-0815","2019/06/27 19:19:09","新北市五股區中興路二段83巷26-6號","121.46009","25.0752716666667","6501500","五股區"
"248020","KED-0813","2019/06/27 19:19:17","新北市五股區凌雲路三段57號","121.425306666667","25.1249916666667","6501500","五股區"
"248012","247-BX","2019/06/27 19:19:26","新北市五股區中興路四段48巷16號","121.438601666667","25.0834166666667","6501500","五股區"
"248014","261-SL","2019/06/27 19:19:18","新北市五股區民義路一段185-12號","121.431998333333","25.0877816666667","6501500","五股區"
"248010","272-BY","2019/06/27 19:19:17","新北市五股區自強路90巷72號","121.430711666667","25.0712616666667","6501500","五股區"
"248002","678-BX","2019/06/27 19:19:09","新北市五股區凌雲路一段158巷6號","121.447801666667","25.102955","6501500","五股區"
"248004","682-TV","2019/06/27 19:19:07","新北市五股區五福路69號","121.432725","25.0901233333333","6501500","五股區"
"234023","9380-KE","2019/06/27 19:19:22","新北市永和區竹林路126號","121.519981666667","25.0113516666667","6500400","永和區"
"234077","969-R7","2019/06/27 19:19:24","新北市永和區民治街72巷4號","121.517968333333","24.998315","6500400","永和區"
"234074","AAC-211","2019/06/27 19:19:08","新北市永和區竹林路112-1號","121.519758333333","25.0116933333333","6500400","永和區"
"234067","AAC-212","2019/06/27 19:19:21","新北市永和區保平路52號","121.511313333333","25.0070583333333","6500400","永和區"
"234003","AAC-295","2019/06/27 19:19:18","新北市永和區中山路一段149號","121.510178333333","25.0094183333333","6500400","永和區"
"244023","483-VK","2019/06/27 19:19:10","新北市林口區仁愛路二段377號","121.370316666667","25.0799716666667","6501700","林口區"
"244025","837-TS","2019/06/27 19:19:13","新北市林口區文化北路一段542巷55弄1號","121.369136666667","25.078515","6501700","林口區"
"243012","AAD-798","2019/06/27 19:19:08","新北市泰山區同義街28號","121.43166","25.05609","6501600","泰山區"
"243010","297-R6","2019/06/27 19:19:25","新北市泰山區明志路一段492巷5號","121.430008333333","25.054715","6501600","泰山區"
"243014","KEA-2801","2019/06/27 19:19:23","新北市泰山區泰林路二段143號","121.433966666667","25.060145","6501600","泰山區"
"243016","421-VK","2019/06/27 19:19:10","新北市泰山區工專路53號","121.42278","25.0402583333333","6501600","泰山區"
"243009","KEA-2215","2019/06/27 19:19:21","新北市泰山區楓樹街33巷21號","121.434476666667","25.06365","6501600","泰山區"
"243011","KEA-2216","2019/06/27 19:19:04","新北市泰山區中央路36巷1號","121.426266666667","25.042735","6501600","泰山區"
"243013","646-TV","2019/06/27 19:19:18","新北市泰山區明志路三段145巷2弄15號","121.425148333333","25.0393183333333","6501600","泰山區"
"243015","680-BX","2019/06/27 19:19:21","新北市泰山區公園路67號","121.426368333333","25.0553366666667","6501600","泰山區"
"222003","436-BY","2019/06/27 19:19:17","新北市深坑區深南路204號","121.626661666667","25.0160583333333","6501800","深坑區"
"222002","659-BX","2019/06/27 19:19:16","新北市深坑區紅葉街10巷1號","121.632991666667","25.0118033333333","6501800","深坑區"
"231061","002-UM","2019/06/27 19:19:13","新北市新店區安康路一段75號","121.530156666667","24.9610666666667","6500600","新店區"
"231058","0293-UT","2019/06/27 19:19:21","新北市新店區光明街286巷6-3號","121.54071","24.9636733333333","6500600","新店區"
"231059","046-UY","2019/06/27 19:19:24","新北市新店區安和路二段179號","121.51846","24.974755","6500600","新店區"
"231060","106-UY","2019/06/27 19:19:10","新北市新店區安康路二段125-1號","121.512388333333","24.960885","6500600","新店區"
"231051","107-UY","2019/06/27 19:19:18","新北市新店區中央路63號","121.532586666667","24.9771683333333","6500600","新店區"
"231049","108-UY","2019/06/27 19:19:22","新北市新店區明德路64號","121.541583333333","24.979455","6500600","新店區"
"231065","110-UY","2019/06/27 19:18:59","新北市新店區安祥路110巷29號","121.473306666667","24.956375","6500600","新店區"
"231054","260-TV","2019/06/27 19:19:22","新北市新店區國校路20號","121.537891666667","24.9552133333333","6500600","新店區"
"231042","268-BY","2019/06/27 19:19:10","新北市新店區光明街36號","121.538636666667","24.9590483333333","6500600","新店區"
"231064","278-BY","2019/06/27 19:19:12","新北市新店區安忠路57巷26弄54號","121.511915","24.957605","6500600","新店區"
"231050","AAD-862","2019/06/27 19:19:19","新北市新店區竹林路30巷1號","121.552286666667","24.95133","6500600","新店區"
"231045","355-BY","2019/06/27 19:19:16","新北市新店區北宜路一段260號","121.545688333333","24.952755","6500600","新店區"
"231055","4716-K9","2019/06/27 19:19:22","新北市新店區力行路64號","121.538713333333","24.9659933333333","6500600","新店區"
"231052","513-UM","2019/06/27 19:19:10","新北市新店區自強路199號","121.546643333333","24.9201833333333","6500600","新店區"
"231041","619-UM","2019/06/27 19:19:21","新北市新店區溪園路249號","121.523593333333","24.9817933333333","6500600","新店區"
"231063","641-BX","2019/06/27 19:19:06","新北市新店區達觀路8巷5號","121.503658333333","24.9433483333333","6500600","新店區"
"231047","KED-0819","2019/06/27 19:19:15","新北市新店區中興路二段57巷18號","121.5458","24.970865","6500600","新店區"
"231062","718-UY","2019/06/27 19:19:17","新北市新店區莒光路38巷10號","121.522768333333","24.958765","6500600","新店區"
"231046","719-UM","2019/06/27 19:19:14","新北市新店區華城路12-1號","121.529265","24.95786","6500600","新店區"
"231057","720-UM","2019/06/27 19:19:09","新北市新店區百齡一路12號","121.55305","24.9324616666667","6500600","新店區"
"231044","897-TW","2019/06/27 19:19:28","新北市新店區中興路三段293號","121.542345","24.9850066666667","6500600","新店區"
"231040","898-TW","2019/06/27 19:19:17","新北市新店區三民路86號","121.534351666667","24.97268","6500600","新店區"
"231043","899-TW","2019/06/27 19:19:22","新北市新店區寶橋路69-1號","121.54554","24.9749583333333","6500600","新店區"
"231066","AKT-0513","2019/06/27 19:19:14","新北市新店區安祥路35-2號","121.49056","24.9569383333333","6500600","新店區"
"241011","013-R5","2019/06/27 19:19:23","新北市三重區河邊北街110巷41號","121.50298","25.0706733333333","6500200","三重區"
"241031","061-VK","2019/06/27 19:19:17","新北市三重區重新路四段101號","121.485816666667","25.05453","6500200","三重區"
"241017","063-VK","2019/06/27 19:19:21","新北市三重區大同北路217號","121.49157","25.0659516666667","6500200","三重區"
"241009","267-UM","2019/06/27 19:19:17","新北市三重區溪尾街218巷37-1號","121.486648333333","25.081275","6500200","三重區"
"241032","269-UM","2019/06/27 19:19:18","新北市三重區新生街89號","121.48397","25.0593966666667","6500200","三重區"
"241013","270-UM","2019/06/27 19:19:14","新北市三重區仁愛街82巷14號","121.494661666667","25.0733633333333","6500200","三重區"
"241025","271-UM","2019/06/27 19:19:24","新北市三重區中正北路406號","121.475328333333","25.0704433333333","6500200","三重區"
"241007","398-BY","2019/06/27 19:19:12","新北市三重區慈愛街67號","121.48678","25.0793366666667","6500200","三重區"
"241035","462-BY","2019/06/27 19:19:07","新北市三重區信義西街138號","121.495543333333","25.06448","6500200","三重區"
"241020","478-VK","2019/06/27 19:19:15","新北市三重區大智街181號","121.489643333333","25.0727666666667","6500200","三重區"
"241026","480-VK","2019/06/27 19:19:10","新北市三重區重安街139號","121.495448333333","25.05467","6500200","三重區"
"241006","AAD-863","2019/06/27 19:19:16","新北市三重區車路頭街149-2號","121.483783333333","25.07689","6500200","三重區"
"241022","KED-0820","2019/06/27 19:19:26","新北市三重區重陽路二段50號","121.48711","25.0633916666667","6500200","三重區"
"241029","942-UM","2019/06/27 19:19:23","新北市三重區重安街34號","121.490761666667","25.0577566666667","6500200","三重區"
"235066","003-UY","2019/06/27 19:19:07","新北市中和區中和路102號","121.502645","24.9996766666667","6500300","中和區"
"235064","005-UY","2019/06/27 19:19:21","新北市中和區南山路81巷6號","121.502358333333","24.99798","6500300","中和區"
"235063","006-UY","2019/06/27 19:19:23","新北市中和區連勝街135號","121.49495","24.9955433333333","6500300","中和區"
"235056","096-UM","2019/06/27 19:19:16","新北市中和區員山路523號","121.479763333333","25.0068916666667","6500300","中和區"
"235039","097-UM","2019/06/27 19:19:24","新北市中和區秀峰街103巷2弄13號","121.519991666667","24.99046","6500300","中和區"
"235065","098-UM","2019/06/27 19:19:09","新北市中和區中山路二段64巷12弄17號","121.504266666667","25.0056666666667","6500300","中和區"
"235040","150-BY","2019/06/27 19:19:20","新北市中和區安平路55號","121.509408333333","24.99544","6500300","中和區"
"235058","151-BY","2019/06/27 19:19:26","新北市中和區員山路36巷16-4號","121.4853","24.9919266666667","6500300","中和區"
"235055","183-VK","2019/06/27 19:19:09","新北市中和區德光路43號","121.47044","25.0041766666667","6500300","中和區"
"235038","185-VK","2019/06/27 19:19:13","新北市中和區大仁街108號","121.520608333333","24.9928183333333","6500300","中和區"
"235049","186-VK","2019/06/27 19:19:23","新北市中和區景新街271-1號","121.509238333333","24.99369","6500300","中和區"
"235067","255-BX","2019/06/27 19:19:13","新北市中和區中正路739號","121.484861666667","24.9993816666667","6500300","中和區"
"235044","293-VK","2019/06/27 19:19:08","新北市中和區景安路212號","121.503995","24.99081","6500300","中和區"
"235072","301-VK","2019/06/27 19:19:28","新北市中和區連城路265巷3號","121.491433333333","24.9960933333333","6500300","中和區"
"235043","352-BY","2019/06/27 19:19:08","新北市中和區景平路424號","121.507668333333","24.9931916666667","6500300","中和區"
"235042","KEA-2878","2019/06/27 19:19:07","新北市中和區安樂路217巷40弄2號","121.513428333333","24.998035","6500300","中和區"
"235050","4979-A6","2019/06/27 19:19:24","新北市中和區景安路208巷40號","121.502518333333","24.991935","6500300","中和區"
"235069","4980-A6","2019/06/27 19:19:17","新北市中和區中山路二段181巷5號","121.501101666667","25.002055","6500300","中和區"
"235070","558-UM","2019/06/27 19:19:13","新北市中和區中山路二段231號","121.498258333333","25.0025266666667","6500300","中和區"
"235045","565-BX","2019/06/27 19:19:16","新北市中和區景新街392-1號","121.512508333333","24.9897816666667","6500300","中和區"
"235060","KED-0823","2019/06/27 19:19:19","新北市中和區新生街114巷2號","121.483283333333","25.0023933333333","6500300","中和區"
"235047","732-UM","2019/06/27 19:19:24","新北市中和區和平街54巷6弄1號","121.508926666667","24.9911666666667","6500300","中和區"
"235046","733-UM","2019/06/27 19:19:22","新北市中和區忠孝街2巷6-7號","121.509761666667","24.982","6500300","中和區"
"235071","783-BX","2019/06/27 19:19:08","新北市中和區連城路469巷52號","121.483503333333","24.9944533333333","6500300","中和區"
"235057","801-TS","2019/06/27 19:19:13","新北市中和區中山路三段1號","121.479943333333","25.00597","6500300","中和區"
"235041","802-TS","2019/06/27 19:19:21","新北市中和區中和路324巷8號","121.509953333333","25.0007566666667","6500300","中和區"
"235052","805-TS","2019/06/27 19:19:15","新北市中和區興南路二段128巷1弄1號","121.504073333333","24.9836083333333","6500300","中和區"
"235048","896-TW","2019/06/27 19:19:21","新北市中和區忠孝街122-2號","121.51211","24.9860066666667","6500300","中和區"
"235053","900-TW","2019/06/27 19:19:06","新北市中和區華安街17巷14號","121.467226666667","24.9982316666667","6500300","中和區"
"235054","911-UM","2019/06/27 19:19:27","新北市中和區國光街102巷11弄15號","121.470586666667","25.0015883333333","6500300","中和區"
"235051","157-BY","2019/06/27 19:19:11","新北市中和區和平街54巷8弄15號","121.509555","24.99152","6500300","中和區"
"235037","AAC-213","2019/06/27 19:19:09","新北市中和區秀朗路三段10巷14弄30號","121.524781666667","24.996565","6500300","中和區"
"235059","AAC-215","2019/06/27 19:19:26","新北市中和區錦和路195巷14號","121.491351666667","24.9910066666667","6500300","中和區"
"220065","072-UY","2019/06/27 19:19:24","新北市板橋區民族路129巷10號","121.467831666667","25.008395","6500100","板橋區"
"220086","073-UY","2019/06/27 19:19:22","新北市板橋區幸福路70巷1號","121.460566666667","25.0200083333333","6500100","板橋區"
"220106","075-UY","2019/06/27 19:19:15","新北市板橋區江寧路三段131巷2號","121.473675","25.0334083333333","6500100","板橋區"
"220069","AAD-861","2019/06/27 19:19:16","新北市板橋區貴興路41號","121.45746","25.0036283333333","6500100","板橋區"
"226004","312-R5","2019/06/27 19:19:28","新北市平溪區南山里南山坪21號","121.773125","25.03742","6502400","平溪區"
"228003","097-TW","2019/06/27 19:19:08","新北市貢寮區和美里和美街22-1號","121.912795","25.0826216666667","6502600","貢寮區"
"228001","212-TW","2019/06/27 19:19:19","新北市貢寮區真理里新港街10號","121.92556","25.0543916666667","6502600","貢寮區"
"228002","663-BX","2019/06/27 19:19:19","新北市貢寮區雙玉里田寮洋街21號","121.927511666667","25.0238316666667","6502600","貢寮區"
"224008","273-VK","2019/06/27 19:19:20","新北市瑞芳區一坑路146號","121.802068333333","25.1088533333333","6501200","瑞芳區"
"227002","642-TC","2019/06/27 19:19:11","新北市雙溪區平林里梅竹蹊66-1號","121.860161666667","25.0358183333333","6502500","雙溪區"
"227001","400-TW","2019/06/27 19:19:27","新北市雙溪區新基里新基北街40號","121.868521666667","25.0380216666667","6502500","雙溪區"
"253006","032-BX","2019/06/27 19:19:14","新北市石門區崁子腳18-10號","121.534461666667","25.290315","6502200","石門區"
"222001","KEA-2212","2019/06/27 19:19:11","新北市深坑區北深路二段84號","121.617528333333","25.0034933333333","6501800","深坑區"
"208002","KEA-2872","2019/06/27 19:19:18","新北市金山區中正路136號","121.631655","25.22174","6502700","金山區"
"208003","665-BX","2019/06/27 19:19:08","新北市金山區中山路112號","121.639606666667","25.21953","6502700","金山區"
"251005","010-UM","2019/06/27 19:19:21","新北市淡水區水源街一段34巷2號","121.443223333333","25.1722233333333","6501000","淡水區"
"251015","KEA-2871","2019/06/27 19:19:11","新北市淡水區山子邊3號","121.483916666667","25.1842066666667","6501000","淡水區"
"251016","179-VK","2019/06/27 19:19:08","新北市淡水區淡金路三段350巷18號","121.450778333333","25.2083283333333","6501000","淡水區"
"251008","181-VK","2019/06/27 19:19:09","新北市淡水區中正路二段371號","121.424666666667","25.1911333333333","6501000","淡水區"
"251013","182-VK","2019/06/27 19:19:22","新北市淡水區安子內12-1號","121.481256666667","25.2193566666667","6501000","淡水區"
"251010","413-VK","2019/06/27 19:19:24","新北市淡水區沙崙路26號","121.421416666667","25.1813483333333","6501000","淡水區"
"251007","442-VK","2019/06/27 19:19:12","新北市淡水區民生路145巷28號","121.466486666667","25.1387283333333","6501000","淡水區"
"251001","559-UM","2019/06/27 19:19:05","新北市淡水區民權路92巷35-1號","121.462075","25.1267883333333","6501000","淡水區"
"251009","575-R6","2019/06/27 19:19:11","新北市淡水區清水街152號","121.44121","25.17037","6501000","淡水區"
"251014","577-R6","2019/06/27 19:19:18","新北市淡水區小中寮19-7號","121.484731666667","25.229615","6501000","淡水區"
"251002","672-BX","2019/06/27 19:19:14","新北市淡水區文化路18號","121.439688333333","25.17262","6501000","淡水區"
"251003","673-BX","2019/06/27 19:19:18","新北市淡水區中山路190號","121.44143","25.1745283333333","6501000","淡水區"
"207004","681-TV","2019/06/27 19:19:11","新北市萬里區萬里里成功新村65號","121.68836","25.1745233333333","6502800","萬里區"
"207003","550-UM","2019/06/27 19:19:15","新北市萬里區大鵬里萬里加投79-1號","121.64726","25.2122983333333","6502800","萬里區"
"208001","170-UY","2019/06/27 19:19:15","新北市金山區民生路222-1號","121.640056666667","25.219675","6502700","金山區"
"237004","KEA-2597","2019/06/27 19:19:08","新北市三峽區有木205-1號","121.439035","24.8515866666667","6500900","三峽區"
"237007","153-BY","2019/06/27 19:19:20","新北市三峽區二鬮路31-1號","121.362206666667","24.9104066666667","6500900","三峽區"
"237009","210-TH","2019/06/27 19:19:05","新北市三峽區民生街219號","121.371436666667","24.93479","6500900","三峽區"
"237013","252-BX","2019/06/27 19:19:17","新北市三峽區光明路75巷4號","121.377226666667","24.92782","6500900","三峽區"
"237012","275-BY","2019/06/27 19:16:25","新北市三峽區三樹路222巷236弄23號","121.391428333333","24.9430083333333","6500900","三峽區"
"237008","302-VK","2019/06/27 19:19:15","新北市三峽區大同路154號","121.373123333333","24.9267683333333","6500900","三峽區"
"237014","433-BY","2019/06/27 19:19:22","新北市三峽區中山路257巷39號","121.362068333333","24.93644","6500900","三峽區"
"237006","5529-G3","2019/06/27 19:19:27","新北市三峽區介壽路三段1號","121.395113333333","24.9361516666667","6500900","三峽區"
"237011","KEA-2596","2019/06/27 19:19:14","新北市三峽區介壽路三段107號","121.395488333333","24.9392583333333","6500900","三峽區"
"237015","649-BX","2019/06/27 19:19:19","新北市三峽區安坑64-4號","121.469346666667","24.92956","6500900","三峽區"
"237010","706-TV","2019/06/27 19:19:11","新北市三峽區國光街366號","121.370948333333","24.9397266666667","6500900","三峽區"
"237005","AKY-6261","2019/06/27 19:19:24","新北市三峽區復興路553號","121.356628333333","24.9403233333333","6500900","三峽區"
"236078","166-UM","2019/06/27 19:19:11","新北市土城區龍泉路8號","121.409423333333","24.9498916666667","6501300","土城區"
"236026","269-VK","2019/06/27 19:19:20","新北市土城區中正路67巷27號","121.444136666667","24.97657","6501300","土城區"
"236014","270-VK","2019/06/27 19:19:24","新北市土城區學府路一段23巷25弄2號","121.457758333333","24.9868183333333","6501300","土城區"
"236070","KEA-2877","2019/06/27 19:19:08","新北市土城區學成路158號","121.44812","24.9893716666667","6501300","土城區"
"252001","KED-0821","2019/06/27 19:19:07","新北市三芝區長勤街9巷11弄1號","121.501741666667","25.2548166666667","6502100","三芝區"
"236021","401-BY","2019/06/27 19:19:26","新北市土城區明峰街75號","121.46848","24.986975","6501300","土城區"
"236059","912-UM","2019/06/27 19:19:14","新北市土城區中央路三段32號","121.438556666667","24.9689866666667","6501300","土城區"
"236049","913-UM","2019/06/27 19:19:10","新北市土城區明德路一段365-1號","121.453608333333","24.979145","6501300","土城區"
"242007","349-TH","2019/06/27 19:19:18","新北市土城區亞洲路46巷22號","121.434018333333","24.97644","6500500","新莊區"
"238015","755-BX","2019/06/27 19:19:18","新北市樹林區大安路537巷10號","121.412746666667","24.984425","6500700","樹林區"
"238023","601-UM","2019/06/27 19:19:12","桃園市龜山區萬壽路一段343號","121.401915","25.0170066666667","6500700","樹林區"
"238019","599-UM","2019/06/27 19:19:19","新北市樹林區東榮街91巷1弄9號","121.416416666667","24.9827433333333","6500700","樹林區"
"238024","5061-A6","2019/06/27 19:19:04","新北市樹林區福德街33號","121.400483333333","24.975395","6500700","樹林區"
"238018","KEA-2217","2019/06/27 19:19:15","新北市樹林區中華路118巷8號","121.417803333333","24.980855","6500700","樹林區"
"238022","KEA-2213","2019/06/27 19:19:08","新北市樹林區中華路313號","121.416356666667","24.9801533333333","6500700","樹林區"
"238021","KEA-2539","2019/06/27 19:19:18","新北市樹林區柑園街二段378巷2號","121.368705","24.94997","6500700","樹林區"
"238025","303-VK","2019/06/27 19:19:23","新北市樹林區中山路二段161號","121.406116666667","24.9786816666667","6500700","樹林區"
"238017","283-BY","2019/06/27 19:18:22","新北市樹林區光興街376巷1號","121.40626","25.0056883333333","6500700","樹林區"
"238014","282-BY","2019/06/27 19:19:12","新北市樹林區千歲街57號","121.425693333333","24.99678","6500700","樹林區"
"238020","268-VK","2019/06/27 19:19:15","新北市樹林區俊英街123巷31號","121.423666666667","25.0104383333333","6500700","樹林區"
"238026","172-UY","2019/06/27 19:19:07","新北市樹林區八德街828-2號","121.394145","24.9669633333333","6500700","樹林區"
"238016","169-UY","2019/06/27 19:19:22","新北市樹林區中山路二段10號","121.417555","24.98515","6500700","樹林區"
"239007","AAC-297","2019/06/27 19:19:18","新北市鶯歌區大湖路85巷3號","121.341951666667","24.9624083333333","6500800","鶯歌區"
"239006","891-R6","2019/06/27 19:19:22","新北市鶯歌區鶯桃路296巷98號","121.336975","24.962165","6500800","鶯歌區"
"239008","527-UM","2019/06/27 19:19:23","新北市鶯歌區國際二路6巷9號","121.338683333333","24.9737533333333","6500800","鶯歌區"
"239005","526-UM","2019/06/27 19:19:16","新北市鶯歌區中湖街74號","121.347981666667","24.9727066666667","6500800","鶯歌區"
"239001","417-VK","2019/06/27 19:19:22","新北市鶯歌區建國路455號","121.339131666667","24.951855","6500800","鶯歌區"
"239003","360-BY","2019/06/27 19:19:23","新北市鶯歌區尖山埔路二段31號","121.342636666667","24.9484933333333","6500800","鶯歌區"
"239004","193-VK","2019/06/27 19:19:18","新北市鶯歌區中正三路408號","121.3256","24.9346533333333","6500800","鶯歌區"
"221008","489-VK","2019/06/27 19:19:15","新北市汐止區康寧街310號","121.626771666667","25.0672316666667","6501100","汐止區"
"221032","280-BY","2019/06/27 19:19:15","新北市汐止區汐萬路一段310號","121.650371666667","25.0747283333333","6501100","汐止區"
"221031","353-TW","2019/06/27 19:19:08","新北市汐止區汐萬路一段333巷23號","121.64796","25.0761633333333","6501100","汐止區"
"221035","622-UM","2019/06/27 19:19:20","新北市汐止區汐萬路一段284號","121.650751666667","25.0741916666667","6501100","汐止區"
"221002","707-TV","2019/06/27 19:19:22","新北市汐止區中興路8號","121.637285","25.0591633333333","6501100","汐止區"
"220079","145-BY","2019/06/27 19:19:27","新北市板橋區民權路202巷7弄27號","121.458851666667","25.0149833333333","6500100","板橋區"
"220080","200-UY","2019/06/27 19:19:22","新北市板橋區大觀路二段7巷81號","121.44973","25.00308","6500100","板橋區"
"220082","610-BX","2019/06/27 19:19:15","新北市板橋區滿平街84巷98號","121.426418333333","24.9868266666667","6500100","板橋區"
"220101","245-BX","2019/06/27 19:19:13","新北市板橋區縣民大道三段133巷11號","121.477373333333","25.02356","6500100","板橋區"
"220056","276-BY","2019/06/27 19:19:14","新北市板橋區信義路110巷2弄14號","121.457655","24.9927133333333","6500100","板橋區"
"220072","277-BY","2019/06/27 19:19:17","新北市板橋區金門街317巷26號","121.430476666667","24.98544","6500100","板橋區"
"220071","283-VK","2019/06/27 19:19:23","新北市板橋區重慶路269巷13號","121.463901666667","24.9994466666667","6500100","板橋區"
"220094","285-UM","2019/06/27 19:19:09","新北市板橋區吳鳳路50號","121.468091666667","25.0304233333333","6500100","板橋區"
"220053","285-VK","2019/06/27 19:19:06","新北市板橋區富山街16號","121.47839","25.0218016666667","6500100","板橋區"
"220083","286-VK","2019/06/27 19:19:21","新北市板橋區大觀路二段174巷186弄3號","121.442495","25.0036433333333","6500100","板橋區"
"220081","287-VK","2019/06/27 19:19:14","新北市板橋區南雅西路一段63巷2號","121.452545","25.00757","6500100","板橋區"
"220090","288-VK","2019/06/27 19:19:18","新北市板橋區裕民街87-4號","121.460373333333","25.0280616666667","6500100","板橋區"
"220061","293-UM","2019/06/27 19:19:19","新北市板橋區中山路二段307號","121.47878","25.0185916666667","6500100","板橋區"
"220084","296-UM","2019/06/27 19:19:11","新北市板橋區溪崑二街66巷32號","121.427248333333","24.99097","6500100","板橋區"
"220067","299-UM","2019/06/27 19:19:07","新北市板橋區長安街138巷1弄52號","121.47394","25.0101716666667","6500100","板橋區"
"220075","303-R5","2019/06/27 19:19:17","新北市板橋區南雅西路一段29號","121.453781666667","25.0043816666667","6500100","板橋區"
"220062","305-R5","2019/06/27 19:19:13","新北市板橋區三民路二段153巷36弄2號","121.481151666667","25.0141466666667","6500100","板橋區"
"220092","307-R5","2019/06/27 19:19:23","新北市板橋區光武街2巷27號","121.468715","25.025575","6500100","板橋區"
"220098","317-R6","2019/06/27 19:19:23","新北市板橋區自由路51巷14弄3號","121.464753333333","25.02361","6500100","板橋區"
"220089","487-VK","2019/06/27 19:19:06","新北市板橋區陽明街249號","121.462741666667","25.0249866666667","6500100","板橋區"
"220088","491-VK","2019/06/27 19:19:27","新北市板橋區雙十路二段50號","121.475575","25.0276416666667","6500100","板橋區"
"220103","561-BX","2019/06/27 19:19:25","新北市板橋區文化路一段286巷2號","121.467683333333","25.0213966666667","6500100","板橋區"
"220063","609-BX","2019/06/27 19:19:25","新北市板橋區三民路一段31巷7號","121.479558333333","25.0231866666667","6500100","板橋區"
"220035","630-UY","2019/06/27 19:19:22","新北市板橋區瑞安街31巷9號","121.45608","25.02263","6500100","板橋區"
"220091","637-BX","2019/06/27 19:19:08","新北市板橋區縣民大道三段239號","121.481188333333","25.025865","6500100","板橋區"
"220057","686-BX","2019/06/27 19:19:22","新北市板橋區和平路137-2號","121.461913333333","24.9947266666667","6500100","板橋區"
"220077","687-BX","2019/06/27 19:19:22","新北市板橋區大觀路二段175號","121.445071666667","25.0002233333333","6500100","板橋區"
"220093","689-BX","2019/06/27 19:19:25","新北市板橋區新海路129號","121.460833333333","25.023085","6500100","板橋區"
"220054","741-BX","2019/06/27 19:19:21","新北市板橋區校前街82號","121.462308333333","25.003325","6500100","板橋區"
"220102","KEA-2699","2019/06/27 19:19:18","新北市板橋區松柏街22巷9-2號","121.47469","25.02949","6500100","板橋區"
"220068","831-TW","2019/06/27 19:19:05","新北市板橋區三民路一段1巷56號","121.480781666667","25.0247516666667","6500100","板橋區"
"220074","895-R6","2019/06/27 19:19:15","新北市板橋區中正路自強新村91-3號","121.454833333333","25.0135466666667","6500100","板橋區"
"220073","985-R7","2019/06/27 19:19:09","新北市板橋區新生街62號","121.457151666667","25.020965","6500100","板橋區"
"220097","AAC-210","2019/06/27 19:19:19","新北市板橋區幸福路32巷20號","121.461318333333","25.021035","6500100","板橋區"
"220064","AAC-253","2019/06/27 19:19:15","新北市板橋區中山路一段66號","121.46143","25.0098783333333","6500100","板橋區"
"235068","KEA-2873","2019/06/27 19:19:21","新北市中和區連勝街57巷10號","121.497828333333","24.9969033333333","6500300","中和區"
"235061","KEA-2875","2019/06/27 19:19:03","新北市中和區中山路二段523巷60號","121.482153333333","25.0028616666667","6500300","中和區"
