"lineid","car","time","location","longitude","latitude","cityid","cityname"
"234046","148-BY","2019/06/27 19:29:22","新北市永和區秀朗路二段194號","121.52641","25.0006416666667","6500400","永和區"
"234081","298-R6","2019/06/27 19:29:14","新北市永和區林森路10巷35號","121.525796666667","25.006385","6500400","永和區"
"234038","336-UY","2019/06/27 19:29:22","新北市永和區民樂街41巷1號","121.527518333333","25.00016","6500400","永和區"
"234064","337-UY","2019/06/27 19:29:24","新北市永和區得和路243巷28弄1號","121.520786666667","25.0013266666667","6500400","永和區"
"234086","338-UY","2019/06/27 19:29:24","新北市永和區國中路2號","121.524163333333","25.0042216666667","6500400","永和區"
"234017","745-BX","2019/06/27 19:29:06","新北市永和區環河西路一段87號","121.512306666667","25.0178816666667","6500400","永和區"
"234030","746-BX","2019/06/27 19:29:19","新北市永和區民生路14號","121.522575","24.9975483333333","6500400","永和區"
"234054","KEA-2590","2019/06/27 19:29:13","新北市永和區復興街21號","121.51613","25.013085","6500400","永和區"
"234007","KED-0605","2019/06/27 19:29:15","新北市永和區永和路一段95號","121.513626666667","25.0076016666667","6500400","永和區"
"234013","KEA-2591","2019/06/27 19:29:09","新北市永和區永和路二段28號","121.514698333333","25.0106016666667","6500400","永和區"
"234061","AAD-866","2019/06/27 19:29:18","新北市永和區中正路528號","121.517211666667","25.00507","6500400","永和區"
"234070","748-BX","2019/06/27 19:29:25","新北市永和區警光街5-1號","121.519783333333","25.0095133333333","6500400","永和區"
"234042","862-TW","2019/06/27 19:29:10","新北市永和區中和路519巷3號","121.5108","25.0028433333333","6500400","永和區"
"234050","863-TW","2019/06/27 19:29:05","新北市永和區信義路113號","121.512308333333","25.0147366666667","6500400","永和區"
"234026","9371-KE","2019/06/27 19:29:21","新北市中和區安樂路207號","121.514426666667","24.9985766666667","6500400","永和區"
"234011","9373-KE","2019/06/27 19:29:09","新北市永和區保福路二段9巷9號","121.51059","25.0109033333333","6500400","永和區"
"249003","593-UM","2019/06/27 19:29:17","新北市八里區商港六路23號","121.396643333333","25.1485683333333","6502300","八里區"
"248016","026-BX","2019/06/27 19:29:11","新北市五股區成洲五路12號","121.452246666667","25.1015683333333","6501500","五股區"
"248008","KED-0815","2019/06/27 19:29:09","新北市五股區中興路一段95巷3號","121.46667","25.07265","6501500","五股區"
"248020","KED-0813","2019/06/27 19:29:17","新北市五股區凌雲路三段45-2號","121.42775","25.120245","6501500","五股區"
"248012","247-BX","2019/06/27 19:29:26","新北市五股區成泰路二段91巷11號","121.43749","25.0841266666667","6501500","五股區"
"248014","261-SL","2019/06/27 19:29:21","新北市五股區五福路23巷9號","121.433525","25.0886883333333","6501500","五股區"
"248010","272-BY","2019/06/27 19:29:17","新北市五股區自強路90巷72號","121.430735","25.0712466666667","6501500","五股區"
"248002","678-BX","2019/06/27 19:29:09","新北市五股區凌雲路一段158巷6號","121.447801666667","25.1029516666667","6501500","五股區"
"248004","682-TV","2019/06/27 19:29:27","新北市五股區工商路108號","121.437356666667","25.08541","6501500","五股區"
"234023","9380-KE","2019/06/27 19:29:24","新北市永和區竹林路91巷47弄1號","121.521216666667","25.0128216666667","6500400","永和區"
"234077","969-R7","2019/06/27 19:29:23","新北市永和區民族街43巷19號","121.519346666667","24.998365","6500400","永和區"
"234074","AAC-211","2019/06/27 19:29:25","新北市永和區竹林路7號","121.516426666667","25.0148933333333","6500400","永和區"
"234067","AAC-212","2019/06/27 19:29:15","新北市永和區永貞路374號","121.509855","25.0068433333333","6500400","永和區"
"234003","AAC-295","2019/06/27 19:29:19","新北市永和區福和路387號","121.514173333333","25.007645","6500400","永和區"
"244023","483-VK","2019/06/27 19:29:10","新北市林口區民有街30號","121.372063333333","25.0766716666667","6501700","林口區"
"243012","AAD-798","2019/06/27 19:29:28","新北市泰山區仁義路220巷2號","121.432916666667","25.0538883333333","6501600","泰山區"
"243010","297-R6","2019/06/27 19:29:25","新北市泰山區民生路17巷39號","121.429468333333","25.051525","6501600","泰山區"
"243014","KEA-2801","2019/06/27 19:29:23","新北市泰山區中港西路492號","121.432401666667","25.052465","6501600","泰山區"
"243016","421-VK","2019/06/27 19:29:11","新北市泰山區明志路三段324巷2號","121.421583333333","25.0361633333333","6501600","泰山區"
"243009","KEA-2215","2019/06/27 19:29:21","新北市泰山區明志路一段17號","121.43384","25.0658316666667","6501600","泰山區"
"243011","KEA-2216","2019/06/27 19:29:24","新北市三重區新北大道六段50-1號","121.429328333333","25.040185","6501600","泰山區"
"243013","646-TV","2019/06/27 19:29:18","新北市泰山區明志路三段145巷5弄17號","121.425573333333","25.040515","6501600","泰山區"
"243015","680-BX","2019/06/27 19:29:21","新北市泰山區明志路二段136巷1-1號","121.427321666667","25.0511666666667","6501600","泰山區"
"222003","436-BY","2019/06/27 19:29:17","新北市深坑區深南路88巷1號","121.62097","25.0116916666667","6501800","深坑區"
"222002","659-BX","2019/06/27 19:29:16","新北市深坑區北深路一段177號","121.632515","25.0108766666667","6501800","深坑區"
"231061","002-UM","2019/06/27 19:29:13","新北市新店區安康路一段200號","121.524331666667","24.96345","6500600","新店區"
"231058","0293-UT","2019/06/27 19:29:21","新北市新店區北新路二段228巷11號","121.543338333333","24.9772016666667","6500600","新店區"
"231059","046-UY","2019/06/27 19:29:24","新北市新店區安和路三段29-1號","121.51747","24.9813483333333","6500600","新店區"
"231060","106-UY","2019/06/27 19:29:09","新北市新店區安和路一段15號","121.516781666667","24.964145","6500600","新店區"
"231051","107-UY","2019/06/27 19:29:18","新北市新店區中央五街18號","121.52945","24.9744","6500600","新店區"
"231049","108-UY","2019/06/27 19:29:22","新北市新店區北新路三段65巷12弄17號","121.540661666667","24.9815116666667","6500600","新店區"
"231065","110-UY","2019/06/27 19:29:19","新北市新店區安祥路109巷1弄57號","121.477728333333","24.96083","6500600","新店區"
"231054","260-TV","2019/06/27 19:29:22","新北市新店區文中路40號","121.539691666667","24.9565166666667","6500600","新店區"
"231042","268-BY","2019/06/27 19:29:13","新北市新店區檳榔路29巷10號","121.54221","24.96377","6500600","新店區"
"231064","278-BY","2019/06/27 19:29:12","新北市新店區安康路二段74號","121.514325","24.9634833333333","6500600","新店區"
"231050","AAD-862","2019/06/27 19:29:19","新北市新店區竹林路92號","121.553968333333","24.950185","6500600","新店區"
"231045","355-BY","2019/06/27 19:29:16","新北市新店區北宜路二段197號","121.552866666667","24.9532433333333","6500600","新店區"
"231056","4715-K9","2019/06/27 19:29:25","新北市新店區安民街121巷14號","121.515371666667","24.969085","6500600","新店區"
"231052","513-UM","2019/06/27 19:29:10","新北市新店區屈尺路12號","121.548971666667","24.9225516666667","6500600","新店區"
"231041","619-UM","2019/06/27 19:29:21","新北市新店區中正路674號","121.534035","24.9897583333333","6500600","新店區"
"231063","641-BX","2019/06/27 19:29:06","新北市新店區達觀路14巷3號","121.50332","24.94182","6500600","新店區"
"231047","KED-0819","2019/06/27 19:29:14","新北市新店區五峰路111號","121.545195","24.96678","6500600","新店區"
"231062","718-UY","2019/06/27 19:29:17","新北市新店區莒光路24號","121.523648333333","24.9592966666667","6500600","新店區"
"231046","719-UM","2019/06/27 19:29:14","新北市新店區北新路一段14號","121.540788333333","24.9656333333333","6500600","新店區"
"231057","720-UM","2019/06/27 19:29:09","新北市新店區花園一路三段34號","121.550223333333","24.9329916666667","6500600","新店區"
"231044","897-TW","2019/06/27 19:29:07","新北市新店區中興路三段226號","121.543413333333","24.9831833333333","6500600","新店區"
"231040","898-TW","2019/06/27 19:28:56","新北市新店區中華路115號","121.53868","24.9696633333333","6500600","新店區"
"231043","899-TW","2019/06/27 19:29:22","新北市新店區北新路二段216號","121.542881666667","24.9769816666667","6500600","新店區"
"231066","AKT-0513","2019/06/27 19:29:14","新北市新店區安康路三段359巷12弄25號","121.484021666667","24.9492866666667","6500600","新店區"
"241011","013-R5","2019/06/27 19:29:23","新北市三重區龍濱路249號","121.50153","25.072515","6500200","三重區"
"241028","022-UY","2019/06/27 19:29:11","新北市三重區中寮街29號","121.492496666667","25.0590316666667","6500200","三重區"
"241008","059-VK","2019/06/27 19:29:12","新北市三重區永福街135巷35號","121.47738","25.07724","6500200","三重區"
"241016","060-VK","2019/06/27 19:29:13","新北市三重區正德街12號","121.495721666667","25.0623783333333","6500200","三重區"
"241031","061-VK","2019/06/27 19:29:17","新北市三重區集美街24-1號","121.488335","25.0547633333333","6500200","三重區"
"241017","063-VK","2019/06/27 19:29:21","新北市三重區中正北路25巷16號","121.493543333333","25.0631816666667","6500200","三重區"
"241009","267-UM","2019/06/27 19:29:17","新北市三重區仁美街123號","121.485576666667","25.0812883333333","6500200","三重區"
"241032","269-UM","2019/06/27 19:29:18","新北市三重區三陽路56號","121.48436","25.0587883333333","6500200","三重區"
"241013","270-UM","2019/06/27 19:29:14","新北市三重區仁愛街129巷2號","121.495646666667","25.0749483333333","6500200","三重區"
"241025","271-UM","2019/06/27 19:29:24","新北市三重區頂崁街210巷28弄9號","121.475823333333","25.0672016666667","6500200","三重區"
"241007","398-BY","2019/06/27 19:29:16","新北市三重區溪尾街124-2號","121.489345","25.0794366666667","6500200","三重區"
"241035","462-BY","2019/06/27 19:29:27","新北市三重區信義西街1巷9號","121.497933333333","25.06505","6500200","三重區"
"241020","478-VK","2019/06/27 19:29:15","新北市三重區三和路四段20巷9號","121.490608333333","25.0739333333333","6500200","三重區"
"241026","480-VK","2019/06/27 19:29:10","新北市三重區文化南路47巷2弄1號","121.499883333333","25.0612733333333","6500200","三重區"
"241006","AAD-863","2019/06/27 19:29:16","新北市三重區三和路四段95-7號","121.487776666667","25.0760366666667","6500200","三重區"
"241019","743-BX","2019/06/27 19:29:05","新北市三重區力行路一段89巷4-7號","121.486711666667","25.068415","6500200","三重區"
"241022","KED-0820","2019/06/27 19:29:06","新北市三重區三民街151號","121.484313333333","25.0642583333333","6500200","三重區"
"241012","941-UM","2019/06/27 19:29:25","新北市三重區河邊北街379-1號","121.501726666667","25.0764233333333","6500200","三重區"
"241029","942-UM","2019/06/27 19:29:23","新北市三重區泉州街84巷18號","121.495778333333","25.05426","6500200","三重區"
"235066","003-UY","2019/06/27 19:29:17","新北市中和區景新街61號","121.504683333333","24.9988633333333","6500300","中和區"
"235064","005-UY","2019/06/27 19:29:21","新北市中和區南山路127巷8弄4號","121.502621666667","24.9971116666667","6500300","中和區"
"235063","006-UY","2019/06/27 19:29:23","新北市中和區連城路219巷22弄3號","121.494731666667","24.9963166666667","6500300","中和區"
"235056","096-UM","2019/06/27 19:29:16","新北市中和區員山路581巷2弄7-2號","121.47785","25.009675","6500300","中和區"
"235039","097-UM","2019/06/27 19:29:24","新北市中和區秀峰街103巷4弄2號","121.52048","24.9900633333333","6500300","中和區"
"235065","098-UM","2019/06/27 19:29:09","新北市中和區中山路二段2巷13弄33號","121.502808333333","25.0064683333333","6500300","中和區"
"235040","150-BY","2019/06/27 19:29:17","新北市中和區保健路46巷35號","121.508748333333","24.9957566666667","6500300","中和區"
"235058","151-BY","2019/06/27 19:29:06","新北市中和區連城路521-2號","121.48183","24.9952383333333","6500300","中和區"
"235055","183-VK","2019/06/27 19:29:09","新北市中和區莒光路120巷17弄1號","121.471681666667","25.0010083333333","6500300","中和區"
"235038","185-VK","2019/06/27 19:29:13","新北市中和區立人街3號","121.521803333333","24.994035","6500300","中和區"
"235049","186-VK","2019/06/27 19:29:23","新北市中和區景新街273巷32號","121.510721666667","24.99399","6500300","中和區"
"235067","255-BX","2019/06/27 19:29:13","新北市中和區新生街288號","121.48359","24.9965583333333","6500300","中和區"
"235044","293-VK","2019/06/27 19:29:08","新北市中和區捷運路3號","121.509708333333","24.989325","6500300","中和區"
"235072","301-VK","2019/06/27 19:29:07","新北市中和區連城路265巷8弄1號","121.49159","24.995545","6500300","中和區"
"235043","352-BY","2019/06/27 19:29:08","新北市中和區景新街133號","121.506066666667","24.9972","6500300","中和區"
"235042","KEA-2878","2019/06/27 19:29:07","新北市中和區中和路262巷43弄3號","121.509576666667","24.9995216666667","6500300","中和區"
"235070","558-UM","2019/06/27 19:29:13","新北市中和區圓通路57號","121.500615","24.99742","6500300","中和區"
"235045","565-BX","2019/06/27 19:29:16","新北市中和區景新街493號","121.513731666667","24.987195","6500300","中和區"
"235060","KED-0823","2019/06/27 19:29:12","新北市中和區中山路二段523巷41號","121.48228","25.0031733333333","6500300","中和區"
"235047","732-UM","2019/06/27 19:29:15","新北市中和區景平路241巷64弄8號","121.507768333333","24.99258","6500300","中和區"
"235046","733-UM","2019/06/27 19:29:22","新北市中和區興南路一段105巷20弄35號","121.510591666667","24.9848266666667","6500300","中和區"
"235071","783-BX","2019/06/27 19:29:08","新北市中和區連城路469巷1號","121.483603333333","24.9958816666667","6500300","中和區"
"235057","801-TS","2019/06/27 19:29:25","新北市中和區員山路261號","121.48131","24.999115","6500300","中和區"
"235041","802-TS","2019/06/27 19:29:01","新北市中和區中和路400巷13號","121.511426666667","25.002415","6500300","中和區"
"235052","805-TS","2019/06/27 19:29:15","新北市中和區華新街143巷69弄16號","121.50761","24.9788883333333","6500300","中和區"
"235048","896-TW","2019/06/27 19:29:21","新北市中和區仁愛街128號","121.511895","24.9865783333333","6500300","中和區"
"235053","900-TW","2019/06/27 19:29:25","新北市中和區民德路197-1號","121.468401666667","24.9988166666667","6500300","中和區"
"235054","911-UM","2019/06/27 19:29:06","新北市中和區莒光路89號","121.472295","25.00324","6500300","中和區"
"235051","157-BY","2019/06/27 19:29:24","新北市中和區景新街97號","121.505478333333","24.9982533333333","6500300","中和區"
"235037","AAC-213","2019/06/27 19:29:29","新北市中和區秀朗路三段22巷15號","121.525465","24.9960633333333","6500300","中和區"
"235059","AAC-215","2019/06/27 19:29:26","新北市中和區圓通路252巷8-1號","121.4927","24.99195","6500300","中和區"
"220065","072-UY","2019/06/27 19:29:24","新北市板橋區國泰街75巷39-4號","121.468105","25.0052116666667","6500100","板橋區"
"220086","073-UY","2019/06/27 19:29:22","新北市板橋區中正路216巷76號","121.457953333333","25.0189233333333","6500100","板橋區"
"220106","075-UY","2019/06/27 19:29:15","新北市板橋區文化路二段382號","121.473436666667","25.03111","6500100","板橋區"
"220069","AAD-861","2019/06/27 19:29:16","新北市板橋區稚暉街46巷1號","121.456485","25.004265","6500100","板橋區"
"247004","893-R6","2019/06/27 19:29:25","新北市蘆洲區長安街140號","121.46018","25.0820866666667","6501400","蘆洲區"
"226004","312-R5","2019/06/27 19:29:08","新北市平溪區十分里十分街136號","121.777405","25.0432616666667","6502400","平溪區"
"228003","097-TW","2019/06/27 19:29:08","新北市貢寮區和美里和美街22-1號","121.912811666667","25.0826366666667","6502600","貢寮區"
"228001","212-TW","2019/06/27 19:29:19","新北市貢寮區真理里大澳街60號","121.92547","25.0567483333333","6502600","貢寮區"
"224010","AGQ-8101","2019/06/27 19:29:07","新北市瑞芳區基山街168號","121.843101666667","25.1077433333333","6501200","瑞芳區"
"224008","273-VK","2019/06/27 19:29:20","新北市瑞芳區明燈路三段85號","121.805048333333","25.108305","6501200","瑞芳區"
"227002","642-TC","2019/06/27 19:29:11","新北市雙溪區雙溪里光復街14號","121.865011666667","25.0353116666667","6502500","雙溪區"
"227001","400-TW","2019/06/27 19:29:07","新北市雙溪區新基里新基北街43號","121.868171666667","25.0396683333333","6502500","雙溪區"
"253006","032-BX","2019/06/27 19:29:14","新北市石門區楓林23-10號","121.538658333333","25.2912066666667","6502200","石門區"
"222001","KEA-2212","2019/06/27 19:29:11","新北市深坑區深坑街10號","121.615885","25.0027933333333","6501800","深坑區"
"208002","KEA-2872","2019/06/27 19:29:18","新北市金山區仁愛路87巷1號","121.634646666667","25.2214966666667","6502700","金山區"
"208003","665-BX","2019/06/27 19:29:15","新北市金山區中山路263巷8號","121.636353333333","25.2217","6502700","金山區"
"251005","010-UM","2019/06/27 19:29:26","新北市淡水區水源街一段47巷40號","121.444193333333","25.1735333333333","6501000","淡水區"
"251015","KEA-2871","2019/06/27 19:29:11","新北市淡水區山子頂24-1號","121.491465","25.187315","6501000","淡水區"
"251016","179-VK","2019/06/27 19:29:08","新北市淡水區淡金路三段350巷18號","121.45077","25.2083216666667","6501000","淡水區"
"251008","181-VK","2019/06/27 19:29:09","新北市淡水區中正路一段33號","121.42577","25.176605","6501000","淡水區"
"251013","182-VK","2019/06/27 19:29:02","新北市淡水區安子內18號","121.475158333333","25.2186466666667","6501000","淡水區"
"251010","413-VK","2019/06/27 19:29:25","新北市淡水區淡海路240號","121.42012","25.186545","6501000","淡水區"
"251007","442-VK","2019/06/27 19:29:12","新北市淡水區民生路117巷43弄1號","121.464843333333","25.1400716666667","6501000","淡水區"
"251001","559-UM","2019/06/27 19:29:25","新北市淡水區民權路141-1號","121.460063333333","25.1363683333333","6501000","淡水區"
"251006","561-UM","2019/06/27 19:29:13","新北市淡水區大義街51號","121.441418333333","25.1781183333333","6501000","淡水區"
"251009","575-R6","2019/06/27 19:29:11","新北市淡水區中正路28號","121.444358333333","25.16912","6501000","淡水區"
"251014","577-R6","2019/06/27 19:29:18","新北市淡水區小中寮19-2號","121.484511666667","25.2293116666667","6501000","淡水區"
"251002","672-BX","2019/06/27 19:29:14","新北市淡水區新民街一段117號","121.428001666667","25.1877833333333","6501000","淡水區"
"251003","673-BX","2019/06/27 19:29:18","新北市淡水區濱海路一段53號","121.443843333333","25.1891483333333","6501000","淡水區"
"207004","681-TV","2019/06/27 19:29:11","新北市萬里區萬里里瑪鋉路89號","121.68866","25.1772416666667","6502800","萬里區"
"207003","550-UM","2019/06/27 19:29:15","新北市萬里區大鵬里萬里加投193號","121.644426666667","25.2145133333333","6502800","萬里區"
"208001","170-UY","2019/06/27 19:29:15","新北市金山區中正路136號","121.631985","25.2214566666667","6502700","金山區"
"237004","KEA-2597","2019/06/27 19:29:08","新北市三峽區有木205-1號","121.439041666667","24.8516066666667","6500900","三峽區"
"237007","153-BY","2019/06/27 19:29:20","新北市三峽區二鬮路112號","121.35975","24.9087966666667","6500900","三峽區"
"237009","210-TH","2019/06/27 19:29:05","新北市三峽區仁愛街1號","121.36841","24.9341683333333","6500900","三峽區"
"237013","252-BX","2019/06/27 19:29:17","新北市三峽區介壽路一段251號","121.379525","24.9302016666667","6500900","三峽區"
"237012","275-BY","2019/06/27 19:29:25","新北市三峽區三樹路98巷119號","121.382613333333","24.939505","6500900","三峽區"
"237008","302-VK","2019/06/27 19:29:15","新北市三峽區永安街142號","121.374065","24.928735","6500900","三峽區"
"237014","433-BY","2019/06/27 19:29:22","新北市三峽區中山路287號","121.36166","24.93767","6500900","三峽區"
"237006","5529-G3","2019/06/27 19:29:07","新北市三峽區中正路一段336巷15弄2號","121.369975","24.9249233333333","6500900","三峽區"
"237011","KEA-2596","2019/06/27 19:29:13","新北市三峽區介壽路二段112號","121.393205","24.9357466666667","6500900","三峽區"
"237015","649-BX","2019/06/27 19:29:19","新北市三峽區建安25-3號","121.445651666667","24.92746","6500900","三峽區"
"237010","706-TV","2019/06/27 19:29:11","新北市三峽區國光街36號","121.374836666667","24.9377166666667","6500900","三峽區"
"237005","AKY-6261","2019/06/27 19:29:04","新北市三峽區復興路367巷3號","121.363728333333","24.9380416666667","6500900","三峽區"
"236042","KED-0685","2019/06/27 19:29:09","新北市土城區學府路一段239號","121.450408333333","24.9833883333333","6501300","土城區"
"236078","166-UM","2019/06/27 19:29:11","新北市土城區中州路3巷43號","121.413321666667","24.9563166666667","6501300","土城區"
"236014","270-VK","2019/06/27 19:29:27","新北市土城區廣福街123號","121.456256666667","24.9928783333333","6501300","土城區"
"236070","KEA-2877","2019/06/27 19:29:08","新北市土城區學府路一段155巷8號","121.45355","24.9855083333333","6501300","土城區"
"252001","KED-0821","2019/06/27 19:29:07","新北市三芝區長勤街63-5號","121.500098333333","25.2560283333333","6502100","三芝區"
"236021","401-BY","2019/06/27 19:29:26","新北市土城區明峰街83號","121.468888333333","24.9873366666667","6501300","土城區"
"236059","912-UM","2019/06/27 19:29:14","新北市土城區中央路二段130號","121.442013333333","24.9775533333333","6501300","土城區"
"236049","913-UM","2019/06/27 19:29:10","新北市土城區清水路172號","121.459945","24.9816316666667","6501300","土城區"
"236055","AAC-216","2019/06/27 19:29:15","新北市土城區學府路一段276號","121.450151666667","24.983335","6501300","土城區"
"242007","349-TH","2019/06/27 19:29:18","新北市新莊區中央路182-1號","121.449326666667","25.058885","6500500","新莊區"
"242031","350-TH","2019/06/27 19:29:27","新北市新莊區新泰路277巷18號","121.444838333333","25.0403583333333","6500500","新莊區"
"238015","755-BX","2019/06/27 19:29:27","新北市樹林區中興街4號","121.420735","24.98973","6500700","樹林區"
"238023","601-UM","2019/06/27 19:29:12","新北市樹林區三福街75號","121.407493333333","25.0163666666667","6500700","樹林區"
"238019","599-UM","2019/06/27 19:29:19","新北市樹林區東榮街88巷23號","121.415796666667","24.9829466666667","6500700","樹林區"
"238024","5061-A6","2019/06/27 19:29:04","新北市樹林區中山路三段155巷5號","121.395666666667","24.9725666666667","6500700","樹林區"
"238018","KEA-2217","2019/06/27 19:29:15","新北市樹林區中華路219-1號","121.419438333333","24.9812883333333","6500700","樹林區"
"238022","KEA-2213","2019/06/27 19:28:48","新北市樹林區名園街36號","121.419436666667","24.97888","6500700","樹林區"
"238021","KEA-2539","2019/06/27 19:29:16","新北市樹林區大有路134號","121.383616666667","24.9498933333333","6500700","樹林區"
"238025","303-VK","2019/06/27 19:29:23","新北市樹林區中山路一段10號","121.424111666667","24.9927433333333","6500700","樹林區"
"238017","283-BY","2019/06/27 19:29:22","新北市樹林區光興街94號","121.408028333333","25.0034766666667","6500700","樹林區"
"238014","282-BY","2019/06/27 19:29:12","新北市樹林區千歲街17號","121.424868333333","24.99562","6500700","樹林區"
"238020","268-VK","2019/06/27 19:29:15","新北市樹林區俊英街105-1號","121.42505","25.0097083333333","6500700","樹林區"
"238026","172-UY","2019/06/27 19:29:07","新北市樹林區佳園路三段36號","121.387875","24.95369","6500700","樹林區"
"238016","169-UY","2019/06/27 19:29:22","新北市樹林區大安路537巷6號","121.413075","24.98432","6500700","樹林區"
"239007","AAC-297","2019/06/27 19:29:18","新北市鶯歌區大湖路326巷20號","121.346178333333","24.9699583333333","6500800","鶯歌區"
"239006","891-R6","2019/06/27 19:29:27","新北市鶯歌區鶯桃路91巷1號","121.339375","24.9533866666667","6500800","鶯歌區"
"239008","527-UM","2019/06/27 19:29:23","新北市鶯歌區大湖路345號","121.338785","24.972005","6500800","鶯歌區"
"239005","526-UM","2019/06/27 19:29:16","新北市鶯歌區東湖路4-6號","121.350546666667","24.973115","6500800","鶯歌區"
"239001","417-VK","2019/06/27 19:29:22","新北市鶯歌區尖山埔路144號","121.34358","24.9497216666667","6500800","鶯歌區"
"239004","193-VK","2019/06/27 19:29:18","新北市鶯歌區中正三路鄭厝巷12號","121.332943333333","24.9338","6500800","鶯歌區"
"221008","489-VK","2019/06/27 19:29:15","新北市汐止區康寧街237號","121.624256666667","25.066785","6501100","汐止區"
"221032","280-BY","2019/06/27 19:29:15","新北市汐止區康寧街901號","121.650713333333","25.0752966666667","6501100","汐止區"
"221027","281-BY","2019/06/27 19:29:26","新北市汐止區忠孝東路9號","121.658283333333","25.0658966666667","6501100","汐止區"
"221031","353-TW","2019/06/27 19:29:08","新北市汐止區康寧街901號","121.650775","25.0753133333333","6501100","汐止區"
"221002","707-TV","2019/06/27 19:29:22","新北市汐止區大同路一段336號","121.637853333333","25.0589166666667","6501100","汐止區"
"220079","145-BY","2019/06/27 19:29:07","新北市板橋區民權路202巷14弄1號","121.46064","25.0159683333333","6500100","板橋區"
"220080","200-UY","2019/06/27 19:29:22","新北市板橋區大觀路二段1巷60號","121.450626666667","25.0035033333333","6500100","板橋區"
"220082","610-BX","2019/06/27 19:29:14","新北市板橋區金門街259號","121.431731666667","24.9888116666667","6500100","板橋區"
"220101","245-BX","2019/06/27 19:29:13","新北市板橋區莊敬路231巷1號","121.472571666667","25.0215783333333","6500100","板橋區"
"220056","276-BY","2019/06/27 19:29:14","新北市板橋區信義路279巷21號","121.464293333333","24.9902083333333","6500100","板橋區"
"220072","277-BY","2019/06/27 19:29:16","新北市板橋區金門街236號","121.430603333333","24.9873683333333","6500100","板橋區"
"220071","283-VK","2019/06/27 19:29:14","新北市板橋區忠孝路48巷7弄1-3號","121.461145","25.0004316666667","6500100","板橋區"
"220094","285-UM","2019/06/27 19:29:09","新北市板橋區吳鳳路50巷21弄12號","121.46863","25.0308666666667","6500100","板橋區"
"220053","285-VK","2019/06/27 19:29:26","新北市板橋區永豐街124號","121.476923333333","25.0211683333333","6500100","板橋區"
"220083","286-VK","2019/06/27 19:29:21","新北市板橋區龍興街73巷29號","121.44264","25.00265","6500100","板橋區"
"220081","287-VK","2019/06/27 19:29:14","新北市板橋區南雅南路一段106號","121.454986666667","25.0043816666667","6500100","板橋區"
"220090","288-VK","2019/06/27 19:29:18","新北市板橋區長江路一段50號","121.458901666667","25.02895","6500100","板橋區"
"220061","293-UM","2019/06/27 19:29:14","新北市板橋區成功路6巷14號","121.475981666667","25.0170783333333","6500100","板橋區"
"220084","296-UM","2019/06/27 19:29:14","新北市板橋區滿平街136巷5弄1號","121.428156666667","24.9874833333333","6500100","板橋區"
"220067","299-UM","2019/06/27 19:29:07","新北市板橋區漢生東路313巷2弄1號","121.472235","25.0082233333333","6500100","板橋區"
"220075","303-R5","2019/06/27 19:29:17","新北市板橋區中正路275巷81號","121.451968333333","25.0181783333333","6500100","板橋區"
"220062","305-R5","2019/06/27 19:29:13","新北市板橋區三民路二段153巷2弄2號","121.47957","25.0149133333333","6500100","板橋區"
"220092","307-R5","2019/06/27 19:29:23","新北市板橋區陽明街25巷2號","121.46593","25.0218166666667","6500100","板橋區"
"220098","317-R6","2019/06/27 19:29:19","新北市板橋區民有街83號","121.46492","25.027365","6500100","板橋區"
"220089","487-VK","2019/06/27 19:29:26","新北市板橋區龍泉街82巷11-4號","121.455881666667","25.0255033333333","6500100","板橋區"
"220088","491-VK","2019/06/27 19:29:09","新北市板橋區文化路二段443號","121.475205","25.03314","6500100","板橋區"
"220103","561-BX","2019/06/27 19:29:25","新北市板橋區陽明街29巷11號","121.464821666667","25.021925","6500100","板橋區"
"220063","609-BX","2019/06/27 19:29:25","新北市板橋區林森街3巷1弄23號","121.482696666667","25.0236666666667","6500100","板橋區"
"220035","630-UY","2019/06/27 19:29:22","新北市板橋區中正路433巷25號","121.453271666667","25.023595","6500100","板橋區"
"220091","637-BX","2019/06/27 19:29:14","新北市板橋區文聖街149巷20號","121.479445","25.02844","6500100","板橋區"
"220057","686-BX","2019/06/27 19:29:22","新北市板橋區和平路安樂巷15號","121.461436666667","24.9940566666667","6500100","板橋區"
"220077","687-BX","2019/06/27 19:29:23","新北市板橋區大觀路一段28巷42號","121.449836666667","25.009975","6500100","板橋區"
"220093","689-BX","2019/06/27 19:29:24","新北市板橋區長江路一段40號","121.458445","25.0290566666667","6500100","板橋區"
"220054","741-BX","2019/06/27 19:29:17","新北市板橋區光明街3號","121.460171666667","25.0025383333333","6500100","板橋區"
"220102","KEA-2699","2019/06/27 19:29:18","新北市板橋區雙十路二段46巷19號","121.476193333333","25.0281866666667","6500100","板橋區"
"220068","831-TW","2019/06/27 19:29:25","新北市板橋區萬安街103巷7號","121.483338333333","25.0246116666667","6500100","板橋區"
"220074","895-R6","2019/06/27 19:29:15","新北市板橋區中正路1巷14號","121.455246666667","25.0116183333333","6500100","板橋區"
"220073","985-R7","2019/06/27 19:29:09","新北市板橋區中正路316號","121.454833333333","25.0207733333333","6500100","板橋區"
"220097","AAC-210","2019/06/27 19:29:22","新北市板橋區文化路一段285巷20號","121.463835","25.01941","6500100","板橋區"
"220064","AAC-253","2019/06/27 19:29:15","新北市板橋區中山路一段68號","121.461518333333","25.0099516666667","6500100","板橋區"
"235068","KEA-2873","2019/06/27 19:29:21","新北市中和區景平路493巷8號","121.499336666667","24.9971183333333","6500300","中和區"
"235061","KEA-2875","2019/06/27 19:29:03","新北市中和區連城路456巷11號","121.478496666667","24.9952716666667","6500300","中和區"
