"lineid","car","time","location","longitude","latitude","cityid","cityname"
"249004","303-UY","2019/06/27 20:49:20","新北市八里區中山路一段61號","121.418486666667","25.15955","6502300","八里區"
"234074","AAC-211","2019/06/27 20:49:25","新北市永和區環河東路二段20號","121.522306666667","25.0131183333333","6500400","永和區"
"222003","436-BY","2019/06/27 20:49:17","新北市深坑區文山路三段48-1號","121.60997","24.9985133333333","6501800","深坑區"
"222002","659-BX","2019/06/27 20:49:17","新北市深坑區北深路三段93巷57號","121.604138333333","25.0005816666667","6501800","深坑區"
"231061","002-UM","2019/06/27 20:49:13","新北市新店區新和街120號","121.521241666667","24.986555","6500600","新店區"
"231058","0293-UT","2019/06/27 20:49:21","新北市新店區平等街66號","121.53571","24.972275","6500600","新店區"
"231059","046-UY","2019/06/27 20:49:24","新北市新店區僑愛三路3號","121.500111666667","24.9440533333333","6500600","新店區"
"231060","106-UY","2019/06/27 20:49:09","新北市新店區安康路三段738號","121.473858333333","24.9419816666667","6500600","新店區"
"231051","107-UY","2019/06/27 20:49:18","新北市新店區民生路156巷23號","121.52844","24.9811966666667","6500600","新店區"
"231049","108-UY","2019/06/27 20:49:22","新北市新店區永業路81巷1弄17號","121.53055","24.9502783333333","6500600","新店區"
"231065","110-UY","2019/06/27 20:49:19","新北市新店區安祥路104巷6弄32號","121.482881666667","24.96288","6500600","新店區"
"231068","187-VK","2019/06/27 20:49:17","新北市新店區中興路三段228巷28號","121.544763333333","24.9834483333333","6500600","新店區"
"231054","260-TV","2019/06/27 20:49:22","新北市新店區北新路一段126巷26號","121.54355","24.9692016666667","6500600","新店區"
"231042","268-BY","2019/06/27 20:49:10","新北市新店區寶高路120巷1號","121.55464","24.9761083333333","6500600","新店區"
"231064","278-BY","2019/06/27 20:49:12","新北市新店區安民街381號","121.516311666667","24.97642","6500600","新店區"
"231050","AAD-862","2019/06/27 20:49:19","新北市新店區三民路61號","121.536588333333","24.971175","6500600","新店區"
"231067","4772-VM","2019/06/27 20:49:15","新北市新店區安德街132號","121.508711666667","24.9603866666667","6500600","新店區"
"231052","513-UM","2019/06/27 20:49:21","新北市新店區屈尺路6號","121.549501666667","24.9227683333333","6500600","新店區"
"231041","619-UM","2019/06/27 20:49:21","新北市新店區中正路700巷1號","121.533941666667","24.9911333333333","6500600","新店區"
"231063","641-BX","2019/06/27 20:49:06","新北市新店區富貴街11巷34號","121.494986666667","24.9483666666667","6500600","新店區"
"231047","KED-0819","2019/06/27 20:49:14","新北市新店區文化路67號","121.544755","24.981875","6500600","新店區"
"231062","718-UY","2019/06/27 20:49:17","新北市新店區和成街17巷2號","121.48767","24.94665","6500600","新店區"
"231057","720-UM","2019/06/27 20:49:09","新北市新店區新烏路一段65號","121.546206666667","24.9433116666667","6500600","新店區"
"231044","897-TW","2019/06/27 20:49:07","新北市新店區建國路131號","121.539456666667","24.97811","6500600","新店區"
"231040","898-TW","2019/06/27 20:49:15","新北市新店區中正路268號","121.538965","24.973525","6500600","新店區"
"231043","899-TW","2019/06/27 20:49:22","新北市新店區建國路78號","121.5406","24.97648","6500600","新店區"
"231066","AKT-0513","2019/06/27 20:49:13","新北市新店區安興路69號","121.515996666667","24.975155","6500600","新店區"
"241011","013-R5","2019/06/27 20:49:23","新北市三重區龍濱路205巷1號","121.502216666667","25.0716583333333","6500200","三重區"
"241028","022-UY","2019/06/27 20:49:11","新北市三重區中正南路42號","121.493823333333","25.0600616666667","6500200","三重區"
"241008","059-VK","2019/06/27 20:49:12","新北市三重區永福街72巷11號","121.479415","25.0767516666667","6500200","三重區"
"241016","060-VK","2019/06/27 20:49:13","新北市三重區自強路一段125號","121.495345","25.066395","6500200","三重區"
"241031","061-VK","2019/06/27 20:49:17","新北市三重區重陽路一段113巷2弄2號","121.487555","25.0598666666667","6500200","三重區"
"241015","062-VK","2019/06/27 20:49:26","新北市三重區三和路二段164號","121.499036666667","25.0685916666667","6500200","三重區"
"241017","063-VK","2019/06/27 20:49:21","新北市三重區自強路一段272號","121.492213333333","25.06781","6500200","三重區"
"241024","065-VK","2019/06/27 20:49:20","新北市三重區忠孝路三段36號","121.481206666667","25.066625","6500200","三重區"
"241001","066-VK","2019/06/27 20:49:21","新北市三重區自強路三段76巷28弄2號","121.485143333333","25.074045","6500200","三重區"
"241002","090-VK","2019/06/27 20:49:27","新北市三重區仁義街159巷24號","121.497963333333","25.0816233333333","6500200","三重區"
"241003","091-VK","2019/06/27 20:49:22","新北市三重區五華街141巷58號","121.493581666667","25.0867766666667","6500200","三重區"
"241005","262-UM","2019/06/27 20:49:13","新北市三重區五華街141巷57號","121.493395","25.0864816666667","6500200","三重區"
"241009","267-UM","2019/06/27 20:49:17","新北市三重區三和路四段388-2號","121.482063333333","25.0791366666667","6500200","三重區"
"241018","268-UM","2019/06/27 20:49:10","新北市三重區正義北路239號","121.49572","25.0692483333333","6500200","三重區"
"241032","269-UM","2019/06/27 20:48:56","新北市三重區成功路22-1號","121.489796666667","25.0502416666667","6500200","三重區"
"241013","270-UM","2019/06/27 20:49:14","新北市三重區自強路四段5號","121.488496666667","25.076185","6500200","三重區"
"241025","271-UM","2019/06/27 20:49:24","新北市三重區貴陽街14號","121.484255","25.061815","6500200","三重區"
"241007","398-BY","2019/06/27 20:49:12","新北市三重區三和路四段111號","121.486123333333","25.0770283333333","6500200","三重區"
"241035","462-BY","2019/06/27 20:49:07","新北市三重區文化北路156-2號","121.498023333333","25.0674183333333","6500200","三重區"
"241004","475-VK","2019/06/27 20:49:13","新北市三重區分子尾街15-1號","121.489475","25.080875","6500200","三重區"
"241020","478-VK","2019/06/27 20:49:29","新北市三重區忠孝路一段101號","121.48948","25.072175","6500200","三重區"
"241026","480-VK","2019/06/27 20:49:10","新北市三重區和平街3號","121.500236666667","25.0623383333333","6500200","三重區"
"241014","543-UM","2019/06/27 20:49:15","新北市三重區安和路52號","121.500746666667","25.069835","6500200","三重區"
"241023","545-UM","2019/06/27 20:49:20","新北市三重區忠孝路三段84巷5號","121.480243333333","25.0644316666667","6500200","三重區"
"241006","AAD-863","2019/06/27 20:49:16","新北市三重區車路頭街135-1號","121.484401666667","25.0760766666667","6500200","三重區"
"241019","743-BX","2019/06/27 20:49:25","新北市三重區三張街53號","121.491181666667","25.0710916666667","6500200","三重區"
"241022","KED-0820","2019/06/27 20:49:23","新北市三重區新北大道一段7號","121.489965","25.06117","6500200","三重區"
"241012","941-UM","2019/06/27 20:49:25","新北市三重區仁信街29號","121.501256666667","25.0755233333333","6500200","三重區"
"241029","942-UM","2019/06/27 20:49:23","新北市三重區重安街18號","121.490351666667","25.058085","6500200","三重區"
"241033","AAC-255","2019/06/27 20:49:20","新北市三重區興德路100號","121.472345","25.0532283333333","6500200","三重區"
"235055","183-VK","2019/06/27 20:49:29","新北市五股區成泰路三段358號","121.450908333333","25.0977133333333","6500300","中和區"
"235067","255-BX","2019/06/27 20:49:13","新北市八里區中華路三段47-1號","121.395356666667","25.1417116666667","6500300","中和區"
"247014","KEA-2869","2019/06/27 20:49:15","新北市蘆洲區得勝街50號","121.473245","25.08363","6501400","蘆洲區"
"235069","4980-A6","2019/06/27 20:49:10","新北市中和區新生街132號","121.483585","25.0012466666667","6500300","中和區"
"247004","893-R6","2019/06/27 20:49:25","新北市蘆洲區長安街100號","121.461691666667","25.080885","6501400","蘆洲區"
"247006","500-BY","2019/06/27 20:49:19","新北市蘆洲區永安南路二段16巷8號","121.467766666667","25.0771983333333","6501400","蘆洲區"
"247024","337-TH","2019/06/27 20:49:16","新北市蘆洲區長樂路136號","121.462141666667","25.0901","6501400","蘆洲區"
"247002","336-TH","2019/06/27 20:49:10","新北市蘆洲區永康街30號","121.458721666667","25.0855816666667","6501400","蘆洲區"
"247012","335-TH","2019/06/27 20:43:09","新北市五股區中興路三段3-6號","121.449873333333","25.0791333333333","6501400","蘆洲區"
"247022","057-VK","2019/06/27 20:49:16","新北市蘆洲區民義街9巷2號","121.47133","25.0885966666667","6501400","蘆洲區"
"247012","056-VK","2019/06/27 20:49:16","新北市三重區集賢路186號","121.484216666667","25.0882983333333","6501400","蘆洲區"
"247016","053-VK","2019/06/27 20:49:21","新北市蘆洲區中正路69號","121.47034","25.082725","6501400","蘆洲區"
"222001","KEA-2212","2019/06/27 20:49:11","新北市深坑區北深路三段129號","121.60403","25.0024433333333","6501800","深坑區"
"251005","010-UM","2019/06/27 20:49:21","新北市淡水區學府路88號","121.449051666667","25.1707066666667","6501000","淡水區"
"251015","KEA-2871","2019/06/27 20:49:06","新北市淡水區淡金路三段446號","121.450823333333","25.214425","6501000","淡水區"
"251016","179-VK","2019/06/27 20:49:08","新北市淡水區興仁路165號","121.451495","25.220045","6501000","淡水區"
"251013","182-VK","2019/06/27 20:49:22","新北市淡水區埤島41號","121.45206","25.1979","6501000","淡水區"
"251010","413-VK","2019/06/27 20:49:24","新北市淡水區沙崙路141-1號","121.423308333333","25.1830816666667","6501000","淡水區"
"251012","441-VK","2019/06/27 20:49:10","新北市淡水區淡金路四段508號","121.452071666667","25.2255183333333","6501000","淡水區"
"251007","442-VK","2019/06/27 20:49:12","新北市淡水區鄧公路23巷2號","121.451173333333","25.1700716666667","6501000","淡水區"
"251001","559-UM","2019/06/27 20:49:25","新北市淡水區淡金路65號","121.45608","25.1614466666667","6501000","淡水區"
"251006","561-UM","2019/06/27 20:49:13","新北市淡水區新市一路一段240號","121.432611666667","25.1866516666667","6501000","淡水區"
"251014","577-R6","2019/06/27 20:49:18","新北市淡水區公埔子32-8號","121.461651666667","25.232325","6501000","淡水區"
"251011","650-BX","2019/06/27 20:49:26","新北市淡水區新民街一段13號","121.433001666667","25.1847683333333","6501000","淡水區"
"251002","672-BX","2019/06/27 20:49:14","新北市淡水區鼻頭街18-5號","121.446811666667","25.1666833333333","6501000","淡水區"
"251003","673-BX","2019/06/27 20:49:18","新北市淡水區新興街59號","121.441725","25.1796316666667","6501000","淡水區"
"252002","178-VK","2019/06/27 20:49:27","新北市三芝區淡金路二段91號","121.504138333333","25.2607416666667","6502100","三芝區"
"247010","KED-0683","2019/06/27 20:49:25","新北市蘆洲區鷺江街76號","121.476995","25.08374","6501400","蘆洲區"
"242039","AAC-296","2019/06/27 20:49:13","新北市新莊區中環路一段36號","121.442688333333","25.0274366666667","6500500","新莊區"
"242048","751-BX","2019/06/27 20:49:25","新北市新莊區中正路690號","121.420606666667","25.0283716666667","6500500","新莊區"
"242029","615-BX","2019/06/27 20:49:21","新北市新莊區新北大道四段209號","121.444736666667","25.05647","6500500","新莊區"
"242058","612-BX","2019/06/27 20:49:12","新北市新莊區建國一路99號","121.434921666667","25.02855","6500500","新莊區"
"242046","566-BX","2019/06/27 20:49:12","新北市新莊區中正路847號","121.420076666667","25.0281466666667","6500500","新莊區"
"242051","497-BY","2019/06/27 20:49:17","新北市新莊區民安西路97號","121.42706","25.019045","6500500","新莊區"
"242056","442-UM","2019/06/27 20:49:17","新北市新莊區瓊泰路85號","121.442598333333","25.0293733333333","6500500","新莊區"
"242004","440-UM","2019/06/27 20:49:20","新北市三重區新北大道二段69號","121.468595","25.0613083333333","6500500","新莊區"
"242042","415-TV","2019/06/27 20:49:16","新北市新莊區青山路一段8號","121.41188","25.02756","6500500","新莊區"
"242011","413-TV","2019/06/27 20:49:07","新北市泰山區新五路一段137號","121.4394","25.063715","6500500","新莊區"
"242025","362-BY","2019/06/27 20:49:10","新北市三重區疏洪西路400號","121.468371666667","25.0638183333333","6500500","新莊區"
"242023","353-BY","2019/06/27 20:49:23","新北市新莊區化成路360號","121.46583","25.0494583333333","6500500","新莊區"
"242013","132-UY","2019/06/27 20:49:20","新北市新莊區中和街169號","121.447576666667","25.0503866666667","6500500","新莊區"
"242036","135-UY","2019/06/27 20:49:26","新北市新莊區建國一路99號","121.434928333333","25.0286533333333","6500500","新莊區"
"242053","172-VK","2019/06/27 20:49:19","新北市新莊區西盛街257巷35號","121.429343333333","25.015965","6500500","新莊區"
"242021","175-VK","2019/06/27 20:49:23","新北市新莊區中正路380號","121.44311","25.0342266666667","6500500","新莊區"
"242019","KED-0687","2019/06/27 20:49:22","新北市新莊區中港路五守新村1巷11號","121.45528","25.0380316666667","6500500","新莊區"
"242002","347-TH","2019/06/27 20:49:18","新北市新莊區中正路159-2號","121.455551666667","25.0367533333333","6500500","新莊區"
"242034","348-TH","2019/06/27 20:49:16","新北市新莊區中正路409號","121.444945","25.0345083333333","6500500","新莊區"
"242007","349-TH","2019/06/27 20:49:18","新北市新莊區中正路119號","121.460593333333","25.0381633333333","6500500","新莊區"
"242031","350-TH","2019/06/27 20:49:20","新北市新莊區中正路486-1號","121.436805","25.0337783333333","6500500","新莊區"
"242017","351-TH","2019/06/27 20:49:19","新北市泰山區新五路一段131-1號","121.439721666667","25.0632716666667","6500500","新莊區"
"221036","130-UY","2019/06/27 20:49:12","新北市汐止區新昌路67號","121.663628333333","25.0689983333333","6501100","汐止區"
"221015","131-UY","2019/06/27 20:49:11","新北市汐止區大同路二段669號","121.664973333333","25.0719766666667","6501100","汐止區"
"221012","278-VK","2019/06/27 20:49:24","新北市汐止區保新街25號","121.684245","25.0730166666667","6501100","汐止區"
"221023","279-VK","2019/06/27 20:49:05","新北市汐止區民族二街28號","121.635088333333","25.0718516666667","6501100","汐止區"
"221027","281-BY","2019/06/27 20:49:26","新北市汐止區大同路二段381號","121.657486666667","25.0673066666667","6501100","汐止區"
"221033","297-VK","2019/06/27 20:49:15","新北市汐止區合順街18巷8弄5號","121.620313333333","25.0418766666667","6501100","汐止區"
"221021","299-VK","2019/06/27 20:49:12","新北市汐止區莊敬街126號","121.65513","25.0611066666667","6501100","汐止區"
"221035","622-UM","2019/06/27 20:49:26","新北市汐止區長江街101-5號","121.658721666667","25.0731966666667","6501100","汐止區"
"221038","646-BX","2019/06/27 20:49:14","新北市汐止區汐萬路一段180號","121.652371666667","25.0718766666667","6501100","汐止區"
"242044","281-VK","2019/06/27 20:49:21","新北市新莊區龍安路90號","121.417628333333","25.020795","6500500","新莊區"
"242009","280-VK","2019/06/27 20:49:09","新北市新莊區幸福路564巷2弄2號","121.454443333333","25.0495083333333","6500500","新莊區"
