"lineid","car","time","location","longitude","latitude","cityid","cityname"
"232019","290-BY","2019/06/28 07:39:39","新北市坪林區乾溪1號","121.741718333333","24.976705","6502000","坪林區"
"232008","291-BY","2019/06/28 07:39:42","新北市坪林區魚堀9-1號","121.708366666667","24.904815","6502000","坪林區"
"232015","705-BZ","2019/06/28 07:39:36","新北市坪林區黃舉皮寮6號","121.688601666667","24.9373566666667","6502000","坪林區"
"244004","248-BX","2019/06/28 07:39:33","新北市林口區頂福里73號","121.34211","25.0937183333333","6501700","林口區"
"222005","289-BY","2019/06/28 07:39:41","新北市深坑區文化街39巷1號","121.618913333333","25.0011616666667","6501800","深坑區"
"226001","7418-A5","2019/06/28 07:39:23","新北市平溪區平湖里大厝6號","121.778631666667","25.03173","6502400","平溪區"
"226006","AGD-0702","2019/06/28 07:29:30","新北市平溪區嶺腳里嶺腳寮83-2號","121.750633333333","25.0351733333333","6502400","平溪區"
"223003","205-TH","2019/06/28 07:39:33","新北市石碇區烏塗窟1-1號","121.655323333333","24.9760666666667","6501900","石碇區"
"223008","406-TH","2019/06/28 07:20:59","新北市石碇區靜安路一段337號","121.698701666667","25.01472","6501900","石碇區"
"223001","592-UM","2019/06/28 07:39:36","新北市石碇區烏塗窟8號","121.655895","24.975","6501900","石碇區"
"223004","660-BX","2019/06/28 07:29:03","新北市石碇區新興坑29-3號","121.645983333333","25.0162483333333","6501900","石碇區"
"223007","661-BX","2019/06/28 07:37:15","新北市石碇區靜安路一段337號","121.698873333333","25.0144483333333","6501900","石碇區"
"223005","677-TV","2019/06/28 07:32:47","新北市石碇區八分寮47-1號","121.642481666667","25.013875","6501900","石碇區"
"227003","282-VK","2019/06/28 07:39:29","新北市雙溪區雙溪里太平路54號","121.864761666667","25.0353683333333","6502500","雙溪區"
"237014","760-BX","2019/06/28 07:39:22","新北市三峽區橫溪路19號","121.396306666667","24.9358383333333","6500900","三峽區"
"226005","ANY-2373","2019/06/28 07:39:33","新北市平溪區平溪里平溪街22號","121.738865","25.025315","6502400","平溪區"
