"lineid","car","time","location","longitude","latitude","cityid","cityname"
"222004","289-BY","2019/09/06 09:39:45","新北市深坑區北深路一段278巷32號","121.62819","25.0131233333333","6501800","深坑區"
"231009","192-VK","2019/09/06 09:39:43","新北市新店區小坑一路8號","121.535433333333","24.91227","6500600","新店區"
"223001","592-UM","2019/09/06 09:39:51","新北市石碇區北宜路1-2號","121.612288333333","24.9590133333333","6501900","石碇區"
"227003","282-VK","2019/09/06 09:30:50","新北市雙溪區泰平里溪尾寮6號","121.819948333333","24.9617","6502500","雙溪區"
"237014","760-BX","2019/09/06 09:39:51","新北市三峽區介壽路三段56號","121.395661666667","24.937475","6500900","三峽區"
