"lineid","car","time","location","longitude","latitude","cityid","cityname"
"234044","148-BY","2019/09/06 12:49:23","新北市永和區秀朗路二段128號","121.524856666667","25.0014583333333","6500400","永和區"
"234078","298-R6","2019/09/06 12:49:38","新北市永和區林森路101巷4號","121.523175","25.00353","6500400","永和區"
"234036","336-UY","2019/09/06 12:49:32","新北市永和區成功路一段26號","121.526973333333","25.004815","6500400","永和區"
"234062","337-UY","2019/09/06 12:49:28","新北市永和區福和路1號","121.525621666667","25.00939","6500400","永和區"
"234084","338-UY","2019/09/06 12:49:29","新北市永和區中正路49號","121.514531666667","24.996245","6500400","永和區"
"234068","552-UM","2019/09/06 12:49:25","新北市永和區竹林路159號","121.520526666667","25.0102416666667","6500400","永和區"
"234015","745-BX","2019/09/06 12:49:38","新北市永和區忠孝街26巷8號","121.515391666667","25.0167716666667","6500400","永和區"
"234028","746-BX","2019/09/06 12:49:25","新北市永和區得和路328號","121.52332","24.999495","6500400","永和區"
"234052","KEA-2590","2019/09/06 12:49:31","新北市永和區竹林路64號","121.518336666667","25.013495","6500400","永和區"
"234007","KED-0605","2019/09/06 12:49:30","新北市永和區永和路二段239號","121.515696666667","25.0146666666667","6500400","永和區"
"234012","KEA-2591","2019/09/06 12:49:27","新北市永和區仁愛路202巷38號","121.508935","25.0132416666667","6500400","永和區"
"234060","AAD-866","2019/09/06 12:49:30","新北市永和區福和路309巷1號","121.516265","25.00704","6500400","永和區"
"234040","862-TW","2019/09/06 12:49:21","新北市永和區永貞路306號","121.511885","25.0048383333333","6500400","永和區"
"234048","863-TW","2019/09/06 12:49:23","新北市永和區豫溪街217巷29號","121.524565","25.0104966666667","6500400","永和區"
"234025","9371-KE","2019/09/06 12:49:28","新北市永和區中正路657號","121.514816666667","25.0101883333333","6500400","永和區"
"234010","9373-KE","2019/09/06 12:49:28","新北市永和區保福路二段158巷1號","121.509131666667","25.0150433333333","6500400","永和區"
"248017","KED-0813","2019/09/06 12:49:38","新北市五股區中興路二段63巷17號","121.460233333333","25.0753633333333","6501500","五股區"
"234022","9380-KE","2019/09/06 12:49:22","新北市永和區竹林路119巷53弄1號","121.52218","25.0119083333333","6500400","永和區"
"234076","969-R7","2019/09/06 12:49:33","新北市永和區中正路4號","121.512421666667","24.9937316666667","6500400","永和區"
"234001","AAC-295","2019/09/06 12:49:31","新北市永和區中正路623號","121.515923333333","25.0099066666667","6500400","永和區"
"231030","002-UM","2019/09/06 12:49:25","新北市新店區安華路28-1號","121.519681666667","24.960825","6500600","新店區"
"231036","110-UY","2019/09/06 12:49:42","新北市新店區安一路一段1-1號","121.518985","24.9612916666667","6500600","新店區"
"231023","260-TV","2019/09/06 12:49:27","新北市新店區安一路一段1-1號","121.519073333333","24.9612416666667","6500600","新店區"
"231003","268-BY","2019/09/06 12:49:27","新北市新店區安一路一段1-1號","121.519815","24.9613033333333","6500600","新店區"
"231035","278-BY","2019/09/06 12:49:32","新北市新店區安一路一段1-1號","121.519731666667","24.9610533333333","6500600","新店區"
"231022","515-UM","2019/09/06 12:49:37","新北市新店區安一路一段1-1號","121.519246666667","24.9611783333333","6500600","新店區"
"231001","617-UM","2019/09/06 12:49:26","新北市新店區安一路一段1-1號","121.51907","24.9611033333333","6500600","新店區"
"231010","719-UM","2019/09/06 12:49:40","新北市新店區安一路一段1-1號","121.51935","24.9612316666667","6500600","新店區"
"235027","006-UY","2019/09/06 12:49:36","新北市中和區員山路36巷16-3號","121.48508","24.9912566666667","6500300","中和區"
"235020","096-UM","2019/09/06 12:49:25","新北市中和區員山路36巷16-3號","121.484703333333","24.9910466666667","6500300","中和區"
"235029","098-UM","2019/09/06 12:49:30","新北市中和區錦和路79號","121.489866666667","24.9960966666667","6500300","中和區"
"235002","185-VK","2019/09/06 12:49:28","新北市中和區員山路36巷16-3號","121.484951666667","24.9914566666667","6500300","中和區"
"235031","255-BX","2019/09/06 12:49:32","新北市中和區員山路466巷34號","121.48241","25.0064066666667","6500300","中和區"
"235009","565-BX","2019/09/06 12:49:28","新北市中和區員山路36巷13號","121.484118333333","24.9910166666667","6500300","中和區"
"235071","783-BX","2019/09/06 12:49:25","新北市中和區員山路36巷16-3號","121.485063333333","24.9912816666667","6500300","中和區"
"235028","911-UM","2019/09/06 12:49:37","新北市中和區員山路36巷16-3號","121.485025","24.9912283333333","6500300","中和區"
"207002","749-BX","2019/09/06 12:49:37","新北市萬里區雙興里二坪路31號","121.645563333333","25.1679783333333","6502800","萬里區"
"207001","662-BX","2019/09/06 12:49:23","新北市萬里區萬里里瑪鋉路160號","121.690111666667","25.1796466666667","6502800","萬里區"
"235026","KEA-2876","2019/09/06 12:49:11","新北市中和區員山路36巷16-3號","121.485068333333","24.991445","6500300","中和區"
