"lineid","car","time","location","longitude","latitude","cityid","cityname"
"234044","148-BY","2019/09/06 13:39:23","新北市永和區永利路212號","121.523233333333","25.00261","6500400","永和區"
"234078","298-R6","2019/09/06 13:39:38","新北市永和區林森路20巷7號","121.525853333333","25.0057116666667","6500400","永和區"
"234036","336-UY","2019/09/06 13:39:41","新北市永和區民樂街31巷10弄1號","121.528115","25.0008733333333","6500400","永和區"
"234062","337-UY","2019/09/06 13:39:28","新北市永和區秀朗路一段192巷6弄12號","121.519081666667","25.00231","6500400","永和區"
"234084","338-UY","2019/09/06 13:39:29","新北市永和區國中路1號","121.523855","25.0044216666667","6500400","永和區"
"234068","552-UM","2019/09/06 13:39:25","新北市永和區永和路二段237-1號","121.515648333333","25.0143716666667","6500400","永和區"
"234015","745-BX","2019/09/06 13:39:39","新北市永和區忠孝街26巷4號","121.515498333333","25.016605","6500400","永和區"
"234028","746-BX","2019/09/06 13:39:25","新北市永和區民權路56號","121.52006","24.9982683333333","6500400","永和區"
"234052","KEA-2590","2019/09/06 13:39:31","新北市永和區竹林路39巷24弄18號","121.519213333333","25.0140666666667","6500400","永和區"
"234005","KED-0605","2019/09/06 13:39:30","新北市永和區永和路一段180號","121.514173333333","25.00896","6500400","永和區"
"234012","KEA-2591","2019/09/06 13:39:26","新北市永和區永平路254號","121.508336666667","25.01118","6500400","永和區"
"234060","AAD-866","2019/09/06 13:39:30","新北市永和區中正路446號","121.517498333333","25.002785","6500400","永和區"
"234040","862-TW","2019/09/06 13:39:21","新北市中和區中和路302-1號","121.508766666667","25.0000383333333","6500400","永和區"
"234048","863-TW","2019/09/06 13:39:23","新北市永和區保安路84號","121.50976","25.0162366666667","6500400","永和區"
"234025","9371-KE","2019/09/06 13:39:28","新北市永和區自由街58號","121.51373","25.0058483333333","6500400","永和區"
"234010","9373-KE","2019/09/06 13:39:28","新北市永和區保福路二段14-1號","121.511005","25.0113916666667","6500400","永和區"
"248017","KED-0813","2019/09/06 13:39:38","新北市五股區天乙路114號","121.447033333333","25.1131533333333","6501500","五股區"
"234022","9380-KE","2019/09/06 13:39:22","新北市永和區中正路702巷19號","121.516381666667","25.0106516666667","6500400","永和區"
"234076","969-R7","2019/09/06 13:39:31","新北市永和區民權路30號","121.52021","24.99909","6500400","永和區"
"234072","AAC-211","2019/09/06 13:39:35","新北市永和區竹林路213巷6號","121.52121","25.0088716666667","6500400","永和區"
"234066","AAC-212","2019/09/06 13:39:40","新北市永和區中山路一段191巷4號","121.509408333333","25.0084666666667","6500400","永和區"
"234001","AAC-295","2019/09/06 13:39:31","新北市永和區永和路一段116號","121.513866666667","25.0074383333333","6500400","永和區"
"244004","248-BX","2019/09/06 13:39:42","新北市林口區頂福里23-1號","121.351438333333","25.0838683333333","6501700","林口區"
"231030","002-UM","2019/09/06 13:39:40","新北市新店區安康路一段323-1號","121.5216","24.9637616666667","6500600","新店區"
"231027","0293-UT","2019/09/06 13:39:30","新北市新店區國校路76-1號","121.538558333333","24.9530616666667","6500600","新店區"
"231005","046-UY","2019/09/06 13:39:33","新北市新店區寶中路49-1號","121.546381666667","24.9798383333333","6500600","新店區"
"231029","106-UY","2019/09/06 13:39:28","新北市新店區車子路1-1號","121.504658333333","24.9579133333333","6500600","新店區"
"231018","107-UY","2019/09/06 13:39:29","新北市新店區三民路191號","121.535513333333","24.9757383333333","6500600","新店區"
"231013","108-UY","2019/09/06 13:39:28","新北市新店區中正路454-5號","121.534501666667","24.9790933333333","6500600","新店區"
"231036","110-UY","2019/09/06 13:39:42","新北市新店區安祥路147巷56號","121.476305","24.9563583333333","6500600","新店區"
"231032","256-BX","2019/09/06 13:39:19","新北市新店區安忠路205巷8號","121.509823333333","24.95494","6500600","新店區"
"231023","260-TV","2019/09/06 13:39:27","新北市新店區新店路132號","121.537115","24.9550933333333","6500600","新店區"
"231003","268-BY","2019/09/06 13:39:27","新北市新店區中正路20號","121.545358333333","24.9696833333333","6500600","新店區"
"231035","278-BY","2019/09/06 13:39:36","新北市新店區安忠路102巷1號","121.510701666667","24.95616","6500600","新店區"
"231016","AAD-862","2019/09/06 13:39:31","新北市新店區竹林路2巷15號","121.550493333333","24.9514883333333","6500600","新店區"
"231006","355-BY","2019/09/06 13:39:35","新北市新店區安康路一段194號","121.524585","24.9633566666667","6500600","新店區"
"231038","3712-VJ","2019/09/06 13:39:23","新北市新店區安華路30巷1號","121.519545","24.95925","6500600","新店區"
"231024","4716-K9","2019/09/06 13:39:32","新北市新店區華興街40號","121.536948333333","24.9690616666667","6500600","新店區"
"231025","4715-K9","2019/09/06 13:39:37","新北市新店區中央五街37號","121.528535","24.975045","6500600","新店區"
"231022","515-UM","2019/09/06 13:39:37","新北市新店區永興路88-1號","121.544076666667","24.9336983333333","6500600","新店區"
"231001","617-UM","2019/09/06 13:39:27","新北市新店區中央路45號","121.532843333333","24.9776016666667","6500600","新店區"
"231002","618-UM","2019/09/06 13:39:24","新北市新店區中央一街33號","121.527616666667","24.973455","6500600","新店區"
"231034","641-BX","2019/09/06 13:39:23","新北市新店區黎明路57巷49號","121.504413333333","24.9483633333333","6500600","新店區"
"231012","KED-0819","2019/09/06 13:39:30","新北市新店區德正街23巷2號","121.544206666667","24.9718933333333","6500600","新店區"
"231010","719-UM","2019/09/06 13:39:20","新北市新店區平等街1號","121.537088333333","24.974335","6500600","新店區"
"231026","720-UM","2019/09/06 13:39:38","新北市新店區新店路13號","121.540286666667","24.9529316666667","6500600","新店區"
"231028","897-TW","2019/09/06 13:39:30","新北市新店區安和路一段6-2號","121.517111666667","24.96483","6500600","新店區"
"231004","899-TW","2019/09/06 13:39:33","新北市新店區北新路一段128-3號","121.542306666667","24.9700216666667","6500600","新店區"
"231037","AKT-0513","2019/09/06 13:39:41","新北市新店區安康路二段454號","121.494516666667","24.9543383333333","6500600","新店區"
"235030","003-UY","2019/09/06 13:39:25","新北市中和區水源路34巷2號","121.504761666667","25.0035366666667","6500300","中和區"
"235027","006-UY","2019/09/06 13:39:36","新北市中和區連城路268-6號","121.4863","24.9963783333333","6500300","中和區"
"235020","096-UM","2019/09/06 13:39:25","新北市中和區員山路466巷34號","121.482018333333","25.0062383333333","6500300","中和區"
"235039","097-UM","2019/09/06 13:39:21","新北市中和區大勇街25巷15弄21-3號","121.515085","24.9935583333333","6500300","中和區"
"235029","098-UM","2019/09/06 13:39:30","新北市中和區中山路二段2巷71號","121.501525","25.007475","6500300","中和區"
"235004","150-BY","2019/09/06 13:39:26","新北市中和區保健路50巷66號","121.509353333333","24.9952116666667","6500300","中和區"
"235022","151-BY","2019/09/06 13:39:27","新北市中和區員山路143巷11-4號","121.48029","24.99601","6500300","中和區"
"235019","183-VK","2019/09/06 13:39:37","新北市中和區德光路72號","121.469265","25.0039316666667","6500300","中和區"
"235002","185-VK","2019/09/06 13:39:28","新北市中和區大勇街60巷9號","121.51851","24.99477","6500300","中和區"
"235013","186-VK","2019/09/06 13:39:38","新北市中和區景安路130號","121.505175","24.9943683333333","6500300","中和區"
"235031","255-BX","2019/09/06 13:39:32","新北市中和區新生街220巷15弄1號","121.482965","24.9982366666667","6500300","中和區"
"235008","293-VK","2019/09/06 13:39:32","新北市中和區復興路280巷9號","121.50226","24.9912133333333","6500300","中和區"
"235007","352-BY","2019/09/06 13:39:25","新北市中和區景德街54號","121.517486666667","24.9915983333333","6500300","中和區"
"235006","KEA-2878","2019/09/06 13:39:18","新北市中和區秀朗路三段135巷5弄2號","121.5255","24.9920416666667","6500300","中和區"
"235014","4979-A6","2019/09/06 13:39:31","新北市中和區忠孝街124巷10號","121.512751666667","24.9859516666667","6500300","中和區"
"235033","4980-A6","2019/09/06 13:39:30","新北市中和區連城路65巷11號","121.497953333333","25.0008666666667","6500300","中和區"
"235034","558-UM","2019/09/06 13:39:26","新北市中和區圓通路12號","121.501613333333","24.9980966666667","6500300","中和區"
"235009","565-BX","2019/09/06 13:39:28","新北市中和區南山路236巷9號","121.505823333333","24.988935","6500300","中和區"
"235024","KED-0823","2019/09/06 13:39:40","新北市中和區中山路三段175號","121.47299","25.006315","6500300","中和區"
"235018","640-BX","2019/09/06 13:39:36","新北市中和區自治街1號","121.474805","25.0032633333333","6500300","中和區"
"235011","732-UM","2019/09/06 13:39:26","新北市中和區興南路二段5號","121.508055","24.986345","6500300","中和區"
"235010","733-UM","2019/09/06 13:39:36","新北市中和區忠孝街103-1號","121.51179","24.9861466666667","6500300","中和區"
"235035","783-BX","2019/09/06 13:39:25","新北市中和區立德街98巷65號","121.487375","25.0097766666667","6500300","中和區"
"235021","801-TS","2019/09/06 13:39:29","新北市中和區民安街25巷2弄1號","121.480475","25.00026","6500300","中和區"
"235005","802-TS","2019/09/06 13:39:31","新北市中和區中安街78號","121.512143333333","25.0020033333333","6500300","中和區"
"235016","805-TS","2019/09/06 13:39:30","新北市中和區興南路三段35號","121.496796666667","24.9780866666667","6500300","中和區"
"235012","896-TW","2019/09/06 13:39:38","新北市中和區中正路79號","121.50081","24.9934716666667","6500300","中和區"
"235017","900-TW","2019/09/06 13:39:40","新北市中和區華福街73號","121.467196666667","24.9966383333333","6500300","中和區"
"235028","911-UM","2019/09/06 13:39:37","新北市中和區泰和街32號","121.499455","25.0003266666667","6500300","中和區"
"235015","157-BY","2019/09/06 13:39:37","新北市中和區華新街143巷106弄32號","121.506235","24.9786516666667","6500300","中和區"
"235001","AAC-213","2019/09/06 13:39:33","新北市中和區秀朗路三段128巷17弄5號","121.52422","24.9934783333333","6500300","中和區"
"235023","AAC-215","2019/09/06 13:39:32","新北市中和區錦和路350-1號","121.490543333333","24.9935683333333","6500300","中和區"
"220013","072-UY","2019/09/06 13:39:30","新北市板橋區實踐路60號","121.46384","25.0060333333333","6500100","板橋區"
"220034","073-UY","2019/09/06 13:39:30","新北市板橋區華東街1-10號","121.44826","24.995055","6500100","板橋區"
"220017","AAD-861","2019/09/06 13:39:33","新北市板橋區華東街330號","121.452906666667","25.00354","6500100","板橋區"
"220016","120-SR","2019/09/06 13:39:30","新北市板橋區民生路二段120號","121.470763333333","25.0195116666667","6500100","板橋區"
"247013","056-VK","2019/09/06 13:39:31","新北市五股區新五路三段153號","121.448421666667","25.0912166666667","6501400","蘆洲區"
"235036","251-BX","2019/09/06 13:39:28","新北市中和區連城路97號","121.496481666667","24.9998633333333","6500300","中和區"
"207002","749-BX","2019/09/06 13:39:37","新北市萬里區崁腳里崁腳路166號","121.645095","25.1558866666667","6502800","萬里區"
"207001","662-BX","2019/09/06 13:39:23","新北市萬里區大鵬里萬里加投45-1號","121.641931666667","25.21102","6502800","萬里區"
"236029","253-BX","2019/09/06 13:39:22","新北市土城區城林路6巷80號","121.438556666667","24.9797516666667","6501300","土城區"
"236013","270-VK","2019/09/06 13:39:37","新北市土城區城林路6巷80號","121.43874","24.9796983333333","6501300","土城區"
"236032","271-VK","2019/09/06 13:39:37","新北市土城區城林路6巷80號","121.438415","24.9798616666667","6501300","土城區"
"247011","KED-0683","2019/09/06 13:39:33","新北市五股區中興路三段163號","121.449186666667","25.0808283333333","6501400","蘆洲區"
"236057","912-UM","2019/09/06 13:39:39","新北市土城區城林路6巷80號","121.438475","24.9797566666667","6501300","土城區"
"236045","913-UM","2019/09/06 13:39:37","新北市土城區城林路6巷80號","121.438521666667","24.979745","6501300","土城區"
"236060","915-UM","2019/09/06 13:39:35","新北市土城區城林路6巷80號","121.438525","24.9796533333333","6501300","土城區"
"221029","298-VK","2019/09/06 13:39:38","新北市汐止區福德二路345號","121.625068333333","25.06424","6501100","汐止區"
"220027","145-BY","2019/09/06 13:39:26","新北市板橋區館前西路162號","121.452785","25.008595","6500100","板橋區"
"220028","200-UY","2019/09/06 13:39:27","新北市板橋區板城路421號","121.448066666667","24.99627","6500100","板橋區"
"220030","610-BX","2019/09/06 13:39:35","新北市板橋區大觀路二段443-2號","121.438211666667","24.9952966666667","6500100","板橋區"
"220004","276-BY","2019/09/06 13:39:24","新北市板橋區四川路一段59號","121.459735","25.0061716666667","6500100","板橋區"
"220020","277-BY","2019/09/06 13:39:24","新北市板橋區大觀路二段11-12號","121.447855","24.9965366666667","6500100","板橋區"
"220043","283-UM","2019/09/06 13:39:29","新北市板橋區民生路二段161巷1號","121.47028","25.0199266666667","6500100","板橋區"
"220019","283-VK","2019/09/06 13:39:38","新北市板橋區四川路二段247號","121.449985","24.9931083333333","6500100","板橋區"
"220031","286-VK","2019/09/06 13:39:40","新北市板橋區大觀路二段11-12號","121.448206666667","24.9966033333333","6500100","板橋區"
"220029","287-VK","2019/09/06 13:39:25","新北市板橋區大觀路二段169巷23號","121.446666666667","24.9998216666667","6500100","板橋區"
"220039","288-VK","2019/09/06 13:39:37","新北市板橋區民生路二段120號","121.470688333333","25.0199133333333","6500100","板橋區"
"220032","296-UM","2019/09/06 13:39:40","新北市板橋區大觀路二段148巷5號","121.441921666667","24.99971","6500100","板橋區"
"220023","303-R5","2019/09/06 13:39:34","新北市板橋區華東街1-9號","121.448193333333","24.9947416666667","6500100","板橋區"
"220041","307-R5","2019/09/06 13:39:25","新北市板橋區民生路二段120號","121.470621666667","25.01958","6500100","板橋區"
"220038","487-VK","2019/09/06 13:39:35","新北市板橋區民生路二段161巷1號","121.469945","25.02013","6500100","板橋區"
"220037","491-VK","2019/09/06 13:39:26","新北市板橋區民生路二段188號","121.46997","25.02033","6500100","板橋區"
"220104","560-BX","2019/09/06 13:39:33","新北市板橋區南雅西路二段145巷6號","121.4516","25.01186","6500100","板橋區"
"220052","561-BX","2019/09/06 13:39:25","新北市板橋區民生路二段120號","121.47066","25.0199883333333","6500100","板橋區"
"220011","609-BX","2019/09/06 13:39:36","新北市板橋區民生路二段161巷1號","121.469921666667","25.0201316666667","6500100","板橋區"
"220005","686-BX","2019/09/06 13:39:37","新北市板橋區南雅南路二段11-4號","121.453958333333","25.00244","6500100","板橋區"
"220025","687-BX","2019/09/06 13:39:21","新北市板橋區大觀路三段180巷30號","121.42993","24.9936533333333","6500100","板橋區"
"220003","827-TW","2019/09/06 13:39:22","新北市板橋區四川路二段14號","121.456073333333","24.9961933333333","6500100","板橋區"
"220022","895-R6","2019/09/06 13:39:20","新北市板橋區南雅南路一段42號","121.455815","25.0060916666667","6500100","板橋區"
"220021","985-R7","2019/09/06 13:39:36","新北市板橋區貴興路80號","121.45628","25.0028416666667","6500100","板橋區"
"220046","AAC-210","2019/09/06 13:39:32","新北市板橋區民生路二段161巷9號","121.47025","25.0195583333333","6500100","板橋區"
"220012","AAC-253","2019/09/06 13:39:22","新北市板橋區縣民大道二段82號","121.465705","25.0146333333333","6500100","板橋區"
"235032","KEA-2873","2019/09/06 13:39:32","新北市中和區圓通路265巷36號","121.495988333333","24.9925083333333","6500300","中和區"
"235025","KEA-2875","2019/09/06 13:39:30","新北市中和區民享街30巷3號","121.473741666667","25.0035016666667","6500300","中和區"
"235026","KEA-2876","2019/09/06 13:39:11","新北市中和區景平路703巷2弄2號","121.496233333333","25.003505","6500300","中和區"
