"lineid","car","time","location","longitude","latitude","cityid","cityname"
"249005","172-UM","2019/09/06 16:59:32","新北市八里區渡船頭3-5號","121.432946666667","25.1538583333333","6502300","八里區"
"249001","173-UM","2019/09/06 16:59:30","新北市八里區下罟子1-12號","121.390061666667","25.1420183333333","6502300","八里區"
"249004","303-UY","2019/09/06 16:59:26","新北市八里區忠孝路439號","121.41337","25.1623516666667","6502300","八里區"
"249002","305-UY","2019/09/06 16:59:28","新北市八里區牛寮埔19-1號","121.431786666667","25.142875","6502300","八里區"
"249003","593-UM","2019/09/06 16:59:21","新北市八里區中山路二段283號","121.401581666667","25.1486716666667","6502300","八里區"
"244007","080-UY","2019/09/06 16:59:32","新北市林口區文化北路二段699-2號","121.37807","25.0931183333333","6501700","林口區"
"244009","656-BX","2019/09/06 16:59:27","新北市林口區中山路2-2號","121.396808333333","25.0787133333333","6501700","林口區"
"244025","837-TS","2019/09/06 16:59:28","新北市林口區粉寮69號","121.405093333333","25.090825","6501700","林口區"
"244021","838-TS","2019/09/06 16:59:32","新北市林口區粉寮路二段30號","121.40305","25.0864633333333","6501700","林口區"
"231046","719-UM","2019/09/06 16:59:28","新北市新店區灣潭路15-12號","121.542311666667","24.941815","6500600","新店區"
"241011","013-R5","2019/09/06 16:59:33","新北市三重區仁愛街55巷32號","121.49703","25.0723033333333","6500200","三重區"
"241028","022-UY","2019/09/06 16:59:29","新北市三重區中正南路50號","121.493965","25.0599433333333","6500200","三重區"
"241008","059-VK","2019/09/06 16:59:24","新北市三重區力行路二段136巷49弄7號","121.479823333333","25.0751683333333","6500200","三重區"
"241031","061-VK","2019/09/06 16:59:38","新北市三重區過圳街7巷36號","121.490361666667","25.0597366666667","6500200","三重區"
"241015","062-VK","2019/09/06 16:59:24","新北市三重區長安街57號","121.5005","25.0671783333333","6500200","三重區"
"241017","063-VK","2019/09/06 16:59:26","新北市三重區大仁街3巷32號","121.492441666667","25.0639316666667","6500200","三重區"
"241024","065-VK","2019/09/06 16:59:43","新北市三重區力行路二段7號","121.482043333333","25.0720983333333","6500200","三重區"
"241007","066-VK","2019/09/06 16:59:28","新北市三重區溪尾街126巷51號","121.488236666667","25.0791633333333","6500200","三重區"
"241002","090-VK","2019/09/06 16:59:20","新北市三重區仁義街225巷38號","121.497668333333","25.0828883333333","6500200","三重區"
"241003","091-VK","2019/09/06 16:59:27","新北市三重區五華街141巷58號","121.493595","25.086795","6500200","三重區"
"241006","262-UM","2019/09/06 16:59:37","新北市三重區三和路四段218巷24號","121.485415","25.0760966666667","6500200","三重區"
"241009","267-UM","2019/09/06 16:59:37","新北市三重區三和路四段215巷33-26號","121.483761666667","25.0802833333333","6500200","三重區"
"241018","268-UM","2019/09/06 16:59:26","新北市三重區大智街69號","121.492341666667","25.0683016666667","6500200","三重區"
"241032","269-UM","2019/09/06 16:59:32","新北市三重區重陽路一段130巷11號","121.486056666667","25.0605983333333","6500200","三重區"
"241013","270-UM","2019/09/06 16:59:24","新北市三重區公園街32號","121.498115","25.0741683333333","6500200","三重區"
"241025","271-UM","2019/09/06 16:59:34","新北市三重區中正北路508巷9號","121.472628333333","25.0711183333333","6500200","三重區"
"241030","KED-0822","2019/09/06 16:59:28","新北市三重區昌隆街72號","121.490946666667","25.0507516666667","6500200","三重區"
"241004","475-VK","2019/09/06 16:59:35","新北市三重區五華街106號","121.492508333333","25.082495","6500200","三重區"
"241020","478-VK","2019/09/06 16:59:35","新北市三重區自強路三段61號","121.486925","25.073325","6500200","三重區"
"241026","480-VK","2019/09/06 16:59:36","新北市三重區光興街35號","121.499668333333","25.060295","6500200","三重區"
"241014","543-UM","2019/09/06 16:59:31","新北市三重區三和路二段173巷61號","121.499618333333","25.0701983333333","6500200","三重區"
"241023","545-UM","2019/09/06 16:59:29","新北市三重區忠孝路三段99巷4號","121.480166666667","25.06424","6500200","三重區"
"241001","547-UM","2019/09/06 16:59:35","新北市三重區仁愛街170號","121.494338333333","25.07656","6500200","三重區"
"241019","KEA-2593","2019/09/06 16:59:36","新北市三重區自強路二段74巷19號","121.487983333333","25.0699483333333","6500200","三重區"
"241005","AAD-863","2019/09/06 16:59:34","新北市三重區仁愛街650號","121.482753333333","25.0806133333333","6500200","三重區"
"241022","KED-0820","2019/09/06 16:59:42","新北市三重區三民街155巷2號","121.484025","25.0643816666667","6500200","三重區"
"241016","887-TS","2019/09/06 16:59:34","新北市三重區大同北路121巷4號","121.493588333333","25.0641066666667","6500200","三重區"
"241012","941-UM","2019/09/06 16:59:37","新北市三重區仁壽街156號","121.499991666667","25.0744683333333","6500200","三重區"
"241029","942-UM","2019/09/06 16:59:34","新北市三重區重新路三段192號","121.490306666667","25.05895","6500200","三重區"
"241033","AAC-255","2019/09/06 16:59:37","新北市三重區中興北街271號","121.469141666667","25.060715","6500200","三重區"
"247016","KEA-2869","2019/09/06 16:59:37","新北市蘆洲區中正路71號","121.470423333333","25.0828866666667","6501400","蘆洲區"
"247010","KED-0682","2019/09/06 16:59:34","新北市蘆洲區信義路176號","121.479215","25.0840033333333","6501400","蘆洲區"
"235064","911-UM","2019/09/06 16:38:10","新北市中和區員山路36巷16-3號","121.485048333333","24.991385","6500300","中和區"
"247006","893-R6","2019/09/06 16:59:42","新北市蘆洲區長安街99巷19號","121.46105","25.0800566666667","6501400","蘆洲區"
"247020","546-UM","2019/09/06 16:59:28","新北市蘆洲區民族路422巷82弄14號","121.47392","25.0938533333333","6501400","蘆洲區"
"247008","341-TH","2019/09/06 16:59:30","新北市蘆洲區信義路57號","121.475255","25.07972","6501400","蘆洲區"
"247018","337-TH","2019/09/06 16:59:21","新北市蘆洲區民族路306號","121.477501666667","25.0900316666667","6501400","蘆洲區"
"247004","336-TH","2019/09/06 16:59:33","新北市蘆洲區長安街110號","121.461055","25.0815933333333","6501400","蘆洲區"
"247014","056-VK","2019/09/06 16:59:33","新北市蘆洲區三民路11號","121.47584","25.0822033333333","6501400","蘆洲區"
"247022","007-UY","2019/09/06 16:59:25","新北市蘆洲區三民路128巷75號","121.46871","25.0918216666667","6501400","蘆洲區"
"247002","001-UY","2019/09/06 16:59:37","新北市蘆洲區永平街16號","121.459148333333","25.090555","6501400","蘆洲區"
"228003","097-TW","2019/09/06 16:59:23","新北市貢寮區福隆里興隆街13-5號","121.944215","25.01655","6502600","貢寮區"
"228002","663-BX","2019/09/06 16:59:42","新北市貢寮區貢寮里朝陽街126號","121.907741666667","25.0223783333333","6502600","貢寮區"
"228001","670-TC","2019/09/06 16:59:27","新北市貢寮區貢寮里朝陽街1-2號","121.912318333333","25.0212833333333","6502600","貢寮區"
"224006","676-BX","2019/09/06 16:59:21","新北市瑞芳區大寮路356-1號","121.784788333333","25.1031616666667","6501200","瑞芳區"
"224007","285-BY","2019/09/06 16:59:28","新北市瑞芳區粗坑口路24號","121.761381666667","25.0989533333333","6501200","瑞芳區"
"224009","275-VK","2019/09/06 16:59:24","新北市瑞芳區明燈路一段1號","121.826603333333","25.1093616666667","6501200","瑞芳區"
"224008","273-VK","2019/09/06 16:59:24","新北市瑞芳區三爪子坑路32巷40號","121.809321666667","25.1068666666667","6501200","瑞芳區"
"224005","271-BY","2019/09/06 16:59:26","新北市瑞芳區鼻頭路247號","121.904283333333","25.122165","6501200","瑞芳區"
"227001","642-TC","2019/09/06 16:59:42","新北市雙溪區三貂里定福路27號","121.851545","25.073935","6502500","雙溪區"
"227002","400-TW","2019/09/06 16:59:22","新北市雙溪區上林里內平林90號","121.828253333333","25.0277583333333","6502500","雙溪區"
"251009","008-UM","2019/09/06 16:59:34","新北市淡水區中正路二段31號","121.419525","25.18157","6501000","淡水區"
"251004","009-UM","2019/09/06 16:59:29","新北市淡水區清水街58號","121.443996666667","25.1702716666667","6501000","淡水區"
"251008","181-VK","2019/09/06 16:59:34","新北市淡水區樹梅坑9號","121.472783333333","25.1427016666667","6501000","淡水區"
"251012","441-VK","2019/09/06 16:59:27","新北市淡水區觀海路31號","121.419051666667","25.181015","6501000","淡水區"
"251007","442-VK","2019/09/06 16:59:37","新北市淡水區文化路61號","121.438475","25.172825","6501000","淡水區"
"251005","443-VK","2019/09/06 16:59:40","新北市淡水區文化路61號","121.438278333333","25.172855","6501000","淡水區"
"251006","561-UM","2019/09/06 16:59:20","新北市淡水區中正路一段87巷1號","121.421696666667","25.1790733333333","6501000","淡水區"
"251011","650-BX","2019/09/06 16:59:22","新北市淡水區淡金路39號","121.456088333333","25.160745","6501000","淡水區"
"207003","681-TV","2019/09/06 16:59:28","新北市萬里區萬里里獅頭路23號","121.693378333333","25.17823","6502800","萬里區"
"252002","178-VK","2019/09/06 16:59:25","新北市三芝區忠孝街116號","121.50599","25.2574233333333","6502100","三芝區"
"233002","762-BX","2019/09/06 16:59:26","新北市烏來區環山路80號","121.548408333333","24.8639183333333","6502900","烏來區"
"252001","KED-0821","2019/09/06 16:59:38","新北市三芝區淡金路二段43號","121.503441666667","25.260345","6502100","三芝區"
"242041","AAC-296","2019/09/06 16:59:24","新北市新莊區新泰路357巷3弄57號","121.442175","25.0394766666667","6500500","新莊區"
"242005","751-BX","2019/09/06 16:59:24","新北市新莊區新泰路255巷83號","121.442335","25.03882","6500500","新莊區"
"242027","613-BX","2019/09/06 16:59:37","新北市新莊區新泰路357巷3弄57號","121.442453333333","25.0394916666667","6500500","新莊區"
"242058","612-BX","2019/09/06 16:59:27","新北市新莊區新泰路357巷3弄57號","121.442361666667","25.0393866666667","6500500","新莊區"
"242034","442-UM","2019/09/06 16:59:27","新北市新莊區新泰路255巷79號","121.443068333333","25.0388566666667","6500500","新莊區"
"242013","413-TV","2019/09/06 16:59:32","新北市新莊區新泰路357巷3弄57號","121.441945","25.0393783333333","6500500","新莊區"
"242025","362-BY","2019/09/06 16:59:25","新北市新莊區新泰路255巷83號","121.442001666667","25.0389733333333","6500500","新莊區"
"242017","173-VK","2019/09/06 16:59:25","新北市新莊區三和路12-21號","121.442021666667","25.0386316666667","6500500","新莊區"
"242032","175-VK","2019/09/06 16:59:40","新北市新莊區三和路12-21號","121.442053333333","25.0386216666667","6500500","新莊區"
"242021","KED-0687","2019/09/06 16:59:39","新北市新莊區三和路12-21號","121.442226666667","25.0380716666667","6500500","新莊區"
"242019","351-TH","2019/09/06 16:59:37","新北市新莊區新泰路357巷3弄57號","121.441861666667","25.0394433333333","6500500","新莊區"
"238018","KEA-2217","2019/09/06 16:59:32","新北市樹林區育德街78-1號","121.388093333333","24.9679916666667","6500700","樹林區"
"238017","283-BY","2019/09/06 16:59:39","新北市樹林區中山路二段157號","121.406285","24.9787633333333","6500700","樹林區"
"239007","AAC-297","2019/09/06 16:59:38","新北市鶯歌區二甲路13-16號","121.345418333333","24.9350766666667","6500800","鶯歌區"
"239006","891-R6","2019/09/06 16:59:00","新北市三峽區中山路459巷167-2號","121.347343333333","24.932035","6500800","鶯歌區"
"239008","527-UM","2019/09/06 16:59:26","新北市鶯歌區二甲路13-16號","121.345045","24.9351516666667","6500800","鶯歌區"
"239005","526-UM","2019/09/06 16:59:23","新北市鶯歌區二甲路13-16號","121.345405","24.93506","6500800","鶯歌區"
"221023","279-VK","2019/09/06 16:47:18","新北市汐止區汐萬路一段278巷5號","121.651521666667","25.074665","6501100","汐止區"
"242046","281-VK","2019/09/06 16:59:38","新北市新莊區三和路12-21號","121.442216666667","25.038265","6500500","新莊區"
"242011","280-VK","2019/09/06 16:59:31","新北市新莊區三和路12-21號","121.442118333333","25.0382033333333","6500500","新莊區"
