"lineid","car","time","location","longitude","latitude","cityid","cityname"
"234046","148-BY","2019/09/06 18:29:24","新北市永和區福和路1號","121.525778333333","25.0094583333333","6500400","永和區"
"234081","298-R6","2019/09/06 18:29:23","新北市永和區福和路1號","121.525396666667","25.009595","6500400","永和區"
"234038","336-UY","2019/09/06 18:29:30","新北市永和區福和路1號","121.526641666667","25.010095","6500400","永和區"
"234086","338-UY","2019/09/06 18:29:25","新北市永和區福和路1號","121.526381666667","25.009765","6500400","永和區"
"234007","KED-0605","2019/09/06 18:29:38","新北市永和區環河西路二段185號","121.502315","25.0112","6500400","永和區"
"234026","9371-KE","2019/09/06 18:29:27","新北市永和區永貞路417巷31號","121.505828333333","25.0088933333333","6500400","永和區"
"234011","9373-KE","2019/09/06 18:29:39","新北市永和區保安路128號","121.508995","25.0154716666667","6500400","永和區"
"249005","172-UM","2019/09/06 18:29:38","新北市八里區中華路三段145巷5號","121.392075","25.1337816666667","6502300","八里區"
"249001","173-UM","2019/09/06 18:29:30","新北市八里區龍米路一段92號","121.453985","25.1237833333333","6502300","八里區"
"249004","303-UY","2019/09/06 18:29:26","新北市八里區忠孝路86號","121.425986666667","25.1604466666667","6502300","八里區"
"249002","305-UY","2019/09/06 18:29:28","新北市八里區龍形三街17號","121.449138333333","25.1316133333333","6502300","八里區"
"249003","593-UM","2019/09/06 18:18:50","新北市八里區博物館路10-1號","121.415108333333","25.1639783333333","6502300","八里區"
"248016","026-BX","2019/09/06 18:29:21","新北市五股區凌雲路一段83巷10弄7號","121.450318333333","25.1011133333333","6501500","五股區"
"248008","KED-0815","2019/09/06 18:29:22","新北市五股區中興路二段78-5號","121.461591666667","25.0785266666667","6501500","五股區"
"248012","247-BX","2019/09/06 18:29:27","新北市五股區御史路1巷1號","121.442163333333","25.090325","6501500","五股區"
"248014","261-SL","2019/09/06 18:29:33","新北市五股區明德路7巷33號","121.434688333333","25.0708016666667","6501500","五股區"
"248010","272-BY","2019/09/06 18:29:26","新北市五股區水碓路16巷33號","121.434063333333","25.0730066666667","6501500","五股區"
"248004","677-BX","2019/09/06 18:29:25","新北市五股區工商路130號","121.436101666667","25.0860183333333","6501500","五股區"
"248002","678-BX","2019/09/06 18:29:40","新北市五股區西雲路148號","121.44614","25.0943283333333","6501500","五股區"
"234077","969-R7","2019/09/06 18:29:21","新北市永和區福和路1號","121.526386666667","25.0098533333333","6500400","永和區"
"232011","375-UM","2019/09/06 18:29:38","新北市坪林區坪雙路一段41號","121.711691666667","24.942445","6502000","坪林區"
"244007","080-UY","2019/09/06 18:29:32","新北市林口區後湖17號","121.386968333333","25.0974866666667","6501700","林口區"
"244019","402-UM","2019/09/06 18:29:24","新北市林口區麗園二街36巷1號","121.380388333333","25.0691316666667","6501700","林口區"
"244013","KEA-2802","2019/09/06 18:29:26","新北市林口區文化一路二段92號","121.38199","25.078615","6501700","林口區"
"244023","483-VK","2019/09/06 18:29:34","新北市林口區仁愛路二段8號","121.38594","25.0763716666667","6501700","林口區"
"244017","485-VK","2019/09/06 18:29:40","新北市林口區文化二路一段6號","121.364278333333","25.0664183333333","6501700","林口區"
"244009","656-BX","2019/09/06 18:29:27","新北市林口區寶林路269號","121.384503333333","25.0847216666667","6501700","林口區"
"244011","701-TV","2019/09/06 18:29:23","新北市林口區興林路17巷5弄2號","121.390596666667","25.0770133333333","6501700","林口區"
"244025","837-TS","2019/09/06 18:29:30","新北市林口區南勢六街79號","121.354365","25.07223","6501700","林口區"
"244021","838-TS","2019/09/06 18:29:32","新北市林口區自強二街32號","121.398346666667","25.0777633333333","6501700","林口區"
"243010","297-R6","2019/09/06 18:29:37","新北市泰山區黎明路25號","121.422111666667","25.060835","6501600","泰山區"
"243015","680-BX","2019/09/06 18:29:39","新北市泰山區泰林路二段527號","121.423613333333","25.063785","6501600","泰山區"
"222003","436-BY","2019/09/06 18:29:25","新北市深坑區翠谷街26號","121.62668","25.00907","6501800","深坑區"
"222002","659-BX","2019/09/06 18:29:42","新北市深坑區雲鄉路150號","121.623368333333","24.9979816666667","6501800","深坑區"
"231061","002-UM","2019/09/06 18:29:25","新北市新店區安華路28-1號","121.519681666667","24.9607616666667","6500600","新店區"
"231058","0293-UT","2019/09/06 18:29:30","新北市新店區北宜路一段47號","121.538233333333","24.95708","6500600","新店區"
"231044","046-UY","2019/09/06 18:29:23","新北市新店區安華路28-1號","121.519451666667","24.96067","6500600","新店區"
"231060","106-UY","2019/09/06 18:29:41","新北市新店區安華路28-1號","121.519653333333","24.9607916666667","6500600","新店區"
"231051","107-UY","2019/09/06 18:29:39","新北市新店區安康路一段287號","121.523128333333","24.963635","6500600","新店區"
"231049","108-UY","2019/09/06 18:29:30","新北市新店區安華路28-1號","121.519485","24.9610133333333","6500600","新店區"
"231065","110-UY","2019/09/06 18:29:26","新北市新店區安一路一段1-1號","121.519316666667","24.9612016666667","6500600","新店區"
"231062","256-BX","2019/09/06 18:29:38","新北市新店區安一路一段1-1號","121.519715","24.9611483333333","6500600","新店區"
"231054","260-TV","2019/09/06 18:29:36","新北市新店區安一路一段1-1號","121.519243333333","24.9611316666667","6500600","新店區"
"231042","268-BY","2019/09/06 18:29:24","新北市新店區安康路一段235號","121.525195","24.963185","6500600","新店區"
"231064","278-BY","2019/09/06 18:29:28","新北市新店區安一路一段1-1號","121.519615","24.961085","6500600","新店區"
"231050","AAD-862","2019/09/06 18:29:41","新北市新店區安一路一段1-1號","121.5197","24.9610583333333","6500600","新店區"
"231045","355-BY","2019/09/06 18:29:32","新北市新店區安一路一段1-1號","121.51942","24.9610133333333","6500600","新店區"
"231055","4716-K9","2019/09/06 18:29:32","新北市新店區中正路128巷15號","121.542518333333","24.97233","6500600","新店區"
"231056","4715-K9","2019/09/06 18:29:39","新北市新店區二十張路83-1號","121.536898333333","24.9801433333333","6500600","新店區"
"231053","515-UM","2019/09/06 18:29:27","新北市新店區北宜路一段256號","121.545498333333","24.952795","6500600","新店區"
"231040","617-UM","2019/09/06 18:29:39","新北市新店區安華路28-1號","121.519351666667","24.9608433333333","6500600","新店區"
"231063","641-BX","2019/09/06 18:29:32","新北市新店區安華路28-1號","121.519553333333","24.96052","6500600","新店區"
"231048","KED-0819","2019/09/06 18:29:31","新北市新店區安一路一段1-1號","121.519753333333","24.9611816666667","6500600","新店區"
"231057","720-UM","2019/09/06 18:29:20","新北市新店區安一路一段1-1號","121.519123333333","24.9612066666667","6500600","新店區"
"231059","897-TW","2019/09/06 18:29:34","新北市新店區安華路28-1號","121.519915","24.9610366666667","6500600","新店區"
"231043","899-TW","2019/09/06 18:29:25","新北市新店區安華路28-1號","121.519136666667","24.9607183333333","6500600","新店區"
"231066","AKT-0513","2019/09/06 18:29:35","新北市新店區安華路1-1號","121.519388333333","24.9605116666667","6500600","新店區"
"241033","AAC-255","2019/09/06 18:29:37","新北市三重區光復路一段47號","121.472283333333","25.0484866666667","6500200","三重區"
"235066","003-UY","2019/09/06 18:29:25","新北市中和區中山路二段120號","121.50267","25.0037616666667","6500300","中和區"
"235063","006-UY","2019/09/06 18:29:33","新北市中和區連城路347巷4弄2號","121.488128333333","24.9955766666667","6500300","中和區"
"235056","096-UM","2019/09/06 18:29:35","新北市中和區員山路611巷1號","121.477845","25.01131","6500300","中和區"
"235039","097-UM","2019/09/06 18:29:29","新北市中和區安平路202號","121.513451666667","24.9995183333333","6500300","中和區"
"235065","098-UM","2019/09/06 18:29:29","新北市中和區中山路二段64巷14弄1號","121.503456666667","25.00555","6500300","中和區"
"235040","150-BY","2019/09/06 18:29:27","新北市中和區安平路38號","121.509693333333","24.9949383333333","6500300","中和區"
"235058","151-BY","2019/09/06 18:29:31","新北市中和區圓通路435巷3-7號","121.488758333333","24.98726","6500300","中和區"
"235055","183-VK","2019/09/06 18:29:32","新北市中和區民生街37號","121.470178333333","25.0053966666667","6500300","中和區"
"235038","185-VK","2019/09/06 18:29:30","新北市中和區秀朗路三段128巷17弄22號","121.522851666667","24.9932916666667","6500300","中和區"
"235049","186-VK","2019/09/06 18:29:29","新北市中和區景安路80號","121.505726666667","24.9962783333333","6500300","中和區"
"235067","255-BX","2019/09/06 18:29:24","新北市中和區新生街12號","121.483146666667","25.004455","6500300","中和區"
"235044","293-VK","2019/09/06 18:29:26","新北市中和區復興路303號","121.501486666667","24.9901683333333","6500300","中和區"
"235043","352-BY","2019/09/06 18:29:40","新北市中和區景平路253號","121.508748333333","24.992845","6500300","中和區"
"235042","KEA-2878","2019/09/06 18:29:23","新北市中和區景平路64巷13弄22號","121.521496666667","24.99151","6500300","中和區"
"235050","4979-A6","2019/09/06 18:29:36","新北市中和區景新街362巷10號","121.511873333333","24.9901116666667","6500300","中和區"
"235069","4980-A6","2019/09/06 18:29:23","新北市中和區連城路97號","121.496626666667","24.9997266666667","6500300","中和區"
"235070","558-UM","2019/09/06 18:29:23","新北市中和區景新街137號","121.506053333333","24.996955","6500300","中和區"
"235045","565-BX","2019/09/06 18:29:25","新北市中和區復興路1號","121.506253333333","24.9897316666667","6500300","中和區"
"235060","KED-0823","2019/09/06 18:29:31","新北市中和區中山路二段584號","121.48251","25.0051333333333","6500300","中和區"
"235054","640-BX","2019/09/06 18:29:36","新北市中和區民享街86巷27號","121.473063333333","25.0003983333333","6500300","中和區"
"235047","732-UM","2019/09/06 18:29:23","新北市中和區南山路282號","121.5079","24.9878583333333","6500300","中和區"
"235046","733-UM","2019/09/06 18:29:40","新北市中和區捷運路6號","121.510043333333","24.9895816666667","6500300","中和區"
"235057","801-TS","2019/09/06 18:29:33","新北市中和區民安街2巷18號","121.480225","25.001715","6500300","中和區"
"235041","802-TS","2019/09/06 18:29:31","新北市中和區景安路32號","121.507058333333","24.99848","6500300","中和區"
"235052","805-TS","2019/09/06 18:29:28","新北市中和區興南路二段116號","121.504693333333","24.9838733333333","6500300","中和區"
"235048","896-TW","2019/09/06 18:29:25","新北市中和區中正路83號","121.500691666667","24.9934266666667","6500300","中和區"
"235053","900-TW","2019/09/06 18:29:30","新北市土城區金城路三段248號","121.473798333333","24.9907","6500300","中和區"
"235064","911-UM","2019/09/06 18:29:32","新北市中和區連城路127巷11-1號","121.496785","24.99861","6500300","中和區"
"235051","157-BY","2019/09/06 18:29:24","新北市中和區興南路二段114巷6號","121.504005","24.9843983333333","6500300","中和區"
"235037","AAC-213","2019/09/06 18:29:29","新北市中和區景德街53號","121.517628333333","24.9914166666667","6500300","中和區"
"235059","AAC-215","2019/09/06 18:29:31","新北市中和區員山路36巷16-3號","121.485065","24.9910983333333","6500300","中和區"
"220065","072-UY","2019/09/06 18:29:34","新北市板橋區華東街1-9號","121.448183333333","24.99496","6500100","板橋區"
"220069","AAD-861","2019/09/06 18:29:30","新北市板橋區四川路二段130巷25弄10號","121.449008333333","24.99462","6500100","板橋區"
"226004","312-R5","2019/09/06 18:29:27","新北市平溪區靜安路二段294巷18號","121.734828333333","25.0237083333333","6502400","平溪區"
"235072","251-BX","2019/09/06 18:29:40","新北市中和區永和路6號","121.500053333333","25.0028533333333","6500300","中和區"
"228003","097-TW","2019/09/06 18:29:23","新北市貢寮區和美里和美街39號","121.912348333333","25.08939","6502600","貢寮區"
"228002","663-BX","2019/09/06 18:29:42","新北市貢寮區福連里福興街31號","121.99133","25.0109166666667","6502600","貢寮區"
"228001","670-TC","2019/09/06 18:29:27","新北市貢寮區仁理村仁義街6號","121.923736666667","25.0520833333333","6502600","貢寮區"
"224006","676-BX","2019/09/06 18:29:40","新北市瑞芳區明燈路二段66號","121.809456666667","25.10742","6501200","瑞芳區"
"224002","639-TC","2019/09/06 18:29:26","新北市瑞芳區三爪子坑路29巷22號","121.813586666667","25.107015","6501200","瑞芳區"
"224007","285-BY","2019/09/06 18:29:40","新北市瑞芳區大埔路吉慶公園城36號","121.764271666667","25.0995133333333","6501200","瑞芳區"
"224009","275-VK","2019/09/06 18:29:23","新北市瑞芳區五號路308號","121.856866666667","25.1114866666667","6501200","瑞芳區"
"224008","273-VK","2019/09/06 18:29:24","新北市瑞芳區逢甲路149號","121.807023333333","25.110025","6501200","瑞芳區"
"224005","271-BY","2019/09/06 18:29:25","新北市瑞芳區瑞濱路95號","121.820548333333","25.1205083333333","6501200","瑞芳區"
"227001","642-TC","2019/09/06 18:29:30","新北市雙溪區牡丹里牡丹39號","121.852528333333","25.0584133333333","6502500","雙溪區"
"227002","400-TW","2019/09/06 18:29:22","新北市雙溪區魚行里坤溪21-1號","121.870493333333","25.02803","6502500","雙溪區"
"253005","032-BX","2019/09/06 18:29:22","新北市石門區老崩山4號","121.552868333333","25.29137","6502200","石門區"
"253006","295-VK","2019/09/06 18:29:41","新北市石門區公地15號","121.545663333333","25.290225","6502200","石門區"
"222001","KEA-2212","2019/09/06 18:29:23","新北市深坑區北深路一段185號","121.632128333333","25.01052","6501800","深坑區"
"208002","KEA-2872","2019/09/06 18:29:31","新北市金山區民生路81號","121.640036666667","25.2195683333333","6502700","金山區"
"208003","665-BX","2019/09/06 18:29:34","新北市金山區中山路202號","121.637653333333","25.221675","6502700","金山區"
"251004","009-UM","2019/09/06 18:29:37","新北市淡水區民族路31巷29號","121.462331666667","25.1364266666667","6501000","淡水區"
"251001","011-UM","2019/09/06 18:29:39","新北市淡水區自強路373號","121.464555","25.1333183333333","6501000","淡水區"
"251002","012-UM","2019/09/06 18:29:29","新北市淡水區竿蓁二街56號","121.455088333333","25.1633566666667","6501000","淡水區"
"251008","181-VK","2019/09/06 18:29:34","新北市淡水區水源街二段346巷1弄1號","121.46437","25.17549","6501000","淡水區"
"251010","413-VK","2019/09/06 18:29:37","新北市淡水區沙崙路181巷1號","121.42413","25.1841716666667","6501000","淡水區"
"251012","441-VK","2019/09/06 18:29:27","新北市淡水區北新路一段157號","121.458728333333","25.1822883333333","6501000","淡水區"
"251005","443-VK","2019/09/06 18:29:40","新北市淡水區中正東路37號","121.446263333333","25.1684516666667","6501000","淡水區"
"251006","561-UM","2019/09/06 18:29:41","新北市淡水區中山北路一段45巷18號","121.440915","25.1759633333333","6501000","淡水區"
"251011","650-BX","2019/09/06 18:29:42","新北市淡水區坪頂路57號","121.458658333333","25.1626283333333","6501000","淡水區"
"251003","766-UM","2019/09/06 18:29:23","新北市淡水區北新路169巷14號","121.449683333333","25.1801883333333","6501000","淡水區"
"207003","681-TV","2019/09/06 18:29:37","新北市萬里區野柳里港東路6-1號","121.686553333333","25.2031866666667","6502800","萬里區"
"207004","291-VK","2019/09/06 18:29:40","新北市萬里區萬里里瑪鋉路12-4號","121.687855","25.1756566666667","6502800","萬里區"
"252002","178-VK","2019/09/06 18:29:25","新北市三芝區中山路二段39號","121.502951666667","25.25512","6502100","三芝區"
"252003","249-BX","2019/09/06 18:29:36","新北市三芝區後厝里北勢子44-3號","121.471023333333","25.2519116666667","6502100","三芝區"
"208001","170-UY","2019/09/06 18:29:27","新北市金山區文化二路4號","121.63687","25.2246","6502700","金山區"
"237007","153-BY","2019/09/06 18:29:22","新北市三峽區中正路三段118號","121.355085","24.9035583333333","6500900","三峽區"
"237009","210-TH","2019/09/06 18:29:29","新北市三峽區大同路283號","121.365868333333","24.9252933333333","6500900","三峽區"
"237013","252-BX","2019/09/06 18:29:23","新北市三峽區光明路69巷25號","121.376573333333","24.92914","6500900","三峽區"
"237012","275-BY","2019/09/06 18:29:30","新北市三峽區三樹路214巷13號","121.37999","24.941535","6500900","三峽區"
"237008","302-VK","2019/09/06 18:29:34","新北市三峽區白雞81-1號","121.403068333333","24.90938","6500900","三峽區"
"237014","433-BY","2019/09/06 18:29:40","新北市三峽區文化路115號","121.37037","24.93602","6500900","三峽區"
"237006","5529-G3","2019/09/06 18:29:22","新北市三峽區溪東路473巷3號","121.413853333333","24.9283233333333","6500900","三峽區"
"237011","KEA-2596","2019/09/06 18:29:28","新北市三峽區溪東路240號","121.40833","24.9317383333333","6500900","三峽區"
"237015","649-BX","2019/09/06 18:29:30","新北市三峽區竹崙路116號","121.433971666667","24.91082","6500900","三峽區"
"237004","078-UY","2019/09/06 18:29:34","新北市三峽區五寮30-1號","121.37339","24.8698816666667","6500900","三峽區"
"237010","706-TV","2019/09/06 18:29:35","新北市三峽區復興路485號","121.361315","24.9383733333333","6500900","三峽區"
"237005","AKY-6261","2019/09/06 18:29:35","新北市三峽區清水街351號","121.370063333333","24.932855","6500900","三峽區"
"236042","KED-0685","2019/09/06 18:29:34","新北市土城區學成路91巷1號","121.450581666667","24.98793","6501300","土城區"
"236030","253-BX","2019/09/06 18:29:37","新北市土城區水源街81巷6號","121.43947","24.9762933333333","6501300","土城區"
"236026","269-VK","2019/09/06 18:29:36","新北市土城區南天母路93號","121.447701666667","24.956","6501300","土城區"
"236014","270-VK","2019/09/06 18:29:25","新北市土城區青雲路39巷7號","121.460396666667","24.9876","6501300","土城區"
"236039","271-VK","2019/09/06 18:29:32","新北市土城區青雲路449-1號","121.458741666667","24.9748166666667","6501300","土城區"
"236069","KEA-2877","2019/09/06 18:29:37","新北市土城區永豐路255巷12號","121.475375","24.9731183333333","6501300","土城區"
"252001","KED-0821","2019/09/06 18:29:38","新北市三芝區中興街二段6號","121.49851","25.25646","6502100","三芝區"
"236020","401-BY","2019/09/06 18:29:24","新北市土城區永豐路202巷1號","121.466595","24.9833683333333","6501300","土城區"
"236059","912-UM","2019/09/06 18:29:29","新北市土城區中央路四段53-1號","121.417595","24.9585166666667","6501300","土城區"
"236048","913-UM","2019/09/06 18:29:42","新北市土城區明德路一段309號","121.459613333333","24.9771283333333","6501300","土城區"
"236063","915-UM","2019/09/06 18:29:42","新北市土城區延壽路77巷5-1號","121.468653333333","24.9925266666667","6501300","土城區"
"236055","AAC-216","2019/09/06 18:29:28","新北市土城區福祥街101巷1號","121.440988333333","24.9817333333333","6501300","土城區"
"242041","AAC-296","2019/09/06 18:29:28","新北市新莊區天祥街121巷9號","121.414446666667","25.0293083333333","6500500","新莊區"
"242060","986-R7","2019/09/06 18:29:31","新北市新莊區新樹路69-34號","121.438378333333","25.0291233333333","6500500","新莊區"
"242058","612-BX","2019/09/06 18:29:27","桃園市龜山區萬壽路一段80巷6-1號","121.408153333333","25.0195383333333","6500500","新莊區"
"242054","497-BY","2019/09/06 18:29:25","新北市樹林區樹新路150號","121.430493333333","24.99906","6500500","新莊區"
"242044","415-TV","2019/09/06 18:29:23","新北市新莊區新北大道七段848號","121.413596666667","25.023535","6500500","新莊區"
"242025","362-BY","2019/09/06 18:29:25","新北市新莊區新北大道二段348號","121.462875","25.0609466666667","6500500","新莊區"
"242009","349-TH","2019/09/06 18:29:37","新北市新莊區中平路24號","121.44478","25.0432333333333","6500500","新莊區"
"238015","755-BX","2019/09/06 18:29:37","新北市樹林區復興路390巷20號","121.414623333333","24.9859216666667","6500700","樹林區"
"238023","601-UM","2019/09/06 18:29:32","新北市樹林區三福街114號","121.406493333333","25.0163066666667","6500700","樹林區"
"238019","599-UM","2019/09/06 18:29:25","新北市樹林區國凱街65號","121.422161666667","24.9798066666667","6500700","樹林區"
"238024","5061-A6","2019/09/06 18:29:33","新北市樹林區育英街2巷36號","121.42337","24.9900833333333","6500700","樹林區"
"238018","KEA-2217","2019/09/06 18:29:32","新北市樹林區樹新路89號","121.4278","24.9954433333333","6500700","樹林區"
"238017","283-BY","2019/09/06 18:29:39","新北市樹林區三多路125號","121.412576666667","25.008035","6500700","樹林區"
"238014","282-BY","2019/09/06 18:29:35","新北市樹林區大安路111巷8號","121.42315","24.9974733333333","6500700","樹林區"
"238020","268-VK","2019/09/06 18:29:36","桃園市龜山區宏慶街34巷18號","121.4108","25.0180866666667","6500700","樹林區"
"238026","172-UY","2019/09/06 18:29:37","新北市樹林區佳園路一段75巷20號","121.395356666667","24.9703566666667","6500700","樹林區"
"238016","169-UY","2019/09/06 18:29:32","新北市樹林區八德街1號","121.417561666667","24.984975","6500700","樹林區"
"239007","AAC-297","2019/09/06 18:29:38","新北市鶯歌區重慶街63-1號","121.349623333333","24.9516966666667","6500800","鶯歌區"
"239006","891-R6","2019/09/06 18:29:30","新北市鶯歌區鶯桃路242巷11號","121.336551666667","24.9599433333333","6500800","鶯歌區"
"239008","527-UM","2019/09/06 18:29:26","新北市鶯歌區朝陽街1號","121.336276666667","24.97658","6500800","鶯歌區"
"239005","526-UM","2019/09/06 18:29:29","新北市鶯歌區鳳吉二街154號","121.328815","24.9751533333333","6500800","鶯歌區"
"239001","417-VK","2019/09/06 18:29:26","新北市鶯歌區國中街178號","121.338291666667","24.93921","6500800","鶯歌區"
"239003","360-BY","2019/09/06 18:29:34","新北市鶯歌區福安街58號","121.335591666667","24.9652083333333","6500800","鶯歌區"
"239002","359-BY","2019/09/06 18:29:32","新北市鶯歌區國慶街56號","121.349751666667","24.95519","6500800","鶯歌區"
"239004","193-VK","2019/09/06 18:29:37","新北市鶯歌區尖山路212巷27號","121.34315","24.9478716666667","6500800","鶯歌區"
"221036","130-UY","2019/09/06 18:29:37","新北市汐止區大同路三段141號","121.669346666667","25.0777566666667","6501100","汐止區"
"221015","131-UY","2019/09/06 18:29:29","新北市汐止區長江街357號","121.66752","25.08246","6501100","汐止區"
"221010","269-BY","2019/09/06 18:29:37","新北市汐止區汐萬路三段14號","121.643041666667","25.0912733333333","6501100","汐止區"
"221012","278-VK","2019/09/06 18:29:42","新北市汐止區保長路27巷4號","121.672768333333","25.0797033333333","6501100","汐止區"
"221023","279-VK","2019/09/06 18:29:21","新北市汐止區康寧街474巷7-2號","121.63224","25.067875","6501100","汐止區"
"221027","281-BY","2019/09/06 18:29:25","新北市汐止區和平街75號","121.661391666667","25.070715","6501100","汐止區"
"221029","298-VK","2019/09/06 18:29:29","新北市汐止區樟樹二路330巷72-1號","121.642896666667","25.0700083333333","6501100","汐止區"
"221021","299-VK","2019/09/06 18:29:34","新北市汐止區大同路二段184巷6號","121.65319","25.063755","6501100","汐止區"
"221031","353-TW","2019/09/06 18:29:29","新北市汐止區大同路一段160-7號","121.635701666667","25.0551033333333","6501100","汐止區"
"221035","622-UM","2019/09/06 18:29:21","新北市汐止區大同路二段187巷53號","121.652326666667","25.0662333333333","6501100","汐止區"
"221025","623-UM","2019/09/06 18:29:35","新北市汐止區仁愛路124號","121.663026666667","25.0637366666667","6501100","汐止區"
"221038","646-BX","2019/09/06 18:29:24","新北市汐止區忠孝東路258號","121.663048333333","25.067615","6501100","汐止區"
"221033","647-BX","2019/09/06 18:29:39","新北市汐止區宜興街80號","121.623141666667","25.04269","6501100","汐止區"
"221002","707-TV","2019/09/06 18:29:24","新北市汐止區福德一路173號","121.63603","25.0660733333333","6501100","汐止區"
"221018","753-BX","2019/09/06 18:29:30","新北市汐止區茄苳路120巷2號","121.66773","25.069935","6501100","汐止區"
"220080","200-UY","2019/09/06 18:29:25","新北市板橋區華東街1-9號","121.448188333333","24.994765","6500100","板橋區"
"220082","610-BX","2019/09/06 18:29:38","新北市板橋區華東街1-9號","121.448256666667","24.9949133333333","6500100","板橋區"
"220056","276-BY","2019/09/06 18:29:31","新北市板橋區華東街1-10號","121.448285","24.9949516666667","6500100","板橋區"
"220072","277-BY","2019/09/06 18:29:21","新北市板橋區華東街1-10號","121.44837","24.995075","6500100","板橋區"
"220071","283-VK","2019/09/06 18:29:33","新北市板橋區華東街1-9號","121.448126666667","24.994865","6500100","板橋區"
"220081","287-VK","2019/09/06 18:29:33","新北市板橋區華東街1-10號","121.448263333333","24.9949933333333","6500100","板橋區"
"220084","296-UM","2019/09/06 18:29:31","新北市板橋區華東街1-9號","121.448163333333","24.99496","6500100","板橋區"
"242046","281-VK","2019/09/06 18:29:38","新北市新莊區中正路803巷3號","121.421651666667","25.0280333333333","6500500","新莊區"
"220075","303-R5","2019/09/06 18:29:25","新北市板橋區華東街1-10號","121.448248333333","24.99499","6500100","板橋區"
"242011","280-VK","2019/09/06 18:29:30","新北市新莊區新泰路528號","121.44202","25.0468883333333","6500500","新莊區"
"220035","560-BX","2019/09/06 18:29:23","新北市板橋區南雅西路一段5巷5號","121.454713333333","25.0039883333333","6500100","板橋區"
"220077","687-BX","2019/09/06 18:29:36","新北市板橋區華東街1-10號","121.44831","24.9949683333333","6500100","板橋區"
"220055","827-TW","2019/09/06 18:29:39","新北市板橋區四川路二段140巷20號","121.44918","24.9934366666667","6500100","板橋區"
"220073","985-R7","2019/09/06 18:29:22","新北市板橋區四川路二段140巷20號","121.449013333333","24.9935333333333","6500100","板橋區"
"220064","AAC-253","2019/09/06 18:29:36","新北市板橋區南雅南路二段116號","121.452466666667","25.0003333333333","6500100","板橋區"
"235068","KEA-2873","2019/09/06 18:29:29","新北市中和區圓通路284號","121.491468333333","24.9906233333333","6500300","中和區"
"235061","KEA-2875","2019/09/06 18:29:37","新北市中和區民治街27巷2號","121.475423333333","25.001075","6500300","中和區"
"235062","KEA-2876","2019/09/06 18:29:38","新北市中和區中山路二段312巷23號","121.495731666667","25.0034133333333","6500300","中和區"
