"lineid","car","time","location","longitude","latitude","cityid","cityname"
"234046","148-BY","2019/09/06 19:19:24","新北市永和區得和路373巷6弄1號","121.524758333333","24.9997416666667","6500400","永和區"
"234081","298-R6","2019/09/06 19:19:43","新北市永和區福和路7巷7號","121.525346666667","25.0077683333333","6500400","永和區"
"234038","336-UY","2019/09/06 19:19:37","新北市永和區民樂街59巷1-1號","121.527598333333","24.9983683333333","6500400","永和區"
"234064","337-UY","2019/09/06 19:19:40","新北市永和區得和路243巷28弄21號","121.52143","25.0011283333333","6500400","永和區"
"234086","338-UY","2019/09/06 19:19:25","新北市永和區永利路69號","121.519698333333","25.0048283333333","6500400","永和區"
"234070","552-UM","2019/09/06 19:19:35","新北市永和區豫溪街96號","121.518771666667","25.01002","6500400","永和區"
"234017","745-BX","2019/09/06 19:19:31","新北市永和區環河西路一段85巷4弄20號","121.512091666667","25.016915","6500400","永和區"
"234030","746-BX","2019/09/06 19:19:33","新北市永和區厚德街95號","121.523626666667","24.9988166666667","6500400","永和區"
"234054","KEA-2590","2019/09/06 19:19:33","新北市永和區中興街45號","121.516421666667","25.0117766666667","6500400","永和區"
"234007","KED-0605","2019/09/06 19:19:38","新北市永和區中山路一段219號","121.508113333333","25.0079733333333","6500400","永和區"
"234013","KEA-2591","2019/09/06 19:19:42","新北市永和區信義路79號","121.512375","25.013385","6500400","永和區"
"234061","AAD-866","2019/09/06 19:19:33","新北市永和區秀朗路一段175號","121.517106666667","25.0036183333333","6500400","永和區"
"234042","862-TW","2019/09/06 19:19:38","新北市永和區保平路151巷2弄6-3號","121.509596666667","25.0053216666667","6500400","永和區"
"234050","863-TW","2019/09/06 19:19:25","新北市永和區仁愛路104巷2號","121.51218","25.0132916666667","6500400","永和區"
"234026","9371-KE","2019/09/06 19:19:27","新北市永和區安樂路144巷31號","121.515171666667","24.9997433333333","6500400","永和區"
"234011","9373-KE","2019/09/06 19:19:38","新北市永和區保福路二段23巷19號","121.510185","25.01126","6500400","永和區"
"249001","173-UM","2019/09/06 19:19:29","新北市八里區中華路一段329-1號","121.41403","25.1543933333333","6502300","八里區"
"249003","593-UM","2019/09/06 19:19:36","新北市八里區中山路二段462號","121.399075","25.1471833333333","6502300","八里區"
"248016","026-BX","2019/09/06 19:19:41","新北市五股區成洲五路12號","121.452406666667","25.10153","6501500","五股區"
"248008","KED-0815","2019/09/06 19:19:42","新北市五股區中興路二段83巷26-3號","121.460156666667","25.0753066666667","6501500","五股區"
"248012","247-BX","2019/09/06 19:19:27","新北市五股區中興路四段48巷16號","121.43863","25.0834133333333","6501500","五股區"
"248014","261-SL","2019/09/06 19:19:27","新北市五股區民義路一段185-11號","121.432036666667","25.0878483333333","6501500","五股區"
"248010","272-BY","2019/09/06 19:19:26","新北市五股區水碓一路23號","121.430626666667","25.071235","6501500","五股區"
"248004","677-BX","2019/09/06 19:19:25","新北市五股區五福路125-1號","121.431906666667","25.0913166666667","6501500","五股區"
"248002","678-BX","2019/09/06 19:19:40","新北市五股區凌雲路一段158巷6號","121.447801666667","25.10298","6501500","五股區"
"234023","9380-KE","2019/09/06 19:19:30","新北市永和區竹林路109巷7號","121.520338333333","25.0119683333333","6500400","永和區"
"234077","969-R7","2019/09/06 19:19:42","新北市永和區民治街72巷4號","121.517961666667","24.998335","6500400","永和區"
"234074","AAC-211","2019/09/06 19:19:30","新北市永和區竹林路69號","121.51853","25.0134633333333","6500400","永和區"
"234067","AAC-212","2019/09/06 19:19:42","新北市永和區保平路30巷3號","121.511775","25.0075016666667","6500400","永和區"
"234003","AAC-295","2019/09/06 19:19:27","新北市永和區中山路一段106號","121.510956666667","25.0105016666667","6500400","永和區"
"244023","483-VK","2019/09/06 19:19:34","新北市林口區文林六街60號","121.370841666667","25.0818016666667","6501700","林口區"
"244025","837-TS","2019/09/06 19:19:28","新北市林口區文化北路一段542巷55弄1號","121.369121666667","25.0784633333333","6501700","林口區"
"243012","AAD-798","2019/09/06 19:19:36","新北市泰山區同義街31號","121.431646666667","25.05637","6501600","泰山區"
"243010","297-R6","2019/09/06 19:19:37","新北市泰山區明志路一段492巷7號","121.429945","25.0547766666667","6501600","泰山區"
"243014","KEA-2801","2019/09/06 19:19:25","新北市泰山區泰林路二段197號","121.433251666667","25.0612816666667","6501600","泰山區"
"243016","421-VK","2019/09/06 19:19:35","新北市泰山區明志路三段165號","121.424628333333","25.0394566666667","6501600","泰山區"
"243009","KEA-2215","2019/09/06 19:19:41","新北市泰山區楓樹街15巷28號","121.434493333333","25.063115","6501600","泰山區"
"243011","KEA-2216","2019/09/06 19:19:31","新北市泰山區貴子路15巷6弄2號","121.426753333333","25.0424566666667","6501600","泰山區"
"243013","646-TV","2019/09/06 19:19:24","新北市泰山區明志路三段145巷2弄13號","121.425151666667","25.0394416666667","6501600","泰山區"
"243015","680-BX","2019/09/06 19:19:39","新北市泰山區公園路54號","121.428358333333","25.0546716666667","6501600","泰山區"
"222003","436-BY","2019/09/06 19:19:25","新北市深坑區深南路204號","121.626676666667","25.016015","6501800","深坑區"
"222002","659-BX","2019/09/06 19:19:42","新北市深坑區北深路一段177號","121.63254","25.010875","6501800","深坑區"
"231061","002-UM","2019/09/06 19:19:45","新北市新店區安康路一段46巷4號","121.530625","24.9611033333333","6500600","新店區"
"231058","0293-UT","2019/09/06 19:19:30","新北市新店區光明街286巷4號","121.540558333333","24.96376","6500600","新店區"
"231044","046-UY","2019/09/06 19:19:43","新北市新店區中興路三段299號","121.542143333333","24.9852283333333","6500600","新店區"
"231060","106-UY","2019/09/06 19:19:41","新北市新店區安康路二段140號","121.51245","24.9617566666667","6500600","新店區"
"231051","107-UY","2019/09/06 19:19:39","新北市新店區中央路192號","121.530805","24.97464","6500600","新店區"
"231049","108-UY","2019/09/06 19:19:30","新北市新店區北新路三段9巷3號","121.54193","24.9794366666667","6500600","新店區"
"231065","110-UY","2019/09/06 19:19:26","新北市新店區安祥路109巷3弄64號","121.477656666667","24.9611383333333","6500600","新店區"
"231062","256-BX","2019/09/06 19:19:38","新北市新店區莒光路38巷3號","121.522201666667","24.958835","6500600","新店區"
"231054","260-TV","2019/09/06 19:19:36","新北市新店區國校路20-1號","121.537895","24.955145","6500600","新店區"
"231042","268-BY","2019/09/06 19:19:44","新北市新店區北宜路一段3號","121.538341666667","24.95856","6500600","新店區"
"231064","278-BY","2019/09/06 19:19:28","新北市新店區安忠路57巷26弄54號","121.512018333333","24.9575966666667","6500600","新店區"
"231050","AAD-862","2019/09/06 19:19:41","新北市新店區竹林路30號","121.552325","24.9513083333333","6500600","新店區"
"231045","355-BY","2019/09/06 19:19:32","新北市新店區北宜路一段260號","121.545676666667","24.952765","6500600","新店區"
"231055","4716-K9","2019/09/06 19:19:32","新北市新店區薏仁坑路11號","121.498511666667","24.9591133333333","6500600","新店區"
"231056","4715-K9","2019/09/06 19:19:39","新北市新店區安康路二段414巷2號","121.495876666667","24.9577866666667","6500600","新店區"
"231053","515-UM","2019/09/06 19:19:27","新北市新店區自強路251號","121.548125","24.9196416666667","6500600","新店區"
"231040","617-UM","2019/09/06 19:19:41","新北市新店區三民路40號","121.536221666667","24.971515","6500600","新店區"
"231041","618-UM","2019/09/06 19:19:36","新北市新店區溪園路247號","121.525201666667","24.9831733333333","6500600","新店區"
"231063","641-BX","2019/09/06 19:19:32","新北市新店區達觀路10號","121.503401666667","24.9436366666667","6500600","新店區"
"231048","KED-0819","2019/09/06 19:19:31","新北市新店區德正街27巷29弄31號","121.545288333333","24.97191","6500600","新店區"
"231046","719-UM","2019/09/06 19:18:08","新北市新店區華城路12-1號","121.529223333333","24.95803","6500600","新店區"
"231057","720-UM","2019/09/06 19:19:40","新北市新店區百齡一路12號","121.55309","24.9324783333333","6500600","新店區"
"231059","897-TW","2019/09/06 19:19:34","新北市新店區安和路二段155號","121.518925","24.974355","6500600","新店區"
"231043","899-TW","2019/09/06 19:19:45","新北市新店區北新路二段108號","121.54296","24.97439","6500600","新店區"
"231066","AKT-0513","2019/09/06 19:19:35","新北市新店區安祥路35-2號","121.490758333333","24.9567966666667","6500600","新店區"
"241028","022-UY","2019/09/06 19:19:29","新北市三重區中正北路23號","121.492068333333","25.0612816666667","6500200","三重區"
"241031","061-VK","2019/09/06 19:19:37","新北市三重區重新路四段242-1號","121.485656666667","25.053735","6500200","三重區"
"241017","063-VK","2019/09/06 19:19:26","新北市三重區大同北路182號","121.49159","25.0659283333333","6500200","三重區"
"241007","066-VK","2019/09/06 19:19:30","新北市三重區慈愛街68號","121.487293333333","25.079605","6500200","三重區"
"241006","262-UM","2019/09/06 19:19:37","新北市三重區力行路二段182-3號","121.483505","25.07746","6500200","三重區"
"241009","267-UM","2019/09/06 19:19:37","新北市三重區溪尾街218巷37-4號","121.486513333333","25.0812433333333","6500200","三重區"
"241032","269-UM","2019/09/06 19:19:34","新北市三重區新生街86號","121.483916666667","25.0593533333333","6500200","三重區"
"241030","KED-0822","2019/09/06 19:19:31","新北市三重區成功路41巷70號","121.49128","25.05312","6500200","三重區"
"241035","462-BY","2019/09/06 19:19:37","新北市三重區信義西街138號","121.495458333333","25.064375","6500200","三重區"
"241020","478-VK","2019/09/06 19:19:44","新北市三重區大智街183號","121.489383333333","25.0730383333333","6500200","三重區"
"241026","480-VK","2019/09/06 19:19:39","新北市三重區重安街170巷4號","121.496313333333","25.05426","6500200","三重區"
"241022","KED-0820","2019/09/06 19:19:29","新北市三重區重陽路二段56號","121.487243333333","25.0634383333333","6500200","三重區"
"241029","942-UM","2019/09/06 19:19:23","新北市三重區集美街228號","121.492193333333","25.0555133333333","6500200","三重區"
"235066","003-UY","2019/09/06 19:19:25","新北市中和區中和路102號","121.502666666667","24.9996933333333","6500300","中和區"
"235063","006-UY","2019/09/06 19:19:33","新北市中和區連城路225號","121.494175","24.9975616666667","6500300","中和區"
"235056","096-UM","2019/09/06 19:19:35","新北市中和區中山路三段106號","121.47681","25.0061883333333","6500300","中和區"
"235039","097-UM","2019/09/06 19:19:33","新北市中和區秀峰街119巷6弄6號","121.519465","24.9900866666667","6500300","中和區"
"235065","098-UM","2019/09/06 19:19:29","新北市中和區中山路二段2巷3弄15號","121.50431","25.0056783333333","6500300","中和區"
"235040","150-BY","2019/09/06 19:19:27","新北市中和區保健路50巷1-2號","121.510395","24.9968033333333","6500300","中和區"
"235058","151-BY","2019/09/06 19:19:31","新北市中和區中正路637巷60弄61號","121.485405","24.9926","6500300","中和區"
"235055","183-VK","2019/09/06 19:19:31","新北市中和區莒光路120巷12號","121.471588333333","25.0018333333333","6500300","中和區"
"235038","185-VK","2019/09/06 19:19:30","新北市中和區大仁街10巷52號","121.520561666667","24.9926833333333","6500300","中和區"
"235049","186-VK","2019/09/06 19:19:29","新北市中和區景平路396-1號","121.509866666667","24.9932","6500300","中和區"
"235067","255-BX","2019/09/06 19:19:24","新北市中和區連城路322號","121.483401666667","24.99605","6500300","中和區"
"235044","293-VK","2019/09/06 19:19:26","新北市中和區復興路265號","121.502775","24.9903783333333","6500300","中和區"
"235043","352-BY","2019/09/06 19:19:40","新北市中和區南華路15號","121.50254","24.9956033333333","6500300","中和區"
"235042","KEA-2878","2019/09/06 19:19:43","新北市中和區安樂路217巷21弄16號","121.513953333333","24.9978116666667","6500300","中和區"
"235070","558-UM","2019/09/06 19:19:23","新北市中和區中和路88號","121.501238333333","25.0005383333333","6500300","中和區"
"235045","565-BX","2019/09/06 19:19:25","新北市中和區景新街423巷4號","121.513305","24.989425","6500300","中和區"
"235060","KED-0823","2019/09/06 19:19:27","新北市中和區員山路389號","121.481233333333","25.0027633333333","6500300","中和區"
"235054","640-BX","2019/09/06 19:19:35","新北市中和區國光街112巷20弄1-2號","121.470605","25.0020983333333","6500300","中和區"
"235047","732-UM","2019/09/06 19:19:43","新北市中和區景平路239巷1號","121.509856666667","24.99263","6500300","中和區"
"235046","733-UM","2019/09/06 19:19:40","新北市中和區忠孝街22號","121.510493333333","24.9827833333333","6500300","中和區"
"235071","783-BX","2019/09/06 19:19:35","新北市中和區中正路637巷52弄3號","121.485326666667","24.9936766666667","6500300","中和區"
"235057","801-TS","2019/09/06 19:19:33","新北市中和區員山路380號","121.480676666667","25.00426","6500300","中和區"
"235041","802-TS","2019/09/06 19:19:31","新北市中和區中和路324巷3弄2號","121.510058333333","25.0007866666667","6500300","中和區"
"235052","805-TS","2019/09/06 19:19:28","新北市中和區興南路二段128巷1號","121.504023333333","24.983675","6500300","中和區"
"235048","896-TW","2019/09/06 19:19:24","新北市中和區四維街15號","121.513148333333","24.9871783333333","6500300","中和區"
"235053","900-TW","2019/09/06 19:19:30","新北市中和區華安街17巷3號","121.466656666667","24.9981966666667","6500300","中和區"
"235064","911-UM","2019/09/06 19:19:32","新北市中和區南山路131-1號","121.502191666667","24.9966283333333","6500300","中和區"
"235051","157-BY","2019/09/06 19:19:24","新北市中和區景新街258號","121.509481666667","24.9933933333333","6500300","中和區"
"235037","AAC-213","2019/09/06 19:19:29","新北市中和區秀朗路三段10巷14弄18號","121.52485","24.9966233333333","6500300","中和區"
"235059","AAC-215","2019/09/06 19:19:30","新北市中和區圓通路286巷18號","121.491696666667","24.991445","6500300","中和區"
"220065","072-UY","2019/09/06 19:19:34","新北市板橋區民族路219巷75號","121.468835","25.008945","6500100","板橋區"
"220086","073-UY","2019/09/06 19:19:40","新北市板橋區幸福路70巷1號","121.460616666667","25.0199683333333","6500100","板橋區"
"220106","075-UY","2019/09/06 19:19:41","新北市板橋區文化路二段441巷2弄1號","121.474676666667","25.0334366666667","6500100","板橋區"
"220069","AAD-861","2019/09/06 19:19:30","新北市板橋區稚暉街33號","121.45696","25.0041033333333","6500100","板橋區"
"220068","120-SR","2019/09/06 19:19:37","新北市板橋區萬安街101號","121.48359","25.024745","6500100","板橋區"
"226004","312-R5","2019/09/06 19:19:27","新北市平溪區靜安路三段226號","121.77571","25.0395916666667","6502400","平溪區"
"235072","251-BX","2019/09/06 19:19:40","新北市中和區連城路265巷6弄1號","121.491495","24.99581","6500300","中和區"
"228003","097-TW","2019/09/06 19:19:43","新北市貢寮區和美里和美街22-1號","121.91283","25.08262","6502600","貢寮區"
"228002","663-BX","2019/09/06 19:19:42","新北市貢寮區雙玉里田寮洋街21號","121.926328333333","25.0249783333333","6502600","貢寮區"
"228001","670-TC","2019/09/06 19:19:27","新北市貢寮區真理里新港街10號","121.925451666667","25.0542716666667","6502600","貢寮區"
"224006","676-BX","2019/09/06 19:19:40","新北市瑞芳區八分寮路21號","121.792463333333","25.0830083333333","6501200","瑞芳區"
"224008","273-VK","2019/09/06 19:19:44","新北市瑞芳區明燈路三段129號","121.803383333333","25.1091233333333","6501200","瑞芳區"
"227001","642-TC","2019/09/06 19:19:29","新北市雙溪區新基里新基北街40-1號","121.867711666667","25.0373683333333","6502500","雙溪區"
"227002","400-TW","2019/09/06 19:19:22","新北市雙溪區平林里梅竹蹊66-1號","121.86016","25.0358166666667","6502500","雙溪區"
"253005","032-BX","2019/09/06 19:19:42","新北市石門區阿里荖5-4號","121.609581666667","25.2797866666667","6502200","石門區"
"253006","295-VK","2019/09/06 19:19:41","新北市石門區楓林18號","121.536546666667","25.291045","6502200","石門區"
"222001","KEA-2212","2019/09/06 19:19:43","新北市深坑區北深路二段97號","121.617636666667","25.0034783333333","6501800","深坑區"
"208002","KEA-2872","2019/09/06 19:19:33","新北市金山區中華路116號","121.633623333333","25.2203666666667","6502700","金山區"
"208003","665-BX","2019/09/06 19:19:32","新北市金山區忠孝一路74號","121.637246666667","25.2207483333333","6502700","金山區"
"251009","008-UM","2019/09/06 19:19:30","新北市淡水區清水街99-1號","121.44091","25.1705733333333","6501000","淡水區"
"251001","011-UM","2019/09/06 19:18:10","新北市淡水區民權路92巷35-1號","121.46205","25.1267766666667","6501000","淡水區"
"251002","012-UM","2019/09/06 19:19:29","新北市淡水區文化路18號","121.439676666667","25.1726233333333","6501000","淡水區"
"251010","413-VK","2019/09/06 19:19:37","新北市淡水區沙崙路131巷11號","121.422175","25.1831683333333","6501000","淡水區"
"251007","442-VK","2019/09/06 19:19:41","新北市淡水區民生路117巷5-1號","121.464943333333","25.1390233333333","6501000","淡水區"
"251005","443-VK","2019/09/06 19:19:40","新北市淡水區水源街一段29號","121.44321","25.172305","6501000","淡水區"
"251003","766-UM","2019/09/06 19:19:43","新北市淡水區中山北路一段50號","121.441803333333","25.1755916666667","6501000","淡水區"
"207003","681-TV","2019/09/06 19:19:26","新北市萬里區大鵬里萬里加投29號","121.64744","25.2065866666667","6502800","萬里區"
"207004","291-VK","2019/09/06 19:19:32","新北市萬里區萬里里瑪鋉路20號","121.688726666667","25.1768983333333","6502800","萬里區"
"252002","178-VK","2019/09/06 19:19:25","新北市三芝區淡金路二段18-1號","121.502685","25.259505","6502100","三芝區"
"208001","170-UY","2019/09/06 19:19:45","新北市金山區金包里街66號","121.639123333333","25.2213233333333","6502700","金山區"
"237007","153-BY","2019/09/06 19:19:42","新北市三峽區二鬮路140號","121.359768333333","24.9077633333333","6500900","三峽區"
"237009","210-TH","2019/09/06 19:19:29","新北市三峽區民生街161號","121.372621666667","24.9348683333333","6500900","三峽區"
"237013","252-BX","2019/09/06 19:19:43","新北市三峽區大同路39巷49-1號","121.378458333333","24.9275183333333","6500900","三峽區"
"237012","275-BY","2019/09/06 19:19:30","新北市三峽區三樹路222巷236弄8-3號","121.391385","24.9429833333333","6500900","三峽區"
"237008","302-VK","2019/09/06 19:19:34","新北市三峽區永安街89號","121.374741666667","24.9291033333333","6500900","三峽區"
"237014","433-BY","2019/09/06 19:19:40","新北市三峽區中山路257巷39號","121.362073333333","24.9364283333333","6500900","三峽區"
"237006","5529-G3","2019/09/06 19:19:41","新北市三峽區大同路57號","121.375553333333","24.92753","6500900","三峽區"
"237011","KEA-2596","2019/09/06 19:19:28","新北市三峽區介壽路三段71號","121.395481666667","24.9381683333333","6500900","三峽區"
"237015","649-BX","2019/09/06 19:19:29","新北市三峽區安坑48-1號","121.45944","24.9322633333333","6500900","三峽區"
"237004","078-UY","2019/09/06 19:19:34","新北市三峽區有木206號","121.439076666667","24.8516","6500900","三峽區"
"237010","706-TV","2019/09/06 19:19:34","新北市三峽區國光街1號","121.375631666667","24.93666","6500900","三峽區"
"237005","AKY-6261","2019/09/06 19:19:35","新北市三峽區復興路553號","121.356848333333","24.9401633333333","6500900","三峽區"
"236026","269-VK","2019/09/06 19:19:35","新北市土城區中正路67巷26號","121.444426666667","24.9766216666667","6501300","土城區"
"236014","270-VK","2019/09/06 19:19:45","新北市土城區廣福街68巷32-1號","121.458725","24.9903483333333","6501300","土城區"
"236069","KEA-2877","2019/09/06 19:19:37","新北市土城區學成路146號","121.448861666667","24.9895633333333","6501300","土城區"
"252001","KED-0821","2019/09/06 19:19:38","新北市三芝區長勤街37巷18號","121.501146666667","25.2551516666667","6502100","三芝區"
"236020","401-BY","2019/09/06 19:19:24","新北市土城區明峰街83號","121.468943333333","24.9873833333333","6501300","土城區"
"236059","912-UM","2019/09/06 19:19:29","新北市土城區光明街28巷30號","121.44137","24.9743383333333","6501300","土城區"
"236055","AAC-216","2019/09/06 19:19:28","新北市土城區學府路一段276號","121.450218333333","24.9833483333333","6501300","土城區"
"242005","751-BX","2019/09/06 19:19:24","新北市新莊區新泰路340號","121.444708333333","25.042335","6500500","新莊區"
"242009","349-TH","2019/09/06 19:19:36","新北市新莊區三和路12-21號","121.44229","25.0384433333333","6500500","新莊區"
"238015","755-BX","2019/09/06 19:19:28","新北市樹林區光明街30號","121.411735","24.9906333333333","6500700","樹林區"
"238023","601-UM","2019/09/06 19:19:31","新北市樹林區中正路865號","121.408785","25.018105","6500700","樹林區"
"238019","599-UM","2019/09/06 19:19:32","新北市樹林區東華街39號","121.415208333333","24.981575","6500700","樹林區"
"238018","KEA-2217","2019/09/06 19:19:34","新北市樹林區太元街2巷7號","121.41714","24.981145","6500700","樹林區"
"238022","KEA-2213","2019/09/06 19:19:26","新北市樹林區中山路二段151巷12號","121.406661666667","24.9782033333333","6500700","樹林區"
"238021","KEA-2539","2019/09/06 19:19:34","新北市樹林區學府路210號","121.37755","24.9502466666667","6500700","樹林區"
"238025","303-VK","2019/09/06 19:19:30","新北市樹林區中山路三段147-5號","121.396075","24.9730666666667","6500700","樹林區"
"238017","283-BY","2019/09/06 19:19:39","新北市樹林區光興街68號","121.409338333333","25.00275","6500700","樹林區"
"238014","282-BY","2019/09/06 19:19:35","新北市樹林區中正路22-1號","121.42777","24.9994016666667","6500700","樹林區"
"238020","268-VK","2019/09/06 19:19:36","新北市樹林區俊英街123巷1號","121.42443","25.0106416666667","6500700","樹林區"
"238026","172-UY","2019/09/06 19:19:23","新北市樹林區地政街8巷10弄2號","121.393675","24.9715116666667","6500700","樹林區"
"238016","169-UY","2019/09/06 19:19:33","新北市樹林區中山路一段356巷8號","121.418965","24.9864816666667","6500700","樹林區"
"239007","AAC-297","2019/09/06 19:19:38","新北市鶯歌區中正一路193號","121.353083333333","24.957345","6500800","鶯歌區"
"239006","891-R6","2019/09/06 19:19:41","新北市鶯歌區鶯桃路296巷84弄14號","121.337043333333","24.96161","6500800","鶯歌區"
"239008","527-UM","2019/09/06 19:19:26","新北市鶯歌區國際二路18巷13號","121.337473333333","24.97516","6500800","鶯歌區"
"239005","526-UM","2019/09/06 19:19:43","新北市鶯歌區中湖街313號","121.346481666667","24.97818","6500800","鶯歌區"
"239001","417-VK","2019/09/06 19:19:26","新北市鶯歌區鶯桃路95巷54號","121.337626666667","24.95304","6500800","鶯歌區"
"239003","360-BY","2019/09/06 19:19:34","新北市樹林區八德街1-1號","121.341325","24.9479483333333","6500800","鶯歌區"
"239002","359-BY","2019/09/06 19:19:32","新北市鶯歌區中山路311號","121.344348333333","24.9568583333333","6500800","鶯歌區"
"239004","193-VK","2019/09/06 19:19:37","新北市鶯歌區中正三路鄭厝巷18-1號","121.333485","24.934025","6500800","鶯歌區"
"221008","489-VK","2019/09/06 19:19:44","新北市汐止區康寧街310號","121.626783333333","25.06724","6501100","汐止區"
"221032","280-BY","2019/09/06 19:19:31","新北市汐止區福山街62巷6號","121.618121666667","25.04662","6501100","汐止區"
"221031","353-TW","2019/09/06 19:19:29","新北市汐止區連峰街3巷1號","121.647726666667","25.0761333333333","6501100","汐止區"
"221035","622-UM","2019/09/06 19:19:41","新北市汐止區汐萬路一段256巷3號","121.652398333333","25.0746433333333","6501100","汐止區"
"221002","707-TV","2019/09/06 19:19:24","新北市汐止區大同路一段341號","121.638658333333","25.0594483333333","6501100","汐止區"
"220079","145-BY","2019/09/06 19:19:40","新北市板橋區民權路260巷1弄29號","121.458471666667","25.01589","6500100","板橋區"
"220080","200-UY","2019/09/06 19:19:27","新北市板橋區大觀路二段1巷40號","121.450071666667","25.00369","6500100","板橋區"
"220082","610-BX","2019/09/06 19:19:38","新北市板橋區篤行路三段77號","121.427008333333","24.9852233333333","6500100","板橋區"
"220101","245-BX","2019/09/06 19:19:39","新北市板橋區縣民大道三段133巷8號","121.477545","25.0235316666667","6500100","板橋區"
"220091","267-BY","2019/09/06 19:19:39","新北市板橋區文聖街221號","121.480416666667","25.0257383333333","6500100","板橋區"
"220056","276-BY","2019/09/06 19:19:36","新北市板橋區信義路279巷21號","121.464216666667","24.9901916666667","6500100","板橋區"
"220072","277-BY","2019/09/06 19:19:41","新北市板橋區金門街337巷10弄2號","121.42995","24.98503","6500100","板橋區"
"220094","283-UM","2019/09/06 19:19:37","新北市板橋區吳鳳路50巷20號","121.469631666667","25.0302866666667","6500100","板橋區"
"220071","283-VK","2019/09/06 19:19:33","新北市板橋區重慶路327巷19弄3-2號","121.464761666667","24.9988483333333","6500100","板橋區"
"220053","285-VK","2019/09/06 19:19:31","新北市板橋區富山街102號","121.476301666667","25.0219016666667","6500100","板橋區"
"220083","286-VK","2019/09/06 19:19:36","新北市板橋區大觀路二段174巷186弄16號","121.442968333333","25.0034133333333","6500100","板橋區"
"220081","287-VK","2019/09/06 19:19:33","新北市板橋區南雅西路一段63巷2號","121.452615","25.0076383333333","6500100","板橋區"
"220090","288-VK","2019/09/06 19:19:27","新北市板橋區長江路一段106巷13弄21號","121.460858333333","25.0295016666667","6500100","板橋區"
"220061","293-UM","2019/09/06 19:19:32","新北市板橋區中山路二段255巷7號","121.476996666667","25.0179016666667","6500100","板橋區"
"220062","295-UM","2019/09/06 19:19:24","新北市板橋區三民路二段153巷36弄2號","121.481128333333","25.0140633333333","6500100","板橋區"
"220084","296-UM","2019/09/06 19:19:31","新北市板橋區溪北路75號","121.428245","24.9896966666667","6500100","板橋區"
"220067","299-UM","2019/09/06 19:19:41","新北市板橋區長安街138巷7弄28號","121.473743333333","25.0086633333333","6500100","板橋區"
"220075","303-R5","2019/09/06 19:19:25","新北市板橋區南雅西路一段10巷12號","121.454585","25.0047483333333","6500100","板橋區"
"220092","307-R5","2019/09/06 19:19:23","新北市板橋區文化路二段1號","121.468493333333","25.02403","6500100","板橋區"
"220098","317-R6","2019/09/06 19:19:41","新北市板橋區自由路51巷9-3號","121.465053333333","25.0234566666667","6500100","板橋區"
"220089","487-VK","2019/09/06 19:19:42","新北市板橋區陽明街261號","121.462486666667","25.0255316666667","6500100","板橋區"
"220088","491-VK","2019/09/06 19:19:37","新北市板橋區雙十路二段95號","121.47527","25.0277766666667","6500100","板橋區"
"220035","560-BX","2019/09/06 19:19:43","新北市板橋區中正路360巷57號","121.456456666667","25.0227766666667","6500100","板橋區"
"220103","561-BX","2019/09/06 19:19:38","新北市板橋區文化路一段292號","121.467541666667","25.02149","6500100","板橋區"
"220063","609-BX","2019/09/06 19:19:22","新北市板橋區三民路二段136-2號","121.479083333333","25.016235","6500100","板橋區"
"220057","686-BX","2019/09/06 19:19:38","新北市板橋區國慶路124號","121.460565","24.9959033333333","6500100","板橋區"
"220077","687-BX","2019/09/06 19:19:36","新北市板橋區大觀路二段125號","121.445896666667","25.0013483333333","6500100","板橋區"
"220093","689-BX","2019/09/06 19:19:41","新北市板橋區新海路14號","121.46252","25.0209383333333","6500100","板橋區"
"220054","741-BX","2019/09/06 19:19:28","新北市板橋區校前街82號","121.462236666667","25.0034166666667","6500100","板橋區"
"220102","KEA-2699","2019/09/06 19:19:37","新北市板橋區松柏街22巷36號","121.475048333333","25.028875","6500100","板橋區"
"220055","827-TW","2019/09/06 19:19:39","新北市板橋區館前東路156巷10號","121.464313333333","25.007265","6500100","板橋區"
"220074","895-R6","2019/09/06 19:19:27","新北市板橋區中正路1巷16弄1號","121.455018333333","25.0118633333333","6500100","板橋區"
"220073","985-R7","2019/09/06 19:19:22","新北市板橋區新生街58號","121.457043333333","25.020925","6500100","板橋區"
"220097","AAC-210","2019/09/06 19:19:38","新北市板橋區幸福路32巷18號","121.461373333333","25.0210133333333","6500100","板橋區"
"220064","AAC-253","2019/09/06 19:19:36","新北市板橋區民族路48號","121.46227","25.00962","6500100","板橋區"
"235068","KEA-2873","2019/09/06 19:19:29","新北市中和區連城路89巷64號","121.497816666667","24.99824","6500300","中和區"
"235061","KEA-2875","2019/09/06 19:19:37","新北市中和區員山路314巷10號","121.482076666667","25.0027383333333","6500300","中和區"
