"lineid","car","time","location","longitude","latitude","cityid","cityname"
"234046","148-BY","2019/09/06 19:29:43","新北市永和區秀朗路二段155號","121.52506","25.0016916666667","6500400","永和區"
"234081","298-R6","2019/09/06 19:29:23","新北市永和區福和路7巷5弄1號","121.525201666667","25.0079683333333","6500400","永和區"
"234038","336-UY","2019/09/06 19:29:30","新北市永和區成功路二段65號","121.527395","25.0000983333333","6500400","永和區"
"234064","337-UY","2019/09/06 19:29:40","新北市永和區中正路368巷1弄88號","121.520501666667","25.0007116666667","6500400","永和區"
"234086","338-UY","2019/09/06 19:29:25","新北市永和區國中路2-1號","121.524156666667","25.0044216666667","6500400","永和區"
"234070","552-UM","2019/09/06 19:29:37","新北市永和區警光街20號","121.519345","25.0095066666667","6500400","永和區"
"234017","745-BX","2019/09/06 19:29:35","新北市永和區環河西路一段59號","121.513563333333","25.0182166666667","6500400","永和區"
"234030","746-BX","2019/09/06 19:29:33","新北市永和區四維街64號","121.524281666667","24.9982166666667","6500400","永和區"
"234054","KEA-2590","2019/09/06 19:29:33","新北市永和區復興街19巷2號","121.516121666667","25.0131483333333","6500400","永和區"
"234007","KED-0605","2019/09/06 19:29:38","新北市永和區永和路一段142號","121.51408","25.0082383333333","6500400","永和區"
"234013","KEA-2591","2019/09/06 19:29:22","新北市永和區中山路一段132-1號","121.510383333333","25.0098666666667","6500400","永和區"
"234061","AAD-866","2019/09/06 19:29:33","新北市永和區中正路504號","121.517403333333","25.0044266666667","6500400","永和區"
"234042","862-TW","2019/09/06 19:29:38","新北市永和區水源街39巷12號","121.510495","25.0037883333333","6500400","永和區"
"234050","863-TW","2019/09/06 19:29:39","新北市永和區保福路二段128號","121.509775","25.01406","6500400","永和區"
"234026","9371-KE","2019/09/06 19:29:27","新北市中和區安樂路217巷2號","121.514165","24.9990083333333","6500400","永和區"
"234011","9373-KE","2019/09/06 19:29:39","新北市永和區保安路292號","121.505091666667","25.0117733333333","6500400","永和區"
"249003","593-UM","2019/09/06 19:29:36","新北市八里區中山路二段502號","121.398155","25.1469183333333","6502300","八里區"
"248016","026-BX","2019/09/06 19:29:41","新北市五股區成洲五路12號","121.452406666667","25.1015333333333","6501500","五股區"
"248008","KED-0815","2019/09/06 19:29:42","新北市五股區中興路一段93號","121.46663","25.072725","6501500","五股區"
"248012","247-BX","2019/09/06 19:29:27","新北市五股區成泰路二段91巷9號","121.437506666667","25.0841766666667","6501500","五股區"
"248014","261-SL","2019/09/06 19:29:37","新北市五股區民義路一段172巷11號","121.433575","25.0882066666667","6501500","五股區"
"248010","272-BY","2019/09/06 19:29:26","新北市五股區水碓一路23號","121.430556666667","25.07124","6501500","五股區"
"248004","677-BX","2019/09/06 19:29:25","新北市五股區工商路151號","121.434936666667","25.0865383333333","6501500","五股區"
"248002","678-BX","2019/09/06 19:29:40","新北市五股區凌雲路一段158巷6號","121.447796666667","25.102985","6501500","五股區"
"234023","9380-KE","2019/09/06 19:29:30","新北市永和區環河東路二段8-2號","121.521826666667","25.0131066666667","6500400","永和區"
"234077","969-R7","2019/09/06 19:29:43","新北市永和區民權路58巷5號","121.51936","24.99829","6500400","永和區"
"234074","AAC-211","2019/09/06 19:29:30","新北市永和區環河東路二段62號","121.523585","25.011145","6500400","永和區"
"234067","AAC-212","2019/09/06 19:29:38","新北市永和區永貞路354號","121.510246666667","25.0064416666667","6500400","永和區"
"234003","AAC-295","2019/09/06 19:29:27","新北市永和區福和路352號","121.514655","25.0074583333333","6500400","永和區"
"244023","483-VK","2019/09/06 19:29:34","新北市林口區民族路288號","121.3706","25.078735","6501700","林口區"
"243012","AAD-798","2019/09/06 19:29:33","新北市泰山區仁義路203號","121.43309","25.053865","6501600","泰山區"
"243010","297-R6","2019/09/06 19:29:37","新北市泰山區民生路17巷2號","121.429981666667","25.0524566666667","6501600","泰山區"
"243014","KEA-2801","2019/09/06 19:29:40","新北市泰山區中港西路498巷2號","121.432241666667","25.0525833333333","6501600","泰山區"
"243016","421-VK","2019/09/06 19:29:35","新北市泰山區明志路三段330號","121.422166666667","25.0355983333333","6501600","泰山區"
"243009","KEA-2215","2019/09/06 19:29:32","新北市泰山區明志路一段19巷3號","121.433978333333","25.0657716666667","6501600","泰山區"
"243011","KEA-2216","2019/09/06 19:29:31","新北市泰山區貴子路140號","121.428811666667","25.0403833333333","6501600","泰山區"
"243013","646-TV","2019/09/06 19:29:40","新北市泰山區貴子路36巷3弄2號","121.425933333333","25.041155","6501600","泰山區"
"243015","680-BX","2019/09/06 19:29:39","新北市泰山區明志路二段70號","121.428815","25.0524616666667","6501600","泰山區"
"222003","436-BY","2019/09/06 19:29:25","新北市深坑區深南路51-1號","121.621286666667","25.0098133333333","6501800","深坑區"
"222002","659-BX","2019/09/06 19:29:42","新北市深坑區北深路一段177號","121.632491666667","25.0107266666667","6501800","深坑區"
"231061","002-UM","2019/09/06 19:29:25","新北市新店區安康路一段242號","121.521601666667","24.96387","6500600","新店區"
"231058","0293-UT","2019/09/06 19:29:30","新北市新店區北新路二段228巷11號","121.543415","24.9772166666667","6500600","新店區"
"231044","046-UY","2019/09/06 19:29:43","新北市新店區中興路三段137號","121.544536666667","24.9797066666667","6500600","新店區"
"231060","106-UY","2019/09/06 19:29:41","新北市新店區安康路二段63號","121.514015","24.9632216666667","6500600","新店區"
"231051","107-UY","2019/09/06 19:29:39","新北市新店區中央五街63號","121.527391666667","24.9756866666667","6500600","新店區"
"231049","108-UY","2019/09/06 19:29:30","新北市新店區北新路三段65巷12弄21號","121.540693333333","24.98172","6500600","新店區"
"231065","110-UY","2019/09/06 19:29:26","新北市新店區安祥路109巷6弄1號","121.475466666667","24.95864","6500600","新店區"
"231062","256-BX","2019/09/06 19:29:38","新北市新店區安康路一段135號","121.527748333333","24.9618033333333","6500600","新店區"
"231054","260-TV","2019/09/06 19:29:36","新北市新店區文中路40號","121.53972","24.9565916666667","6500600","新店區"
"231042","268-BY","2019/09/06 19:29:44","新北市新店區檳榔路29巷12號","121.542368333333","24.9638583333333","6500600","新店區"
"231064","278-BY","2019/09/06 19:29:28","新北市新店區安和路一段52巷2-1號","121.517773333333","24.9667083333333","6500600","新店區"
"231050","AAD-862","2019/09/06 19:29:41","新北市新店區竹林路72巷15號","121.554208333333","24.950595","6500600","新店區"
"231045","355-BY","2019/09/06 19:29:32","新北市新店區北宜路二段207號","121.553128333333","24.9533066666667","6500600","新店區"
"231056","4715-K9","2019/09/06 19:29:39","新北市新店區薏仁坑路2-4號","121.50202","24.958715","6500600","新店區"
"231067","4772-VM","2019/09/06 19:27:23","新北市新店區薏仁坑路自強巷1號","121.497365","24.957745","6500600","新店區"
"231053","515-UM","2019/09/06 19:29:27","新北市新店區新烏路二段194號","121.54786","24.9172866666667","6500600","新店區"
"231040","617-UM","2019/09/06 19:29:39","新北市新店區三民路20巷2號","121.537623333333","24.97057","6500600","新店區"
"231041","618-UM","2019/09/06 19:29:36","新北市新店區中正路615號","121.533848333333","24.9887383333333","6500600","新店區"
"231063","641-BX","2019/09/06 19:29:32","新北市新店區達觀路14巷2號","121.503503333333","24.94106","6500600","新店區"
"231048","KED-0819","2019/09/06 19:29:31","新北市新店區中興路二段33號","121.546131666667","24.9697316666667","6500600","新店區"
"231046","719-UM","2019/09/06 19:29:28","新北市新店區北新路一段14號","121.540838333333","24.9656083333333","6500600","新店區"
"231057","720-UM","2019/09/06 19:29:40","新北市新店區花園一路三段36號","121.550156666667","24.933005","6500600","新店區"
"231059","897-TW","2019/09/06 19:29:34","新北市新店區安和路三段18號","121.51794","24.98121","6500600","新店區"
"231043","899-TW","2019/09/06 19:29:25","新北市新店區北新路二段201號","121.542591666667","24.9782766666667","6500600","新店區"
"231066","AKT-0513","2019/09/06 19:29:35","新北市新店區安康路三段359巷16號","121.48457","24.9496166666667","6500600","新店區"
"241028","022-UY","2019/09/06 19:29:29","新北市三重區中寮街31號","121.492578333333","25.0589383333333","6500200","三重區"
"241008","059-VK","2019/09/06 19:29:28","新北市三重區永福街135巷34號","121.477431666667","25.0771833333333","6500200","三重區"
"241031","061-VK","2019/09/06 19:29:37","新北市三重區集美街39號","121.488083333333","25.0556566666667","6500200","三重區"
"241017","063-VK","2019/09/06 19:29:26","新北市三重區大同北路54巷5號","121.494018333333","25.06339","6500200","三重區"
"241007","066-VK","2019/09/06 19:29:30","新北市三重區慈愛街149號","121.489473333333","25.079475","6500200","三重區"
"241006","262-UM","2019/09/06 19:28:57","新北市三重區後竹圍街205巷50號","121.484473333333","25.072965","6500200","三重區"
"241009","267-UM","2019/09/06 19:29:37","新北市三重區仁美街122號","121.485531666667","25.0812233333333","6500200","三重區"
"241032","269-UM","2019/09/06 19:29:34","新北市三重區三陽路64號","121.483851666667","25.0587216666667","6500200","三重區"
"241013","270-UM","2019/09/06 19:29:38","新北市三重區仁愛街110號","121.495275","25.07435","6500200","三重區"
"241025","271-UM","2019/09/06 19:29:33","新北市三重區頂崁街210巷28弄9號","121.475828333333","25.067115","6500200","三重區"
"241030","KED-0822","2019/09/06 19:29:28","新北市三重區成功路41巷2號","121.490131666667","25.0513366666667","6500200","三重區"
"241035","462-BY","2019/09/06 19:29:37","新北市三重區信義西街1巷3號","121.498055","25.064905","6500200","三重區"
"241020","478-VK","2019/09/06 19:29:24","新北市三重區三和路四段20巷20號","121.490331666667","25.0737333333333","6500200","三重區"
"241026","480-VK","2019/09/06 19:29:39","新北市三重區文化南路47巷2弄1號","121.49994","25.061315","6500200","三重區"
"241023","545-UM","2019/09/06 19:29:29","新北市三重區頂崁街183號","121.478051666667","25.0638","6500200","三重區"
"241022","KED-0820","2019/09/06 19:29:33","新北市三重區三民街165巷2號","121.483753333333","25.0651783333333","6500200","三重區"
"241012","941-UM","2019/09/06 19:29:37","新北市三重區河邊北街262號","121.501676666667","25.0764466666667","6500200","三重區"
"241029","942-UM","2019/09/06 19:29:42","新北市三重區重安街140號","121.495403333333","25.0550066666667","6500200","三重區"
"235066","003-UY","2019/09/06 19:29:25","新北市中和區景新街38號","121.503443333333","24.999295","6500300","中和區"
"235063","006-UY","2019/09/06 19:29:33","新北市中和區連城路183號","121.495278333333","24.9983316666667","6500300","中和區"
"235056","096-UM","2019/09/06 19:29:35","新北市中和區員山路581巷31弄1號","121.477285","25.0102783333333","6500300","中和區"
"235039","097-UM","2019/09/06 19:29:29","新北市中和區秀峰街82號","121.51989","24.990945","6500300","中和區"
"235065","098-UM","2019/09/06 19:29:29","新北市中和區中山路二段2巷13弄24號","121.502698333333","25.0065933333333","6500300","中和區"
"235040","150-BY","2019/09/06 19:29:27","新北市中和區景安路79巷37弄26號","121.507718333333","24.996505","6500300","中和區"
"235058","151-BY","2019/09/06 19:29:31","新北市中和區連城路511號","121.482265","24.9954333333333","6500300","中和區"
"235055","183-VK","2019/09/06 19:29:31","新北市中和區民享街2巷2號","121.473656666667","25.0058966666667","6500300","中和區"
"235038","185-VK","2019/09/06 19:29:30","新北市中和區立人街1號","121.52188","24.994005","6500300","中和區"
"235049","186-VK","2019/09/06 19:29:29","新北市中和區安平路17號","121.509133333333","24.9941516666667","6500300","中和區"
"235067","255-BX","2019/09/06 19:29:44","新北市中和區新生街186巷5弄1號","121.482928333333","24.9996283333333","6500300","中和區"
"235044","293-VK","2019/09/06 19:29:26","新北市中和區捷運路52號","121.507878333333","24.9904466666667","6500300","中和區"
"235043","352-BY","2019/09/06 19:29:40","新北市中和區安樂路30號","121.511818333333","24.99226","6500300","中和區"
"235042","KEA-2878","2019/09/06 19:29:23","新北市中和區中和路350巷8弄16號","121.510213333333","25.0000483333333","6500300","中和區"
"235070","558-UM","2019/09/06 19:29:23","新北市中和區景平路634-20號","121.49798","25.00018","6500300","中和區"
"235045","565-BX","2019/09/06 19:29:25","新北市中和區景新街467巷4號","121.513655","24.98816","6500300","中和區"
"235060","KED-0823","2019/09/06 19:29:27","新北市中和區新生街114巷18號","121.482761666667","25.0023383333333","6500300","中和區"
"235054","640-BX","2019/09/06 19:29:27","新北市中和區莒光路63號","121.4723","25.0037066666667","6500300","中和區"
"235047","732-UM","2019/09/06 19:29:43","新北市中和區景平路259巷47號","121.506095","24.9928433333333","6500300","中和區"
"235046","733-UM","2019/09/06 19:29:40","新北市中和區忠孝街37巷6號","121.511021666667","24.9837433333333","6500300","中和區"
"235071","783-BX","2019/09/06 19:29:35","新北市中和區中正路637巷18弄20號","121.484321666667","24.99506","6500300","中和區"
"235057","801-TS","2019/09/06 19:29:33","新北市中和區員山路152-3號","121.481308333333","24.9984966666667","6500300","中和區"
"235041","802-TS","2019/09/06 19:29:31","新北市中和區中和路390號","121.511058333333","25.0025766666667","6500300","中和區"
"235052","805-TS","2019/09/06 19:29:28","新北市中和區華新街143巷69弄12號","121.507556666667","24.97883","6500300","中和區"
"235048","896-TW","2019/09/06 19:29:25","新北市中和區忠孝街54號","121.511408333333","24.9835983333333","6500300","中和區"
"235053","900-TW","2019/09/06 19:29:30","新北市中和區民德路173號","121.46858","24.9995816666667","6500300","中和區"
"235064","911-UM","2019/09/06 19:29:32","新北市中和區南山路123號","121.502076666667","24.997185","6500300","中和區"
"235051","157-BY","2019/09/06 19:29:24","新北市中和區南華路9號","121.502223333333","24.995515","6500300","中和區"
"235037","AAC-213","2019/09/06 19:29:29","新北市中和區秀朗路三段50巷4弄4號","121.525701666667","24.9957033333333","6500300","中和區"
"235059","AAC-215","2019/09/06 19:29:30","新北市中和區圓通路252巷5弄3號","121.493385","24.9913316666667","6500300","中和區"
"220065","072-UY","2019/09/06 19:29:34","新北市板橋區國泰街78號","121.467361666667","25.0065983333333","6500100","板橋區"
"220086","073-UY","2019/09/06 19:29:40","新北市板橋區中正路216巷48-1號","121.457381666667","25.0188416666667","6500100","板橋區"
"220106","075-UY","2019/09/06 19:29:41","新北市板橋區文化路二段474號","121.475075","25.0328416666667","6500100","板橋區"
"220069","AAD-861","2019/09/06 19:29:30","新北市板橋區貴興路106巷16弄2號","121.454881666667","25.0034016666667","6500100","板橋區"
"220068","120-SR","2019/09/06 19:29:38","新北市板橋區萬安街41號","121.484115","25.0235583333333","6500100","板橋區"
"247004","336-TH","2019/09/06 19:29:34","新北市蘆洲區長安街124號","121.460586666667","25.0818333333333","6501400","蘆洲區"
"226004","312-R5","2019/09/06 19:29:29","新北市平溪區十分里十分街193號","121.778275","25.0439533333333","6502400","平溪區"
"235072","251-BX","2019/09/06 19:29:40","新北市中和區連城路263巷4弄12號","121.491746666667","24.99526","6500300","中和區"
"228003","097-TW","2019/09/06 19:29:22","新北市貢寮區和美里和美街22-1號","121.91283","25.0826233333333","6502600","貢寮區"
"228001","670-TC","2019/09/06 19:29:06","新北市貢寮區真理里大澳街21-1號","121.925058333333","25.0561","6502600","貢寮區"
"224010","AGQ-8101","2019/09/06 19:29:27","新北市瑞芳區基山街154號","121.84323","25.1079116666667","6501200","瑞芳區"
"224008","273-VK","2019/09/06 19:29:24","新北市瑞芳區一坑路99號","121.8022","25.10788","6501200","瑞芳區"
"227001","642-TC","2019/09/06 19:29:29","新北市雙溪區新基里新基北街43號","121.868196666667","25.0397183333333","6502500","雙溪區"
"227002","400-TW","2019/09/06 19:29:22","新北市雙溪區雙溪里光復街16號","121.865098333333","25.035435","6502500","雙溪區"
"253005","032-BX","2019/09/06 19:29:22","新北市石門區小坑9號","121.59381","25.287875","6502200","石門區"
"222001","KEA-2212","2019/09/06 19:29:43","新北市深坑區北深路二段134號","121.615816666667","25.0028983333333","6501800","深坑區"
"208002","KEA-2872","2019/09/06 19:29:31","新北市金山區中山路313巷12號","121.635308333333","25.22334","6502700","金山區"
"208003","665-BX","2019/09/06 19:29:32","新北市金山區仁愛路37-4號","121.636146666667","25.2197433333333","6502700","金山區"
"251009","008-UM","2019/09/06 19:29:30","新北市淡水區中山路118號","121.442038333333","25.17079","6501000","淡水區"
"251001","011-UM","2019/09/06 19:29:43","新北市淡水區民權路133號","121.46002","25.1366166666667","6501000","淡水區"
"251002","012-UM","2019/09/06 19:29:29","新北市淡水區沙崙路300號","121.427425","25.1873216666667","6501000","淡水區"
"251008","181-VK","2019/09/06 19:29:34","新北市淡水區中正路一段33號","121.425935","25.1765833333333","6501000","淡水區"
"251010","413-VK","2019/09/06 19:29:37","新北市淡水區中正路二段150-6號","121.423405","25.187845","6501000","淡水區"
"251007","442-VK","2019/09/06 19:29:39","新北市淡水區八勢路13號","121.460555","25.1537883333333","6501000","淡水區"
"251005","443-VK","2019/09/06 19:29:40","新北市淡水區水源街一段47巷37號","121.444063333333","25.173455","6501000","淡水區"
"251006","561-UM","2019/09/06 19:29:41","新北市淡水區大義街51號","121.441465","25.1782716666667","6501000","淡水區"
"251003","766-UM","2019/09/06 19:29:23","新北市淡水區濱海路一段53號","121.443791666667","25.1892","6501000","淡水區"
"207003","681-TV","2019/09/06 19:29:26","新北市萬里區大鵬里萬里加投103-1號","121.64615","25.2130616666667","6502800","萬里區"
"207004","291-VK","2019/09/06 19:29:43","新北市萬里區萬里里瑪鋉路71號","121.688265","25.1763983333333","6502800","萬里區"
"252002","178-VK","2019/09/06 19:29:25","新北市三芝區淡金路二段18-1號","121.502698333333","25.2594933333333","6502100","三芝區"
"208001","170-UY","2019/09/06 19:29:27","新北市金山區南勢106號","121.62558","25.2201466666667","6502700","金山區"
"237007","153-BY","2019/09/06 19:29:22","新北市三峽區二鬮路136巷20弄81號","121.358055","24.9092216666667","6500900","三峽區"
"237009","210-TH","2019/09/06 19:29:29","新北市三峽區中山路27號","121.368595","24.9343733333333","6500900","三峽區"
"237013","252-BX","2019/09/06 19:29:43","新北市三峽區介壽路一段338巷14號","121.381346666667","24.9295783333333","6500900","三峽區"
"237012","275-BY","2019/09/06 19:29:30","新北市三峽區三樹路98巷169號","121.384471666667","24.9393183333333","6500900","三峽區"
"237008","302-VK","2019/09/06 19:29:34","新北市三峽區永安街183號","121.37316","24.9268833333333","6500900","三峽區"
"237014","433-BY","2019/09/06 19:29:40","新北市三峽區中山路301號","121.36131","24.9375616666667","6500900","三峽區"
"237006","5529-G3","2019/09/06 19:29:41","新北市三峽區中正路一段336巷15弄2號","121.369945","24.9249533333333","6500900","三峽區"
"237011","KEA-2596","2019/09/06 19:29:28","新北市三峽區介壽路一段233號","121.379193333333","24.9303966666667","6500900","三峽區"
"237015","649-BX","2019/09/06 19:29:29","新北市三峽區安坑1-12號","121.43822","24.9263266666667","6500900","三峽區"
"237004","078-UY","2019/09/06 19:29:34","新北市三峽區有木206號","121.43911","24.851595","6500900","三峽區"
"237010","706-TV","2019/09/06 19:29:34","新北市三峽區復興路179-2號","121.369328333333","24.9386933333333","6500900","三峽區"
"237005","AKY-6261","2019/09/06 19:29:35","新北市三峽區復興路367巷1弄13號","121.36407","24.9381083333333","6500900","三峽區"
"236026","269-VK","2019/09/06 19:29:35","新北市土城區中央路二段61巷26號","121.443253333333","24.9786516666667","6501300","土城區"
"236069","KEA-2877","2019/09/06 19:29:37","新北市土城區學府路一段194號","121.453155","24.98595","6501300","土城區"
"252001","KED-0821","2019/09/06 19:29:38","新北市三芝區長勤街63-1號","121.500121666667","25.2560616666667","6502100","三芝區"
"236020","401-BY","2019/09/06 19:29:24","新北市土城區明峰街83號","121.468933333333","24.9874","6501300","土城區"
"236048","913-UM","2019/09/06 19:29:42","新北市土城區清水路217號","121.460601666667","24.982035","6501300","土城區"
"236063","915-UM","2019/09/06 19:29:22","新北市土城區延平街19號","121.468228333333","24.9911916666667","6501300","土城區"
"236055","AAC-216","2019/09/06 19:29:28","新北市土城區學府路一段276號","121.450233333333","24.9833083333333","6501300","土城區"
"242005","751-BX","2019/09/06 19:29:24","新北市新莊區思源路50號","121.460493333333","25.0439883333333","6500500","新莊區"
"242034","442-UM","2019/09/06 19:29:44","新北市新莊區中環路一段299號","121.442106666667","25.0322516666667","6500500","新莊區"
"242009","349-TH","2019/09/06 19:29:36","新北市新莊區三和路12-21號","121.44234","25.0383833333333","6500500","新莊區"
"238015","755-BX","2019/09/06 19:29:28","新北市樹林區大安路530號","121.413898333333","24.9861566666667","6500700","樹林區"
"238023","601-UM","2019/09/06 19:29:31","新北市樹林區三福街28號","121.408388333333","25.01664","6500700","樹林區"
"238019","599-UM","2019/09/06 19:29:32","新北市樹林區鎮前街347巷2弄1號","121.416726666667","24.9836033333333","6500700","樹林區"
"238024","5061-A6","2019/09/06 19:29:27","新北市樹林區味王街6號","121.402878333333","24.9762316666667","6500700","樹林區"
"238018","KEA-2217","2019/09/06 19:29:34","新北市樹林區中華路227號","121.418758333333","24.9809316666667","6500700","樹林區"
"238022","KEA-2213","2019/09/06 19:29:26","新北市樹林區國凱街47巷10號","121.421126666667","24.9796716666667","6500700","樹林區"
"238021","KEA-2539","2019/09/06 19:29:34","新北市樹林區佳園路三段181巷33號","121.38816","24.9476416666667","6500700","樹林區"
"238025","303-VK","2019/09/06 19:29:30","新北市樹林區中山路一段324號","121.419903333333","24.9862433333333","6500700","樹林區"
"238017","283-BY","2019/09/06 19:29:39","新北市樹林區光興街221號","121.408145","25.004925","6500700","樹林區"
"238014","282-BY","2019/09/06 19:29:35","新北市樹林區保安二街10號","121.425065","24.9938383333333","6500700","樹林區"
"238020","268-VK","2019/09/06 19:29:36","新北市樹林區俊英街111巷8-1號","121.424196666667","25.009645","6500700","樹林區"
"238026","172-UY","2019/09/06 19:29:43","新北市樹林區佳園路三段63號","121.387645","24.95291","6500700","樹林區"
"238016","169-UY","2019/09/06 19:29:32","新北市樹林區復興路466號","121.413333333333","24.983625","6500700","樹林區"
"239007","AAC-297","2019/09/06 19:29:38","新北市鶯歌區中山路138巷3-1號","121.349723333333","24.9575616666667","6500800","鶯歌區"
"239006","891-R6","2019/09/06 19:29:41","新北市鶯歌區鶯桃路91巷29號","121.33808","24.9522216666667","6500800","鶯歌區"
"239008","527-UM","2019/09/06 19:29:31","新北市鶯歌區國際二路6巷18號","121.339126666667","24.9737733333333","6500800","鶯歌區"
"239001","417-VK","2019/09/06 19:29:26","新北市鶯歌區建國路373號","121.338983333333","24.9497283333333","6500800","鶯歌區"
"239003","360-BY","2019/09/06 19:29:34","新北市鶯歌區中正二路101號","121.348365","24.9501166666667","6500800","鶯歌區"
"239002","359-BY","2019/09/06 19:29:32","新北市鶯歌區中山路22號","121.352535","24.9570983333333","6500800","鶯歌區"
"239004","193-VK","2019/09/06 19:29:36","新北市鶯歌區二甲路2-1號","121.340476666667","24.9370466666667","6500800","鶯歌區"
"221008","489-VK","2019/09/06 19:29:24","新北市汐止區康寧街235號","121.624141666667","25.0666716666667","6501100","汐止區"
"221032","280-BY","2019/09/06 19:29:31","新北市汐止區民權街二段79號","121.619141666667","25.0479766666667","6501100","汐止區"
"221027","281-BY","2019/09/06 19:29:25","新北市汐止區水源路一段6號","121.657155","25.0668816666667","6501100","汐止區"
"221031","353-TW","2019/09/06 19:29:29","新北市汐止區康寧街901號","121.65077","25.0753233333333","6501100","汐止區"
"221038","646-BX","2019/09/06 19:29:37","新北市汐止區汐萬路一段39-3號","121.654878333333","25.06983","6501100","汐止區"
"221002","707-TV","2019/09/06 19:29:24","新北市汐止區大同路一段331號","121.63834","25.0592383333333","6501100","汐止區"
"220079","145-BY","2019/09/06 19:29:31","新北市板橋區公館街27號","121.46104","25.0152916666667","6500100","板橋區"
"220080","200-UY","2019/09/06 19:29:25","新北市板橋區大觀路二段3巷43號","121.448855","25.0035883333333","6500100","板橋區"
"220082","610-BX","2019/09/06 19:29:38","新北市板橋區金門街131號","121.432913333333","24.9913433333333","6500100","板橋區"
"220101","245-BX","2019/09/06 19:29:39","新北市板橋區莊敬路201號","121.472403333333","25.022235","6500100","板橋區"
"220091","267-BY","2019/09/06 19:29:39","新北市板橋區文聖街135巷16號","121.479258333333","25.0288016666667","6500100","板橋區"
"220056","276-BY","2019/09/06 19:29:31","新北市板橋區干城路8號","121.45955","24.9941166666667","6500100","板橋區"
"220072","277-BY","2019/09/06 19:29:41","新北市板橋區金門街283號","121.431308333333","24.9879716666667","6500100","板橋區"
"220094","283-UM","2019/09/06 19:29:37","新北市板橋區銘傳街41-1號","121.469021666667","25.031315","6500100","板橋區"
"220071","283-VK","2019/09/06 19:29:33","新北市板橋區大豐街89號","121.462146666667","25.0004833333333","6500100","板橋區"
"220053","285-VK","2019/09/06 19:29:39","新北市板橋區懷仁街77巷20號","121.477575","25.018925","6500100","板橋區"
"220083","286-VK","2019/09/06 19:29:36","新北市板橋區龍興街73巷25號","121.442835","25.0025733333333","6500100","板橋區"
"220081","287-VK","2019/09/06 19:29:33","新北市板橋區南雅南路一段106號","121.454928333333","25.0043733333333","6500100","板橋區"
"220090","288-VK","2019/09/06 19:29:27","新北市板橋區裕民街151號","121.458605","25.0270483333333","6500100","板橋區"
"220061","293-UM","2019/09/06 19:29:32","新北市板橋區中山路二段111號","121.474546666667","25.0161166666667","6500100","板橋區"
"220062","295-UM","2019/09/06 19:29:24","新北市板橋區三民路二段202-5號","121.479071666667","25.0145066666667","6500100","板橋區"
"220084","296-UM","2019/09/06 19:29:11","新北市板橋區篤行路三段玉平巷70號","121.428168333333","24.9858566666667","6500100","板橋區"
"220067","299-UM","2019/09/06 19:29:41","新北市板橋區漢生東路279巷10弄7號","121.472096666667","25.0088083333333","6500100","板橋區"
"220075","303-R5","2019/09/06 19:29:25","新北市板橋區中正路275巷93號","121.450665","25.0180383333333","6500100","板橋區"
"220092","307-R5","2019/09/06 19:29:43","新北市板橋區陽明街164巷21號","121.464341666667","25.0245416666667","6500100","板橋區"
"220098","317-R6","2019/09/06 19:29:42","新北市板橋區四維路216-1號","121.463858333333","25.02745","6500100","板橋區"
"220089","487-VK","2019/09/06 19:29:41","新北市板橋區龍泉街104-4號","121.456778333333","25.0247783333333","6500100","板橋區"
"220088","491-VK","2019/09/06 19:29:37","新北市板橋區長江路三段151號","121.47649","25.034675","6500100","板橋區"
"220035","560-BX","2019/09/06 19:29:23","新北市板橋區中正路433巷1號","121.454123333333","25.0232016666667","6500100","板橋區"
"220103","561-BX","2019/09/06 19:29:38","新北市板橋區陽明街29巷19號","121.464501666667","25.0221416666667","6500100","板橋區"
"220063","609-BX","2019/09/06 19:29:42","新北市板橋區三民路一段31巷89弄2號","121.48155","25.023435","6500100","板橋區"
"220057","686-BX","2019/09/06 19:29:35","新北市板橋區廣和街75巷2號","121.462726666667","24.992475","6500100","板橋區"
"220077","687-BX","2019/09/06 19:29:36","新北市板橋區大觀路一段28巷72號","121.449853333333","25.01068","6500100","板橋區"
"220093","689-BX","2019/09/06 19:29:41","新北市板橋區新海路405號","121.458451666667","25.02684","6500100","板橋區"
"220054","741-BX","2019/09/06 19:29:28","新北市板橋區重慶路155巷7號","121.462666666667","25.0040333333333","6500100","板橋區"
"220102","KEA-2699","2019/09/06 19:29:38","新北市板橋區雙十路二段46巷45號","121.475828333333","25.0292616666667","6500100","板橋區"
"220055","827-TW","2019/09/06 19:29:39","新北市板橋區重慶路278巷14號","121.462496666667","24.9996466666667","6500100","板橋區"
"220074","895-R6","2019/09/06 19:29:24","新北市板橋區北門街12號","121.4577","25.0105633333333","6500100","板橋區"
"220073","985-R7","2019/09/06 19:29:42","新北市板橋區中正路377-1號","121.454406666667","25.0214166666667","6500100","板橋區"
"220097","AAC-210","2019/09/06 19:29:25","新北市板橋區文化路一段285巷26號","121.463796666667","25.0193966666667","6500100","板橋區"
"220064","AAC-253","2019/09/06 19:29:38","新北市板橋區中山路一段96號","121.462108333333","25.0102583333333","6500100","板橋區"
"235068","KEA-2873","2019/09/06 19:29:29","新北市中和區景平路493巷12弄27號","121.498446666667","24.996855","6500300","中和區"
"235061","KEA-2875","2019/09/06 19:29:37","新北市中和區員山路143巷27弄2號","121.479536666667","24.995665","6500300","中和區"
