"lineid","car","time","location","longitude","latitude","cityid","cityname"
"232009","291-BY","2019/09/07 07:19:25","新北市坪林區魚堀44-1號","121.70143","24.9330583333333","6502000","坪林區"
"232010","375-UM","2019/09/07 07:19:35","新北市坪林區水聳淒坑13號","121.720551666667","24.9304","6502000","坪林區"
"232016","705-BZ","2019/09/07 07:19:44","新北市坪林區金瓜寮7-2號","121.679841666667","24.9138083333333","6502000","坪林區"
"244005","248-BX","2019/09/07 07:19:33","新北市林口區南勢77-23號","121.354055","25.0799466666667","6501700","林口區"
"222007","289-BY","2019/09/07 06:56:32","新北市深坑區深坑街75號","121.614686666667","25.0013166666667","6501800","深坑區"
"226005","5620-A6","2019/09/07 07:16:12","新北市平溪區菁桐里二坑路28號","121.72158","25.0252733333333","6502400","平溪區"
"226007","7418-A5","2019/09/07 07:19:33","新北市平溪區南山里南山坪6號","121.76442","25.0318533333333","6502400","平溪區"
"226003","AGD-0702","2019/09/07 07:19:32","新北市平溪區嶺腳里嶺腳寮116-1號","121.74719","25.0302983333333","6502400","平溪區"
"223003","205-TH","2019/09/07 07:18:25","新北市石碇區蓬菜寮11號","121.65081","24.97348","6501900","石碇區"
"223008","406-TH","2019/09/07 07:19:24","新北市石碇區番子坑17號","121.67376","25.0012216666667","6501900","石碇區"
"223004","437-BY","2019/09/07 07:19:32","新北市石碇區新興坑28-2號","121.65074","25.01449","6501900","石碇區"
"223001","592-UM","2019/09/07 07:19:40","新北市石碇區中楒子腳1號","121.647068333333","24.9716833333333","6501900","石碇區"
"223007","661-BX","2019/09/07 07:19:33","新北市石碇區蚯蚓坑19-2號","121.688058333333","25.002755","6501900","石碇區"
"227004","282-VK","2019/09/07 07:19:27","新北市雙溪區新基里自強路5號","121.866305","25.0390733333333","6502500","雙溪區"
"252004","249-BX","2019/09/07 07:19:32","新北市三芝區福德里大湖10號","121.50463","25.223145","6502100","三芝區"
"252007","AAC-283","2019/09/07 07:19:26","新北市三芝區錫板里海尾29-1號","121.487256666667","25.2543983333333","6502100","三芝區"
