"lineid","car","time","location","longitude","latitude","cityid","cityname"
"232010","375-UM","2019/09/07 07:39:35","新北市坪林區磨壁潭10號","121.722455","24.9383816666667","6502000","坪林區"
"244005","248-BX","2019/09/07 07:39:33","新北市林口區下福里9-1號","121.316046666667","25.102505","6501700","林口區"
"226005","5620-A6","2019/09/07 07:39:32","新北市平溪區平溪里平溪街20號","121.738903333333","25.0252583333333","6502400","平溪區"
"226007","7418-A5","2019/09/07 07:39:33","新北市平溪區平湖里大厝37-3號","121.779531666667","25.02999","6502400","平溪區"
"226003","AGD-0702","2019/09/07 07:27:12","新北市平溪區嶺腳里嶺腳寮85號","121.749713333333","25.0353316666667","6502400","平溪區"
"223003","205-TH","2019/09/07 07:39:25","新北市石碇區烏塗窟3號","121.65466","24.9761083333333","6501900","石碇區"
"223008","406-TH","2019/09/07 07:39:43","新北市石碇區頭7號","121.707591666667","24.997675","6501900","石碇區"
"223004","437-BY","2019/09/07 07:39:31","新北市石碇區八分寮45-1號","121.642233333333","25.0133033333333","6501900","石碇區"
"223001","592-UM","2019/09/07 07:39:40","新北市石碇區烏塗窟46-2號","121.65578","24.9732983333333","6501900","石碇區"
"223007","661-BX","2019/09/07 07:39:33","新北市石碇區靜安路一段337號","121.698688333333","25.0145","6501900","石碇區"
"227004","282-VK","2019/09/07 07:39:27","新北市雙溪區雙溪里太平路54號","121.864798333333","25.0355033333333","6502500","雙溪區"
"252004","249-BX","2019/09/07 07:39:32","新北市三芝區店子里菜公坑75號","121.510003333333","25.206265","6502100","三芝區"
"252007","AAC-283","2019/09/07 07:39:47","新北市三芝區古庄里茂興店62號","121.488051666667","25.2660866666667","6502100","三芝區"
"237014","760-BX","2019/09/07 07:39:31","新北市三峽區插角115號","121.4082","24.8703933333333","6500900","三峽區"
