"lineid","car","time","location","longitude","latitude","cityid","cityname"
"232017","290-BY","2019/07/29 08:23:45","新北市坪林區柑腳坑15號","121.773141666667","24.94705","6502000","坪林區"
"232005","291-BY","2019/07/29 08:29:22","新北市坪林區鶯子瀨3-7號","121.705928333333","24.9141516666667","6502000","坪林區"
"232012","705-BZ","2019/07/29 08:28:43","新北市坪林區九芎根1號","121.673063333333","24.893835","6502000","坪林區"
"232001","758-BX","2019/07/29 08:29:15","新北市坪林區大粗坑6-1號","121.732205","24.948425","6502000","坪林區"
"244006","080-UY","2019/07/29 08:29:10","新北市林口區湖子3鄰15號","121.386148333333","25.09024","6501700","林口區"
"244001","248-BX","2019/07/29 08:29:12","","121.32183","25.1210966666667","6501700","林口區"
"244012","KEA-2802","2019/07/29 08:29:27","新北市林口區中山路27號","121.395408333333","25.0782516666667","6501700","林口區"
"244022","483-VK","2019/07/29 08:29:26","新北市林口區東明一街15巷15號","121.393201666667","25.071975","6501700","林口區"
"244016","485-VK","2019/07/29 08:29:29","新北市林口區文化二路一段230巷80-1號","121.372076666667","25.073065","6501700","林口區"
"244008","656-BX","2019/07/29 08:29:11","新北市林口區中北三街61號","121.384773333333","25.0855366666667","6501700","林口區"
"244010","701-TV","2019/07/29 08:29:25","新北市林口區中正路255號","121.390625","25.077615","6501700","林口區"
"244024","837-TS","2019/07/29 08:29:19","新北市林口區文化三路一段179號","121.361988333333","25.0694983333333","6501700","林口區"
"244020","838-TS","2019/07/29 08:29:16","新北市林口區中山路2-2號","121.396788333333","25.0786833333333","6501700","林口區"
"222005","289-BY","2019/07/29 08:29:22","新北市深坑區萬福路169-1號","121.614565","25.0146883333333","6501800","深坑區"
"231007","189-VK","2019/07/29 08:29:24","新北市新店區新潭路一段200號","121.529615","24.9303766666667","6500600","新店區"
"231008","192-VK","2019/07/29 08:29:16","新北市新店區新烏路三段165巷58-1號","121.553723333333","24.9010666666667","6500600","新店區"
"226001","8452-VL","2019/07/29 08:29:12","新北市平溪區東勢里芊蓁林61號","121.750383333333","25.0051633333333","6502400","平溪區"
"226003","AGD-0702","2019/07/29 08:29:19","新北市平溪區靜安路三段400號","121.783933333333","25.0512083333333","6502400","平溪區"
"223003","205-TH","2019/07/29 08:29:27","新北市石碇區北宜路六段塗潭巷28號","121.648623333333","24.9325566666667","6501900","石碇區"
"223008","406-TH","2019/07/29 08:29:19","新北市石碇區串空湖7號","121.670786666667","25.0014066666667","6501900","石碇區"
"223001","592-UM","2019/07/29 08:29:21","新北市石碇區北宜路六段塗潭巷28號","121.648575","24.9325733333333","6501900","石碇區"
"223004","660-BX","2019/07/29 08:29:20","新北市石碇區碇坪路一段152號","121.660391666667","24.9911466666667","6501900","石碇區"
"223007","661-BX","2019/07/29 08:29:16","新北市石碇區靜安路一段105號","121.66277","25.0071916666667","6501900","石碇區"
"223005","677-TV","2019/07/29 08:29:16","新北市石碇區碇坪路一段152號","121.660376666667","24.99122","6501900","石碇區"
"227003","282-VK","2019/07/29 08:29:23","新北市雙溪區外柑里三叉坑4-2號","121.826563333333","25.0146433333333","6502500","雙溪區"
"252006","073-UM","2019/07/29 08:29:27","新北市三芝區後厝里大片頭66號","121.465533333333","25.2439966666667","6502100","三芝區"
"252004","249-BX","2019/07/29 08:29:24","新北市三芝區興華里車埕11號","121.503053333333","25.1991633333333","6502100","三芝區"
"237014","760-BX","2019/07/29 08:29:14","新北市三峽區詩朗62號","121.367935","24.8442616666667","6500900","三峽區"
"226005","ANY-2373","2019/07/29 08:29:13","新北市平溪區南山里六分10號","121.797448333333","25.04986","6502400","平溪區"
"242038","AAC-296","2019/07/29 08:29:13","新北市新莊區民安西路24巷21號","121.426038333333","25.0206066666667","6500500","新莊區"
"242059","986-R7","2019/07/29 08:29:15","新北市新莊區新樹路226號","121.433593333333","25.0197816666667","6500500","新莊區"
"242001","751-BX","2019/07/29 08:29:21","新北市新莊區新莊路5號","121.459333333333","25.0378233333333","6500500","新莊區"
"242028","615-BX","2019/07/29 08:29:08","新北市新莊區中平路202號","121.44478","25.048755","6500500","新莊區"
"242026","613-BX","2019/07/29 08:29:23","新北市新莊區思源路296巷20號","121.460031666667","25.0498366666667","6500500","新莊區"
"242057","612-BX","2019/07/29 08:29:28","新北市新莊區壽山路160巷21號","121.417428333333","25.0319166666667","6500500","新莊區"
"242049","497-BY","2019/07/29 08:29:20","新北市新莊區民本街27巷17號","121.42909","25.0192483333333","6500500","新莊區"
"242045","442-UM","2019/07/29 08:29:20","新北市新莊區中正路651-8號","121.430176666667","25.030235","6500500","新莊區"
"242055","441-UM","2019/07/29 08:29:30","新北市新莊區豐年街100巷1號","121.446476666667","25.0307366666667","6500500","新莊區"
"242003","440-UM","2019/07/29 08:29:27","新北市新莊區福樂街71巷30-1號","121.457231666667","25.046945","6500500","新莊區"
"242040","415-TV","2019/07/29 08:29:28","新北市新莊區中正路857號","121.419778333333","25.0281333333333","6500500","新莊區"
"242010","413-TV","2019/07/29 08:29:24","新北市新莊區中信街90號","121.44784","25.0533866666667","6500500","新莊區"
"242047","400-BY","2019/07/29 08:29:18","新北市新莊區萬安街47巷1號","121.421981666667","25.0246183333333","6500500","新莊區"
"242024","362-BY","2019/07/29 08:29:31","新北市新莊區五權一路3-9號","121.457721666667","25.0657816666667","6500500","新莊區"
"242022","353-BY","2019/07/29 08:29:23","新北市新莊區幸福路7號","121.459251666667","25.049455","6500500","新莊區"
"242012","132-UY","2019/07/29 08:29:10","新北市新莊區中和街125巷2號","121.447203333333","25.0486316666667","6500500","新莊區"
"242035","135-UY","2019/07/29 08:29:27","新北市新莊區後港一路32號","121.425455","25.0260666666667","6500500","新莊區"
"242052","172-VK","2019/07/29 08:29:29","新北市新莊區民安西路468-1號","121.431615","25.0077616666667","6500500","新莊區"
"242014","173-VK","2019/07/29 08:29:21","新北市新莊區中平路132巷3弄1號","121.44539","25.0467666666667","6500500","新莊區"
"242020","175-VK","2019/07/29 08:29:24","新北市新莊區中華路一段63巷42號","121.449955","25.039235","6500500","新莊區"
"242018","KED-0687","2019/07/29 08:29:20","新北市新莊區民樂街20巷2號","121.457755","25.040235","6500500","新莊區"
"242033","348-TH","2019/07/29 08:29:21","新北市新莊區中正路377巷3號","121.44629","25.034135","6500500","新莊區"
"242006","349-TH","2019/07/29 08:29:16","新北市新莊區中華路三段86號","121.452146666667","25.0562116666667","6500500","新莊區"
"242030","350-TH","2019/07/29 08:29:23","新北市新莊區新泰路289巷35號","121.44394","25.0404133333333","6500500","新莊區"
"242016","351-TH","2019/07/29 08:29:21","新北市新莊區永樂街136號","121.449401666667","25.0447633333333","6500500","新莊區"
"244018","KED-0667","2019/07/29 08:29:23","新北市林口區公園路233號","121.37409","25.074615","6501700","林口區"
"233003","KEC-0709","2019/07/29 08:29:23","新北市烏來區烏來街1號","121.551336666667","24.86598","6502900","烏來區"
"242043","281-VK","2019/07/29 08:29:25","新北市新莊區雙鳳路135號","121.412898333333","25.0274316666667","6500500","新莊區"
"242008","280-VK","2019/07/29 08:29:13","新北市新莊區中華路二段314號","121.452398333333","25.05393","6500500","新莊區"
