"lineid","car","time","location","longitude","latitude","cityid","cityname"
"244022","483-VK","2019/07/29 10:09:26","","121.372128333333","25.081545","6501700","林口區"
"231008","192-VK","2019/07/29 10:05:36","","121.531536666667","24.911955","6500600","新店區"
"227003","282-VK","2019/07/29 10:06:03","","121.812471666667","24.92899","6502500","雙溪區"
"252006","AAC-283","2019/07/29 10:09:13","","121.494215","25.2677666666667","6502100","三芝區"
"237014","760-BX","2019/07/29 10:09:14","","121.367428333333","24.92352","6500900","三峽區"
"242059","986-R7","2019/07/29 10:09:15","","121.44022","25.0320483333333","6500500","新莊區"
