"lineid","car","time","location","longitude","latitude","cityid","cityname"
"234015","745-BX","2019/07/29 12:29:37","新北市永和區福和路1號","121.526313333333","25.0095883333333","6500400","永和區"
"234012","KEA-2591","2019/07/29 12:29:51","新北市永和區信義路39號","121.513301666667","25.0123283333333","6500400","永和區"
"234068","748-BX","2019/07/29 12:28:27","新北市永和區福和路1號","121.525505","25.0097333333333","6500400","永和區"
"234040","862-TW","2019/07/29 12:29:36","新北市永和區福和路1號","121.525618333333","25.0093666666667","6500400","永和區"
"234076","969-R7","2019/07/29 12:29:46","新北市永和區豫溪街217巷15號","121.524921666667","25.0101133333333","6500400","永和區"
"207002","749-BX","2019/07/29 12:29:34","新北市萬里區中幅里大湖路6號","121.65961","25.1708166666667","6502800","萬里區"
"235025","KEA-2875","2019/07/29 12:28:51","新北市中和區員山路36巷16-2號","121.485278333333","24.991635","6500300","中和區"
