"lineid","car","time","location","longitude","latitude","cityid","cityname"
"234044","148-BY","2019/07/29 13:59:52","新北市永和區成功路一段51號","121.527021666667","25.0039066666667","6500400","永和區"
"234078","298-R6","2019/07/29 13:59:41","新北市永和區永利路73號","121.521236666667","25.0039716666667","6500400","永和區"
"234036","336-UY","2019/07/29 13:59:42","新北市永和區成功路二段177-1號","121.526561666667","24.996805","6500400","永和區"
"234062","337-UY","2019/07/29 13:59:43","新北市永和區中正路412巷20弄27號","121.519145","25.0012716666667","6500400","永和區"
"234084","338-UY","2019/07/29 13:59:56","新北市永和區福和路231號","121.518545","25.00755","6500400","永和區"
"234015","745-BX","2019/07/29 13:59:53","新北市永和區文化路75號","121.513785","25.0151516666667","6500400","永和區"
"234028","746-BX","2019/07/29 13:59:36","新北市永和區四維街67號","121.525658333333","24.9978566666667","6500400","永和區"
"234052","KEA-2590","2019/07/29 13:59:48","新北市永和區竹林路39巷46號","121.52027","25.0152066666667","6500400","永和區"
"234005","KED-0605","2019/07/29 13:59:36","新北市中和區中和路332號","121.509975","25.0013433333333","6500400","永和區"
"234012","KEA-2591","2019/07/29 13:59:47","新北市永和區保生路55號","121.504726666667","25.0106116666667","6500400","永和區"
"234060","AAD-866","2019/07/29 13:59:52","新北市永和區中正路151巷5弄2-1號","121.515653333333","24.9987183333333","6500400","永和區"
"234068","748-BX","2019/07/29 13:59:47","新北市永和區國光路35號","121.519271666667","25.008355","6500400","永和區"
"234040","862-TW","2019/07/29 13:59:36","新北市永和區中和路389巷2-1號","121.508423333333","25.0003716666667","6500400","永和區"
"234048","863-TW","2019/07/29 13:59:48","新北市永和區保安路264號","121.505856666667","25.0123833333333","6500400","永和區"
"248015","026-BX","2019/07/29 13:59:39","新北市五股區成泰路三段577巷24號","121.451465","25.1029033333333","6501500","五股區"
"248007","KED-0815","2019/07/29 13:59:49","新北市五股區中興路一段128巷2號","121.465701666667","25.0739116666667","6501500","五股區"
"248019","KED-0813","2019/07/29 13:59:49","新北市五股區凌雲路三段71-4號","121.423801666667","25.1229316666667","6501500","五股區"
"248011","247-BX","2019/07/29 13:59:52","新北市五股區成泰路二段195巷1號","121.440451666667","25.087375","6501500","五股區"
"248013","261-SL","2019/07/29 13:59:54","新北市五股區民義路一段107巷32號","121.432673333333","25.084545","6501500","五股區"
"248003","677-BX","2019/07/29 13:59:49","新北市五股區民義路二段42-5號","121.415531666667","25.100105","6501500","五股區"
"248001","678-BX","2019/07/29 13:59:43","新北市五股區凌雲路一段140號","121.449503333333","25.1022833333333","6501500","五股區"
"248009","682-TV","2019/07/29 13:59:39","新北市五股區水碓一路23號","121.430625","25.0713016666667","6501500","五股區"
"234022","9380-KE","2019/07/29 13:59:42","新北市永和區永和路二段239-1號","121.515726666667","25.0145666666667","6500400","永和區"
"234076","969-R7","2019/07/29 13:59:48","新北市永和區民族街43巷19號","121.519358333333","24.998385","6500400","永和區"
"234072","AAC-211","2019/07/29 13:59:46","新北市永和區豫溪街187巷2號","121.522576666667","25.01048","6500400","永和區"
"234066","AAC-212","2019/07/29 13:59:40","新北市永和區永貞路358號","121.510251666667","25.006605","6500400","永和區"
"234001","AAC-295","2019/07/29 13:59:38","新北市永和區福和路345號","121.515331666667","25.007145","6500400","永和區"
"244001","248-BX","2019/07/29 13:59:36","新北市八里區中山路三段409號","121.368668333333","25.1356533333333","6501700","林口區"
"243004","AAD-798","2019/07/29 13:59:42","新北市泰山區福興三街28號","121.43395","25.0576316666667","6501600","泰山區"
"243002","297-R6","2019/07/29 13:59:46","新北市泰山區辭修路22號","121.42912","25.0582366666667","6501600","泰山區"
"243006","KEA-2801","2019/07/29 13:59:47","新北市泰山區黎明路23號","121.420885","25.062585","6501600","泰山區"
"243008","421-VK","2019/07/29 13:59:46","新北市泰山區民權街7號","121.428211666667","25.0511433333333","6501600","泰山區"
"243003","KEA-2216","2019/07/29 13:59:38","新北市泰山區明志路二段246-1號","121.427041666667","25.04814","6501600","泰山區"
"243007","680-BX","2019/07/29 13:59:51","新北市泰山區美寧街48號","121.430468333333","25.06436","6501600","泰山區"
"231030","002-UM","2019/07/29 13:59:58","新北市新店區安康路一段146號","121.526451666667","24.9629883333333","6500600","新店區"
"231024","0291-UT","2019/07/29 13:59:41","新北市新店區北新路一段271巷8號","121.540495","24.966785","6500600","新店區"
"231027","0293-UT","2019/07/29 13:59:52","新北市新店區北宜路一段39巷20號","121.538891666667","24.9582966666667","6500600","新店區"
"231005","046-UY","2019/07/29 13:59:50","新北市新店區中興路三段190號","121.544035","24.981675","6500600","新店區"
"231029","106-UY","2019/07/29 13:59:46","新北市新店區安和路一段1號","121.516526666667","24.9637466666667","6500600","新店區"
"231018","107-UY","2019/07/29 13:59:47","新北市新店區中央路192號","121.530813333333","24.9746833333333","6500600","新店區"
"231013","108-UY","2019/07/29 13:59:42","新北市新店區明德路111號","121.541531666667","24.979405","6500600","新店區"
"231036","110-UY","2019/07/29 13:59:20","新北市新店區安祥路110巷53號","121.473716666667","24.95684","6500600","新店區"
"231031","256-BX","2019/07/29 13:59:54","新北市新店區莒光路101-3號","121.520521666667","24.9522433333333","6500600","新店區"
"231023","260-TV","2019/07/29 13:59:45","新北市新店區文中路40號","121.53971","24.956605","6500600","新店區"
"231003","268-BY","2019/07/29 13:59:48","新北市新店區北宜路一段3號","121.53843","24.95858","6500600","新店區"
"231035","278-BY","2019/07/29 13:59:41","新北市新店區安康路二段1-5號","121.517105","24.9638416666667","6500600","新店區"
"231014","AAD-862","2019/07/29 13:59:39","新北市新店區北宜路二段233號","121.553701666667","24.95342","6500600","新店區"
"231006","355-BY","2019/07/29 13:59:41","新北市新店區北宜路二段129號","121.550855","24.9529883333333","6500600","新店區"
"231038","3712-VJ","2019/07/29 13:59:37","新北市新店區安華路30巷1號","121.51965","24.9593033333333","6500600","新店區"
"231025","4715-K9","2019/07/29 13:59:36","新北市新店區中正路302巷40號","121.538736666667","24.97595","6500600","新店區"
"231019","513-UM","2019/07/29 13:59:48","新北市新店區新烏路二段40-2號","121.544885","24.92833","6500600","新店區"
"231002","619-UM","2019/07/29 13:59:47","新北市新店區中正路636號","121.533995","24.9891016666667","6500600","新店區"
"231034","641-BX","2019/07/29 13:59:46","新北市新店區達觀路40號","121.50313","24.9391366666667","6500600","新店區"
"231011","KED-0819","2019/07/29 13:59:44","新北市新店區中興路二段59號","121.546373333333","24.970505","6500600","新店區"
"231010","719-UM","2019/07/29 13:59:41","新北市新店區安康路一段156號","121.526251666667","24.9629933333333","6500600","新店區"
"231026","720-UM","2019/07/29 13:59:47","新北市新店區三民路159巷19弄46號","121.532146666667","24.9732583333333","6500600","新店區"
"231028","897-TW","2019/07/29 13:59:39","新北市新店區安和路三段31號","121.517693333333","24.981655","6500600","新店區"
"231001","898-TW","2019/07/29 13:59:42","新北市新店區三民路43號","121.537143333333","24.9708766666667","6500600","新店區"
"231004","899-TW","2019/07/29 13:59:43","新北市新店區北新路二段133號","121.542875","24.97549","6500600","新店區"
"231037","AKT-0513","2019/07/29 13:59:51","新北市新店區安康路三段355巷21號","121.484868333333","24.9501783333333","6500600","新店區"
"235030","003-UY","2019/07/29 13:59:51","新北市中和區水源路6巷6號","121.503455","25.0033816666667","6500300","中和區"
"235028","005-UY","2019/07/29 13:59:47","新北市中和區泰和街36號","121.499393333333","25.000145","6500300","中和區"
"235027","006-UY","2019/07/29 13:59:45","新北市中和區中正路562號","121.486708333333","24.9945","6500300","中和區"
"235020","096-UM","2019/07/29 13:59:51","新北市中和區中正路1230號","121.479128333333","25.01085","6500300","中和區"
"235003","097-UM","2019/07/29 13:59:40","新北市中和區秀朗路三段179號","121.524411666667","24.9908366666667","6500300","中和區"
"235029","098-UM","2019/07/29 13:59:47","新北市中和區勝利路5號","121.499845","25.0081116666667","6500300","中和區"
"235004","150-BY","2019/07/29 13:59:51","新北市中和區保健路46巷2號","121.509678333333","24.99712","6500300","中和區"
"235022","151-BY","2019/07/29 13:59:52","新北市中和區員山路75號","121.480676666667","24.9941283333333","6500300","中和區"
"235019","183-VK","2019/07/29 13:59:39","新北市中和區德光路35號","121.470555","25.0041916666667","6500300","中和區"
"235002","185-VK","2019/07/29 13:59:46","新北市中和區立人街22號","121.519006666667","24.994255","6500300","中和區"
"235013","186-VK","2019/07/29 13:59:46","新北市中和區景安路68號","121.505821666667","24.9967033333333","6500300","中和區"
"235031","255-BX","2019/07/29 13:59:46","新北市中和區新生街195號","121.48387","25.0002183333333","6500300","中和區"
"235008","293-VK","2019/07/29 13:59:38","新北市中和區中興街161巷8弄1號","121.501038333333","24.99086","6500300","中和區"
"235036","301-VK","2019/07/29 13:59:50","新北市中和區中山路二段122號","121.502535","25.0035916666667","6500300","中和區"
"235007","352-BY","2019/07/29 13:59:47","新北市中和區成功路57號","121.526168333333","24.992735","6500300","中和區"
"235006","KEA-2878","2019/07/29 13:59:45","新北市中和區秀朗路三段128巷1弄7號","121.524216666667","24.99196","6500300","中和區"
"247013","KEA-2869","2019/07/29 13:59:38","新北市蘆洲區保和街87號","121.468965","25.0860333333333","6501400","蘆洲區"
"247007","KED-0682","2019/07/29 13:59:45","新北市三重區永安北路二段5巷2號","121.48176","25.08114","6501400","蘆洲區"
"235014","4979-A6","2019/07/29 13:59:36","新北市中和區華新街50巷7號","121.507658333333","24.9839333333333","6500300","中和區"
"235033","4980-A6","2019/07/29 13:59:42","新北市中和區圓通路83號","121.499768333333","24.9968616666667","6500300","中和區"
"235034","558-UM","2019/07/29 13:59:44","新北市中和區中和路247號","121.504883333333","24.9998316666667","6500300","中和區"
"235009","565-BX","2019/07/29 13:59:55","新北市中和區景新街467巷20弄17號","121.514856666667","24.9874283333333","6500300","中和區"
"235024","KED-0823","2019/07/29 13:59:43","新北市中和區中山路三段118號","121.475485","25.0060733333333","6500300","中和區"
"235018","640-BX","2019/07/29 13:59:46","新北市中和區民享街83號","121.474253333333","25.0017266666667","6500300","中和區"
"235011","732-UM","2019/07/29 13:59:43","新北市中和區興南路二段54巷11弄1號","121.50588","24.9855816666667","6500300","中和區"
"235010","733-UM","2019/07/29 13:59:53","新北市中和區興南路二段31巷6號","121.507846666667","24.9855683333333","6500300","中和區"
"235035","783-BX","2019/07/29 13:59:40","新北市中和區立德街26巷5弄17號","121.489821666667","25.0077233333333","6500300","中和區"
"235026","800-TS","2019/07/29 13:59:53","新北市中和區橋安街10號","121.492435","25.0052683333333","6500300","中和區"
"235021","801-TS","2019/07/29 13:59:52","新北市中和區民利街54號","121.479248333333","24.9987383333333","6500300","中和區"
"235052","805-TS","2019/07/29 13:59:42","新北市中和區興南路二段131-15號","121.504206666667","24.9801983333333","6500300","中和區"
"235012","896-TW","2019/07/29 13:59:48","新北市中和區南山路509號","121.507983333333","24.987535","6500300","中和區"
"235017","900-TW","2019/07/29 13:59:49","新北市板橋區和平路188號","121.463676666667","24.9959183333333","6500300","中和區"
"235015","157-BY","2019/07/29 13:59:54","新北市中和區忠孝街31巷35號","121.509836666667","24.9846866666667","6500300","中和區"
"235001","AAC-213","2019/07/29 13:59:47","新北市中和區秀朗路三段58-2號","121.525918333333","24.9951233333333","6500300","中和區"
"235023","AAC-215","2019/07/29 13:59:45","新北市中和區圓通路369巷14弄8號","121.49042","24.9878616666667","6500300","中和區"
"220016","015-TV","2019/07/29 13:59:49","新北市板橋區中山路二段465巷24號","121.481621666667","25.0212366666667","6500100","板橋區"
"220013","072-UY","2019/07/29 13:59:53","新北市板橋區漢生東路319號","121.471856666667","25.0079183333333","6500100","板橋區"
"220034","073-UY","2019/07/29 13:59:51","新北市板橋區大智街40-2號","121.454951666667","25.0152033333333","6500100","板橋區"
"220105","075-UY","2019/07/29 13:59:51","新北市板橋區雙十路三段12號","121.471871666667","25.0306283333333","6500100","板橋區"
"220017","AAD-861","2019/07/29 13:59:46","新北市板橋區貴興路7號","121.457723333333","25.0043666666667","6500100","板橋區"
"247017","546-UM","2019/07/29 13:59:45","新北市蘆洲區民族路327巷100-1號","121.4751","25.090285","6501400","蘆洲區"
"247003","341-TH","2019/07/29 13:59:52","新北市蘆洲區長安街102巷4號","121.461931666667","25.08144","6501400","蘆洲區"
"247023","337-TH","2019/07/29 13:59:41","新北市蘆洲區光榮路128號","121.46495","25.0893483333333","6501400","蘆洲區"
"247001","336-TH","2019/07/29 13:59:53","新北市蘆洲區永平街32巷61號","121.459988333333","25.0928816666667","6501400","蘆洲區"
"247021","057-VK","2019/07/29 13:59:55","新北市蘆洲區中正路174巷2號","121.467328333333","25.0879383333333","6501400","蘆洲區"
"247011","056-VK","2019/07/29 13:59:58","新北市蘆洲區中興街30號","121.480903333333","25.0869483333333","6501400","蘆洲區"
"247015","053-VK","2019/07/29 13:59:37","新北市蘆洲區光華路42號","121.46895","25.0830866666667","6501400","蘆洲區"
"247005","002-UY","2019/07/29 13:59:40","新北市蘆洲區永安南路二段52-1號","121.465798333333","25.07775","6501400","蘆洲區"
"235005","251-BX","2019/07/29 13:59:45","新北市中和區中安街50號","121.512838333333","25.0024633333333","6500300","中和區"
"253003","6232-TK","2019/07/29 13:59:53","新北市石門區尖子鹿51號","121.580673333333","25.2731266666667","6502200","石門區"
"253004","6251-TK","2019/07/29 13:59:43","新北市石門區小坑40號","121.59915","25.2650883333333","6502200","石門區"
"253002","637-UY","2019/07/29 13:58:01","新北市石門區尖山湖17號","121.560713333333","25.2462183333333","6502200","石門區"
"253001","KEC-0718","2019/07/29 13:59:48","新北市石門區八甲74號","121.529786666667","25.2643916666667","6502200","石門區"
"243001","549-UM","2019/07/29 13:59:53","新北市泰山區泰林路二段364號","121.428691666667","25.063805","6501600","泰山區"
"207002","749-BX","2019/07/29 13:59:54","新北市萬里區溪底里烏塗炭9-2號","121.641175","25.15062","6502800","萬里區"
"252005","073-UM","2019/07/29 13:58:18","新北市三芝區圓山里二坪頂46號","121.539981666667","25.2301566666667","6502100","三芝區"
"207001","662-BX","2019/07/29 13:59:51","新北市萬里區磺潭里清水13號","121.63715","25.2022383333333","6502800","萬里區"
"236040","KED-0685","2019/07/29 13:59:42","新北市土城區城林路6巷80號","121.438528333333","24.9797016666667","6501300","土城區"
"236074","166-UM","2019/07/29 13:59:51","新北市土城區永寧路32巷10弄21號","121.428988333333","24.9610666666667","6501300","土城區"
"236029","253-BX","2019/07/29 13:59:40","新北市土城區城林路6巷80號","121.43859","24.9797466666667","6501300","土城區"
"236024","269-VK","2019/07/29 13:59:47","新北市土城區中華路二段56號","121.439106666667","24.9774433333333","6501300","土城區"
"236012","270-VK","2019/07/29 13:59:56","新北市土城區城林路6巷80號","121.438458333333","24.979785","6501300","土城區"
"236032","271-VK","2019/07/29 13:59:43","新北市土城區中華路一段301號","121.439903333333","24.9793933333333","6501300","土城區"
"247009","KED-0683","2019/07/29 13:59:36","新北市蘆洲區中興街38號","121.48138","25.0871683333333","6501400","蘆洲區"
"236064","KEA-2877","2019/07/29 13:59:47","新北市土城區城林路6巷80號","121.4387","24.97968","6501300","土城區"
"236016","401-BY","2019/07/29 13:59:56","新北市土城區城林路6巷80號","121.43852","24.9798466666667","6501300","土城區"
"236057","912-UM","2019/07/29 13:59:54","新北市土城區中央路四段45-1號","121.422295","24.9618516666667","6501300","土城區"
"236045","913-UM","2019/07/29 13:59:41","新北市土城區中央路二段280號","121.440846666667","24.9741666666667","6501300","土城區"
"236060","915-UM","2019/07/29 13:59:44","新北市土城區員福街16號","121.441656666667","24.9785966666667","6501300","土城區"
"236054","AAC-216","2019/07/29 13:59:40","新北市土城區城林路6巷80號","121.43848","24.9797716666667","6501300","土城區"
"221018","753-BX","2019/07/29 13:59:45","新北市汐止區大同路一段337巷16弄46-2號","121.637096666667","25.0619066666667","6501100","汐止區"
"220027","145-BY","2019/07/29 13:59:44","新北市板橋區大智街78-3號","121.453706666667","25.01562","6500100","板橋區"
"220028","200-UY","2019/07/29 13:59:54","新北市板橋區大觀路二段力行1巷3弄2號","121.445235","24.9992233333333","6500100","板橋區"
"220030","610-BX","2019/07/29 13:59:46","新北市板橋區篤行路三段10號","121.42909","24.9876183333333","6500100","板橋區"
"220032","256-TC","2019/07/29 13:59:52","新北市板橋區大觀路三段36巷5號","121.433581666667","24.99584","6500100","板橋區"
"220004","276-BY","2019/07/29 13:59:55","新北市板橋區信義路143號","121.458113333333","24.9930566666667","6500100","板橋區"
"220020","277-BY","2019/07/29 13:59:53","新北市樹林區樹新路120巷12號","121.43023","24.9972516666667","6500100","板橋區"
"220050","280-UM","2019/07/29 13:59:43","新北市板橋區萬板路11號","121.470388333333","25.0209083333333","6500100","板橋區"
"220019","283-VK","2019/07/29 13:59:52","新北市板橋區重慶路245巷69號","121.465616666667","25.001115","6500100","板橋區"
"220043","285-UM","2019/07/29 13:59:40","新北市板橋區光武街136巷1-1號","121.46548","25.030105","6500100","板橋區"
"220001","285-VK","2019/07/29 13:59:50","新北市板橋區永豐街46號","121.474511666667","25.0196333333333","6500100","板橋區"
"220031","286-VK","2019/07/29 13:59:46","新北市板橋區大觀路一段38巷178號","121.441595","25.0046433333333","6500100","板橋區"
"220029","287-VK","2019/07/29 13:59:56","新北市板橋區光華街19巷8號","121.453693333333","25.0120966666667","6500100","板橋區"
"220039","288-VK","2019/07/29 13:59:53","新北市板橋區裕民街11號","121.46218","25.0290433333333","6500100","板橋區"
"220009","293-UM","2019/07/29 13:59:46","新北市板橋區中山路二段287號","121.478136666667","25.017955","6500100","板橋區"
"220023","303-R5","2019/07/29 13:59:42","新北市板橋區南興路3號","121.455183333333","25.0080366666667","6500100","板橋區"
"220010","305-R5","2019/07/29 13:59:55","新北市板橋區三民路二段245巷63號","121.480903333333","25.0125783333333","6500100","板橋區"
"220041","307-R5","2019/07/29 13:59:43","","121.469145","25.0294533333333","6500100","板橋區"
"220047","317-R6","2019/07/29 13:59:34","新北市板橋區民生路二段226巷40號","121.471425","25.0221916666667","6500100","板橋區"
"220038","487-VK","2019/07/29 13:59:37","新北市板橋區文化路二段357號","121.472933333333","25.0307383333333","6500100","板橋區"
"220037","491-VK","2019/07/29 13:59:38","新北市板橋區莒光路165巷42-1號","121.474463333333","25.02509","6500100","板橋區"
"220104","560-BX","2019/07/29 13:59:45","新北市板橋區中正路325巷23號","121.454166666667","25.01967","6500100","板橋區"
"220052","561-BX","2019/07/29 13:59:41","新北市板橋區介壽街66號","121.469286666667","25.0195033333333","6500100","板橋區"
"220011","609-BX","2019/07/29 13:59:52","新北市板橋區三民路二段31號","121.47955","25.0177766666667","6500100","板橋區"
"220040","637-BX","2019/07/29 13:59:39","新北市板橋區大同街14-4號","121.477463333333","25.0269483333333","6500100","板橋區"
"220005","686-BX","2019/07/29 13:59:49","新北市板橋區重慶路307號","121.463885","24.9987533333333","6500100","板橋區"
"220025","687-BX","2019/07/29 13:59:34","新北市板橋區篤行路一段18號","121.432108333333","24.9951166666667","6500100","板橋區"
"220042","689-BX","2019/07/29 13:59:55","新北市板橋區民生路三段32-6號","121.467151666667","25.0247816666667","6500100","板橋區"
"220002","741-BX","2019/07/29 13:57:59","新北市板橋區重慶路112號","121.462008333333","25.0050066666667","6500100","板橋區"
"220051","KEA-2699","2019/07/29 13:59:45","新北市板橋區田單街34號","121.482335","25.028095","6500100","板橋區"
"220003","827-TW","2019/07/29 13:59:47","新北市板橋區中山路一段144號","121.463681666667","25.011015","6500100","板橋區"
"220014","829-TW","2019/07/29 13:59:55","新北市板橋區三民路二段正隆巷12弄15號","121.477575","25.0133483333333","6500100","板橋區"
"220022","895-R6","2019/07/29 13:59:41","新北市板橋區南雅南路一段42號","121.455838333333","25.0060616666667","6500100","板橋區"
"220021","985-R7","2019/07/29 13:59:40","新北市板橋區館前西路191號","121.455383333333","25.008205","6500100","板橋區"
"220046","AAC-210","2019/07/29 13:59:49","新北市板橋區幸福路60巷81號","121.459698333333","25.02181","6500100","板橋區"
"220012","AAC-253","2019/07/29 13:59:47","新北市板橋區板新路83號","121.473311666667","25.01362","6500100","板橋區"
"235032","KEA-2873","2019/07/29 13:59:30","新北市中和區景平路545巷3號","121.498336666667","24.999095","6500300","中和區"
"235025","KEA-2875","2019/07/29 13:59:35","新北市中和區員山路394巷12弄8號","121.481326666667","25.0041833333333","6500300","中和區"
