"lineid","car","time","location","longitude","latitude","cityid","cityname"
"234078","298-R6","2019/07/29 14:19:41","新北市永和區國中路132巷12號","121.523938333333","25.007475","6500400","永和區"
"234036","336-UY","2019/07/29 14:19:54","新北市永和區成功路一段97號","121.52696","25.00263","6500400","永和區"
"234062","337-UY","2019/07/29 14:19:43","新北市永和區得和路120號","121.518645","25.0001466666667","6500400","永和區"
"234084","338-UY","2019/07/29 14:19:56","新北市永和區中正路575-1號","121.516746666667","25.0085533333333","6500400","永和區"
"234028","746-BX","2019/07/29 14:19:56","新北市永和區民權路49巷6號","121.520461666667","24.99717","6500400","永和區"
"234052","KEA-2590","2019/07/29 14:19:41","新北市永和區永和路二段336號","121.51661","25.0166116666667","6500400","永和區"
"234005","KED-0605","2019/07/29 14:19:56","新北市永和區中山路一段171號","121.509713333333","25.0092733333333","6500400","永和區"
"234012","KEA-2591","2019/07/29 14:19:57","新北市永和區保生路5巷3號","121.506036666667","25.0071116666667","6500400","永和區"
"234060","AAD-866","2019/07/29 14:19:52","新北市永和區安樂路156號","121.514486666667","25.0005483333333","6500400","永和區"
"234068","748-BX","2019/07/29 14:19:47","新北市永和區福和路263巷7弄1號","121.517933333333","25.0070516666667","6500400","永和區"
"234040","862-TW","2019/07/29 14:19:41","新北市永和區雙和街11號","121.509555","25.00179","6500400","永和區"
"234048","863-TW","2019/07/29 14:19:48","新北市永和區文化路230號","121.509828333333","25.0170016666667","6500400","永和區"
"234025","9371-KE","2019/07/29 14:19:46","新北市永和區得和路42巷23號","121.515331666667","24.99965","6500400","永和區"
"248015","026-BX","2019/07/29 14:19:39","新北市五股區凌雲路一段39號","121.4519","25.1007066666667","6501500","五股區"
"248007","KED-0815","2019/07/29 14:19:37","新北市五股區中興路二段57-6號","121.460518333333","25.075375","6501500","五股區"
"248019","KED-0813","2019/07/29 14:19:49","新北市五股區凌雲路三段59-6號","121.425086666667","25.1249816666667","6501500","五股區"
"248011","247-BX","2019/07/29 14:19:52","新北市五股區成泰路二段87號","121.438185","25.0839716666667","6501500","五股區"
"248013","261-SL","2019/07/29 14:19:54","新北市五股區民義路一段181號","121.432231666667","25.08801","6501500","五股區"
"248003","677-BX","2019/07/29 14:19:49","新北市五股區五福路45號","121.433125","25.0894433333333","6501500","五股區"
"248001","678-BX","2019/07/29 14:19:43","新北市五股區成泰路三段544-18號","121.452788333333","25.1034633333333","6501500","五股區"
"248009","682-TV","2019/07/29 14:19:39","新北市五股區水碓一路23號","121.43069","25.071365","6501500","五股區"
"234076","969-R7","2019/07/29 14:19:46","新北市永和區民權路55號","121.520125","24.9966416666667","6500400","永和區"
"234072","AAC-211","2019/07/29 14:19:46","新北市永和區竹林路119巷69號","121.522896666667","25.011675","6500400","永和區"
"234066","AAC-212","2019/07/29 14:19:40","新北市永和區保平路268巷51弄2號","121.507015","25.0063133333333","6500400","永和區"
"234001","AAC-295","2019/07/29 14:19:49","新北市永和區中正路620號","121.517138333333","25.00778","6500400","永和區"
"244001","248-BX","2019/07/29 14:19:56","新北市林口區瑞平里33-1號","121.348381666667","25.1285716666667","6501700","林口區"
"243004","AAD-798","2019/07/29 14:19:42","新北市泰山區仁義路220巷3號","121.432775","25.0534283333333","6501600","泰山區"
"243002","297-R6","2019/07/29 14:19:47","新北市泰山區明志路二段7巷6號","121.43055","25.05333","6501600","泰山區"
"243006","KEA-2801","2019/07/29 14:19:47","新北市泰山區泰林路二段152號","121.434106666667","25.0601066666667","6501600","泰山區"
"243008","421-VK","2019/07/29 14:19:46","新北市泰山區工專路60號","121.422916666667","25.0403216666667","6501600","泰山區"
"243003","KEA-2216","2019/07/29 14:19:38","新北市泰山區中央路11巷10號","121.42652","25.0425616666667","6501600","泰山區"
"243005","646-TV","2019/07/29 14:19:50","新北市泰山區明志路三段145巷9號","121.425551666667","25.039855","6501600","泰山區"
"243007","680-BX","2019/07/29 14:19:52","新北市泰山區明志路二段3號","121.43019","25.0537483333333","6501600","泰山區"
"231030","002-UM","2019/07/29 14:19:49","新北市新店區安民街115巷28號","121.51516","24.9675983333333","6500600","新店區"
"231024","0291-UT","2019/07/29 14:19:41","新北市新店區安德街116巷42-1號","121.507993333333","24.961665","6500600","新店區"
"231027","0293-UT","2019/07/29 14:19:52","新北市新店區檳榔路36巷20號","121.540878333333","24.9629866666667","6500600","新店區"
"231005","046-UY","2019/07/29 14:19:50","新北市新店區中興路三段218號","121.543766666667","24.9826116666667","6500600","新店區"
"231029","106-UY","2019/07/29 14:19:46","新北市新店區安康路二段161號","121.510168333333","24.9593016666667","6500600","新店區"
"231018","107-UY","2019/07/29 14:19:47","新北市新店區中央四街88號","121.525906666667","24.976065","6500600","新店區"
"231013","108-UY","2019/07/29 14:19:42","新北市新店區大豐路80號","121.538918333333","24.9793516666667","6500600","新店區"
"231036","110-UY","2019/07/29 14:19:40","新北市新店區安祥路109巷53號","121.477016666667","24.9597166666667","6500600","新店區"
"231031","256-BX","2019/07/29 14:19:54","新北市新店區碧潭路2號","121.534915","24.9563366666667","6500600","新店區"
"231023","260-TV","2019/07/29 14:19:45","新北市新店區光明街39號","121.53854","24.9597983333333","6500600","新店區"
"231003","268-BY","2019/07/29 14:19:48","新北市新店區中興路一段206號","121.543843333333","24.965405","6500600","新店區"
"231035","278-BY","2019/07/29 14:19:41","新北市新店區光華街8巷12號","121.518205","24.9693466666667","6500600","新店區"
"231014","AAD-862","2019/07/29 14:19:38","新北市新店區北宜路二段447號","121.561326666667","24.9541433333333","6500600","新店區"
"231006","355-BY","2019/07/29 14:19:41","新北市新店區北宜路二段206號","121.559315","24.95429","6500600","新店區"
"231038","3712-VJ","2019/07/29 14:19:37","新北市新店區溪洲路8巷120號","121.533181666667","24.9629716666667","6500600","新店區"
"231019","513-UM","2019/07/29 14:19:48","新北市新店區新烏路二段198巷2弄2號","121.547771666667","24.9170216666667","6500600","新店區"
"231002","619-UM","2019/07/29 14:19:47","新北市新店區中正路470號","121.533921666667","24.980515","6500600","新店區"
"231034","641-BX","2019/07/29 14:19:46","新北市新店區車子路11號","121.502993333333","24.951635","6500600","新店區"
"231011","KED-0819","2019/07/29 14:19:44","新北市新店區中興路一段308號","121.546856666667","24.969945","6500600","新店區"
"231028","897-TW","2019/07/29 14:19:39","新北市新店區安和路二段240號","121.516485","24.9782016666667","6500600","新店區"
"231001","898-TW","2019/07/29 14:19:42","新北市新店區北新路一段251號","121.540883333333","24.9660733333333","6500600","新店區"
"231004","899-TW","2019/07/29 14:19:43","新北市新店區北新路二段18號","121.542863333333","24.97133","6500600","新店區"
"231037","AKT-0513","2019/07/29 14:19:43","新北市新店區安康路二段341巷5號","121.496936666667","24.95493","6500600","新店區"
"235030","003-UY","2019/07/29 14:19:52","新北市中和區景新街2號","121.50263","24.9996716666667","6500300","中和區"
"235028","005-UY","2019/07/29 14:19:47","新北市中和區南山路81巷23號","121.502661666667","24.9981183333333","6500300","中和區"
"235027","006-UY","2019/07/29 14:19:45","新北市中和區中正路262號","121.495463333333","24.9944516666667","6500300","中和區"
"235020","096-UM","2019/07/29 14:19:31","新北市中和區員山路573號","121.47945","25.0078466666667","6500300","中和區"
"235003","097-UM","2019/07/29 14:19:40","新北市中和區秀峰街129號","121.518025","24.9893416666667","6500300","中和區"
"235029","098-UM","2019/07/29 14:19:47","新北市中和區中山路二段2巷5弄2號","121.50445","25.006415","6500300","中和區"
"235004","150-BY","2019/07/29 14:19:50","新北市中和區保健路106巷20弄7號","121.511286666667","24.994975","6500300","中和區"
"235022","151-BY","2019/07/29 14:19:52","新北市中和區員山路126-2號","121.481448333333","24.996005","6500300","中和區"
"235019","183-VK","2019/07/29 14:19:39","新北市中和區德光路27巷1弄2號","121.470913333333","25.0039633333333","6500300","中和區"
"235002","185-VK","2019/07/29 14:19:46","新北市中和區大仁街10巷52號","121.520543333333","24.9926683333333","6500300","中和區"
"235013","186-VK","2019/07/29 14:19:46","新北市中和區景新街238號","121.508815","24.99387","6500300","中和區"
"235031","255-BX","2019/07/29 14:19:46","新北市中和區新生街186巷5弄11號","121.482956666667","24.9993","6500300","中和區"
"235008","293-VK","2019/07/29 14:19:38","新北市中和區復興路307號","121.501333333333","24.990285","6500300","中和區"
"235036","301-VK","2019/07/29 14:19:50","新北市中和區永和路9巷1號","121.49919","25.0040366666667","6500300","中和區"
"235007","352-BY","2019/07/29 14:19:47","新北市中和區景平路143號","121.51416","24.9920566666667","6500300","中和區"
"235006","KEA-2878","2019/07/29 14:19:45","新北市中和區安樂路143巷2弄5號","121.514105","24.99774","6500300","中和區"
"247013","KEA-2869","2019/07/29 14:19:38","新北市蘆洲區中山一路265號","121.472715","25.080055","6501400","蘆洲區"
"247007","KED-0682","2019/07/29 14:19:45","新北市蘆洲區信義路37巷10號","121.474401666667","25.0798","6501400","蘆洲區"
"235033","4980-A6","2019/07/29 14:19:42","新北市中和區景平路736巷1弄7號","121.497378333333","25.0041233333333","6500300","中和區"
"235034","558-UM","2019/07/29 14:19:44","新北市中和區中山路二段259號","121.497018333333","25.0023016666667","6500300","中和區"
"235009","565-BX","2019/07/29 14:19:55","新北市中和區景新街383巷28號","121.513528333333","24.9904966666667","6500300","中和區"
"235024","KED-0823","2019/07/29 14:19:54","新北市中和區中山路二段523巷18號","121.481641666667","25.004235","6500300","中和區"
"235018","640-BX","2019/07/29 14:19:46","新北市中和區國光街112巷9號","121.469715","25.00145","6500300","中和區"
"235011","732-UM","2019/07/29 14:19:38","新北市中和區和平街54巷7號","121.508981666667","24.99154","6500300","中和區"
"235010","733-UM","2019/07/29 14:19:53","新北市中和區忠孝街2巷10號","121.509643333333","24.9816983333333","6500300","中和區"
"235035","783-BX","2019/07/29 14:19:40","新北市中和區板南路448-1號","121.489535","25.0055183333333","6500300","中和區"
"235026","800-TS","2019/07/29 14:19:39","新北市中和區建二路56號","121.486058333333","25.00371","6500300","中和區"
"235021","801-TS","2019/07/29 14:19:52","新北市中和區員山路378號","121.480745","25.0042616666667","6500300","中和區"
"235016","805-TS","2019/07/29 14:19:42","新北市中和區興南路二段142巷17弄10號","121.503196666667","24.98313","6500300","中和區"
"235012","896-TW","2019/07/29 14:19:48","新北市中和區華新街109巷26號","121.508766666667","24.9803183333333","6500300","中和區"
"235017","900-TW","2019/07/29 14:19:45","新北市中和區華順街30巷7號","121.467286666667","24.99907","6500300","中和區"
"235015","157-BY","2019/07/29 14:19:54","新北市中和區景平路221巷28號","121.509481666667","24.9921266666667","6500300","中和區"
"235001","AAC-213","2019/07/29 14:19:47","新北市中和區秀朗路三段10巷14弄50號","121.524268333333","24.99647","6500300","中和區"
"235023","AAC-215","2019/07/29 14:19:45","新北市中和區圓通路252巷5弄38號","121.49214","24.9916433333333","6500300","中和區"
"220016","015-TV","2019/07/29 14:19:42","新北市板橋區林森街2巷5號","121.482253333333","25.024045","6500100","板橋區"
"220013","072-UY","2019/07/29 14:19:53","新北市板橋區民族路129巷14號","121.467698333333","25.0085016666667","6500100","板橋區"
"220034","073-UY","2019/07/29 14:19:51","新北市板橋區中正路216巷72號","121.457883333333","25.0188966666667","6500100","板橋區"
"220105","075-UY","2019/07/29 14:19:50","新北市板橋區文化路二段441巷2弄1號","121.47462","25.0333816666667","6500100","板橋區"
"220017","AAD-861","2019/07/29 14:19:46","新北市板橋區貴興路49號","121.45726","25.00323","6500100","板橋區"
"247017","546-UM","2019/07/29 14:19:44","新北市蘆洲區民義街119-1號","121.474235","25.0912616666667","6501400","蘆洲區"
"247003","341-TH","2019/07/29 14:19:51","新北市蘆洲區長安街194巷1號","121.458896666667","25.084015","6501400","蘆洲區"
"247023","337-TH","2019/07/29 14:19:41","新北市蘆洲區長榮路709號","121.46103","25.092905","6501400","蘆洲區"
"247001","336-TH","2019/07/29 14:19:53","新北市蘆洲區永樂街80號","121.456825","25.0885583333333","6501400","蘆洲區"
"247021","057-VK","2019/07/29 14:19:45","新北市蘆洲區三民路226號","121.468606666667","25.0894566666667","6501400","蘆洲區"
"247011","056-VK","2019/07/29 14:19:38","新北市蘆洲區民權路9號","121.476453333333","25.0859566666667","6501400","蘆洲區"
"247015","053-VK","2019/07/29 14:19:57","新北市蘆洲區中正路185巷31弄40號","121.467106666667","25.0832566666667","6501400","蘆洲區"
"247019","007-UY","2019/07/29 14:19:57","新北市蘆洲區仁愛街35巷12號","121.471483333333","25.0927166666667","6501400","蘆洲區"
"247005","002-UY","2019/07/29 14:19:52","新北市蘆洲區長安街16號","121.464058333333","25.0791466666667","6501400","蘆洲區"
"235005","251-BX","2019/07/29 14:19:42","新北市中和區安平路148號","121.512405","24.99822","6500300","中和區"
"253003","6232-TK","2019/07/29 14:19:53","新北市石門區內石門65號","121.580146666667","25.2623566666667","6502200","石門區"
"253004","6251-TK","2019/07/29 14:19:43","新北市石門區內阿里磅1號","121.592286666667","25.2544933333333","6502200","石門區"
"253002","637-UY","2019/07/29 14:19:41","新北市石門區七股32號","121.551991666667","25.2646966666667","6502200","石門區"
"253001","KEC-0718","2019/07/29 14:19:48","新北市石門區八甲13-1號","121.523038333333","25.2805333333333","6502200","石門區"
"243001","549-UM","2019/07/29 14:19:53","新北市泰山區和平街13巷31號","121.434476666667","25.065965","6501600","泰山區"
"207002","749-BX","2019/07/29 14:19:53","新北市萬里區溪底里瑞泉路7號","121.603278333333","25.140785","6502800","萬里區"
"252005","073-UM","2019/07/29 14:19:38","新北市三芝區橫山里橫山33號","121.542238333333","25.2587083333333","6502100","三芝區"
"207001","662-BX","2019/07/29 14:19:51","新北市萬里區磺潭里清水18號","121.637846666667","25.1976366666667","6502800","萬里區"
"236040","KED-0685","2019/07/29 14:19:42","新北市土城區裕生路21巷6弄25號","121.448783333333","24.9867533333333","6501300","土城區"
"236074","166-UM","2019/07/29 14:19:51","新北市土城區永平街29號","121.428515","24.962305","6501300","土城區"
"236029","253-BX","2019/07/29 14:19:57","新北市土城區順風路44號","121.44043","24.9769516666667","6501300","土城區"
"236024","269-VK","2019/07/29 14:19:47","新北市土城區承天路67號","121.439573333333","24.9635033333333","6501300","土城區"
"236012","270-VK","2019/07/29 14:19:56","新北市土城區青雲路39巷7號","121.460346666667","24.9875933333333","6501300","土城區"
"236032","271-VK","2019/07/29 14:19:43","新北市土城區青雲路483巷10弄35號","121.45955","24.97246","6501300","土城區"
"247009","KED-0683","2019/07/29 14:19:56","新北市蘆洲區三民路26巷26弄1號","121.477766666667","25.082985","6501400","蘆洲區"
"236064","KEA-2877","2019/07/29 14:19:47","新北市土城區明德路一段128巷9號","121.463258333333","24.9789783333333","6501300","土城區"
"236016","401-BY","2019/07/29 14:19:55","新北市土城區金城路二段266號","121.458355","24.9841516666667","6501300","土城區"
"236057","912-UM","2019/07/29 14:19:54","新北市土城區中央路四段450號","121.410425","24.9512233333333","6501300","土城區"
"236045","913-UM","2019/07/29 14:19:47","新北市土城區明德路一段361-3號","121.45609","24.9777516666667","6501300","土城區"
"236060","915-UM","2019/07/29 14:19:44","新北市土城區金城路三段202-3號","121.469456666667","24.9885433333333","6501300","土城區"
"236054","AAC-216","2019/07/29 14:19:42","新北市土城區中華路二段92號","121.438206666667","24.9745416666667","6501300","土城區"
"220027","145-BY","2019/07/29 14:19:39","新北市板橋區民權路258-1號","121.458073333333","25.015035","6500100","板橋區"
"220028","200-UY","2019/07/29 14:19:54","新北市板橋區大觀路二段1巷28號","121.449438333333","25.0037333333333","6500100","板橋區"
"220030","610-BX","2019/07/29 14:19:42","新北市板橋區溪崑二街134號","121.425831666667","24.9877166666667","6500100","板橋區"
"220032","256-TC","2019/07/29 14:19:52","新北市板橋區溪崑一街105號","121.42936","24.9886816666667","6500100","板橋區"
"220004","276-BY","2019/07/29 14:19:55","新北市板橋區信義路215號","121.459445","24.9914666666667","6500100","板橋區"
"220020","277-BY","2019/07/29 14:19:53","新北市板橋區金門街260巷9號","121.429421666667","24.98678","6500100","板橋區"
"220050","280-UM","2019/07/29 14:18:23","新北市板橋區縣民大道三段127巷24號","121.476936666667","25.023745","6500100","板橋區"
"220019","283-VK","2019/07/29 14:19:52","新北市板橋區重慶路253-3號","121.463283333333","25.0002266666667","6500100","板橋區"
"220043","285-UM","2019/07/29 14:19:40","新北市板橋區吳鳳路50巷36號","121.46989","25.0302866666667","6500100","板橋區"
"220001","285-VK","2019/07/29 14:19:50","新北市板橋區富山街18巷16號","121.478521666667","25.0226533333333","6500100","板橋區"
"220031","286-VK","2019/07/29 14:19:46","新北市板橋區龍興街95巷5號","121.443751666667","25.0023766666667","6500100","板橋區"
"220029","287-VK","2019/07/29 14:19:56","新北市板橋區南雅西路一段96號","121.453251666667","25.00588","6500100","板橋區"
"220039","288-VK","2019/07/29 14:19:53","新北市板橋區裕民街56巷1號","121.461265","25.0288683333333","6500100","板橋區"
"220009","293-UM","2019/07/29 14:19:46","新北市板橋區成功路2-1號","121.475703333333","25.0169266666667","6500100","板橋區"
"220023","303-R5","2019/07/29 14:19:42","新北市板橋區南雅南路一段1巷33號","121.4574","25.00659","6500100","板橋區"
"220010","305-R5","2019/07/29 14:19:42","新北市板橋區三民路二段153巷30弄37號","121.481378333333","25.0142416666667","6500100","板橋區"
"220041","307-R5","2019/07/29 14:19:56","新北市板橋區光武街2巷35號","121.46886","25.0257683333333","6500100","板橋區"
"220047","317-R6","2019/07/29 14:19:55","新北市板橋區自由路52號","121.465721666667","25.02358","6500100","板橋區"
"220038","487-VK","2019/07/29 14:19:36","新北市板橋區漢生西路89巷5弄5號","121.460931666667","25.0196666666667","6500100","板橋區"
"220037","491-VK","2019/07/29 14:19:38","新北市板橋區文化路二段182巷3弄54號","121.472916666667","25.02884","6500100","板橋區"
"220104","560-BX","2019/07/29 14:19:45","新北市板橋區中正路360巷48號","121.456213333333","25.02285","6500100","板橋區"
"220052","561-BX","2019/07/29 14:19:50","新北市板橋區文化路一段286巷2弄1號","121.46843","25.0210516666667","6500100","板橋區"
"220011","609-BX","2019/07/29 14:19:52","新北市板橋區三民路二段251號","121.479051666667","25.01212","6500100","板橋區"
"220040","637-BX","2019/07/29 14:19:39","新北市板橋區縣民大道三段247巷18號","121.481826666667","25.0264083333333","6500100","板橋區"
"220005","686-BX","2019/07/29 14:19:49","新北市中和區華順街142號","121.464716666667","24.9957166666667","6500100","板橋區"
"220025","687-BX","2019/07/29 14:19:54","新北市板橋區龍興街65巷2號","121.443601666667","25.0014716666667","6500100","板橋區"
"220042","689-BX","2019/07/29 14:19:50","新北市板橋區雨農路50號","121.461188333333","25.0242916666667","6500100","板橋區"
"220002","741-BX","2019/07/29 14:19:40","新北市板橋區校前街38號","121.46103","25.00318","6500100","板橋區"
"220051","KEA-2699","2019/07/29 14:19:45","新北市板橋區松柏街22巷41號","121.475126666667","25.0289516666667","6500100","板橋區"
"220003","827-TW","2019/07/29 14:19:47","新北市板橋區新民街13號","121.46405","25.0098466666667","6500100","板橋區"
"220014","829-TW","2019/07/29 14:19:43","新北市板橋區長安街138巷1弄69號","121.474503333333","25.0107916666667","6500100","板橋區"
"220022","895-R6","2019/07/29 14:19:41","新北市板橋區北門街61號","121.456141666667","25.0118466666667","6500100","板橋區"
"220021","985-R7","2019/07/29 14:19:39","新北市板橋區中正路191號","121.456356666667","25.01693","6500100","板橋區"
"220046","AAC-210","2019/07/29 14:19:44","新北市板橋區幸福路32巷8號","121.46151","25.020655","6500100","板橋區"
"220012","AAC-253","2019/07/29 14:19:47","新北市板橋區中山路一段48號","121.460788333333","25.0088583333333","6500100","板橋區"
"235032","KEA-2873","2019/07/29 14:19:30","新北市中和區廟美街1號","121.500746666667","25.00174","6500300","中和區"
"235025","KEA-2875","2019/07/29 14:19:35","新北市中和區民利街31巷2弄12號","121.479643333333","24.998645","6500300","中和區"
