"lineid","car","time","location","longitude","latitude","cityid","cityname"
"231030","002-UM","2019/07/29 15:27:49","新北市新店區安和路二段251號","121.516653333333","24.9776316666667","6500600","新店區"
"231024","0291-UT","2019/07/29 15:27:41","新北市新店區安興路121號","121.51552","24.979145","6500600","新店區"
"231005","046-UY","2019/07/29 15:27:50","新北市新店區建國路253號","121.537545","24.9827166666667","6500600","新店區"
"231029","106-UY","2019/07/29 15:27:46","新北市新店區安康路三段561巷2弄2號","121.476171666667","24.9442716666667","6500600","新店區"
"231018","107-UY","2019/07/29 15:27:47","新北市新店區溪園路397號","121.523663333333","24.977695","6500600","新店區"
"231013","108-UY","2019/07/29 15:27:42","新北市新店區永業路81巷1弄1-1號","121.52951","24.9494233333333","6500600","新店區"
"231036","110-UY","2019/07/29 15:27:40","新北市新店區安祥路69巷81號","121.482908333333","24.9590616666667","6500600","新店區"
"231039","187-VK","2019/07/29 15:27:41","新北市新店區寶元路一段85巷8號","121.543086666667","24.9858733333333","6500600","新店區"
"231031","256-BX","2019/07/29 15:27:53","新北市新店區和成街19巷24號","121.487656666667","24.946075","6500600","新店區"
"231023","260-TV","2019/07/29 15:27:45","新北市新店區北新路一段88巷7-1號","121.542496666667","24.96744","6500600","新店區"
"231003","268-BY","2019/07/29 15:27:48","新北市新店區寶高路120巷1號","121.55462","24.9760916666667","6500600","新店區"
"231035","278-BY","2019/07/29 15:27:41","新北市新店區安興路85-2號","121.515071666667","24.9749916666667","6500600","新店區"
"231014","AAD-862","2019/07/29 15:27:38","新北市新店區明山路45號","121.563461666667","24.95578","6500600","新店區"
"231006","355-BY","2019/07/29 15:27:41","新北市新店區安康路一段164號","121.526088333333","24.9630183333333","6500600","新店區"
"231038","3712-VJ","2019/07/29 15:27:37","新北市新店區安華路28-1號","121.519788333333","24.9609233333333","6500600","新店區"
"231019","513-UM","2019/07/29 15:27:48","新北市新店區永福路54號","121.558068333333","24.92874","6500600","新店區"
"231002","619-UM","2019/07/29 15:27:47","新北市新店區環河路116號","121.536696666667","24.9674983333333","6500600","新店區"
"231034","641-BX","2019/07/29 15:27:46","新北市新店區富貴街10巷2號","121.494243333333","24.9497266666667","6500600","新店區"
"231011","KED-0819","2019/07/29 15:27:44","新北市新店區寶元路一段109號","121.545708333333","24.98317","6500600","新店區"
"231026","720-UM","2019/07/29 15:27:45","新北市新店區三民路20巷13號","121.537738333333","24.9710433333333","6500600","新店區"
"231028","897-TW","2019/07/29 15:27:39","新北市新店區僑信路74巷15號","121.499083333333","24.9482883333333","6500600","新店區"
"231001","898-TW","2019/07/29 15:27:42","新北市新店區光明街207號","121.539996666667","24.9637133333333","6500600","新店區"
"231004","899-TW","2019/07/29 15:27:44","新北市新店區民族路203號","121.537061666667","24.976075","6500600","新店區"
"231037","AKT-0513","2019/07/29 15:27:43","新北市新店區安興路56號","121.516533333333","24.97499","6500600","新店區"
"241011","013-R5","2019/07/29 15:27:54","新北市三重區重新路四段121號","121.484766666667","25.051895","6500200","三重區"
"241017","063-VK","2019/07/29 15:27:39","新北市三重區重新路四段121號","121.485066666667","25.05207","6500200","三重區"
"241018","268-UM","2019/07/29 15:27:45","新北市三重區重新路四段121號","121.48522","25.05205","6500200","三重區"
"241007","398-BY","2019/07/29 15:27:33","新北市三重區重新路四段121號","121.484958333333","25.0518933333333","6500200","三重區"
"241020","478-VK","2019/07/29 15:27:46","新北市三重區重新路四段121號","121.48477","25.0523616666667","6500200","三重區"
"241029","942-UM","2019/07/29 15:27:42","新北市三重區重新路四段121號","121.485076666667","25.0522033333333","6500200","三重區"
"241033","AAC-255","2019/07/29 15:27:37","新北市三重區重新路四段121號","121.485051666667","25.052145","6500200","三重區"
"235030","003-UY","2019/07/29 15:27:31","新北市中和區保平路326巷3號","121.507086666667","25.0043733333333","6500300","中和區"
"235019","183-VK","2019/07/29 15:27:38","新北市林口區太平里180號","121.36806","25.1343366666667","6500300","中和區"
"235014","4979-A6","2019/07/29 15:27:36","新北市中和區景安路82巷7號","121.505056666667","24.996185","6500300","中和區"
"235033","4980-A6","2019/07/29 15:27:42","新北市中和區中正路530號","121.487858333333","24.9945216666667","6500300","中和區"
"235026","800-TS","2019/07/29 15:27:39","新北市中和區橋和路183號","121.493516666667","25.0062416666667","6500300","中和區"
"235023","AAC-215","2019/07/29 15:27:45","新北市中和區員山路30-3號","121.483725","24.9878466666667","6500300","中和區"
"224007","285-BY","2019/07/29 15:27:37","新北市瑞芳區大寮路356-1號","121.785011666667","25.1031033333333","6501200","瑞芳區"
"207001","662-BX","2019/07/29 15:27:31","新北市萬里區龜吼里美崙路96號","121.683711666667","25.184895","6502800","萬里區"
"236040","KED-0685","2019/07/29 15:27:42","新北市土城區學府路一段148號","121.454675","24.9869883333333","6501300","土城區"
"236074","166-UM","2019/07/29 15:27:51","新北市土城區溪頭路20巷2弄2號","121.412895","24.955495","6501300","土城區"
"236029","253-BX","2019/07/29 15:27:40","新北市土城區中央路一段260巷18號","121.443353333333","24.9845416666667","6501300","土城區"
"236024","269-VK","2019/07/29 15:27:49","新北市土城區員林街26-1號","121.44386","24.9774333333333","6501300","土城區"
"236012","270-VK","2019/07/29 15:27:36","新北市土城區廣明街2號","121.456025","24.991715","6501300","土城區"
"236032","271-VK","2019/07/29 15:27:43","新北市土城區延吉街296巷16號","121.464421666667","24.9848116666667","6501300","土城區"
"236064","KEA-2877","2019/07/29 15:27:47","新北市土城區中央路二段191號","121.442081666667","24.9754883333333","6501300","土城區"
"236016","401-BY","2019/07/29 15:27:35","新北市土城區延吉街137巷3號","121.470783333333","24.9860833333333","6501300","土城區"
"236057","912-UM","2019/07/29 15:27:54","新北市土城區城林路6巷80號","121.438545","24.979815","6501300","土城區"
"236045","913-UM","2019/07/29 15:27:45","新北市土城區青雲路250-1號","121.459018333333","24.9799716666667","6501300","土城區"
"236060","915-UM","2019/07/29 15:27:44","新北市土城區延和路57號","121.466606666667","24.9896516666667","6501300","土城區"
"236054","AAC-216","2019/07/29 15:27:40","新北市土城區延和路185-1號","121.469051666667","24.9903633333333","6501300","土城區"
"238002","755-BX","2019/07/29 15:27:45","新北市樹林區復興路205號","121.42041","24.99144","6500700","樹林區"
"238010","601-UM","2019/07/29 15:27:42","新北市樹林區三福街114號","121.406441666667","25.0163533333333","6500700","樹林區"
"238003","599-UM","2019/07/29 15:27:48","新北市樹林區太平路89號","121.419076666667","24.9814116666667","6500700","樹林區"
"238011","5061-A6","2019/07/29 15:27:41","新北市樹林區太平路235-1號","121.418993333333","24.9740233333333","6500700","樹林區"
"238005","KEA-2217","2019/07/29 15:27:37","新北市樹林區保安街一段20巷15號","121.427691666667","24.99398","6500700","樹林區"
"238009","KEA-2213","2019/07/29 15:27:45","新北市樹林區信義街9號","121.422461666667","24.98189","6500700","樹林區"
"238008","KEA-2539","2019/07/29 15:27:42","新北市樹林區柑園街一段57號","121.402888333333","24.9602666666667","6500700","樹林區"
"238012","303-VK","2019/07/29 15:27:52","新北市樹林區中山路一段35號","121.42436","24.9927083333333","6500700","樹林區"
"238004","283-BY","2019/07/29 15:27:35","新北市樹林區保安街二段333巷2號","121.412278333333","25.00754","6500700","樹林區"
"238001","282-BY","2019/07/29 15:27:41","新北市樹林區中正路29號","121.426921666667","24.99955","6500700","樹林區"
"238007","268-VK","2019/07/29 15:27:47","新北市樹林區俊英街116巷41弄38號","121.42867","25.0069683333333","6500700","樹林區"
"238013","172-UY","2019/07/29 15:27:41","新北市樹林區新興街19巷36弄13號","121.40247","24.9732016666667","6500700","樹林區"
"238003","169-UY","2019/07/29 15:27:52","新北市樹林區長壽街15-5號","121.422891666667","24.9936516666667","6500700","樹林區"
"220030","610-BX","2019/07/29 15:27:41","新北市樹林區環河路10-1號","121.424593333333","24.9762316666667","6500100","板橋區"
"220031","286-VK","2019/07/29 15:27:46","新北市板橋區僑中二街106巷30號","121.444716666667","25.0077633333333","6500100","板橋區"
"220042","689-BX","2019/07/29 15:27:35","新北市板橋區中正路601號","121.457366666667","25.0297983333333","6500100","板橋區"
"220051","KEA-2699","2019/07/29 15:27:45","新北市五股區凌雲路二段18巷64-3號","121.44169","25.1064183333333","6500100","板橋區"
"220022","895-R6","2019/07/29 15:27:41","新北市板橋區縣民大道一段108號","121.456963333333","25.0057466666667","6500100","板橋區"
"220012","AAC-253","2019/07/29 15:27:47","新北市板橋區中山路一段206巷135號","121.472836666667","25.013245","6500100","板橋區"
