"lineid","car","time","location","longitude","latitude","cityid","cityname"
"249002","305-UY","2019/07/29 16:39:31","新北市八里區渡船頭5-8號","121.43086","25.1542116666667","6502300","八里區"
"249003","593-UM","2019/07/29 16:39:42","新北市八里區文昌路101號","121.408568333333","25.15905","6502300","八里區"
"244007","080-UY","2019/07/29 16:39:44","新北市林口區粉寮69號","121.40494","25.090855","6501700","林口區"
"244009","656-BX","2019/07/29 16:39:38","新北市林口區粉寮69號","121.405053333333","25.0908333333333","6501700","林口區"
"231046","719-UM","2019/07/29 16:39:42","新北市新店區灣潭路3-3號","121.53825","24.95083","6500600","新店區"
"241011","013-R5","2019/07/29 16:39:34","新北市三重區仁愛街45號","121.49669","25.071675","6500200","三重區"
"241028","022-UY","2019/07/29 16:39:39","新北市三重區重新路三段40號","121.494423333333","25.06143","6500200","三重區"
"241008","059-VK","2019/07/29 16:39:47","新北市三重區永安北路一段33巷21號","121.477286666667","25.07573","6500200","三重區"
"241031","061-VK","2019/07/29 16:39:38","新北市三重區重陽路一段43巷27號","121.487723333333","25.058045","6500200","三重區"
"241017","063-VK","2019/07/29 16:39:39","新北市三重區中正北路25巷2號","121.493235","25.0628233333333","6500200","三重區"
"241024","065-VK","2019/07/29 16:39:30","新北市三重區中正北路315巷6弄80號","121.477216666667","25.0725466666667","6500200","三重區"
"241001","066-VK","2019/07/29 16:39:29","新北市三重區仁政街86巷5號","121.492203333333","25.0775733333333","6500200","三重區"
"241002","090-VK","2019/07/29 16:39:43","新北市三重區仁義街241巷51號","121.497511666667","25.08329","6500200","三重區"
"241003","091-VK","2019/07/29 16:39:46","新北市三重區五華街71巷106號","121.494626666667","25.0841733333333","6500200","三重區"
"241015","742-BX","2019/07/29 16:39:30","新北市三重區文化北路37-2號","121.499008333333","25.0650983333333","6500200","三重區"
"241005","262-UM","2019/07/29 16:39:29","新北市三重區仁華街118巷49號","121.485733333333","25.08401","6500200","三重區"
"241016","266-UM","2019/07/29 16:39:38","新北市三重區自強路一段160巷3弄30號","121.494616666667","25.0654233333333","6500200","三重區"
"241009","267-UM","2019/07/29 16:39:29","新北市三重區三和路四段203巷79號","121.48386","25.07993","6500200","三重區"
"241018","268-UM","2019/07/29 16:39:44","新北市三重區正義北路338巷23號","121.493743333333","25.070565","6500200","三重區"
"241032","269-UM","2019/07/29 16:39:30","新北市三重區三民街28號","121.485681666667","25.0611983333333","6500200","三重區"
"241013","270-UM","2019/07/29 16:39:35","新北市三重區仁愛街79號","121.495991666667","25.0729466666667","6500200","三重區"
"241025","271-UM","2019/07/29 16:39:36","新北市三重區中正北路295號","121.47441","25.0712916666667","6500200","三重區"
"241007","398-BY","2019/07/29 16:39:33","新北市三重區三和路四段163巷48號","121.486033333333","25.079535","6500200","三重區"
"241030","KED-0822","2019/07/29 16:39:42","新北市三重區環河南路255號","121.491136666667","25.0505016666667","6500200","三重區"
"241004","475-VK","2019/07/29 16:39:41","新北市三重區五福街30號","121.492431666667","25.0812483333333","6500200","三重區"
"241020","478-VK","2019/07/29 16:39:26","新北市三重區後竹圍街206號","121.48607","25.07175","6500200","三重區"
"241026","480-VK","2019/07/29 16:39:40","新北市三重區和平街59號","121.50206","25.062645","6500200","三重區"
"241014","543-UM","2019/07/29 16:39:33","新北市三重區龍濱路19號","121.503018333333","25.0677733333333","6500200","三重區"
"241023","545-UM","2019/07/29 16:39:38","新北市三重區忠孝路三段50巷94號","121.483298333333","25.0643333333333","6500200","三重區"
"241006","AAD-863","2019/07/29 16:39:29","新北市三重區車路頭街138-1號","121.483636666667","25.0755416666667","6500200","三重區"
"241022","KED-0820","2019/07/29 16:39:37","新北市三重區新北大道一段96號","121.485741666667","25.06146","6500200","三重區"
"241019","887-TS","2019/07/29 16:39:39","新北市三重區重陽路三段126號","121.488896666667","25.0665833333333","6500200","三重區"
"241012","941-UM","2019/07/29 16:39:26","新北市三重區仁興街6號","121.499895","25.0738083333333","6500200","三重區"
"241029","942-UM","2019/07/29 16:39:42","新北市三重區集美街117號","121.489933333333","25.0529016666667","6500200","三重區"
"241033","AAC-255","2019/07/29 16:39:36","新北市三重區光復路二段131號","121.472138333333","25.0589433333333","6500200","三重區"
"235064","005-UY","2019/07/29 16:10:58","","121.484941666667","24.99122","6500300","中和區"
"235062","800-TS","2019/07/29 16:21:04","新北市中和區員山路36巷16-3號","121.484938333333","24.9914483333333","6500300","中和區"
"247024","337-TH","2019/07/29 16:39:38","新北市五股區成泰路三段544-1號","121.455725","25.1001116666667","6501400","蘆洲區"
"247012","056-VK","2019/07/29 16:39:42","新北市五股區中興路三段163號","121.449263333333","25.0806866666667","6501400","蘆洲區"
"224007","285-BY","2019/07/29 16:39:38","新北市瑞芳區中央路24號","121.761936666667","25.1034266666667","6501200","瑞芳區"
"224009","275-VK","2019/07/29 16:39:39","新北市瑞芳區大寮路356-1號","121.785113333333","25.1033216666667","6501200","瑞芳區"
"224005","271-BY","2019/07/29 16:39:45","新北市瑞芳區洞頂路132-1號","121.862525","25.123525","6501200","瑞芳區"
"227001","642-TC","2019/07/29 16:39:38","新北市雙溪區牡丹里聖南3號","121.860115","25.0508633333333","6502500","雙溪區"
"227002","400-TW","2019/07/29 16:39:42","新北市雙溪區長源里內柑腳20號","121.801871666667","25.014535","6502500","雙溪區"
"251015","KEA-2871","2019/07/29 16:39:29","新北市淡水區水源街一段31-1號","121.443375","25.17229","6501000","淡水區"
"251016","179-VK","2019/07/29 16:39:44","新北市淡水區中山北路一段230號","121.444773333333","25.1808983333333","6501000","淡水區"
"251008","181-VK","2019/07/29 16:39:35","新北市淡水區樹梅坑9號","121.472818333333","25.142695","6501000","淡水區"
"251013","182-VK","2019/07/29 16:39:40","新北市淡水區大溪8號","121.495756666667","25.1903766666667","6501000","淡水區"
"251014","577-R6","2019/07/29 16:39:41","新北市淡水區淡金路四段476號","121.45191","25.22373","6501000","淡水區"
"252002","178-VK","2019/07/29 16:39:29","新北市三芝區晴光街1號","121.510443333333","25.2578616666667","6502100","三芝區"
"247010","KED-0683","2019/07/29 16:39:35","新北市五股區中興路三段163號","121.449268333333","25.0805433333333","6501400","蘆洲區"
"252001","KED-0821","2019/07/29 16:39:32","新北市三芝區茂長里陳厝坑3-5號","121.510476666667","25.2642433333333","6502100","三芝區"
"238012","303-VK","2019/07/29 16:39:32","新北市樹林區中正路22-2號","121.428043333333","24.9995433333333","6500700","樹林區"
"238001","282-BY","2019/07/29 16:39:39","新北市樹林區中正路22-1號","121.427871666667","24.9994583333333","6500700","樹林區"
"239007","AAC-297","2019/07/29 16:39:33","新北市鶯歌區二甲路13-16號","121.344998333333","24.935235","6500800","鶯歌區"
"233001","KEC-0709","2019/07/29 16:39:29","新北市烏來區啦卡路70-1號","121.56526","24.8561416666667","6502900","烏來區"
"242009","280-VK","2019/07/29 16:39:46","新北市新莊區三和路12-21號","121.441983333333","25.03827","6500500","新莊區"
