"lineid","car","time","location","longitude","latitude","cityid","cityname"
"234026","9371-KE","2019/07/29 17:29:48","新北市永和區福和路1號","121.526341666667","25.0095333333333","6500400","永和區"
"249005","172-UM","2019/07/29 17:29:33","新北市八里區荖阡坑路71號","121.406888333333","25.1262683333333","6502300","八里區"
"249001","173-UM","2019/07/29 17:29:41","新北市八里區中華路一段1-5號","121.423116666667","25.1585566666667","6502300","八里區"
"249004","303-UY","2019/07/29 17:29:43","新北市八里區民治街65號","121.41406","25.157185","6502300","八里區"
"249002","305-UY","2019/07/29 17:29:31","新北市八里區龍米路二段115號","121.447125","25.14315","6502300","八里區"
"249003","593-UM","2019/07/29 17:29:42","新北市八里區中山路二段398號","121.400531666667","25.14774","6502300","八里區"
"232011","375-UM","2019/07/29 17:29:36","新北市坪林區北宜路八段553號","121.715198333333","24.910965","6502000","坪林區"
"244007","080-UY","2019/07/29 17:29:44","新北市林口區中華路283號","121.383653333333","25.090895","6501700","林口區"
"244013","KEA-2802","2019/07/29 17:29:30","新北市林口區中山路262-1號","121.384718333333","25.079935","6501700","林口區"
"244023","483-VK","2019/07/29 17:29:30","新北市林口區興林一街109巷16號","121.392156666667","25.072785","6501700","林口區"
"244017","485-VK","2019/07/29 17:29:45","新北市林口區忠孝路371-1號","121.36906","25.0718083333333","6501700","林口區"
"244009","656-BX","2019/07/29 17:29:43","新北市林口區中北三街215號","121.382076666667","25.08211","6501700","林口區"
"244011","701-TV","2019/07/29 17:29:33","新北市林口區中正路443號","121.384793333333","25.077725","6501700","林口區"
"244025","837-TS","2019/07/29 17:29:47","新北市林口區文化三路一段394巷39號","121.367078333333","25.071455","6501700","林口區"
"244021","838-TS","2019/07/29 17:29:36","新北市林口區粉寮1號","121.3975","25.08001","6501700","林口區"
"231046","719-UM","2019/07/29 17:14:42","新北市新店區直潭七街60號","121.532225","24.9400033333333","6500600","新店區"
"241028","022-UY","2019/07/29 17:29:39","新北市三重區新北大道一段68號","121.486888333333","25.061465","6500200","三重區"
"241017","063-VK","2019/07/29 17:29:48","新北市三重區中正北路25巷9號","121.492666666667","25.0621633333333","6500200","三重區"
"241024","065-VK","2019/07/29 17:29:30","新北市三重區大勇街82巷15弄18號","121.480473333333","25.071785","6500200","三重區"
"241003","091-VK","2019/07/29 17:29:46","新北市三重區五華街141巷58號","121.493593333333","25.086805","6500200","三重區"
"241015","742-BX","2019/07/29 17:29:30","新北市三重區長安街88-1號","121.501685","25.0677933333333","6500200","三重區"
"241005","262-UM","2019/07/29 17:29:49","新北市三重區永安北路二段33號","121.482441666667","25.08218","6500200","三重區"
"241016","266-UM","2019/07/29 17:29:38","新北市三重區信義西街43號","121.495196666667","25.0640316666667","6500200","三重區"
"241018","268-UM","2019/07/29 17:29:44","新北市三重區安慶街162號","121.49401","25.0685666666667","6500200","三重區"
"241032","269-UM","2019/07/29 17:29:10","新北市三重區名源街59號","121.482086666667","25.0591416666667","6500200","三重區"
"241007","398-BY","2019/07/29 17:29:33","新北市三重區三和路四段145巷147號","121.487398333333","25.0791066666667","6500200","三重區"
"241030","KED-0822","2019/07/29 17:29:42","新北市三重區環河南路220-8號","121.493361666667","25.0527383333333","6500200","三重區"
"241024","462-BY","2019/07/29 17:29:34","新北市三重區國道路一段58巷15號","121.481375","25.072035","6500200","三重區"
"241020","478-VK","2019/07/29 17:29:46","新北市三重區忠孝路一段169號","121.487766666667","25.0716383333333","6500200","三重區"
"241026","480-VK","2019/07/29 17:29:40","新北市三重區福德南路150號","121.500558333333","25.05815","6500200","三重區"
"241014","543-UM","2019/07/29 17:29:33","新北市三重區安和路13號","121.501408333333","25.0683816666667","6500200","三重區"
"241023","545-UM","2019/07/29 17:29:38","新北市三重區忠孝路三段84巷30號","121.481531666667","25.0641616666667","6500200","三重區"
"241019","887-TS","2019/07/29 17:29:39","新北市三重區自強路二段49號","121.489071666667","25.0697033333333","6500200","三重區"
"241012","941-UM","2019/07/29 17:29:47","新北市三重區仁興街39巷3號","121.49909","25.0756966666667","6500200","三重區"
"241029","942-UM","2019/07/29 17:29:42","新北市五股區芳洲九路36號","121.447785","25.0878466666667","6500200","三重區"
"241033","AAC-255","2019/07/29 17:29:36","新北市三重區中興北街153-9號","121.469035","25.0537516666667","6500200","三重區"
"235064","005-UY","2019/07/29 17:29:30","新北市中和區員山路36巷16-3號","121.485061666667","24.9912233333333","6500300","中和區"
"247014","KEA-2869","2019/07/29 17:29:30","新北市蘆洲區三民路33號","121.475453333333","25.0829433333333","6501400","蘆洲區"
"247008","KED-0682","2019/07/29 17:29:32","新北市蘆洲區民生街53號","121.474791666667","25.0788083333333","6501400","蘆洲區"
"247018","546-UM","2019/07/29 17:29:36","新北市蘆洲區民義街22巷24號","121.471833333333","25.0878883333333","6501400","蘆洲區"
"247004","341-TH","2019/07/29 17:29:47","新北市蘆洲區長安街229號","121.459435","25.0827766666667","6501400","蘆洲區"
"247024","337-TH","2019/07/29 17:29:38","新北市蘆洲區三民路589號","121.46139","25.0931633333333","6501400","蘆洲區"
"247002","336-TH","2019/07/29 17:29:34","新北市蘆洲區永樂街38巷57弄7號","121.458045","25.0901866666667","6501400","蘆洲區"
"247022","057-VK","2019/07/29 17:29:35","新北市蘆洲區三民路277號","121.467776666667","25.0898533333333","6501400","蘆洲區"
"247012","056-VK","2019/07/29 17:29:42","新北市蘆洲區民族路16號","121.475981666667","25.0839883333333","6501400","蘆洲區"
"247016","053-VK","2019/07/29 17:29:38","新北市蘆洲區光華路22巷42號","121.468258333333","25.0848183333333","6501400","蘆洲區"
"247020","007-UY","2019/07/29 17:29:50","新北市蘆洲區水湳街126號","121.469725","25.09347","6501400","蘆洲區"
"247006","002-UY","2019/07/29 17:29:37","新北市蘆洲區長安街68巷20號","121.46388","25.08093","6501400","蘆洲區"
"228003","097-TW","2019/07/29 17:29:47","新北市貢寮區仁理村研海街62號","121.9296","25.0331383333333","6502600","貢寮區"
"228002","663-BX","2019/07/29 17:29:51","新北市貢寮區福隆里福隆街12號","121.94486","25.0162883333333","6502600","貢寮區"
"228001","670-TC","2019/07/29 17:29:46","新北市貢寮區仁理村仁愛路39號","121.925065","25.0533266666667","6502600","貢寮區"
"224010","AGQ-8101","2019/07/29 17:29:34","新北市瑞芳區逢甲路84號","121.809711666667","25.1087083333333","6501200","瑞芳區"
"224006","676-BX","2019/07/29 17:29:29","新北市瑞芳區傑魚坑路147-1號","121.790266666667","25.1096633333333","6501200","瑞芳區"
"224009","275-VK","2019/07/29 17:29:39","新北市瑞芳區汽車路9-12號","121.84587","25.11099","6501200","瑞芳區"
"224008","273-VK","2019/07/29 17:29:46","新北市瑞芳區侯硐路220號","121.830761666667","25.0885233333333","6501200","瑞芳區"
"224005","271-BY","2019/07/29 17:29:17","新北市瑞芳區海濱路3巷2-11號","121.849053333333","25.1263333333333","6501200","瑞芳區"
"227001","642-TC","2019/07/29 17:20:08","新北市雙溪區三貂里定福路1-2號","121.850738333333","25.0634083333333","6502500","雙溪區"
"227002","400-TW","2019/07/29 17:29:42","新北市雙溪區共和里東榮街52號","121.866286666667","25.0336733333333","6502500","雙溪區"
"251009","008-UM","2019/07/29 17:29:39","新北市淡水區建設街6號","121.439031666667","25.1724983333333","6501000","淡水區"
"251004","009-UM","2019/07/29 17:14:32","新北市淡水區中正東路二段88巷15號","121.459036666667","25.1505116666667","6501000","淡水區"
"251005","010-UM","2019/07/29 17:29:41","新北市淡水區鄧公路31巷1號","121.451241666667","25.1709266666667","6501000","淡水區"
"251002","012-UM","2019/07/29 17:29:34","新北市淡水區中正路一段85號","121.422346666667","25.17887","6501000","淡水區"
"251015","KEA-2871","2019/07/29 17:29:29","新北市淡水區三空泉20號","121.469366666667","25.1656233333333","6501000","淡水區"
"251016","179-VK","2019/07/29 17:29:44","新北市淡水區埤島75號","121.454268333333","25.19452","6501000","淡水區"
"251008","181-VK","2019/07/29 17:29:35","新北市淡水區大同路89號","121.46253","25.1402033333333","6501000","淡水區"
"251013","182-VK","2019/07/29 17:29:40","新北市淡水區大竹圍5號","121.466581666667","25.19521","6501000","淡水區"
"251012","441-VK","2019/07/29 17:29:42","新北市淡水區北新路124號","121.448011666667","25.1783266666667","6501000","淡水區"
"251007","442-VK","2019/07/29 17:29:27","新北市淡水區民生路56號","121.462035","25.1379366666667","6501000","淡水區"
"251006","561-UM","2019/07/29 17:29:44","新北市淡水區大仁街19號","121.44245","25.1751516666667","6501000","淡水區"
"251014","577-R6","2019/07/29 17:29:41","新北市淡水區公埔子18號","121.473211666667","25.226835","6501000","淡水區"
"251011","650-BX","2019/07/29 17:29:36","新北市淡水區三空泉8-1號","121.475936666667","25.161245","6501000","淡水區"
"251003","673-BX","2019/07/29 17:29:35","新北市淡水區中山路159-1號","121.440776666667","25.1728916666667","6501000","淡水區"
"251010","766-UM","2019/07/29 17:29:48","新北市淡水區中正路二段211號","121.426193333333","25.1891383333333","6501000","淡水區"
"207004","681-TV","2019/07/29 17:29:44","新北市萬里區萬里里成功新村47號","121.687941666667","25.1745516666667","6502800","萬里區"
"207003","550-UM","2019/07/29 17:29:46","新北市萬里區龜吼里美崙路96號","121.684131666667","25.18544","6502800","萬里區"
"252002","178-VK","2019/07/29 17:29:49","新北市三芝區忠孝街1-14號","121.505338333333","25.2539133333333","6502100","三芝區"
"247010","KED-0683","2019/07/29 17:29:35","新北市蘆洲區中山一路120巷42號","121.478493333333","25.0820616666667","6501400","蘆洲區"
"252001","KED-0821","2019/07/29 17:29:32","新北市三芝區長安街119號","121.498065","25.2596266666667","6502100","三芝區"
"242039","AAC-296","2019/07/29 17:29:44","新北市新莊區民安東路1號","121.427386666667","25.0211083333333","6500500","新莊區"
"242060","986-R7","2019/07/29 17:29:35","新北市新莊區瓊林南路7號","121.438366666667","25.0205866666667","6500500","新莊區"
"242002","751-BX","2019/07/29 17:29:30","新北市新莊區新莊路154號","121.455208333333","25.0354333333333","6500500","新莊區"
"242029","615-BX","2019/07/29 17:29:38","新北市新莊區復興路二段192號","121.45922","25.0443733333333","6500500","新莊區"
"242058","612-BX","2019/07/29 17:29:36","新北市新莊區中正路400號","121.441541666667","25.033895","6500500","新莊區"
"242050","497-BY","2019/07/29 17:29:43","新北市新莊區新樹路449巷20號","121.433981666667","25.014055","6500500","新莊區"
"242046","442-UM","2019/07/29 17:29:39","新北市新莊區新樹路65-5號","121.439408333333","25.0308516666667","6500500","新莊區"
"242056","441-UM","2019/07/29 17:29:41","新北市新莊區景德路233號","121.448806666667","25.03369","6500500","新莊區"
"242004","440-UM","2019/07/29 17:29:33","新北市新莊區中港路278號","121.45305","25.0440916666667","6500500","新莊區"
"242042","415-TV","2019/07/29 17:29:46","新北市新莊區新樹路113巷33號","121.439528333333","25.0263866666667","6500500","新莊區"
"242011","413-TV","2019/07/29 17:29:42","新北市新莊區中港路398號","121.452251666667","25.0498033333333","6500500","新莊區"
"242048","400-BY","2019/07/29 17:29:41","新北市新莊區龍安路255號","121.419711666667","25.0200216666667","6500500","新莊區"
"242025","362-BY","2019/07/29 17:29:37","新北市新莊區中港路281號","121.453166666667","25.0437683333333","6500500","新莊區"
"242023","353-BY","2019/07/29 17:29:44","新北市新莊區公園路150號","121.453151666667","25.0401016666667","6500500","新莊區"
"242013","132-UY","2019/07/29 17:29:35","新北市新莊區中誠街18號","121.451916666667","25.048285","6500500","新莊區"
"242036","135-UY","2019/07/29 17:29:42","新北市新莊區後港一路195號","121.434335","25.0283483333333","6500500","新莊區"
"242053","172-VK","2019/07/29 17:29:41","新北市新莊區瓊林南路305巷35號","121.43597","25.00514","6500500","新莊區"
"242015","173-VK","2019/07/29 17:29:38","新北市新莊區建中街73號","121.447521666667","25.0367266666667","6500500","新莊區"
"242021","175-VK","2019/07/29 17:29:34","新北市新莊區中正路130號","121.45286","25.036185","6500500","新莊區"
"242019","KED-0687","2019/07/29 17:29:44","新北市新莊區中港路五守新村35巷2號","121.454613333333","25.0385616666667","6500500","新莊區"
"242034","348-TH","2019/07/29 17:29:35","新北市新莊區新莊路376號","121.449235","25.0334433333333","6500500","新莊區"
"242007","349-TH","2019/07/29 17:29:43","新北市新莊區自強街28號","121.454778333333","25.046105","6500500","新莊區"
"242031","350-TH","2019/07/29 17:29:49","新北市新莊區新泰路462號","121.443213333333","25.044835","6500500","新莊區"
"242017","351-TH","2019/07/29 17:29:46","新北市新莊區中港路287號","121.452773333333","25.0439966666667","6500500","新莊區"
"238015","755-BX","2019/07/29 17:29:45","新北市樹林區復興路3號","121.42288","24.9947733333333","6500700","樹林區"
"238023","601-UM","2019/07/29 17:29:42","新北市樹林區三福街114號","121.406381666667","25.0162516666667","6500700","樹林區"
"238019","599-UM","2019/07/29 17:29:48","新北市樹林區八德街233號","121.421481666667","24.9790116666667","6500700","樹林區"
"238024","5061-A6","2019/07/29 17:29:41","新北市樹林區鎮前街164號","121.424328333333","24.9899466666667","6500700","樹林區"
"238018","KEA-2217","2019/07/29 17:29:32","新北市樹林區鎮前街165號","121.422361666667","24.9873766666667","6500700","樹林區"
"238022","KEA-2213","2019/07/29 17:29:32","新北市樹林區仁愛街20號","121.42225","24.9819416666667","6500700","樹林區"
"238021","KEA-2539","2019/07/29 17:29:34","新北市樹林區佳園路二段41號","121.391881666667","24.9626316666667","6500700","樹林區"
"238025","303-VK","2019/07/29 17:29:32","新北市樹林區保安街二段37-1號","121.416161666667","25.0000583333333","6500700","樹林區"
"238017","283-BY","2019/07/29 17:29:34","新北市樹林區中正路240號","121.418011666667","25.0070966666667","6500700","樹林區"
"238014","282-BY","2019/07/29 17:29:39","新北市樹林區保安街一段249號","121.419646666667","24.9964733333333","6500700","樹林區"
"238020","268-VK","2019/07/29 17:29:46","新北市樹林區千歲街101號","121.428521666667","25.0008783333333","6500700","樹林區"
"238026","172-UY","2019/07/29 17:29:40","新北市樹林區新興街19巷36弄1號","121.402475","24.9735333333333","6500700","樹林區"
"238016","169-UY","2019/07/29 17:29:43","新北市樹林區中山路一段2巷21號","121.423906666667","24.9939183333333","6500700","樹林區"
"239007","AAC-297","2019/07/29 17:29:32","新北市鶯歌區中正一路195號","121.3533","24.9571166666667","6500800","鶯歌區"
"239006","891-R6","2019/07/29 17:29:35","新北市鶯歌區鳳鳴路105號","121.334418333333","24.9663233333333","6500800","鶯歌區"
"239008","527-UM","2019/07/29 17:29:34","新北市鶯歌區大湖路576號","121.336301666667","24.9734433333333","6500800","鶯歌區"
"239005","526-UM","2019/07/29 17:29:46","桃園市桃園區大仁路101巷6號","121.323633333333","24.9710533333333","6500800","鶯歌區"
"239001","417-VK","2019/07/29 17:29:32","新北市鶯歌區中正三路101號","121.338235","24.9409666666667","6500800","鶯歌區"
"239003","360-BY","2019/07/29 17:29:29","新北市鶯歌區德昌街179號","121.331385","24.9606116666667","6500800","鶯歌區"
"239002","359-BY","2019/07/29 17:29:27","新北市鶯歌區南雅路418號","121.347446666667","24.9539966666667","6500800","鶯歌區"
"239004","193-VK","2019/07/29 17:29:35","新北市鶯歌區文化路224號","121.352766666667","24.9487766666667","6500800","鶯歌區"
"244019","KED-0667","2019/07/29 17:29:28","新北市林口區文化一路一段135巷7號","121.37336","25.0721383333333","6501700","林口區"
"233001","KEC-0709","2019/07/29 17:29:29","新北市烏來區瀑布路24號","121.542716666667","24.8453566666667","6502900","烏來區"
"242044","281-VK","2019/07/29 17:29:33","新北市新莊區富國路62號","121.419635","25.0260383333333","6500500","新莊區"
"242009","280-VK","2019/07/29 17:29:46","新北市新莊區中原路185號","121.453118333333","25.0543666666667","6500500","新莊區"
"235061","KEA-2875","2019/07/29 17:11:55","新北市中和區員山路36巷16-2號","121.485318333333","24.9916533333333","6500300","中和區"
