"lineid","car","time","location","longitude","latitude","cityid","cityname"
"234026","9371-KE","2019/07/29 17:49:48","新北市永和區永平路180巷5號","121.510825","25.0095833333333","6500400","永和區"
"249005","172-UM","2019/07/29 17:49:33","新北市八里區荖阡坑路34-3號","121.402271666667","25.13196","6502300","八里區"
"249001","173-UM","2019/07/29 17:49:41","新北市八里區龍米路二段143號","121.444081666667","25.149245","6502300","八里區"
"249004","303-UY","2019/07/29 17:49:43","新北市八里區中華路一段309巷51號","121.417436666667","25.1532616666667","6502300","八里區"
"249002","305-UY","2019/07/29 17:49:31","新北市八里區龍形一街7號","121.450565","25.130535","6502300","八里區"
"249003","593-UM","2019/07/29 17:49:42","新北市八里區中山路二段71號","121.406403333333","25.153235","6502300","八里區"
"248016","026-BX","2019/07/29 17:49:27","新北市五股區中興路二段83巷26-6號","121.460138333333","25.0751066666667","6501500","五股區"
"248008","KED-0815","2019/07/29 17:49:32","新北市五股區中興路二段37巷26號","121.46034","25.0751683333333","6501500","五股區"
"232011","375-UM","2019/07/29 17:49:36","新北市坪林區北宜路八段155號","121.707133333333","24.9344566666667","6502000","坪林區"
"244007","080-UY","2019/07/29 17:49:44","新北市林口區林口路96號","121.388831666667","25.0810516666667","6501700","林口區"
"244013","KEA-2802","2019/07/29 17:49:30","新北市林口區中山路130號","121.392216666667","25.0785433333333","6501700","林口區"
"244023","483-VK","2019/07/29 17:49:30","新北市林口區東湖路14號","121.388845","25.0742033333333","6501700","林口區"
"244017","485-VK","2019/07/29 17:49:45","新北市林口區文化二路一段230巷22弄1號","121.370268333333","25.0719233333333","6501700","林口區"
"244009","656-BX","2019/07/29 17:49:38","新北市林口區竹林路582巷19號","121.385978333333","25.0833366666667","6501700","林口區"
"244011","701-TV","2019/07/29 17:49:34","新北市林口區中正路265號","121.39022","25.0776933333333","6501700","林口區"
"244025","837-TS","2019/07/29 17:49:47","新北市林口區三民路185號","121.360916666667","25.0712066666667","6501700","林口區"
"244021","838-TS","2019/07/29 17:49:36","新北市林口區仁愛路一段61巷13號","121.398443333333","25.0695583333333","6501700","林口區"
"222003","436-BY","2019/07/29 17:49:45","新北市深坑區阿柔洋60-1號","121.60859","24.9985166666667","6501800","深坑區"
"222002","659-BX","2019/07/29 17:49:33","新北市深坑區平埔街22巷8號","121.614926666667","25.00089","6501800","深坑區"
"241015","742-BX","2019/07/29 17:49:30","新北市三重區龍濱路285號","121.50105","25.073385","6500200","三重區"
"241005","262-UM","2019/07/29 17:49:49","新北市三重區仁愛街672號","121.482183333333","25.08045","6500200","三重區"
"241016","266-UM","2019/07/29 17:49:38","新北市三重區新北大道一段50號","121.487558333333","25.0614466666667","6500200","三重區"
"241024","462-BY","2019/07/29 17:49:33","新北市三重區國道路一段46號","121.482635","25.0727716666667","6500200","三重區"
"241033","AAC-255","2019/07/29 17:49:36","新北市三重區光復路一段7號","121.472065","25.0471266666667","6500200","三重區"
"235064","005-UY","2019/07/29 17:49:30","新北市中和區員山路36巷16-3號","121.485076666667","24.9913516666667","6500300","中和區"
"235063","006-UY","2019/07/29 17:49:35","新北市中和區員山路36巷16-3號","121.484878333333","24.9913683333333","6500300","中和區"
"235065","098-UM","2019/07/29 17:49:47","新北市中和區中正路637巷52弄7號","121.48505","24.993765","6500300","中和區"
"247014","KEA-2869","2019/07/29 17:49:30","新北市蘆洲區保和街69巷23號","121.469746666667","25.0852833333333","6501400","蘆洲區"
"247008","KED-0682","2019/07/29 17:49:32","新北市蘆洲區中山一路204號","121.473493333333","25.08084","6501400","蘆洲區"
"235057","801-TS","2019/07/29 17:49:42","新北市中和區員山路36巷13號","121.484275","24.9911833333333","6500300","中和區"
"235037","AAC-213","2019/07/29 17:49:41","新北市中和區錦和路350-1號","121.490205","24.99357","6500300","中和區"
"247018","546-UM","2019/07/29 17:49:36","新北市蘆洲區復興路227巷2弄28號","121.48161","25.0905366666667","6501400","蘆洲區"
"247004","341-TH","2019/07/29 17:49:47","新北市蘆洲區長榮路211巷5號","121.460473333333","25.0846466666667","6501400","蘆洲區"
"247024","337-TH","2019/07/29 17:49:38","新北市蘆洲區長樂路231號","121.461906666667","25.0898233333333","6501400","蘆洲區"
"247002","336-TH","2019/07/29 17:49:34","新北市蘆洲區永平街32巷21弄31-2號","121.458005","25.0922316666667","6501400","蘆洲區"
"247022","057-VK","2019/07/29 17:49:35","新北市蘆洲區中正路470號","121.462393333333","25.0952483333333","6501400","蘆洲區"
"247012","056-VK","2019/07/29 17:49:41","新北市蘆洲區復興路78號","121.475081666667","25.0866366666667","6501400","蘆洲區"
"247016","053-VK","2019/07/29 17:49:18","新北市蘆洲區中正路185巷23弄24號","121.467545","25.084025","6501400","蘆洲區"
"247020","007-UY","2019/07/29 17:49:50","新北市蘆洲區民族路345巷25號","121.472225","25.0911133333333","6501400","蘆洲區"
"247006","002-UY","2019/07/29 17:49:37","新北市蘆洲區長安街22巷20號","121.464646666667","25.0798266666667","6501400","蘆洲區"
"226004","312-R5","2019/07/29 17:49:36","新北市平溪區石底里公園街18-3號","121.733348333333","25.025585","6502400","平溪區"
"228003","097-TW","2019/07/29 17:49:47","新北市貢寮區真理里延平街22-9號","121.924655","25.0559333333333","6502600","貢寮區"
"228002","663-BX","2019/07/29 17:49:31","新北市貢寮區福隆里龜壽谷街26號","121.952533333333","25.0094016666667","6502600","貢寮區"
"228001","670-TC","2019/07/29 17:49:46","新北市貢寮區仁理村仁愛路95-1號","121.92761","25.0555616666667","6502600","貢寮區"
"224006","676-BX","2019/07/29 17:49:29","新北市瑞芳區傑魚坑路183號","121.788436666667","25.1082716666667","6501200","瑞芳區"
"224009","275-VK","2019/07/29 17:49:39","新北市瑞芳區金光路374號","121.849783333333","25.11104","6501200","瑞芳區"
"224008","273-VK","2019/07/29 17:49:26","新北市瑞芳區明燈路一段182號","121.818161666667","25.10834","6501200","瑞芳區"
"224005","271-BY","2019/07/29 17:49:37","新北市瑞芳區瑞濱路55-3號","121.8255","25.1209766666667","6501200","瑞芳區"
"227001","642-TC","2019/07/29 17:20:08","新北市雙溪區三貂里定福路1-2號","121.850738333333","25.0634083333333","6502500","雙溪區"
"227002","400-TW","2019/07/29 17:49:42","新北市雙溪區共和里東榮街52號","121.866315","25.0336783333333","6502500","雙溪區"
"253006","032-BX","2019/07/29 17:49:28","新北市石門區中央路14-2號","121.566648333333","25.2914616666667","6502200","石門區"
"208002","KEA-2872","2019/07/29 17:49:30","新北市金山區磺清路135號","121.639418333333","25.2276583333333","6502700","金山區"
"251009","008-UM","2019/07/29 17:49:39","新北市淡水區長興街3號","121.443835","25.1707133333333","6501000","淡水區"
"251004","009-UM","2019/07/29 17:49:47","新北市淡水區民權一街17巷2號","121.458685","25.13649","6501000","淡水區"
"251005","010-UM","2019/07/29 17:49:41","新北市淡水區學府路102巷2號","121.450375","25.171995","6501000","淡水區"
"251002","012-UM","2019/07/29 17:49:34","新北市淡水區中山路93-2號","121.442235","25.1704583333333","6501000","淡水區"
"251015","KEA-2871","2019/07/29 17:49:29","新北市淡水區興福寮1-7號","121.487638333333","25.16473","6501000","淡水區"
"251016","179-VK","2019/07/29 17:49:44","新北市淡水區埤島39-15號","121.452741666667","25.195865","6501000","淡水區"
"251008","181-VK","2019/07/29 17:49:35","新北市淡水區八勢路一段112號","121.466856666667","25.1561516666667","6501000","淡水區"
"251013","182-VK","2019/07/29 17:49:40","新北市淡水區泉洲厝31號","121.479575","25.191","6501000","淡水區"
"251012","441-VK","2019/07/29 17:49:42","新北市淡水區北新路一段695號","121.473671666667","25.184785","6501000","淡水區"
"251007","442-VK","2019/07/29 17:49:48","新北市淡水區民生路52巷4號","121.461901666667","25.13756","6501000","淡水區"
"251006","561-UM","2019/07/29 17:49:36","新北市淡水區大信街1巷17號","121.440631666667","25.1766583333333","6501000","淡水區"
"251014","577-R6","2019/07/29 17:49:41","新北市淡水區公埔子16-6號","121.481035","25.22452","6501000","淡水區"
"251011","650-BX","2019/07/29 17:49:36","新北市淡水區小坪頂13-3號","121.486611666667","25.1561583333333","6501000","淡水區"
"251003","673-BX","2019/07/29 17:49:35","新北市淡水區大忠街5巷1號","121.443045","25.1763716666667","6501000","淡水區"
"251010","766-UM","2019/07/29 17:49:28","新北市淡水區淡海路289號","121.419865","25.18829","6501000","淡水區"
"207003","550-UM","2019/07/29 17:49:26","新北市萬里區野柳里東澳路66號","121.692743333333","25.2009316666667","6502800","萬里區"
"252002","178-VK","2019/07/29 17:49:29","新北市三芝區智成街23號","121.503343333333","25.2566466666667","6502100","三芝區"
"237009","210-TH","2019/07/29 17:49:34","新北市三峽區大勇路3巷36號","121.367416666667","24.9368016666667","6500900","三峽區"
"237013","252-BX","2019/07/29 17:49:36","新北市三峽區中華路8-1號","121.37503","24.93291","6500900","三峽區"
"237012","275-BY","2019/07/29 17:49:48","新北市三峽區復興路1號","121.374496666667","24.9357983333333","6500900","三峽區"
"237008","302-VK","2019/07/29 17:49:41","新北市三峽區中園街237-1號","121.366855","24.9195","6500900","三峽區"
"237014","433-BY","2019/07/29 17:49:40","新北市三峽區和平街36巷17號","121.371245","24.9369733333333","6500900","三峽區"
"237006","5529-G3","2019/07/29 17:49:34","新北市三峽區介壽路二段38巷22號","121.391751666667","24.93492","6500900","三峽區"
"237011","KEA-2596","2019/07/29 17:49:34","新北市三峽區中園街6號","121.368485","24.9274133333333","6500900","三峽區"
"237015","649-BX","2019/07/29 17:49:40","新北市三峽區白雞149-2號","121.399903333333","24.9050833333333","6500900","三峽區"
"237010","706-TV","2019/07/29 17:49:43","新北市三峽區復興路179-2號","121.369438333333","24.9386883333333","6500900","三峽區"
"237005","AKY-6261","2019/07/29 17:49:39","新北市三峽區中山路333-1號","121.360085","24.937875","6500900","三峽區"
"236042","KED-0685","2019/07/29 17:49:32","新北市土城區城林路6巷80號","121.438495","24.979755","6501300","土城區"
"236078","166-UM","2019/07/29 17:49:38","新北市土城區中央路三段140號","121.43333","24.9655716666667","6501300","土城區"
"236030","253-BX","2019/07/29 17:49:43","新北市土城區城林路6巷80號","121.438371666667","24.9797783333333","6501300","土城區"
"236014","270-VK","2019/07/29 17:49:45","新北市土城區城林路6巷80號","121.438473333333","24.9796933333333","6501300","土城區"
"236039","271-VK","2019/07/29 17:49:27","新北市土城區城林路6巷80號","121.438438333333","24.979795","6501300","土城區"
"247010","KED-0683","2019/07/29 17:49:35","新北市蘆洲區民族路60號","121.477231666667","25.0846366666667","6501400","蘆洲區"
"236069","KEA-2877","2019/07/29 17:49:45","新北市土城區城林路6巷80號","121.438466666667","24.9796583333333","6501300","土城區"
"252001","KED-0821","2019/07/29 17:49:32","新北市三芝區中興街一段31號","121.497433333333","25.2581983333333","6502100","三芝區"
"236020","401-BY","2019/07/29 17:49:46","新北市土城區城林路6巷80號","121.438465","24.97958","6501300","土城區"
"236059","912-UM","2019/07/29 17:49:43","新北市土城區中華路二段257號","121.437525","24.9709283333333","6501300","土城區"
"236048","913-UM","2019/07/29 17:49:29","新北市土城區城林路6巷80號","121.438401666667","24.9796516666667","6501300","土城區"
"242039","AAC-296","2019/07/29 17:49:44","新北市新莊區民安路162號","121.424803333333","25.0244816666667","6500500","新莊區"
"242060","986-R7","2019/07/29 17:49:35","新北市新莊區新樹路605號","121.433268333333","25.0057033333333","6500500","新莊區"
"242002","751-BX","2019/07/29 17:49:42","新北市新莊區景德路140號","121.4511","25.0341216666667","6500500","新莊區"
"242029","615-BX","2019/07/29 17:49:38","新北市新莊區新泰路322號","121.445066666667","25.0416833333333","6500500","新莊區"
"242058","612-BX","2019/07/29 17:49:36","新北市新莊區中正路706-1號","121.417156666667","25.025355","6500500","新莊區"
"242050","497-BY","2019/07/29 17:49:44","新北市新莊區西盛街277號","121.42814","25.01533","6500500","新莊區"
"242046","442-UM","2019/07/29 17:49:39","新北市新莊區福營路165巷51號","121.432943333333","25.0298483333333","6500500","新莊區"
"242056","441-UM","2019/07/29 17:49:41","新北市新莊區瓊林路38巷6號","121.447788333333","25.03051","6500500","新莊區"
"242004","440-UM","2019/07/29 17:49:48","新北市新莊區思源路177巷5弄12號","121.45881","25.0450316666667","6500500","新莊區"
"242042","415-TV","2019/07/29 17:49:41","新北市泰山區中山路二段841號","121.425918333333","25.0354016666667","6500500","新莊區"
"242011","413-TV","2019/07/29 17:49:47","新北市新莊區中港路748號","121.450336666667","25.0584766666667","6500500","新莊區"
"242048","400-BY","2019/07/29 17:49:41","新北市新莊區萬安街58號","121.420956666667","25.023635","6500500","新莊區"
"242025","362-BY","2019/07/29 17:49:42","新北市新莊區新北大道二段143號","121.465721666667","25.0613416666667","6500500","新莊區"
"242023","353-BY","2019/07/29 17:49:44","新北市新莊區福樂街20號","121.457871666667","25.0451416666667","6500500","新莊區"
"242013","132-UY","2019/07/29 17:49:35","新北市新莊區中誠街168號","121.448083333333","25.047505","6500500","新莊區"
"242036","135-UY","2019/07/29 17:49:42","新北市新莊區建福路49巷12號","121.42727","25.0277466666667","6500500","新莊區"
"242053","172-VK","2019/07/29 17:49:41","新北市新莊區民安西路468-1號","121.431648333333","25.0078016666667","6500500","新莊區"
"242015","173-VK","2019/07/29 17:49:46","新北市新莊區新泰路462號","121.443206666667","25.0448233333333","6500500","新莊區"
"242021","175-VK","2019/07/29 17:49:43","新北市新莊區永寧街30巷1號","121.452878333333","25.0391083333333","6500500","新莊區"
"242019","KED-0687","2019/07/29 17:49:44","新北市新莊區長青街35巷2號","121.456686666667","25.0422283333333","6500500","新莊區"
"242034","348-TH","2019/07/29 17:49:46","新北市新莊區景德路642號","121.441148333333","25.0328833333333","6500500","新莊區"
"242007","349-TH","2019/07/29 17:49:43","新北市新莊區福樂街73號","121.456881666667","25.0478533333333","6500500","新莊區"
"242031","350-TH","2019/07/29 17:49:29","新北市新莊區新泰路321巷37號","121.443001666667","25.041155","6500500","新莊區"
"242017","351-TH","2019/07/29 17:49:46","新北市新莊區永安街100號","121.450335","25.04457","6500500","新莊區"
"238015","755-BX","2019/07/29 17:49:45","新北市樹林區啟智街77巷9號","121.420601666667","24.9918366666667","6500700","樹林區"
"238023","601-UM","2019/07/29 17:49:42","新北市樹林區龍興街32巷13號","121.402511666667","25.01559","6500700","樹林區"
"238019","599-UM","2019/07/29 17:49:48","新北市樹林區太平路129號","121.419185","24.9803833333333","6500700","樹林區"
"238018","KEA-2217","2019/07/29 17:49:35","新北市樹林區博愛一街13號","121.425335","24.9910483333333","6500700","樹林區"
"238022","KEA-2213","2019/07/29 17:49:35","新北市樹林區太順街86巷11號","121.416596666667","24.9785083333333","6500700","樹林區"
"238021","KEA-2539","2019/07/29 17:49:34","新北市樹林區田尾街82號","121.40889","24.9581383333333","6500700","樹林區"
"238025","303-VK","2019/07/29 17:49:32","新北市樹林區三俊街130號","121.415678333333","25.0154033333333","6500700","樹林區"
"238017","283-BY","2019/07/29 17:49:34","新北市樹林區俊德街58號","121.41538","25.0132783333333","6500700","樹林區"
"238014","282-BY","2019/07/29 17:49:39","新北市樹林區保安街一段320號","121.41844","24.9976133333333","6500700","樹林區"
"238020","268-VK","2019/07/29 17:49:46","新北市樹林區俊英街210號","121.42522","25.0094133333333","6500700","樹林區"
"238026","172-UY","2019/07/29 17:49:40","新北市樹林區新興街19巷11號","121.400701666667","24.973105","6500700","樹林區"
"238016","169-UY","2019/07/29 17:49:32","新北市樹林區復興路308巷1弄1號","121.416735","24.9871733333333","6500700","樹林區"
"239007","AAC-297","2019/07/29 17:49:32","新北市鶯歌區永利街22號","121.339261666667","24.9548016666667","6500800","鶯歌區"
"239006","891-R6","2019/07/29 17:49:35","新北市鶯歌區永和街153號","121.334053333333","24.96993","6500800","鶯歌區"
"239008","527-UM","2019/07/29 17:49:34","新北市鶯歌區大湖路700巷24號","121.33338","24.9767","6500800","鶯歌區"
"239005","526-UM","2019/07/29 17:49:26","新北市鶯歌區鶯桃路二段6號","121.326163333333","24.9720033333333","6500800","鶯歌區"
"239001","417-VK","2019/07/29 17:49:32","新北市鶯歌區中正三路387號","121.326678333333","24.93451","6500800","鶯歌區"
"239003","360-BY","2019/07/29 17:49:29","新北市鶯歌區鶯桃路216號","121.336963333333","24.95915","6500800","鶯歌區"
"239002","359-BY","2019/07/29 17:49:47","新北市鶯歌區育德街10號","121.344816666667","24.9552733333333","6500800","鶯歌區"
"239004","193-VK","2019/07/29 17:49:35","新北市鶯歌區文化路292號","121.352743333333","24.9468716666667","6500800","鶯歌區"
"221008","489-VK","2019/07/29 17:49:33","新北市汐止區康寧街901號","121.651413333333","25.075035","6501100","汐止區"
"244019","KED-0667","2019/07/29 17:49:49","新北市林口區麗園路113號","121.371736666667","25.0677566666667","6501700","林口區"
"221010","269-BY","2019/07/29 17:49:31","新北市汐止區汐萬路一段395號","121.649413333333","25.07884","6501100","汐止區"
"221029","298-VK","2019/07/29 17:49:38","新北市汐止區汐萬路一段256巷1號","121.6517","25.074825","6501100","汐止區"
"221031","353-TW","2019/07/29 17:49:42","新北市汐止區連峰街1巷1號","121.646811666667","25.0760916666667","6501100","汐止區"
"233002","KEA-2870","2019/07/29 17:49:33","新北市烏來區烏來街29號","121.551331666667","24.8653166666667","6502900","烏來區"
"233001","KEC-0709","2019/07/29 17:49:29","新北市烏來區信福路2巷2號","121.537468333333","24.8407666666667","6502900","烏來區"
"242044","281-VK","2019/07/29 17:49:33","新北市新莊區天祥街2號","121.417246666667","25.02678","6500500","新莊區"
"242009","280-VK","2019/07/29 17:49:46","新北市新莊區昌明街42號","121.456321666667","25.0522516666667","6500500","新莊區"
"235061","KEA-2875","2019/07/29 17:49:40","新北市中和區員山路36巷16-2號","121.48525","24.991695","6500300","中和區"
