"lineid","car","time","location","longitude","latitude","cityid","cityname"
"234046","148-BY","2019/07/29 18:39:35","新北市永和區永元路68號","121.522546666667","25.0016133333333","6500400","永和區"
"234081","298-R6","2019/07/29 18:39:36","新北市永和區林森路73號","121.524123333333","25.0038666666667","6500400","永和區"
"234086","338-UY","2019/07/29 18:39:32","新北市中和區安樂路69號","121.512416666667","24.9937866666667","6500400","永和區"
"234017","745-BX","2019/07/29 18:39:33","新北市永和區福和路1號","121.526308333333","25.0095716666667","6500400","永和區"
"234030","746-BX","2019/07/29 18:39:44","新北市永和區得和路321號","121.523275","24.99961","6500400","永和區"
"234007","KED-0605","2019/07/29 18:39:41","新北市永和區文化路164號","121.51214","25.0153766666667","6500400","永和區"
"234013","KEA-2591","2019/07/29 18:39:34","新北市永和區保福路二段88巷29號","121.51197","25.0137016666667","6500400","永和區"
"234042","862-TW","2019/07/29 18:39:41","新北市永和區福和路379號","121.51459","25.0074666666667","6500400","永和區"
"234026","9371-KE","2019/07/29 18:39:47","新北市永和區自由街58號","121.513796666667","25.005975","6500400","永和區"
"234011","9373-KE","2019/07/29 18:39:31","新北市永和區文化路9巷22弄77號","121.513776666667","25.0143633333333","6500400","永和區"
"249005","172-UM","2019/07/29 18:39:33","新北市八里區中華路三段34-2號","121.388705","25.125615","6502300","八里區"
"249001","173-UM","2019/07/29 18:39:41","新北市八里區龍米路一段382號","121.451545","25.13181","6502300","八里區"
"249004","303-UY","2019/07/29 18:39:43","新北市八里區龍米路三段60號","121.423673333333","25.1590233333333","6502300","八里區"
"249002","305-UY","2019/07/29 18:39:51","新北市八里區龍形一街31號","121.449678333333","25.1304133333333","6502300","八里區"
"248016","026-BX","2019/07/29 18:39:47","新北市五股區凌雲路一段149巷7號","121.44892","25.101675","6501500","五股區"
"248008","KED-0815","2019/07/29 18:39:32","新北市五股區中興路一段150巷4號","121.464643333333","25.074155","6501500","五股區"
"248018","KED-0813","2019/07/29 18:39:30","新北市五股區民義路二段118號","121.404205","25.1140516666667","6501500","五股區"
"248012","247-BX","2019/07/29 18:39:46","新北市五股區成泰路三段2巷1-20號","121.441245","25.0866266666667","6501500","五股區"
"248014","261-SL","2019/07/29 18:39:44","新北市五股區民義路一段71-1號","121.435501666667","25.0851066666667","6501500","五股區"
"248004","677-BX","2019/07/29 18:39:34","新北市五股區民義路一段312-10號","121.423","25.0951366666667","6501500","五股區"
"248002","678-BX","2019/07/29 18:39:48","新北市五股區西雲路234號","121.44871","25.0966283333333","6501500","五股區"
"248010","682-TV","2019/07/29 18:39:39","新北市五股區水碓三路120號","121.431821666667","25.0735466666667","6501500","五股區"
"234023","9380-KE","2019/07/29 18:39:39","新北市永和區福和路92號","121.522473333333","25.0081883333333","6500400","永和區"
"234077","969-R7","2019/07/29 18:39:33","新北市永和區中正路226號","121.515938333333","24.997715","6500400","永和區"
"232011","375-UM","2019/07/29 18:39:36","新北市坪林區坪雙路一段41號","121.7117","24.94239","6502000","坪林區"
"244007","080-UY","2019/07/29 18:39:44","新北市林口區太平里4鄰20號","121.377665","25.1160966666667","6501700","林口區"
"244013","KEA-2802","2019/07/29 18:39:30","新北市林口區麗園一街6巷6-3號","121.375216666667","25.07062","6501700","林口區"
"244023","483-VK","2019/07/29 18:39:30","新北市林口區四維路251號","121.381441666667","25.07487","6501700","林口區"
"244017","485-VK","2019/07/29 18:39:45","新北市林口區文化二路一段68巷10-3號","121.366176666667","25.0687366666667","6501700","林口區"
"244009","656-BX","2019/07/29 18:39:38","新北市林口區竹林路330巷20號","121.39221","25.0828716666667","6501700","林口區"
"244011","701-TV","2019/07/29 18:39:33","新北市林口區仁愛路一段276號","121.393401666667","25.0760966666667","6501700","林口區"
"244025","837-TS","2019/07/29 18:39:47","新北市林口區南勢三街13號","121.35797","25.0769466666667","6501700","林口區"
"244021","838-TS","2019/07/29 18:39:36","新北市林口區工六路14號","121.397991666667","25.07904","6501700","林口區"
"222003","436-BY","2019/07/29 18:39:45","新北市深坑區翠谷街14號","121.627021666667","25.0086133333333","6501800","深坑區"
"222002","659-BX","2019/07/29 18:39:38","新北市深坑區文山路一段62巷8弄1號","121.622355","25.0009633333333","6501800","深坑區"
"231061","002-UM","2019/07/29 18:39:47","新北市新店區安華路28-1號","121.519618333333","24.9607083333333","6500600","新店區"
"231058","0293-UT","2019/07/29 18:39:37","新北市新店區新店後街38號","121.537951666667","24.9535933333333","6500600","新店區"
"231044","046-UY","2019/07/29 18:39:33","新北市新店區安華路28-1號","121.519281666667","24.9606816666667","6500600","新店區"
"231060","106-UY","2019/07/29 18:39:38","新北市新店區安華路28-1號","121.519826666667","24.9607916666667","6500600","新店區"
"231051","107-UY","2019/07/29 18:39:36","新北市新店區安康路一段9-2號","121.533833333333","24.96061","6500600","新店區"
"231042","268-BY","2019/07/29 18:39:31","新北市新店區安康路一段50號","121.530328333333","24.96115","6500600","新店區"
"231064","278-BY","2019/07/29 18:39:47","新北市新店區安一路一段1-1號","121.519836666667","24.961165","6500600","新店區"
"231050","AAD-862","2019/07/29 18:39:40","新北市新店區安一路一段1-1號","121.519543333333","24.9611016666667","6500600","新店區"
"231055","4716-K9","2019/07/29 18:39:29","新北市新店區華興街36號","121.537075","24.969095","6500600","新店區"
"231056","4715-K9","2019/07/29 18:39:30","新北市新店區建國路196號","121.537763333333","24.9805983333333","6500600","新店區"
"231052","513-UM","2019/07/29 18:39:34","新北市新店區新烏路一段58-2號","121.546105","24.9456766666667","6500600","新店區"
"231063","641-BX","2019/07/29 18:39:48","新北市新店區安華路28-1號","121.519768333333","24.9605216666667","6500600","新店區"
"231047","KED-0819","2019/07/29 18:39:34","新北市新店區安華路28-1號","121.519825","24.9610333333333","6500600","新店區"
"231046","719-UM","2019/07/29 18:39:42","新北市新店區直潭二街1號","121.535408333333","24.9431466666667","6500600","新店區"
"231057","720-UM","2019/07/29 18:39:39","新北市新店區北宜路一段106號","121.539003333333","24.95529","6500600","新店區"
"231040","898-TW","2019/07/29 18:39:29","新北市新店區安華路28-1號","121.519398333333","24.9607316666667","6500600","新店區"
"231043","899-TW","2019/07/29 18:39:32","新北市新店區安華路28-1號","121.51898","24.96088","6500600","新店區"
"231066","AKT-0513","2019/07/29 18:39:35","新北市新店區安華路1-1號","121.519393333333","24.960495","6500600","新店區"
"235066","003-UY","2019/07/29 18:39:31","新北市中和區水源路34巷2號","121.504785","25.0035333333333","6500300","中和區"
"235064","005-UY","2019/07/29 18:39:30","新北市中和區連勝街14號","121.49888","24.9984616666667","6500300","中和區"
"235063","006-UY","2019/07/29 18:39:35","新北市中和區連城路258-7號","121.487025","24.99641","6500300","中和區"
"235056","096-UM","2019/07/29 18:39:44","新北市中和區員山路611巷1號","121.477915","25.0113383333333","6500300","中和區"
"235039","097-UM","2019/07/29 18:39:47","新北市中和區宜安路18巷12號","121.513763333333","24.99624","6500300","中和區"
"235065","098-UM","2019/07/29 18:39:47","新北市中和區莊敬路49巷29弄13號","121.500895","25.0064033333333","6500300","中和區"
"235040","150-BY","2019/07/29 18:39:45","新北市中和區安平路97號","121.511095","24.9967733333333","6500300","中和區"
"235058","151-BY","2019/07/29 18:39:42","新北市中和區員山路143巷18號","121.48027","24.9960483333333","6500300","中和區"
"235055","183-VK","2019/07/29 18:39:46","新北市中和區民生街6號","121.471158333333","25.0062433333333","6500300","中和區"
"235038","185-VK","2019/07/29 18:39:43","新北市中和區大勇街76號","121.518248333333","24.9946966666667","6500300","中和區"
"235049","186-VK","2019/07/29 18:39:38","新北市中和區明義街34號","121.503895","24.9951916666667","6500300","中和區"
"235067","255-BX","2019/07/29 18:39:30","新北市中和區新生街28號","121.483225","25.0039216666667","6500300","中和區"
"235044","293-VK","2019/07/29 18:39:39","新北市中和區復興路280巷6號","121.502291666667","24.9912283333333","6500300","中和區"
"235072","301-VK","2019/07/29 18:39:37","新北市中和區中山路二段134-5號","121.502215","25.0031866666667","6500300","中和區"
"235043","352-BY","2019/07/29 18:39:49","新北市中和區景平路73-3號","121.518566666667","24.9916416666667","6500300","中和區"
"235042","KEA-2878","2019/07/29 18:39:42","新北市中和區秀朗路三段117號","121.52592","24.993325","6500300","中和區"
"235050","4979-A6","2019/07/29 18:39:44","新北市中和區忠孝街122-2號","121.512123333333","24.9861","6500300","中和區"
"235069","4980-A6","2019/07/29 18:39:44","新北市中和區連城路61號","121.497555","25.0014433333333","6500300","中和區"
"235070","558-UM","2019/07/29 18:39:32","新北市中和區景平路612-1號","121.500703333333","24.99689","6500300","中和區"
"235045","565-BX","2019/07/29 18:39:46","新北市中和區南山路234號","121.506585","24.9899583333333","6500300","中和區"
"235060","KED-0823","2019/07/29 18:39:47","新北市中和區中山路三段33號","121.479036666667","25.0057933333333","6500300","中和區"
"235054","640-BX","2019/07/29 18:39:36","新北市中和區民享街32巷6號","121.473635","25.0032733333333","6500300","中和區"
"235047","732-UM","2019/07/29 18:39:47","新北市中和區南山路320巷10弄21號","121.50682","24.986725","6500300","中和區"
"235046","733-UM","2019/07/29 18:39:28","新北市中和區忠孝街126號","121.512026666667","24.9864416666667","6500300","中和區"
"235062","800-TS","2019/07/29 18:39:47","新北市中和區中山路二段312巷29-3號","121.495255","25.0037216666667","6500300","中和區"
"235057","801-TS","2019/07/29 18:39:42","新北市中和區民安街25巷11號","121.48052","25.0003016666667","6500300","中和區"
"235052","805-TS","2019/07/29 18:39:38","新北市中和區興南路三段40號","121.496456666667","24.9778116666667","6500300","中和區"
"235048","896-TW","2019/07/29 18:39:37","新北市中和區南山路250巷2號","121.507755","24.9889","6500300","中和區"
"235053","900-TW","2019/07/29 18:39:31","新北市中和區民德路262號","121.467948333333","24.9967733333333","6500300","中和區"
"235051","157-BY","2019/07/29 18:39:38","新北市中和區華新街143巷106弄39號","121.50695","24.978255","6500300","中和區"
"235037","AAC-213","2019/07/29 18:39:41","新北市中和區秀朗路三段128巷9弄1號","121.524506666667","24.9932466666667","6500300","中和區"
"235059","AAC-215","2019/07/29 18:39:32","新北市中和區錦和路354巷15號","121.489751666667","24.991535","6500300","中和區"
"220065","072-UY","2019/07/29 18:39:44","新北市板橋區成都街101號","121.463378333333","25.0054166666667","6500100","板橋區"
"220086","073-UY","2019/07/29 18:39:39","新北市板橋區華東街1-10號","121.448251666667","24.995055","6500100","板橋區"
"220069","AAD-861","2019/07/29 18:39:46","新北市板橋區大華街11號","121.458985","25.0061566666667","6500100","板橋區"
"226004","312-R5","2019/07/29 18:39:36","新北市平溪區石底里公園街18-3號","121.733275","25.0258216666667","6502400","平溪區"
"235041","251-BX","2019/07/29 18:39:37","新北市中和區中安街178巷13弄5號","121.510366666667","24.99859","6500300","中和區"
"228003","097-TW","2019/07/29 18:39:29","新北市貢寮區和美里龍洞街40-1號","121.915466666667","25.11169","6502600","貢寮區"
"228002","663-BX","2019/07/29 18:39:31","新北市貢寮區福隆里東興街6-11號","121.950771666667","25.0210883333333","6502600","貢寮區"
"228001","670-TC","2019/07/29 18:39:46","新北市貢寮區仁理村研海街12-1號","121.92375","25.05167","6502600","貢寮區"
"224006","676-BX","2019/07/29 18:39:49","新北市瑞芳區一坑路46號","121.803781666667","25.1087733333333","6501200","瑞芳區"
"224007","285-BY","2019/07/29 18:39:37","新北市瑞芳區大埔路93號","121.76369","25.1012483333333","6501200","瑞芳區"
"224009","275-VK","2019/07/29 18:39:39","新北市瑞芳區祈堂路64號","121.859031666667","25.10945","6501200","瑞芳區"
"224008","273-VK","2019/07/29 18:39:46","新北市瑞芳區岳王路162號","121.807975","25.1113833333333","6501200","瑞芳區"
"224005","271-BY","2019/07/29 18:39:37","新北市瑞芳區瑞濱路119號","121.820155","25.120115","6501200","瑞芳區"
"227001","642-TC","2019/07/29 18:39:43","新北市雙溪區牡丹里牡丹136號","121.850628333333","25.059165","6502500","雙溪區"
"227002","400-TW","2019/07/29 18:39:42","新北市雙溪區魚行里坤溪3-5號","121.87572","25.02118","6502500","雙溪區"
"253006","032-BX","2019/07/29 18:39:36","新北市石門區楓林28-1號","121.542218333333","25.2893233333333","6502200","石門區"
"253005","295-VK","2019/07/29 18:39:38","新北市石門區石門街3號","121.565875","25.29102","6502200","石門區"
"222001","KEA-2212","2019/07/29 18:39:38","新北市深坑區北深路一段80號","121.636423333333","25.01066","6501800","深坑區"
"208002","KEA-2872","2019/07/29 18:39:29","新北市金山區仁愛路15-7號","121.63838","25.2187416666667","6502700","金山區"
"208003","665-BX","2019/07/29 18:39:43","新北市金山區中山路331號","121.635228333333","25.2240783333333","6502700","金山區"
"251004","009-UM","2019/07/29 18:39:47","新北市淡水區大同路2號","121.46155","25.1407883333333","6501000","淡水區"
"251001","011-UM","2019/07/29 18:39:43","新北市淡水區自強路166號","121.465616666667","25.1340416666667","6501000","淡水區"
"251002","012-UM","2019/07/29 18:39:34","新北市淡水區中正東路一段3巷14弄1號","121.450663333333","25.16388","6501000","淡水區"
"251015","KEA-2871","2019/07/29 18:39:29","新北市淡水區興福寮66巷329號","121.484396666667","25.1617033333333","6501000","淡水區"
"251016","179-VK","2019/07/29 18:39:44","新北市淡水區下圭柔山76-8號","121.441308333333","25.205065","6501000","淡水區"
"251008","181-VK","2019/07/29 18:39:35","新北市淡水區北投子69-1號","121.454023333333","25.181775","6501000","淡水區"
"251013","182-VK","2019/07/29 18:39:40","新北市淡水區奎柔山路1262號","121.482536666667","25.206235","6501000","淡水區"
"251012","441-VK","2019/07/29 18:39:42","新北市淡水區北新路121號","121.44897","25.1787066666667","6501000","淡水區"
"251006","561-UM","2019/07/29 18:39:36","新北市淡水區崁頂36-7號","121.439051666667","25.1930683333333","6501000","淡水區"
"251014","577-R6","2019/07/29 18:39:41","新北市淡水區崙頂12-8號","121.49558","25.2172216666667","6501000","淡水區"
"251011","650-BX","2019/07/29 18:39:36","新北市淡水區中正東路71-8號","121.447431666667","25.1674833333333","6501000","淡水區"
"251003","673-BX","2019/07/29 18:39:35","新北市淡水區北新路69巷26號","121.446706666667","25.1800683333333","6501000","淡水區"
"251010","766-UM","2019/07/29 18:39:48","新北市淡水區沙崙路145號","121.423406666667","25.1830816666667","6501000","淡水區"
"207003","550-UM","2019/07/29 18:39:46","新北市萬里區野柳里港東路162-15號","121.690455","25.20416","6502800","萬里區"
"207004","291-VK","2019/07/29 18:39:44","新北市萬里區萬里里獅頭路3號","121.6918","25.178215","6502800","萬里區"
"252002","178-VK","2019/07/29 18:39:28","新北市三芝區民生街64巷9號","121.503595","25.2551566666667","6502100","三芝區"
"252003","249-BX","2019/07/29 18:39:31","新北市三芝區後厝里土地公坑999號","121.464815","25.2491866666667","6502100","三芝區"
"208001","170-UY","2019/07/29 18:39:43","新北市金山區文化三路7號","121.635188333333","25.224875","6502700","金山區"
"237004","KEA-2597","2019/07/29 18:39:42","新北市三峽區插角82號","121.406196666667","24.8708716666667","6500900","三峽區"
"237007","153-BY","2019/07/29 18:39:35","新北市三峽區中正路二段455號","121.361163333333","24.9064183333333","6500900","三峽區"
"237009","210-TH","2019/07/29 18:39:34","新北市三峽區大同路315號","121.363298333333","24.924655","6500900","三峽區"
"237013","252-BX","2019/07/29 18:39:35","新北市三峽區大同路52號","121.376816666667","24.9291166666667","6500900","三峽區"
"237012","275-BY","2019/07/29 18:39:48","新北市三峽區三樹路362號","121.38371","24.9436233333333","6500900","三峽區"
"237008","302-VK","2019/07/29 18:39:46","新北市三峽區白雞33-51號","121.370408333333","24.912995","6500900","三峽區"
"237014","433-BY","2019/07/29 18:39:39","新北市三峽區復興路480巷52號","121.361846666667","24.9413","6500900","三峽區"
"237006","5529-G3","2019/07/29 18:39:34","新北市三峽區溪東路315巷104號","121.412223333333","24.9315166666667","6500900","三峽區"
"237011","KEA-2596","2019/07/29 18:39:34","新北市三峽區成福路101號","121.419088333333","24.92967","6500900","三峽區"
"237015","649-BX","2019/07/29 18:39:40","新北市三峽區成福路284號","121.428483333333","24.92319","6500900","三峽區"
"237010","706-TV","2019/07/29 18:39:43","新北市三峽區中山路282號","121.36124","24.9378583333333","6500900","三峽區"
"237005","AKY-6261","2019/07/29 18:39:39","新北市三峽區民生街104巷15號","121.37345","24.9360666666667","6500900","三峽區"
"236042","KED-0685","2019/07/29 18:39:32","新北市土城區學成路108巷11號","121.450135","24.98971","6501300","土城區"
"236078","166-UM","2019/07/29 18:39:38","新北市土城區中央路四段52巷40弄1號","121.419348333333","24.960635","6501300","土城區"
"236030","253-BX","2019/07/29 18:39:42","新北市土城區福仁街70號","121.439331666667","24.9742683333333","6501300","土城區"
"236026","269-VK","2019/07/29 18:39:30","新北市土城區忠義路49-1號","121.440408333333","24.969065","6501300","土城區"
"236014","270-VK","2019/07/29 18:39:45","新北市土城區清水路207巷11號","121.459845","24.9823366666667","6501300","土城區"
"236039","271-VK","2019/07/29 18:39:47","新北市土城區明德路一段235巷38號","121.463176666667","24.9774033333333","6501300","土城區"
"236069","KEA-2877","2019/07/29 18:39:45","新北市土城區永豐路157巷29弄6-1號","121.46835","24.98147","6501300","土城區"
"252001","KED-0821","2019/07/29 18:39:32","新北市三芝區中興街二段260號","121.50186","25.2528483333333","6502100","三芝區"
"236020","401-BY","2019/07/29 18:39:46","新北市土城區延吉街238號","121.46687","24.9847866666667","6501300","土城區"
"236059","912-UM","2019/07/29 18:39:43","新北市土城區中央路三段149號","121.432348333333","24.9653866666667","6501300","土城區"
"236048","913-UM","2019/07/29 18:39:29","新北市土城區金城路二段356號","121.461325","24.9851416666667","6501300","土城區"
"236063","915-UM","2019/07/29 18:39:42","新北市土城區延壽路55巷9弄2號","121.46948","24.9915933333333","6501300","土城區"
"236055","AAC-216","2019/07/29 18:39:31","新北市土城區中華路一段23號","121.44693","24.9890866666667","6501300","土城區"
"242058","612-BX","2019/07/29 18:39:36","新北市新莊區中正路887-17號","121.416133333333","25.0241783333333","6500500","新莊區"
"242056","441-UM","2019/07/29 18:39:41","新北市新莊區瓊林南路61-71號","121.439363333333","25.018605","6500500","新莊區"
"242042","415-TV","2019/07/29 18:39:41","新北市新莊區天祥街88號","121.415425","25.02952","6500500","新莊區"
"242025","362-BY","2019/07/29 18:39:37","新北市新莊區立信一街35號","121.442018333333","25.049155","6500500","新莊區"
"242007","349-TH","2019/07/29 18:39:43","新北市新莊區環漢路三段530號","121.435406666667","25.0013083333333","6500500","新莊區"
"238023","601-UM","2019/07/29 18:39:42","新北市樹林區三福街114號","121.406403333333","25.0163766666667","6500700","樹林區"
"238019","599-UM","2019/07/29 18:39:48","新北市樹林區中華路190-16號","121.411686666667","24.9805","6500700","樹林區"
"238024","5061-A6","2019/07/29 18:39:41","新北市樹林區大安路593號","121.411605","24.9830416666667","6500700","樹林區"
"238018","KEA-2217","2019/07/29 18:39:32","新北市樹林區鎮前街72號","121.425576666667","24.99213","6500700","樹林區"
"238022","KEA-2213","2019/07/29 18:39:32","新北市樹林區中華路190-8號","121.411318333333","24.98052","6500700","樹林區"
"238025","303-VK","2019/07/29 18:39:32","新北市樹林區中山路三段79號","121.400241666667","24.9749033333333","6500700","樹林區"
"238014","282-BY","2019/07/29 18:39:39","新北市樹林區中華路190-6號","121.410081666667","24.9805116666667","6500700","樹林區"
"238020","268-VK","2019/07/29 18:39:46","新北市樹林區俊安街68號","121.418461666667","25.0133833333333","6500700","樹林區"
"238026","172-UY","2019/07/29 18:39:40","新北市樹林區育德街78-1號","121.388091666667","24.968065","6500700","樹林區"
"238016","169-UY","2019/07/29 18:39:32","新北市樹林區中山路一段412號","121.417466666667","24.985165","6500700","樹林區"
"239008","527-UM","2019/07/29 18:39:34","新北市鶯歌區朝陽街4號","121.33626","24.9766116666667","6500800","鶯歌區"
"239005","526-UM","2019/07/29 18:39:46","新北市鶯歌區鶯桃路668巷52弄2號","121.329405","24.9706316666667","6500800","鶯歌區"
"239001","417-VK","2019/07/29 18:39:32","新北市鶯歌區二甲路光照巷1-2號","121.338408333333","24.9403183333333","6500800","鶯歌區"
"239003","360-BY","2019/07/29 18:39:49","新北市鶯歌區永和街161號","121.335073333333","24.969605","6500800","鶯歌區"
"239002","359-BY","2019/07/29 18:39:47","新北市鶯歌區中正一路97號","121.35221","24.9551333333333","6500800","鶯歌區"
"239004","193-VK","2019/07/29 18:39:35","新北市鶯歌區尖山路271號","121.341146666667","24.9437383333333","6500800","鶯歌區"
"221036","130-UY","2019/07/29 18:39:37","新北市汐止區長安路77巷22弄12號","121.66957","25.0789833333333","6501100","汐止區"
"221015","131-UY","2019/07/29 18:39:47","新北市汐止區長江街367-1號","121.668093333333","25.0826783333333","6501100","汐止區"
"244019","KED-0667","2019/07/29 18:39:28","新北市林口區麗園二街42巷19號","121.381525","25.0669766666667","6501700","林口區"
"221010","269-BY","2019/07/29 18:39:51","新北市汐止區瑞松街49巷6號","121.645186666667","25.1067766666667","6501100","汐止區"
"221012","278-VK","2019/07/29 18:39:31","新北市汐止區保長路51巷3號","121.673458333333","25.0788583333333","6501100","汐止區"
"221023","279-VK","2019/07/29 18:39:48","新北市汐止區民族二街84號","121.633376666667","25.0700583333333","6501100","汐止區"
"221032","280-BY","2019/07/29 18:39:31","新北市汐止區民權街二段129號","121.618073333333","25.0456483333333","6501100","汐止區"
"221033","297-VK","2019/07/29 18:39:42","新北市汐止區宜興街3號","121.621075","25.041395","6501100","汐止區"
"221029","298-VK","2019/07/29 18:39:38","新北市汐止區樟樹一路150號","121.64223","25.0651016666667","6501100","汐止區"
"221021","299-VK","2019/07/29 18:39:40","新北市汐止區新台五路一段115號","121.651368333333","25.0613683333333","6501100","汐止區"
"221031","353-TW","2019/07/29 18:39:42","新北市汐止區新台五路一段21-1號","121.635495","25.0564416666667","6501100","汐止區"
"221035","622-UM","2019/07/29 18:39:31","新北市汐止區大同路二段183號","121.652196666667","25.0642266666667","6501100","汐止區"
"221025","623-UM","2019/07/29 18:39:31","新北市汐止區仁愛路121巷7號","121.662748333333","25.0642383333333","6501100","汐止區"
"221002","707-TV","2019/07/29 18:39:42","新北市汐止區中興路25號","121.636836666667","25.0595833333333","6501100","汐止區"
"221018","753-BX","2019/07/29 18:39:32","新北市汐止區茄苳路223號","121.670975","25.0687183333333","6501100","汐止區"
"220079","145-BY","2019/07/29 18:39:39","新北市板橋區大觀路二段55號","121.446683333333","25.0028733333333","6500100","板橋區"
"220082","610-BX","2019/07/29 18:39:28","新北市板橋區板城路421號","121.447816666667","24.9963883333333","6500100","板橋區"
"220084","256-TC","2019/07/29 18:39:44","新北市板橋區大觀路二段力行1巷3弄2號","121.445283333333","24.9992433333333","6500100","板橋區"
"224002","257-TC","2019/07/29 18:39:43","新北市瑞芳區三爪子坑路29巷1號","121.813515","25.10737","6501200","瑞芳區"
"220056","276-BY","2019/07/29 18:37:29","新北市板橋區館前西路49號","121.457798333333","25.00664","6500100","板橋區"
"220072","277-BY","2019/07/29 18:39:48","新北市板橋區大觀路三段5-4號","121.432613333333","24.995925","6500100","板橋區"
"220071","283-VK","2019/07/29 18:39:42","新北市板橋區四川路二段97號","121.452636666667","24.994795","6500100","板橋區"
"220094","285-UM","2019/07/29 18:39:43","新北市板橋區民生路二段161巷1號","121.470023333333","25.02011","6500100","板橋區"
"220083","286-VK","2019/07/29 18:39:32","新北市板橋區華東街1-8號","121.4475","24.9950466666667","6500100","板橋區"
"220081","287-VK","2019/07/29 18:39:38","新北市板橋區大觀路二段153巷39號","121.446943333333","25.0004416666667","6500100","板橋區"
"220090","288-VK","2019/07/29 18:39:51","新北市板橋區民生路二段161巷1號","121.470208333333","25.0200683333333","6500100","板橋區"
"220061","293-UM","2019/07/29 18:39:49","新北市板橋區民生路二段161巷3號","121.470136666667","25.0197666666667","6500100","板橋區"
"220092","307-R5","2019/07/29 18:39:46","新北市板橋區民生路二段56-6號","121.47072","25.01882","6500100","板橋區"
"220088","491-VK","2019/07/29 18:39:36","新北市板橋區板新路117巷7號","121.471883333333","25.0139916666667","6500100","板橋區"
"220035","560-BX","2019/07/29 18:39:45","新北市板橋區南雅西路二段145巷6號","121.45162","25.0118833333333","6500100","板橋區"
"220103","561-BX","2019/07/29 18:39:44","新北市板橋區民生路二段56-6號","121.4708","25.0188883333333","6500100","板橋區"
"220057","686-BX","2019/07/29 18:39:44","新北市板橋區館前西路4-1號","121.459103333333","25.0071616666667","6500100","板橋區"
"220077","687-BX","2019/07/29 18:39:38","新北市板橋區華東街1-10號","121.448326666667","24.994905","6500100","板橋區"
"220093","689-BX","2019/07/29 18:39:32","新北市板橋區民生路二段161巷1號","121.470075","25.0201283333333","6500100","板橋區"
"220054","741-BX","2019/07/29 18:39:44","新北市板橋區華東街1-8號","121.447841666667","24.994785","6500100","板橋區"
"220102","KEA-2699","2019/07/29 18:39:35","新北市板橋區民生路二段161巷1號","121.470201666667","25.0200066666667","6500100","板橋區"
"220055","827-TW","2019/07/29 18:39:45","新北市板橋區忠孝路19號","121.460345","25.002125","6500100","板橋區"
"220067","829-TW","2019/07/29 18:37:44","新北市板橋區民生路二段120號","121.470331666667","25.0198733333333","6500100","板橋區"
"220074","895-R6","2019/07/29 18:39:47","新北市板橋區南雅南路一段2號","121.45624","25.0070016666667","6500100","板橋區"
"220073","985-R7","2019/07/29 18:39:38","新北市土城區四川路37號","121.454811666667","24.99576","6500100","板橋區"
"220064","AAC-253","2019/07/29 18:39:43","新北市板橋區縣民大道二段101號","121.46667","25.0155266666667","6500100","板橋區"
"235068","KEA-2873","2019/07/29 18:39:41","新北市中和區中正路211巷6號","121.497058333333","24.9933733333333","6500300","中和區"
"235061","KEA-2875","2019/07/29 18:39:36","新北市中和區民享街65號","121.474143333333","25.0022816666667","6500300","中和區"
