"lineid","car","time","location","longitude","latitude","cityid","cityname"
"234046","148-BY","2019/07/29 18:49:35","新北市永和區秀朗路二段128號","121.524836666667","25.0014383333333","6500400","永和區"
"234081","298-R6","2019/07/29 18:49:36","新北市永和區林森路112巷12弄34號","121.522818333333","25.0045733333333","6500400","永和區"
"234038","336-UY","2019/07/29 18:49:45","新北市永和區成功路一段137號","121.526871666667","25.00158","6500400","永和區"
"234064","337-UY","2019/07/29 18:49:31","新北市永和區福和路1號","121.525886666667","25.0094316666667","6500400","永和區"
"234086","338-UY","2019/07/29 18:49:32","新北市永和區中正路77號","121.515103333333","24.996845","6500400","永和區"
"234017","745-BX","2019/07/29 18:49:33","新北市永和區永和路二段297號","121.516065","25.01603","6500400","永和區"
"234030","746-BX","2019/07/29 18:49:44","新北市永和區得和路321號","121.523305","24.999635","6500400","永和區"
"234054","KEA-2590","2019/07/29 18:49:30","新北市永和區豫溪街193號","121.522828333333","25.0103733333333","6500400","永和區"
"234007","KED-0605","2019/07/29 18:49:41","新北市永和區文化路115號","121.512736666667","25.0152616666667","6500400","永和區"
"234013","KEA-2591","2019/07/29 18:49:34","新北市永和區保福路二段133巷37號","121.50899","25.0133683333333","6500400","永和區"
"234061","AAD-866","2019/07/29 18:49:34","新北市永和區福和路309巷3號","121.516386666667","25.006995","6500400","永和區"
"234042","862-TW","2019/07/29 18:49:41","新北市永和區永貞路265號","121.511761666667","25.0046","6500400","永和區"
"234050","863-TW","2019/07/29 18:49:43","新北市永和區福和路1號","121.526391666667","25.0099683333333","6500400","永和區"
"234026","9371-KE","2019/07/29 18:49:28","新北市永和區自由街58號","121.513878333333","25.005965","6500400","永和區"
"234011","9373-KE","2019/07/29 18:49:30","新北市永和區文化路124號","121.513098333333","25.0153666666667","6500400","永和區"
"249005","172-UM","2019/07/29 18:49:33","新北市八里區長道坑15號","121.39464","25.118365","6502300","八里區"
"249001","173-UM","2019/07/29 18:49:41","新北市八里區龍米路二段123號","121.44682","25.1444266666667","6502300","八里區"
"249004","303-UY","2019/07/29 18:49:42","新北市八里區中山路一段150巷80號","121.41613","25.1602516666667","6502300","八里區"
"249002","305-UY","2019/07/29 18:49:31","新北市八里區頂寮二街138號","121.449333333333","25.1294383333333","6502300","八里區"
"248016","026-BX","2019/07/29 18:49:47","新北市五股區凌雲路一段134巷21號","121.449988333333","25.1028233333333","6501500","五股區"
"248006","077-UY","2019/07/29 18:49:47","新北市五股區四維路66號","121.46734","25.07233","6501500","五股區"
"248008","KED-0815","2019/07/29 18:49:32","新北市五股區中興路一段151巷19號","121.46524","25.0725066666667","6501500","五股區"
"248018","KED-0813","2019/07/29 18:49:50","新北市五股區民義路二段48巷2-10號","121.415625","25.1018366666667","6501500","五股區"
"248012","247-BX","2019/07/29 18:49:46","新北市五股區成泰路二段149號","121.439081666667","25.0856183333333","6501500","五股區"
"248004","677-BX","2019/07/29 18:49:34","新北市五股區民義路二段73號","121.409008333333","25.1056283333333","6501500","五股區"
"248002","678-BX","2019/07/29 18:49:47","新北市五股區成泰路三段454號","121.451423333333","25.1003533333333","6501500","五股區"
"248010","682-TV","2019/07/29 18:49:50","新北市五股區水碓五路81號","121.429983333333","25.0718983333333","6501500","五股區"
"234023","9380-KE","2019/07/29 18:49:39","新北市永和區竹林路119巷45號","121.521861666667","25.0118766666667","6500400","永和區"
"234077","969-R7","2019/07/29 18:49:33","新北市永和區中正路42巷6弄1號","121.513345","24.9941183333333","6500400","永和區"
"234067","AAC-212","2019/07/29 18:49:44","新北市永和區永和路一段22號","121.513038333333","25.0047433333333","6500400","永和區"
"234003","AAC-295","2019/07/29 18:49:42","新北市永和區永和路二段28號","121.514721666667","25.0103683333333","6500400","永和區"
"232011","375-UM","2019/07/29 18:49:36","新北市坪林區坪碇路71號","121.711481666667","24.9376616666667","6502000","坪林區"
"244013","KEA-2802","2019/07/29 18:49:50","新北市林口區麗園一街11巷11號","121.378655","25.0705933333333","6501700","林口區"
"244023","483-VK","2019/07/29 18:49:30","新北市林口區文化二路二段72號","121.378383333333","25.0804983333333","6501700","林口區"
"244017","485-VK","2019/07/29 18:49:45","新北市林口區文化二路一段20巷50-3號","121.36525","25.066385","6501700","林口區"
"244009","656-BX","2019/07/29 18:49:38","新北市林口區竹林路362巷18號","121.39267","25.0842633333333","6501700","林口區"
"244011","701-TV","2019/07/29 18:49:33","新北市林口區仁愛路一段285巷52號","121.395495","25.0746133333333","6501700","林口區"
"244025","837-TS","2019/07/29 18:49:47","新北市林口區忠孝一路148號","121.360171666667","25.0739166666667","6501700","林口區"
"243014","KEA-2801","2019/07/29 18:49:31","新北市泰山區犁頭窠3-1號","121.422168333333","25.0604566666667","6501600","泰山區"
"243011","KEA-2216","2019/07/29 18:49:31","新北市泰山區明志路二段214巷16弄4號","121.426828333333","25.04931","6501600","泰山區"
"243015","680-BX","2019/07/29 18:49:49","新北市泰山區美寧街57巷26號","121.43009","25.0649516666667","6501600","泰山區"
"222003","436-BY","2019/07/29 18:49:45","新北市深坑區北深路一段355號","121.62272","25.0051","6501800","深坑區"
"222002","659-BX","2019/07/29 18:49:33","新北市深坑區文山路一段69號","121.627","25.0019033333333","6501800","深坑區"
"231061","002-UM","2019/07/29 18:49:47","新北市新店區安華路28-1號","121.519533333333","24.960805","6500600","新店區"
"231058","0293-UT","2019/07/29 18:49:37","新北市新店區北宜路一段105巷4弄9號","121.540391666667","24.9555033333333","6500600","新店區"
"231044","046-UY","2019/07/29 18:49:33","新北市新店區中正路10號","121.545561666667","24.9694883333333","6500600","新店區"
"231060","106-UY","2019/07/29 18:49:38","新北市新店區安華路28-1號","121.519873333333","24.96075","6500600","新店區"
"231051","107-UY","2019/07/29 18:49:36","新北市新店區中央路75號","121.53218","24.9768466666667","6500600","新店區"
"231049","108-UY","2019/07/29 18:49:35","新北市新店區中央路81號","121.532328333333","24.97662","6500600","新店區"
"231065","110-UY","2019/07/29 18:49:33","新北市新店區車子路20號","121.50534","24.954545","6500600","新店區"
"231062","256-BX","2019/07/29 18:49:33","新北市新店區安一路一段1-1號","121.51988","24.9611","6500600","新店區"
"231042","268-BY","2019/07/29 18:49:31","新北市新店區中正路71號","121.543458333333","24.9699133333333","6500600","新店區"
"231064","278-BY","2019/07/29 18:49:27","新北市新店區安一路一段1-1號","121.519833333333","24.9611166666667","6500600","新店區"
"231050","AAD-862","2019/07/29 18:49:40","新北市新店區安康路一段255號","121.52458","24.9633366666667","6500600","新店區"
"231055","4716-K9","2019/07/29 18:49:49","新北市新店區北新路一段271巷31-1號","121.539898333333","24.9671116666667","6500600","新店區"
"231056","4715-K9","2019/07/29 18:49:50","新北市新店區大同街8巷2號","121.539761666667","24.98011","6500600","新店區"
"231067","4772-VM","2019/07/29 18:49:44","新北市新店區安康路一段295號","121.522546666667","24.9636983333333","6500600","新店區"
"231052","513-UM","2019/07/29 18:49:34","新北市新店區新烏路一段105巷17號","121.546351666667","24.94053","6500600","新店區"
"231041","619-UM","2019/07/29 18:49:42","新北市新店區安華路28-1號","121.519645","24.9607633333333","6500600","新店區"
"231063","641-BX","2019/07/29 18:49:28","新北市新店區安華路28-1號","121.519623333333","24.9605366666667","6500600","新店區"
"231047","KED-0819","2019/07/29 18:49:34","新北市新店區安康路一段48號","121.530375","24.9610866666667","6500600","新店區"
"231046","719-UM","2019/07/29 18:49:42","新北市新店區直潭路71號","121.532386666667","24.9421966666667","6500600","新店區"
"231057","720-UM","2019/07/29 18:49:39","新北市新店區新烏路一段215號","121.549296666667","24.93138","6500600","新店區"
"231059","897-TW","2019/07/29 18:49:38","新北市新店區安華路28-1號","121.519555","24.96067","6500600","新店區"
"231040","898-TW","2019/07/29 18:49:49","新北市新店區安康路一段35-1號","121.532156666667","24.96052","6500600","新店區"
"231043","899-TW","2019/07/29 18:49:32","新北市新店區安一路一段1-1號","121.519623333333","24.9613033333333","6500600","新店區"
"231066","AKT-0513","2019/07/29 18:49:35","新北市新店區安華路28-1號","121.519556666667","24.96066","6500600","新店區"
"235066","003-UY","2019/07/29 18:49:31","新北市中和區中山路二段131巷27號","121.5037","25.0026933333333","6500300","中和區"
"235064","005-UY","2019/07/29 18:49:50","新北市中和區泰和街30巷32號","121.498796666667","25.0014933333333","6500300","中和區"
"235063","006-UY","2019/07/29 18:49:35","新北市中和區連城路319巷5弄1號","121.4892","24.995425","6500300","中和區"
"235056","096-UM","2019/07/29 18:49:44","新北市中和區員山路466巷17弄25號","121.480485","25.0073066666667","6500300","中和區"
"235039","097-UM","2019/07/29 18:49:47","新北市中和區宜安路52巷24號","121.512766666667","24.9975933333333","6500300","中和區"
"235065","098-UM","2019/07/29 18:49:47","新北市中和區中山路二段2巷27號","121.50314","25.00689","6500300","中和區"
"235040","150-BY","2019/07/29 18:49:45","新北市中和區安平路38號","121.509908333333","24.9951466666667","6500300","中和區"
"235058","151-BY","2019/07/29 18:49:42","新北市中和區連城路532巷20號","121.475163333333","24.9925866666667","6500300","中和區"
"235055","183-VK","2019/07/29 18:49:46","新北市中和區民生街85巷3弄2號","121.469161666667","25.00421","6500300","中和區"
"235038","185-VK","2019/07/29 18:49:43","新北市中和區大勇街31巷1號","121.5174","24.9941566666667","6500300","中和區"
"235049","186-VK","2019/07/29 18:49:38","新北市中和區景安路177巷25號","121.506515","24.9946","6500300","中和區"
"235067","255-BX","2019/07/29 18:49:30","新北市中和區民樂路78號","121.484468333333","25.00121","6500300","中和區"
"235044","293-VK","2019/07/29 18:49:39","新北市中和區中興街165號","121.499971666667","24.9906866666667","6500300","中和區"
"235072","301-VK","2019/07/29 18:49:37","新北市中和區中山路二段103號","121.5033","25.0039666666667","6500300","中和區"
"235043","352-BY","2019/07/29 18:49:49","新北市中和區成功路1巷4號","121.52646","24.994505","6500300","中和區"
"235042","KEA-2878","2019/07/29 18:49:44","新北市中和區秀朗路三段70巷53號","121.524971666667","24.99423","6500300","中和區"
"235050","4979-A6","2019/07/29 18:49:39","新北市中和區忠孝街62巷4號","121.512081666667","24.9837266666667","6500300","中和區"
"235069","4980-A6","2019/07/29 18:49:44","新北市中和區南山路111巷8號","121.502598333333","24.9976033333333","6500300","中和區"
"235070","558-UM","2019/07/29 18:49:32","新北市中和區中和路140號","121.503851666667","24.9997066666667","6500300","中和區"
"235045","565-BX","2019/07/29 18:49:46","新北市中和區興南路一段8號","121.511501666667","24.99136","6500300","中和區"
"235060","KED-0823","2019/07/29 18:49:33","新北市中和區民生街2-1號","121.47126","25.0064683333333","6500300","中和區"
"235054","640-BX","2019/07/29 18:49:36","新北市中和區民享街35巷19號","121.475031666667","25.004065","6500300","中和區"
"235047","732-UM","2019/07/29 18:49:47","新北市中和區興南路二段34巷57弄2號","121.504845","24.9857566666667","6500300","中和區"
"235046","733-UM","2019/07/29 18:49:28","新北市中和區興南路一段85巷33號","121.510458333333","24.98818","6500300","中和區"
"235062","800-TS","2019/07/29 18:49:47","新北市中和區中山路二段330號","121.494871666667","25.0021983333333","6500300","中和區"
"235057","801-TS","2019/07/29 18:49:42","新北市中和區民安街65巷5號","121.478778333333","24.9992783333333","6500300","中和區"
"235052","805-TS","2019/07/29 18:49:38","新北市中和區興南路二段399巷35-2號","121.500281666667","24.9782233333333","6500300","中和區"
"235048","896-TW","2019/07/29 18:49:37","新北市中和區華新街63號","121.50797","24.9841683333333","6500300","中和區"
"235053","900-TW","2019/07/29 18:49:31","新北市中和區民德路290巷5號","121.46706","24.9957033333333","6500300","中和區"
"235051","157-BY","2019/07/29 18:49:38","新北市中和區忠孝街106巷58號","121.5139","24.9843016666667","6500300","中和區"
"235037","AAC-213","2019/07/29 18:49:41","新北市中和區秀朗路三段10巷37弄4號","121.524168333333","24.9960316666667","6500300","中和區"
"235059","AAC-215","2019/07/29 18:49:32","新北市中和區圓通路393巷24號","121.49","24.9885283333333","6500300","中和區"
"220068","015-TV","2019/07/29 18:49:41","新北市板橋區大同街35巷15號","121.477393333333","25.027725","6500100","板橋區"
"220065","072-UY","2019/07/29 18:49:44","新北市板橋區館前東路112號","121.463395","25.0077283333333","6500100","板橋區"
"220086","073-UY","2019/07/29 18:49:39","新北市板橋區南雅西路二段145巷3號","121.451688333333","25.01153","6500100","板橋區"
"220106","075-UY","2019/07/29 18:49:43","新北市板橋區文化路二段124巷28-2號","121.471201666667","25.02574","6500100","板橋區"
"220069","AAD-861","2019/07/29 18:49:46","新北市板橋區華興街83號","121.456801666667","25.0051366666667","6500100","板橋區"
"226004","312-R5","2019/07/29 18:49:36","新北市平溪區平溪里三坑路17號","121.736725","25.0287266666667","6502400","平溪區"
"235041","251-BX","2019/07/29 18:49:37","新北市中和區宜安路92巷13號","121.511153333333","24.9978733333333","6500300","中和區"
"228003","097-TW","2019/07/29 18:49:47","新北市貢寮區和美里龍洞街53號","121.912331666667","25.1137133333333","6502600","貢寮區"
"228002","663-BX","2019/07/29 18:49:51","新北市貢寮區福隆里東興街6-11號","121.950766666667","25.021095","6502600","貢寮區"
"228001","670-TC","2019/07/29 18:49:46","新北市貢寮區仁理村研海街12-1號","121.923801666667","25.0517133333333","6502600","貢寮區"
"224010","AGQ-8101","2019/07/29 18:49:34","新北市瑞芳區基山街93號","121.84477","25.1084183333333","6501200","瑞芳區"
"224006","676-BX","2019/07/29 18:49:49","新北市瑞芳區中正路38號","121.80703","25.10732","6501200","瑞芳區"
"224007","285-BY","2019/07/29 18:49:37","新北市瑞芳區大埔路188-2號","121.761361666667","25.1010433333333","6501200","瑞芳區"
"224009","275-VK","2019/07/29 18:49:39","新北市瑞芳區祈堂路53-1號","121.859591666667","25.1104466666667","6501200","瑞芳區"
"224008","273-VK","2019/07/29 18:49:49","新北市瑞芳區逢甲路288號","121.803381666667","25.1114583333333","6501200","瑞芳區"
"224005","271-BY","2019/07/29 18:49:37","新北市瑞芳區濱二路41-2號","121.83297","25.1163983333333","6501200","瑞芳區"
"227001","642-TC","2019/07/29 18:49:43","新北市雙溪區牡丹里聖南14號","121.85812","25.0526266666667","6502500","雙溪區"
"227002","400-TW","2019/07/29 18:49:42","新北市雙溪區魚行里坤溪35號","121.870548333333","25.0306733333333","6502500","雙溪區"
"253006","032-BX","2019/07/29 18:49:48","新北市石門區下員坑33-6號","121.517908333333","25.282895","6502200","石門區"
"253005","295-VK","2019/07/29 18:49:38","新北市石門區中山路32-3號","121.56587","25.2899283333333","6502200","石門區"
"222001","KEA-2212","2019/07/29 18:49:38","新北市深坑區松柏街30巷1號","121.638621666667","25.0112733333333","6501800","深坑區"
"208002","KEA-2872","2019/07/29 18:49:49","新北市金山區信義路62號","121.635713333333","25.218955","6502700","金山區"
"208003","665-BX","2019/07/29 18:49:43","新北市金山區中山路340號","121.633515","25.22527","6502700","金山區"
"251009","008-UM","2019/07/29 18:49:39","新北市淡水區重建街226號","121.441416666667","25.1750216666667","6501000","淡水區"
"251004","009-UM","2019/07/29 18:49:47","新北市淡水區中正東路二段143巷6弄1號","121.461146666667","25.147335","6501000","淡水區"
"251001","011-UM","2019/07/29 18:49:43","新北市淡水區自強路297號","121.461935","25.1298983333333","6501000","淡水區"
"251002","012-UM","2019/07/29 18:49:34","新北市淡水區學府路75號","121.448476666667","25.1698816666667","6501000","淡水區"
"251015","KEA-2871","2019/07/29 18:49:49","新北市淡水區興福寮100號","121.48677","25.1643266666667","6501000","淡水區"
"251016","179-VK","2019/07/29 18:49:44","新北市淡水區下圭柔山71-3號","121.44698","25.2062516666667","6501000","淡水區"
"251013","182-VK","2019/07/29 18:49:40","新北市淡水區安子內5號","121.48322","25.21447","6501000","淡水區"
"243009","549-UM","2019/07/29 18:49:30","新北市泰山區黎明路25號","121.421865","25.060845","6501600","泰山區"
"251012","441-VK","2019/07/29 18:49:42","新北市淡水區中山北路一段156號","121.444093333333","25.177905","6501000","淡水區"
"251014","577-R6","2019/07/29 18:49:41","新北市淡水區崙頂3號","121.4908","25.2239316666667","6501000","淡水區"
"251011","650-BX","2019/07/29 18:49:36","新北市淡水區平遠街2號","121.447898333333","25.167695","6501000","淡水區"
"251003","673-BX","2019/07/29 18:49:35","新北市淡水區中山北路一段212巷38號","121.44622","25.1790183333333","6501000","淡水區"
"251010","766-UM","2019/07/29 18:49:48","新北市淡水區沙崙路24號","121.421281666667","25.1812966666667","6501000","淡水區"
"207003","550-UM","2019/07/29 18:49:46","新北市萬里區野柳里港西路70-3號","121.685395","25.2046616666667","6502800","萬里區"
"252002","178-VK","2019/07/29 18:49:48","新北市三芝區中正路一段89號","121.504388333333","25.256745","6502100","三芝區"
"252003","249-BX","2019/07/29 18:49:31","新北市三芝區後厝里大片頭74號","121.45952","25.2465433333333","6502100","三芝區"
"208001","170-UY","2019/07/29 18:49:43","新北市金山區文化三路66巷1號","121.634188333333","25.225625","6502700","金山區"
"237004","KEA-2597","2019/07/29 18:49:42","新北市三峽區有木300號","121.42169","24.8630566666667","6500900","三峽區"
"237007","153-BY","2019/07/29 18:49:35","新北市三峽區中正路二段395號","121.365103333333","24.90756","6500900","三峽區"
"237013","252-BX","2019/07/29 18:49:35","新北市三峽區光明路69巷24號","121.376618333333","24.9290333333333","6500900","三峽區"
"237012","275-BY","2019/07/29 18:49:48","新北市三峽區三樹路358號","121.383911666667","24.9434216666667","6500900","三峽區"
"237008","302-VK","2019/07/29 18:49:40","新北市三峽區正義街75號","121.369108333333","24.9183583333333","6500900","三峽區"
"237014","433-BY","2019/07/29 18:49:39","新北市三峽區隆恩街158巷42號","121.36555","24.9449533333333","6500900","三峽區"
"237006","5529-G3","2019/07/29 18:49:34","新北市三峽區溪東路211巷37號","121.405391666667","24.9346316666667","6500900","三峽區"
"237011","KEA-2596","2019/07/29 18:49:34","新北市三峽區溪東路163號","121.40299","24.93408","6500900","三峽區"
"237015","649-BX","2019/07/29 18:49:40","新北市三峽區建安52-1號","121.447096666667","24.926985","6500900","三峽區"
"237010","706-TV","2019/07/29 18:49:43","新北市三峽區復興路487號","121.361285","24.938445","6500900","三峽區"
"237005","AKY-6261","2019/07/29 18:49:39","新北市三峽區中山路257巷35號","121.361895","24.9359483333333","6500900","三峽區"
"236042","KED-0685","2019/07/29 18:49:32","新北市土城區裕民路92巷25弄1號","121.44962","24.985965","6501300","土城區"
"236078","166-UM","2019/07/29 18:49:44","新北市土城區中央路四段165巷55號","121.416565","24.9559583333333","6501300","土城區"
"236030","253-BX","2019/07/29 18:49:43","新北市土城區忠義路26巷10號","121.439836666667","24.9698966666667","6501300","土城區"
"236026","269-VK","2019/07/29 18:49:50","新北市土城區興城路48號","121.441395","24.9726033333333","6501300","土城區"
"236014","270-VK","2019/07/29 18:49:45","新北市土城區金城路二段354巷10號","121.460925","24.9843916666667","6501300","土城區"
"236039","271-VK","2019/07/29 18:49:27","新北市土城區仁愛路48-7號","121.46207","24.97894","6501300","土城區"
"236069","KEA-2877","2019/07/29 18:49:45","新北市土城區永豐路157巷4號","121.468256666667","24.981515","6501300","土城區"
"252001","KED-0821","2019/07/29 18:49:32","新北市三芝區中正路三段9號","121.50289","25.2539733333333","6502100","三芝區"
"236020","401-BY","2019/07/29 18:49:46","新北市土城區延吉街253巷1號","121.467776666667","24.9847816666667","6501300","土城區"
"236059","912-UM","2019/07/29 18:49:43","新北市土城區金城路二段20號","121.449886666667","24.9778033333333","6501300","土城區"
"236048","913-UM","2019/07/29 18:49:49","新北市土城區青雲路107-1號","121.45911","24.98543","6501300","土城區"
"236063","915-UM","2019/07/29 18:49:33","新北市土城區金城路三段167號","121.469116666667","24.9885483333333","6501300","土城區"
"236055","AAC-216","2019/07/29 18:49:31","新北市土城區裕民路177號","121.453288333333","24.9847733333333","6501300","土城區"
"242056","441-UM","2019/07/29 18:49:41","新北市板橋區金門街215巷90號","121.433576666667","24.9855383333333","6500500","新莊區"
"238023","601-UM","2019/07/29 18:49:42","新北市樹林區工興街14巷1號","121.39878","25.0136966666667","6500700","樹林區"
"238019","599-UM","2019/07/29 18:49:28","新北市樹林區中華路190-16號","121.411668333333","24.9805233333333","6500700","樹林區"
"238024","5061-A6","2019/07/29 18:49:46","新北市樹林區太順街49巷14號","121.418095","24.978835","6500700","樹林區"
"238022","KEA-2213","2019/07/29 18:49:32","新北市樹林區東順街1號","121.413005","24.978895","6500700","樹林區"
"238025","303-VK","2019/07/29 18:49:32","新北市樹林區中山路三段210-2號","121.380653333333","24.9675083333333","6500700","樹林區"
"238014","282-BY","2019/07/29 18:49:39","新北市樹林區大安路111巷11號","121.42314","24.997705","6500700","樹林區"
"238020","268-VK","2019/07/29 18:49:46","新北市樹林區俊英街280號","121.423738333333","25.013295","6500700","樹林區"
"238026","172-UY","2019/07/29 18:49:40","新北市樹林區八德街1146號","121.390838333333","24.96839","6500700","樹林區"
"238016","169-UY","2019/07/29 18:49:32","新北市樹林區中山路二段34號","121.41735","24.9852033333333","6500700","樹林區"
"239007","AAC-297","2019/07/29 18:49:32","新北市鶯歌區中正一路阿四巷3號","121.370771666667","24.9585816666667","6500800","鶯歌區"
"239008","527-UM","2019/07/29 18:49:34","新北市鶯歌區國際一路179號","121.336253333333","24.9765616666667","6500800","鶯歌區"
"239005","526-UM","2019/07/29 18:49:46","新北市鶯歌區鳳吉二街122號","121.327905","24.9745833333333","6500800","鶯歌區"
"239001","417-VK","2019/07/29 18:49:46","新北市鶯歌區中正二路187-1號","121.340351666667","24.9472216666667","6500800","鶯歌區"
"239003","360-BY","2019/07/29 18:49:29","新北市鶯歌區鶯桃路526號","121.331565","24.966885","6500800","鶯歌區"
"239004","193-VK","2019/07/29 18:49:35","新北市鶯歌區中正三路156巷31號","121.333408333333","24.9397183333333","6500800","鶯歌區"
"221036","130-UY","2019/07/29 18:49:37","新北市汐止區信義路1號","121.662575","25.0692683333333","6501100","汐止區"
"221015","131-UY","2019/07/29 18:49:47","新北市汐止區鄉友街1號","121.667978333333","25.0806783333333","6501100","汐止區"
"244019","KED-0667","2019/07/29 18:49:28","新北市林口區麗園二街1巷9-1號","121.378801666667","25.0702216666667","6501700","林口區"
"221032","280-BY","2019/07/29 18:49:33","新北市汐止區橫科路119號","121.619835","25.0503116666667","6501100","汐止區"
"221029","298-VK","2019/07/29 18:49:38","新北市汐止區工建路66號","121.64034","25.0629216666667","6501100","汐止區"
"221021","299-VK","2019/07/29 18:49:40","新北市汐止區復興路72號","121.657166666667","25.062105","6501100","汐止區"
"221031","353-TW","2019/07/29 18:49:42","新北市汐止區福德一路272巷16號","121.631881666667","25.064305","6501100","汐止區"
"221035","622-UM","2019/07/29 18:49:31","新北市汐止區大同路二段105號","121.649925","25.0634016666667","6501100","汐止區"
"221025","623-UM","2019/07/29 18:49:46","新北市汐止區仁愛路113巷22號","121.661868333333","25.064175","6501100","汐止區"
"221002","707-TV","2019/07/29 18:49:42","新北市汐止區大同路一段149號","121.63211","25.05615","6501100","汐止區"
"221018","753-BX","2019/07/29 18:49:32","新北市汐止區茄苳路250巷28號","121.671771666667","25.06763","6501100","汐止區"
"220079","145-BY","2019/07/29 18:49:39","新北市板橋區大智街71巷42弄16號","121.452221666667","25.014785","6500100","板橋區"
"220080","200-UY","2019/07/29 18:49:38","新北市板橋區大觀路二段265巷72弄11號","121.441996666667","24.9969283333333","6500100","板橋區"
"220082","610-BX","2019/07/29 18:49:28","新北市板橋區溪北路111號","121.430028333333","24.9886933333333","6500100","板橋區"
"220084","256-TC","2019/07/29 18:41:33","新北市板橋區大觀路二段146-4號","121.441945","24.9989266666667","6500100","板橋區"
"224002","257-TC","2019/07/29 18:49:42","新北市瑞芳區東和路21號","121.804826666667","25.1060916666667","6501200","瑞芳區"
"220056","276-BY","2019/07/29 18:49:49","新北市板橋區信義路55號","121.457065","24.995735","6500100","板橋區"
"220072","277-BY","2019/07/29 18:49:48","新北市板橋區大觀路三段36巷83號","121.434513333333","24.997405","6500100","板橋區"
"220101","280-UM","2019/07/29 18:49:30","新北市板橋區文化路二段182巷15號","121.47218","25.0266916666667","6500100","板橋區"
"220071","283-VK","2019/07/29 18:49:45","新北市板橋區四川路一段60號","121.459598333333","25.005655","6500100","板橋區"
"220094","285-UM","2019/07/29 18:49:43","新北市板橋區文化路二段78號","121.469475","25.0251633333333","6500100","板橋區"
"220053","285-VK","2019/07/29 18:49:43","新北市板橋區成功路40號","121.475093333333","25.0176116666667","6500100","板橋區"
"220083","286-VK","2019/07/29 18:49:32","新北市板橋區大觀路二段22巷36號","121.444908333333","25.0036533333333","6500100","板橋區"
"220081","287-VK","2019/07/29 18:49:38","新北市板橋區光華街13巷34號","121.453073333333","25.0113383333333","6500100","板橋區"
"220090","288-VK","2019/07/29 18:49:32","新北市板橋區四維路177巷4弄4號","121.463861666667","25.02626","6500100","板橋區"
"220061","293-UM","2019/07/29 18:49:30","新北市板橋區永豐街161號","121.475483333333","25.0203966666667","6500100","板橋區"
"220023","303-R5","2019/07/29 18:49:36","新北市板橋區大觀路一段28巷98號","121.450518333333","25.0110116666667","6500100","板橋區"
"220062","305-R5","2019/07/29 18:49:35","新北市板橋區中山路二段40巷17號","121.473341666667","25.014855","6500100","板橋區"
"220092","307-R5","2019/07/29 18:49:46","新北市板橋區文化路一段136巷8弄8號","121.465523333333","25.0181116666667","6500100","板橋區"
"220098","317-R6","2019/07/29 18:49:47","新北市板橋區民生路二段234巷77號","121.470241666667","25.022525","6500100","板橋區"
"220089","487-VK","2019/07/29 18:49:44","新北市板橋區文聖街25號","121.475796666667","25.0321416666667","6500100","板橋區"
"220088","491-VK","2019/07/29 18:49:36","新北市板橋區民生路二段225號","121.469018333333","25.0213133333333","6500100","板橋區"
"220035","560-BX","2019/07/29 18:49:45","新北市板橋區中正路275巷77號","121.452385","25.018095","6500100","板橋區"
"220103","561-BX","2019/07/29 18:49:44","新北市板橋區文化路一段188巷11弄16號","121.46902","25.01871","6500100","板橋區"
"220011","609-BX","2019/07/29 18:49:45","新北市板橋區民生路一段35號","121.475771666667","25.012675","6500100","板橋區"
"220091","637-BX","2019/07/29 18:49:48","新北市板橋區雙十路二段47巷31號","121.475186666667","25.02554","6500100","板橋區"
"220057","686-BX","2019/07/29 18:49:44","新北市板橋區重慶路184號","121.462468333333","25.0033283333333","6500100","板橋區"
"220077","687-BX","2019/07/29 18:49:38","新北市板橋區龍興街71巷53號","121.441556666667","25.0026716666667","6500100","板橋區"
"220093","689-BX","2019/07/29 18:49:32","新北市板橋區民生路三段120-2號","121.466356666667","25.0267316666667","6500100","板橋區"
"220054","741-BX","2019/07/29 18:49:44","新北市板橋區館前東路22號","121.460175","25.007105","6500100","板橋區"
"220102","KEA-2699","2019/07/29 18:49:35","新北市板橋區萬板路478號","121.479983333333","25.0260216666667","6500100","板橋區"
"220055","827-TW","2019/07/29 18:49:45","新北市板橋區忠孝路95號","121.462353333333","25.0022616666667","6500100","板橋區"
"220067","829-TW","2019/07/29 18:49:44","新北市板橋區三民路二段正隆巷39號","121.477148333333","25.0135466666667","6500100","板橋區"
"220074","895-R6","2019/07/29 18:49:47","新北市板橋區南門街4號","121.457523333333","25.00923","6500100","板橋區"
"220073","985-R7","2019/07/29 18:49:38","新北市板橋區館前西路269號","121.4536","25.0086583333333","6500100","板橋區"
"220097","AAC-210","2019/07/29 18:49:30","新北市板橋區四維路137巷17號","121.464305","25.0249616666667","6500100","板橋區"
"220064","AAC-253","2019/07/29 18:49:43","新北市板橋區中山路一段279號","121.469603333333","25.013805","6500100","板橋區"
"235068","KEA-2873","2019/07/29 18:49:41","新北市中和區中正路211巷36弄6號","121.49719","24.992685","6500300","中和區"
"235061","KEA-2875","2019/07/29 18:49:36","新北市中和區民治街21巷2號","121.475346666667","25.0023866666667","6500300","中和區"
