"lineid","car","time","location","longitude","latitude","cityid","cityname"
"234046","148-BY","2019/07/29 18:59:35","新北市永和區得和路373巷16弄1號","121.525095","25.0002833333333","6500400","永和區"
"234081","298-R6","2019/07/29 18:59:36","新北市永和區國中路156號","121.522626666667","25.006675","6500400","永和區"
"234038","336-UY","2019/07/29 18:59:45","新北市永和區成功路二段207號","121.526561666667","24.9959716666667","6500400","永和區"
"234064","337-UY","2019/07/29 18:59:46","新北市永和區秀朗路一段166號","121.518501666667","25.00342","6500400","永和區"
"234086","338-UY","2019/07/29 18:59:32","新北市永和區永利路22號","121.51809","25.0057633333333","6500400","永和區"
"234017","745-BX","2019/07/29 18:59:33","新北市永和區永和路二段290號","121.516143333333","25.0157033333333","6500400","永和區"
"234030","746-BX","2019/07/29 18:59:44","新北市永和區秀朗路二段272號","121.526058333333","24.998065","6500400","永和區"
"234054","KEA-2590","2019/07/29 18:59:30","新北市永和區竹林路64號","121.518346666667","25.013485","6500400","永和區"
"234007","KED-0605","2019/07/29 18:59:41","新北市永和區永和路二段99號","121.514923333333","25.0116233333333","6500400","永和區"
"234013","KEA-2591","2019/07/29 18:59:34","新北市永和區中山路一段58號","121.512961666667","25.0108633333333","6500400","永和區"
"234061","AAD-866","2019/07/29 18:59:46","新北市永和區福和路309巷1號","121.51642","25.0070933333333","6500400","永和區"
"234070","748-BX","2019/07/29 18:59:46","新北市永和區竹林路96巷11號","121.519076666667","25.0120333333333","6500400","永和區"
"234042","862-TW","2019/07/29 18:59:44","新北市永和區永貞路267號","121.511828333333","25.004735","6500400","永和區"
"234050","863-TW","2019/07/29 18:59:43","新北市永和區保安路2號","121.51082","25.017365","6500400","永和區"
"234026","9371-KE","2019/07/29 18:59:48","新北市永和區安樂路451號","121.5143","25.004965","6500400","永和區"
"234011","9373-KE","2019/07/29 18:59:30","新北市永和區文化路130號","121.512815","25.015275","6500400","永和區"
"249005","172-UM","2019/07/29 18:59:33","新北市八里區長道坑5-2號","121.393403333333","25.1225566666667","6502300","八里區"
"249001","173-UM","2019/07/29 18:59:41","新北市八里區龍米路二段228-1號","121.432706666667","25.1584383333333","6502300","八里區"
"249002","305-UY","2019/07/29 18:59:31","新北市八里區頂寮二街138號","121.449338333333","25.12945","6502300","八里區"
"248016","026-BX","2019/07/29 18:59:47","新北市五股區成泰路三段577巷24號","121.451551666667","25.1028916666667","6501500","五股區"
"248006","077-UY","2019/07/29 18:59:47","新北市五股區四維路173號","121.467906666667","25.0750433333333","6501500","五股區"
"248008","KED-0815","2019/07/29 18:59:32","新北市五股區中興路一段128巷26號","121.465806666667","25.07491","6501500","五股區"
"248018","KED-0813","2019/07/29 18:59:50","新北市五股區民義路二段22巷35-1號","121.424205","25.100765","6501500","五股區"
"248012","247-BX","2019/07/29 18:59:46","新北市五股區中興路四段48巷16號","121.438595","25.0834583333333","6501500","五股區"
"248004","677-BX","2019/07/29 18:59:34","新北市五股區民義路二段16號","121.420696666667","25.09654","6501500","五股區"
"248002","678-BX","2019/07/29 18:59:47","新北市五股區凌雲路一段135號","121.44954","25.1021533333333","6501500","五股區"
"248010","682-TV","2019/07/29 18:59:38","新北市五股區水碓五路53號","121.428963333333","25.0712266666667","6501500","五股區"
"234023","9380-KE","2019/07/29 18:59:39","新北市永和區竹林路75巷33弄21號","121.520851666667","25.0143983333333","6500400","永和區"
"234077","969-R7","2019/07/29 18:59:33","新北市永和區得和路104巷4號","121.518068333333","24.9998833333333","6500400","永和區"
"234067","AAC-212","2019/07/29 18:59:44","新北市永和區自由街58號","121.513766666667","25.0059266666667","6500400","永和區"
"234003","AAC-295","2019/07/29 18:59:42","新北市永和區和平街38號","121.512945","25.00995","6500400","永和區"
"232011","375-UM","2019/07/29 18:59:36","新北市坪林區水聳淒坑19-1號","121.71285","24.935165","6502000","坪林區"
"244013","KEA-2802","2019/07/29 18:59:50","新北市林口區文化一路一段126號","121.375673333333","25.0721416666667","6501700","林口區"
"244023","483-VK","2019/07/29 18:59:50","新北市林口區文化三路二段183號","121.376121666667","25.0825416666667","6501700","林口區"
"244017","485-VK","2019/07/29 18:59:45","新北市林口區公園路97號","121.368766666667","25.0697783333333","6501700","林口區"
"244009","656-BX","2019/07/29 18:59:38","新北市林口區竹林路279號","121.389871666667","25.0813933333333","6501700","林口區"
"244011","701-TV","2019/07/29 18:59:33","新北市林口區中正路359號","121.38762","25.0776","6501700","林口區"
"244025","837-TS","2019/07/29 18:59:47","新北市林口區南勢街192巷11號","121.36111","25.07514","6501700","林口區"
"243010","297-R6","2019/07/29 18:59:36","新北市泰山區辭修路22號","121.429095","25.0580883333333","6501600","泰山區"
"243014","KEA-2801","2019/07/29 18:59:40","新北市泰山區黎明路6-1號","121.421158333333","25.061665","6501600","泰山區"
"243016","421-VK","2019/07/29 18:59:47","新北市泰山區明志路二段137號","121.427658333333","25.0506816666667","6501600","泰山區"
"243011","KEA-2216","2019/07/29 18:59:52","新北市泰山區明志路二段287號","121.426736666667","25.0469116666667","6501600","泰山區"
"243015","680-BX","2019/07/29 18:59:29","新北市泰山區美寧街48號","121.430501666667","25.0643883333333","6501600","泰山區"
"222003","436-BY","2019/07/29 18:59:45","新北市深坑區深南路88巷1號","121.62141","25.0109166666667","6501800","深坑區"
"222002","659-BX","2019/07/29 18:59:33","新北市深坑區文山路一段31巷2號","121.629895","25.003335","6501800","深坑區"
"231061","002-UM","2019/07/29 18:59:47","新北市新店區安華路28-1號","121.519795","24.960875","6500600","新店區"
"231058","0293-UT","2019/07/29 18:59:37","新北市新店區中正路5號","121.545721666667","24.9690366666667","6500600","新店區"
"231044","046-UY","2019/07/29 18:59:33","新北市新店區寶中路72號","121.547915","24.9806016666667","6500600","新店區"
"231060","106-UY","2019/07/29 18:59:38","新北市新店區安華路16號","121.517325","24.9581516666667","6500600","新店區"
"231051","107-UY","2019/07/29 18:59:36","新北市新店區百忍街1-1號","121.535035","24.9755483333333","6500600","新店區"
"231049","108-UY","2019/07/29 18:59:39","新北市新店區中正路454-5號","121.534531666667","24.979015","6500600","新店區"
"231065","110-UY","2019/07/29 18:59:33","新北市新店區安祥路199號","121.475625","24.95485","6500600","新店區"
"231062","256-BX","2019/07/29 18:59:33","新北市新店區安豐路30-1號","121.50097","24.9567766666667","6500600","新店區"
"231054","260-TV","2019/07/29 18:59:34","新北市新店區新店路13號","121.540243333333","24.9528566666667","6500600","新店區"
"231042","268-BY","2019/07/29 18:59:31","新北市新店區中正路2號","121.54585","24.9694083333333","6500600","新店區"
"231064","278-BY","2019/07/29 18:59:47","新北市新店區安一路一段1-1號","121.519768333333","24.962075","6500600","新店區"
"231050","AAD-862","2019/07/29 18:59:40","新北市新店區北宜路一段300號","121.547141666667","24.9523016666667","6500600","新店區"
"231045","355-BY","2019/07/29 18:59:32","新北市新店區安康路一段287號","121.523146666667","24.963625","6500600","新店區"
"231055","4716-K9","2019/07/29 18:59:49","新北市新店區北新路一段271巷25號","121.540225","24.9670816666667","6500600","新店區"
"231056","4715-K9","2019/07/29 18:59:30","新北市新店區二十張路46巷37弄21-1號","121.5358","24.9814716666667","6500600","新店區"
"231067","4772-VM","2019/07/29 18:59:46","新北市新店區安康路一段76巷28-1號","121.528078333333","24.9631683333333","6500600","新店區"
"231052","513-UM","2019/07/29 18:59:34","新北市新店區新烏路二段7號","121.543565","24.9296916666667","6500600","新店區"
"231041","619-UM","2019/07/29 18:59:43","新北市新店區安康路一段3-1號","121.534051666667","24.9606483333333","6500600","新店區"
"231063","641-BX","2019/07/29 18:59:28","新北市新店區安華路28-1號","121.519683333333","24.960525","6500600","新店區"
"231047","KED-0819","2019/07/29 18:59:34","新北市新店區德正街17巷2號","121.543675","24.97278","6500600","新店區"
"231046","719-UM","2019/07/29 18:58:22","新北市新店區直潭六街11號","121.534438333333","24.9406916666667","6500600","新店區"
"231057","720-UM","2019/07/29 18:59:39","新北市新店區百齡一路12號","121.553038333333","24.9324883333333","6500600","新店區"
"231059","897-TW","2019/07/29 18:59:38","新北市新店區安華路28-1號","121.51981","24.9607","6500600","新店區"
"231040","898-TW","2019/07/29 18:59:49","新北市新店區中央路81號","121.53227","24.97666","6500600","新店區"
"231043","899-TW","2019/07/29 18:59:32","新北市新店區北新路一段150號","121.542596666667","24.9705583333333","6500600","新店區"
"231066","AKT-0513","2019/07/29 18:59:35","新北市新店區安豐路49號","121.5002","24.9540716666667","6500600","新店區"
"235066","003-UY","2019/07/29 18:59:31","新北市中和區中山路二段131巷5弄3號","121.502865","25.0028883333333","6500300","中和區"
"235064","005-UY","2019/07/29 18:59:50","新北市中和區中和路26巷16號","121.499185","25.001465","6500300","中和區"
"235063","006-UY","2019/07/29 18:59:35","新北市中和區中正路586號","121.485911666667","24.99482","6500300","中和區"
"235056","096-UM","2019/07/29 18:59:44","新北市中和區員山路570號","121.478795","25.011275","6500300","中和區"
"235039","097-UM","2019/07/29 18:59:27","新北市中和區自強路38巷7號","121.519763333333","24.9954566666667","6500300","中和區"
"235065","098-UM","2019/07/29 18:59:47","新北市中和區勝利路35巷1弄2號","121.49903","25.007315","6500300","中和區"
"235040","150-BY","2019/07/29 18:59:45","新北市中和區宜安路1巷20號","121.512713333333","24.9946716666667","6500300","中和區"
"235058","151-BY","2019/07/29 18:59:50","新北市中和區連城路523巷5號","121.4818","24.99496","6500300","中和區"
"235055","183-VK","2019/07/29 18:59:46","新北市中和區德光路61號","121.469801666667","25.0038566666667","6500300","中和區"
"235038","185-VK","2019/07/29 18:59:42","新北市中和區立人街24-5號","121.518928333333","24.9941616666667","6500300","中和區"
"235049","186-VK","2019/07/29 18:59:38","新北市中和區景新街175號","121.506771666667","24.9955133333333","6500300","中和區"
"235067","255-BX","2019/07/29 18:59:30","新北市中和區新生街176巷17號","121.482766666667","24.9998966666667","6500300","中和區"
"235044","293-VK","2019/07/29 18:59:39","新北市中和區中興街161巷2弄2號","121.500168333333","24.9908433333333","6500300","中和區"
"235072","301-VK","2019/07/29 18:59:37","新北市中和區景平路709號","121.496451666667","25.0036983333333","6500300","中和區"
"235043","352-BY","2019/07/29 18:59:49","新北市中和區秀朗路三段179號","121.524485","24.9906433333333","6500300","中和區"
"235042","KEA-2878","2019/07/29 18:59:42","新北市中和區秀朗路三段22巷7號","121.525895","24.9961833333333","6500300","中和區"
"235050","4979-A6","2019/07/29 18:59:33","新北市中和區忠孝街60巷2弄8號","121.511661666667","24.9835516666667","6500300","中和區"
"235069","4980-A6","2019/07/29 18:59:44","新北市中和區圓通路102號","121.499493333333","24.9967766666667","6500300","中和區"
"235070","558-UM","2019/07/29 18:59:35","新北市中和區中和路170號","121.504591666667","24.9997716666667","6500300","中和區"
"235045","565-BX","2019/07/29 18:59:46","新北市中和區景新街467巷20弄13號","121.514666666667","24.9874133333333","6500300","中和區"
"235060","KED-0823","2019/07/29 18:59:33","新北市中和區民治街120號","121.475191666667","25.0033716666667","6500300","中和區"
"235054","640-BX","2019/07/29 18:59:36","新北市中和區民享街82號","121.474375","25.0012466666667","6500300","中和區"
"235047","732-UM","2019/07/29 18:59:47","新北市中和區興南路二段54巷11弄1號","121.50574","24.9856066666667","6500300","中和區"
"235046","733-UM","2019/07/29 18:59:48","新北市中和區興南路一段146號","121.508436666667","24.9869666666667","6500300","中和區"
"235062","800-TS","2019/07/29 18:59:47","新北市中和區中山路二段530號","121.48583","25.0049083333333","6500300","中和區"
"235057","801-TS","2019/07/29 18:59:42","新北市中和區民利街68巷1弄2號","121.478306666667","24.9988016666667","6500300","中和區"
"235052","805-TS","2019/07/29 18:59:38","新北市中和區興南路二段347號","121.500143333333","24.9801283333333","6500300","中和區"
"235048","896-TW","2019/07/29 18:59:37","新北市中和區華新街137號","121.506651666667","24.9816783333333","6500300","中和區"
"235053","900-TW","2019/07/29 18:59:30","新北市中和區和平路200巷1-7號","121.464461666667","24.9951883333333","6500300","中和區"
"235051","157-BY","2019/07/29 18:59:38","新北市中和區忠孝街19巷14號","121.510085","24.98324","6500300","中和區"
"235037","AAC-213","2019/07/29 18:59:41","新北市中和區秀朗路三段58-3號","121.52584","24.9951033333333","6500300","中和區"
"235059","AAC-215","2019/07/29 18:59:32","新北市中和區圓通路367巷20弄29號","121.491325","24.9882133333333","6500300","中和區"
"220068","015-TV","2019/07/29 18:59:41","新北市板橋區中山路二段465巷104號","121.481153333333","25.0228833333333","6500100","板橋區"
"220065","072-UY","2019/07/29 18:59:44","新北市板橋區民族路287巷1號","121.471131666667","25.0070883333333","6500100","板橋區"
"220086","073-UY","2019/07/29 18:59:39","新北市板橋區大智街40-2號","121.45492","25.015215","6500100","板橋區"
"220106","075-UY","2019/07/29 18:59:43","新北市板橋區莊敬路66號","121.471768333333","25.0255266666667","6500100","板橋區"
"220069","AAD-861","2019/07/29 18:59:46","新北市板橋區四川路一段147號","121.459875","25.0043766666667","6500100","板橋區"
"226004","312-R5","2019/07/29 18:59:36","新北市平溪區靜安路二段400號","121.73885","25.0244933333333","6502400","平溪區"
"235041","251-BX","2019/07/29 18:59:37","新北市中和區景安路48號","121.50684","24.9980683333333","6500300","中和區"
"228003","097-TW","2019/07/29 18:59:47","新北市貢寮區和美里龍洞街60-2號","121.914678333333","25.1166433333333","6502600","貢寮區"
"228002","663-BX","2019/07/29 18:59:31","新北市貢寮區福隆里東興街106巷25弄1號","121.946416666667","25.01838","6502600","貢寮區"
"228001","670-TC","2019/07/29 18:59:46","新北市貢寮區仁理村研海街12-1號","121.923816666667","25.0517266666667","6502600","貢寮區"
"224006","676-BX","2019/07/29 18:59:49","新北市瑞芳區明燈路三段1號","121.809071666667","25.1072966666667","6501200","瑞芳區"
"224007","285-BY","2019/07/29 18:59:37","新北市瑞芳區中央路48巷124號","121.75837","25.10398","6501200","瑞芳區"
"224009","275-VK","2019/07/29 18:59:39","新北市瑞芳區長仁路40號","121.863626666667","25.1185983333333","6501200","瑞芳區"
"224008","273-VK","2019/07/29 18:59:46","新北市瑞芳區逢甲路410號","121.80144","25.1173683333333","6501200","瑞芳區"
"224005","271-BY","2019/07/29 18:59:37","新北市瑞芳區阿美家園7號","121.819668333333","25.1141633333333","6501200","瑞芳區"
"227001","642-TC","2019/07/29 18:59:43","新北市雙溪區牡丹里中正路60號","121.866113333333","25.04241","6502500","雙溪區"
"227002","400-TW","2019/07/29 18:59:42","新北市雙溪區平林里外平林15號","121.858676666667","25.0379433333333","6502500","雙溪區"
"253006","032-BX","2019/07/29 18:59:28","新北市石門區下員坑30-3號","121.519685","25.28244","6502200","石門區"
"253005","295-VK","2019/07/29 18:59:38","新北市石門區中央路10號","121.566701666667","25.29125","6502200","石門區"
"222001","KEA-2212","2019/07/29 18:59:38","新北市深坑區北深路一段300號","121.625103333333","25.0067233333333","6501800","深坑區"
"208002","KEA-2872","2019/07/29 18:59:29","新北市金山區信義路32號","121.635271666667","25.2196616666667","6502700","金山區"
"208003","665-BX","2019/07/29 18:59:47","新北市金山區中正路26號","121.63581","25.2221966666667","6502700","金山區"
"251009","008-UM","2019/07/29 18:59:39","新北市淡水區文化路18號","121.439653333333","25.1726166666667","6501000","淡水區"
"251001","011-UM","2019/07/29 18:59:43","新北市淡水區自強路58號","121.463186666667","25.12744","6501000","淡水區"
"251002","012-UM","2019/07/29 18:59:34","新北市淡水區中正東路53號","121.446755","25.16787","6501000","淡水區"
"251015","KEA-2871","2019/07/29 18:59:49","新北市淡水區糞箕湖60號","121.485231666667","25.1722966666667","6501000","淡水區"
"251016","179-VK","2019/07/29 18:59:44","新北市淡水區淡金路三段319號","121.448971666667","25.20594","6501000","淡水區"
"251013","182-VK","2019/07/29 18:59:40","新北市淡水區安子內3號","121.487715","25.2155316666667","6501000","淡水區"
"243009","549-UM","2019/07/29 18:59:30","新北市泰山區泰林路二段361號","121.428031666667","25.063745","6501600","泰山區"
"251012","441-VK","2019/07/29 18:59:42","新北市淡水區新興街109號","121.440703333333","25.18071","6501000","淡水區"
"251007","442-VK","2019/07/29 18:59:47","新北市淡水區民生路113巷1弄40號","121.463026666667","25.1386616666667","6501000","淡水區"
"251014","577-R6","2019/07/29 18:59:50","新北市淡水區小中寮31號","121.490275","25.2273566666667","6501000","淡水區"
"251011","650-BX","2019/07/29 18:59:36","新北市淡水區鄧公路30巷2弄22號","121.453603333333","25.1690566666667","6501000","淡水區"
"251003","673-BX","2019/07/29 18:59:35","新北市淡水區中山北路一段149巷24號","121.442948333333","25.1780433333333","6501000","淡水區"
"251010","766-UM","2019/07/29 18:59:48","新北市淡水區淡海路69巷18號","121.422296666667","25.18119","6501000","淡水區"
"207004","681-TV","2019/07/29 18:59:46","新北市萬里區萬里里成功新村67號","121.689493333333","25.17424","6502800","萬里區"
"207003","550-UM","2019/07/29 18:59:46","新北市萬里區大鵬里頂社24-5號","121.658723333333","25.2083383333333","6502800","萬里區"
"252002","178-VK","2019/07/29 18:59:48","新北市三芝區中正路一段54號","121.503555","25.258055","6502100","三芝區"
"252003","249-BX","2019/07/29 18:59:31","新北市三芝區後厝里北勢子42-1號","121.471696666667","25.2521583333333","6502100","三芝區"
"208001","170-UY","2019/07/29 18:59:43","新北市金山區民生路51巷1-2號","121.641918333333","25.219955","6502700","金山區"
"237004","KEA-2597","2019/07/29 18:59:42","新北市三峽區有木115號","121.436178333333","24.8553566666667","6500900","三峽區"
"237007","153-BY","2019/07/29 18:59:35","新北市三峽區中正路二段285號","121.366068333333","24.9111283333333","6500900","三峽區"
"237013","252-BX","2019/07/29 18:59:35","新北市三峽區光明路69巷27號","121.376795","24.92927","6500900","三峽區"
"237012","275-BY","2019/07/29 18:59:48","新北市三峽區三樹路212-1號","121.379081666667","24.9421366666667","6500900","三峽區"
"237008","302-VK","2019/07/29 18:59:40","新北市三峽區中正路一段191巷4號","121.372843333333","24.9276916666667","6500900","三峽區"
"237014","433-BY","2019/07/29 18:59:39","新北市三峽區隆恩街232號","121.357803333333","24.941205","6500900","三峽區"
"237006","5529-G3","2019/07/29 18:59:34","新北市三峽區溪東路233巷44-1號","121.409773333333","24.9334666666667","6500900","三峽區"
"237011","KEA-2596","2019/07/29 18:59:34","新北市三峽區介壽路三段160-1號","121.401961666667","24.9437083333333","6500900","三峽區"
"237015","649-BX","2019/07/29 18:59:40","新北市三峽區建安75-6號","121.450683333333","24.9247966666667","6500900","三峽區"
"237010","706-TV","2019/07/29 18:59:43","新北市三峽區復興路449號","121.362593333333","24.9385683333333","6500900","三峽區"
"237005","AKY-6261","2019/07/29 18:59:39","新北市三峽區中山路459巷135號","121.348666666667","24.9329266666667","6500900","三峽區"
"236042","KED-0685","2019/07/29 18:59:32","新北市土城區學府路一段256巷1號","121.451211666667","24.98459","6501300","土城區"
"236078","166-UM","2019/07/29 18:59:38","新北市土城區中央路四段125巷1-1號","121.416448333333","24.957425","6501300","土城區"
"236030","253-BX","2019/07/29 18:59:22","新北市土城區興城路79號","121.439891666667","24.970735","6501300","土城區"
"236026","269-VK","2019/07/29 18:59:43","新北市土城區中央路二段246號","121.441896666667","24.97484","6501300","土城區"
"236014","270-VK","2019/07/29 18:59:45","新北市土城區立德路13巷22號","121.461691666667","24.9886983333333","6501300","土城區"
"236039","271-VK","2019/07/29 18:59:47","新北市土城區仁愛路4號","121.459801666667","24.9811966666667","6501300","土城區"
"236069","KEA-2877","2019/07/29 18:59:45","新北市土城區清水路99巷13號","121.45681","24.9824116666667","6501300","土城區"
"252001","KED-0821","2019/07/29 18:59:32","新北市三芝區中興街二段260號","121.501768333333","25.2530333333333","6502100","三芝區"
"236020","401-BY","2019/07/29 18:59:48","新北市土城區延吉街168巷9號","121.468088333333","24.985875","6501300","土城區"
"236059","912-UM","2019/07/29 18:59:42","新北市土城區金城路二段236號","121.456625","24.98309","6501300","土城區"
"236048","913-UM","2019/07/29 18:59:49","新北市土城區明德路一段365-1號","121.45367","24.9790566666667","6501300","土城區"
"236063","915-UM","2019/07/29 18:59:33","新北市土城區延和路41巷2弄2號","121.466046666667","24.9897","6501300","土城區"
"236055","AAC-216","2019/07/29 18:59:31","新北市土城區學成路162號","121.44807","24.9891833333333","6501300","土城區"
"242056","441-UM","2019/07/29 18:59:40","新北市樹林區八德街588號","121.397745","24.9692716666667","6500500","新莊區"
"238023","601-UM","2019/07/29 18:59:42","新北市樹林區大慶街68號","121.396445","25.0139833333333","6500700","樹林區"
"238019","599-UM","2019/07/29 18:59:28","新北市樹林區東榮街147巷3號","121.414563333333","24.98152","6500700","樹林區"
"238024","5061-A6","2019/07/29 18:59:41","新北市樹林區八德街640號","121.396758333333","24.96939","6500700","樹林區"
"238022","KEA-2213","2019/07/29 18:59:32","新北市樹林區東興街51號","121.411363333333","24.9771233333333","6500700","樹林區"
"238021","KEA-2539","2019/07/29 18:59:34","新北市樹林區柑園街二段276巷38號","121.37186","24.95363","6500700","樹林區"
"238025","303-VK","2019/07/29 18:59:32","新北市樹林區中山路三段22號","121.395641666667","24.9729183333333","6500700","樹林區"
"238014","282-BY","2019/07/29 18:59:39","新北市樹林區潭興街117號","121.4252","24.99916","6500700","樹林區"
"238020","268-VK","2019/07/29 18:59:46","新北市樹林區俊英街240號","121.424643333333","25.0105216666667","6500700","樹林區"
"238026","172-UY","2019/07/29 18:59:40","新北市樹林區信和街24號","121.390236666667","24.9730016666667","6500700","樹林區"
"238016","169-UY","2019/07/29 18:59:32","新北市樹林區中山路一段412號","121.417385","24.9852183333333","6500700","樹林區"
"239007","AAC-297","2019/07/29 18:59:32","新北市鶯歌區成功街20巷7號","121.358758333333","24.9577233333333","6500800","鶯歌區"
"239008","527-UM","2019/07/29 18:59:34","新北市鶯歌區晨曦街1號","121.336498333333","24.9761333333333","6500800","鶯歌區"
"239005","526-UM","2019/07/29 18:59:46","新北市鶯歌區鳳吉二街10號","121.325588333333","24.97308","6500800","鶯歌區"
"239001","417-VK","2019/07/29 18:58:59","新北市鶯歌區永明街55號","121.339608333333","24.956105","6500800","鶯歌區"
"239003","360-BY","2019/07/29 18:59:49","新北市鶯歌區鶯桃路658巷103號","121.332105","24.971025","6500800","鶯歌區"
"239004","193-VK","2019/07/29 18:59:35","新北市鶯歌區中正三路230巷10號","121.330571666667","24.9386583333333","6500800","鶯歌區"
"221008","489-VK","2019/07/29 18:59:44","新北市汐止區康寧街582號","121.634953333333","25.0698483333333","6501100","汐止區"
"221036","130-UY","2019/07/29 18:59:37","新北市汐止區忠孝東路314巷19弄12號","121.665051666667","25.0685","6501100","汐止區"
"221015","131-UY","2019/07/29 18:59:47","新北市汐止區吉祥街3號","121.66792","25.0799383333333","6501100","汐止區"
"244019","KED-0667","2019/07/29 18:59:48","新北市林口區文化二路一段567號","121.375305","25.0775483333333","6501700","林口區"
"221032","280-BY","2019/07/29 18:59:31","新北市汐止區橫科路407巷81弄5號","121.628935","25.0479633333333","6501100","汐止區"
"221029","298-VK","2019/07/29 18:59:38","新北市汐止區樟樹一路238號","121.642235","25.0668583333333","6501100","汐止區"
"221031","353-TW","2019/07/29 18:59:42","新北市汐止區福德一路300巷31號","121.630473333333","25.0642516666667","6501100","汐止區"
"221035","622-UM","2019/07/29 18:59:31","新北市汐止區大同路二段264號","121.654551666667","25.0661366666667","6501100","汐止區"
"221002","707-TV","2019/07/29 18:59:42","台北市南港區南港路一段10巷6-1號","121.620091666667","25.055385","6501100","汐止區"
"221018","753-BX","2019/07/29 18:59:32","新北市汐止區茄苳路262號","121.671841666667","25.0681966666667","6501100","汐止區"
"220079","145-BY","2019/07/29 18:59:39","新北市板橋區大智街71巷8弄2號","121.453378333333","25.015265","6500100","板橋區"
"220080","200-UY","2019/07/29 18:59:38","新北市板橋區大觀路二段文和巷102號","121.44504","24.99803","6500100","板橋區"
"220082","610-BX","2019/07/29 18:59:28","新北市板橋區篤行路三段24號","121.428703333333","24.9870033333333","6500100","板橋區"
"220084","256-TC","2019/07/29 18:59:44","新北市板橋區龍興街63巷8號","121.442946666667","25.0014933333333","6500100","板橋區"
"220056","276-BY","2019/07/29 18:59:49","新北市板橋區信義路152號","121.459076666667","24.9917283333333","6500100","板橋區"
"220072","277-BY","2019/07/29 18:59:48","新北市板橋區溪北路142號","121.430028333333","24.98863","6500100","板橋區"
"220101","280-UM","2019/07/29 18:59:50","新北市板橋區民生路二段188號","121.470165","25.02081","6500100","板橋區"
"220071","283-VK","2019/07/29 18:59:42","新北市板橋區忠孝路196巷26號","121.465413333333","25.0016216666667","6500100","板橋區"
"220094","285-UM","2019/07/29 18:59:43","新北市板橋區光武街153號","121.465388333333","25.02947","6500100","板橋區"
"220053","285-VK","2019/07/29 18:59:43","新北市板橋區太和街5巷1號","121.473776666667","25.019835","6500100","板橋區"
"220083","286-VK","2019/07/29 18:59:32","新北市板橋區大觀路一段38巷156弄61-1號","121.442228333333","25.00696","6500100","板橋區"
"220081","287-VK","2019/07/29 18:59:38","新北市板橋區光華街19巷39號","121.452743333333","25.0118333333333","6500100","板橋區"
"220090","288-VK","2019/07/29 18:59:31","新北市板橋區裕民街41號","121.461525","25.0286583333333","6500100","板橋區"
"220061","293-UM","2019/07/29 18:59:29","新北市板橋區中山路二段295巷17號","121.47775","25.0187816666667","6500100","板橋區"
"220075","303-R5","2019/07/29 18:59:36","新北市板橋區館前西路211號","121.454603333333","25.0083883333333","6500100","板橋區"
"220062","305-R5","2019/07/29 18:59:35","新北市板橋區三民路二段正隆巷4號","121.478503333333","25.0126033333333","6500100","板橋區"
"220092","307-R5","2019/07/29 18:59:48","新北市板橋區文化路二段225巷60弄50號","121.469118333333","25.0295883333333","6500100","板橋區"
"220098","317-R6","2019/07/29 18:59:42","新北市板橋區莊敬路168號","121.47153","25.0224866666667","6500100","板橋區"
"220089","487-VK","2019/07/29 18:59:44","新北市板橋區文化路二段164號","121.470305","25.0269333333333","6500100","板橋區"
"220088","491-VK","2019/07/29 18:59:36","新北市板橋區莒光路165巷42-1號","121.47437","25.0250916666667","6500100","板橋區"
"220035","560-BX","2019/07/29 18:59:45","新北市板橋區中正路281號","121.455553333333","25.019105","6500100","板橋區"
"220103","561-BX","2019/07/29 18:59:44","新北市板橋區介壽街54-3號","121.468941666667","25.0196683333333","6500100","板橋區"
"220011","609-BX","2019/07/29 18:59:48","新北市板橋區中山路二段291-16號","121.478335","25.0184616666667","6500100","板橋區"
"220091","637-BX","2019/07/29 18:59:48","新北市板橋區大同街22號","121.477708333333","25.0270916666667","6500100","板橋區"
"220057","686-BX","2019/07/29 18:59:43","新北市板橋區重慶路325號","121.463995","24.9984533333333","6500100","板橋區"
"220077","687-BX","2019/07/29 18:59:43","新北市板橋區龍興街71巷2-1號","121.44392","25.0018683333333","6500100","板橋區"
"220093","689-BX","2019/07/29 18:59:32","新北市板橋區民生路三段147號","121.465946666667","25.0264183333333","6500100","板橋區"
"220054","741-BX","2019/07/29 18:57:37","新北市板橋區重慶路139巷10號","121.462893333333","25.0042633333333","6500100","板橋區"
"220102","KEA-2699","2019/07/29 18:59:38","新北市板橋區萬板路810號","121.482685","25.0273483333333","6500100","板橋區"
"220055","827-TW","2019/07/29 18:59:45","新北市板橋區民安街9號","121.466693333333","25.011835","6500100","板橋區"
"220067","829-TW","2019/07/29 18:59:44","新北市板橋區民享街116巷9號","121.478471666667","25.01569","6500100","板橋區"
"220074","895-R6","2019/07/29 18:59:47","新北市板橋區林園街26號","121.453898333333","25.0099816666667","6500100","板橋區"
"220073","985-R7","2019/07/29 18:59:39","新北市板橋區中正路136號","121.456726666667","25.0160333333333","6500100","板橋區"
"220097","AAC-210","2019/07/29 18:59:47","新北市板橋區幸福路60巷81號","121.45967","25.02194","6500100","板橋區"
"220064","AAC-253","2019/07/29 18:59:43","新北市板橋區中山路一段315號","121.471523333333","25.014835","6500100","板橋區"
"235068","KEA-2873","2019/07/29 18:59:41","新北市中和區中正路221號","121.496243333333","24.9936833333333","6500300","中和區"
"235061","KEA-2875","2019/07/29 18:59:36","新北市中和區中山路三段179巷12號","121.473595","25.0056983333333","6500300","中和區"
