"lineid","car","time","location","longitude","latitude","cityid","cityname"
"234046","148-BY","2019/07/29 19:19:35","新北市永和區得和路373巷4號","121.524778333333","24.99966","6500400","永和區"
"234081","298-R6","2019/07/29 19:19:40","新北市永和區福和路57巷4弄2號","121.522981666667","25.0074716666667","6500400","永和區"
"234038","336-UY","2019/07/29 19:19:45","新北市永和區民樂街55巷2號","121.52748","24.9983366666667","6500400","永和區"
"234064","337-UY","2019/07/29 19:19:31","新北市永和區永元路17巷5號","121.521348333333","25.0005716666667","6500400","永和區"
"234086","338-UY","2019/07/29 19:19:37","新北市永和區永利路4巷2號","121.517498333333","25.0055016666667","6500400","永和區"
"234017","745-BX","2019/07/29 19:19:33","新北市永和區文化路144巷31弄6-1號","121.512533333333","25.0167433333333","6500400","永和區"
"234030","746-BX","2019/07/29 19:19:44","新北市永和區厚德街84號","121.523648333333","24.9989566666667","6500400","永和區"
"234054","KEA-2590","2019/07/29 19:19:34","新北市永和區中興街32號","121.516276666667","25.011785","6500400","永和區"
"234007","KED-0605","2019/07/29 19:19:41","新北市永和區中山路一段320號","121.506535","25.006885","6500400","永和區"
"234013","KEA-2591","2019/07/29 19:19:34","新北市永和區仁愛路122號","121.511616666667","25.0131283333333","6500400","永和區"
"234061","AAD-866","2019/07/29 19:19:34","新北市永和區中正路381號","121.517115","25.00368","6500400","永和區"
"234070","748-BX","2019/07/29 19:19:44","新北市永和區豫溪街90號","121.518596666667","25.0100016666667","6500400","永和區"
"234042","862-TW","2019/07/29 19:19:41","新北市永和區保平路151巷2弄1號","121.510098333333","25.0055783333333","6500400","永和區"
"234050","863-TW","2019/07/29 19:19:43","新北市永和區保福路二段78號","121.510521666667","25.0133783333333","6500400","永和區"
"234026","9371-KE","2019/07/29 19:19:47","新北市永和區安樂路172號","121.514733333333","25.0010516666667","6500400","永和區"
"234011","9373-KE","2019/07/29 19:19:30","新北市永和區保福路二段23巷19號","121.51011","25.01109","6500400","永和區"
"249005","172-UM","2019/07/29 19:19:33","新北市八里區中華路三段170-1號","121.392178333333","25.13033","6502300","八里區"
"249001","173-UM","2019/07/29 19:19:41","新北市八里區中華路二段103-1號","121.409201666667","25.1523733333333","6502300","八里區"
"249003","593-UM","2019/07/29 19:19:42","新北市八里區中山路二段452號","121.399325","25.1477083333333","6502300","八里區"
"248008","KED-0815","2019/07/29 19:19:32","新北市五股區中興路二段83巷26-3號","121.460118333333","25.075305","6501500","五股區"
"248018","KED-0813","2019/07/29 19:19:30","新北市五股區民義路一段255-6號","121.426071666667","25.0914483333333","6501500","五股區"
"248012","247-BX","2019/07/29 19:19:46","新北市五股區中興路四段48巷16號","121.438598333333","25.0834683333333","6501500","五股區"
"248014","261-SL","2019/07/29 19:19:36","新北市五股區民義路一段163-2號","121.432203333333","25.0879033333333","6501500","五股區"
"248004","677-BX","2019/07/29 19:19:34","新北市五股區五福路136號","121.432103333333","25.09127","6501500","五股區"
"248002","678-BX","2019/07/29 19:19:47","新北市五股區凌雲路一段158巷6號","121.447796666667","25.10298","6501500","五股區"
"248010","682-TV","2019/07/29 19:19:38","新北市五股區水碓一路23號","121.430596666667","25.071275","6501500","五股區"
"234023","9380-KE","2019/07/29 19:19:39","新北市永和區竹林路109巷8號","121.520331666667","25.0119466666667","6500400","永和區"
"234077","969-R7","2019/07/29 19:19:33","新北市永和區民族街42號","121.518441666667","24.9987816666667","6500400","永和區"
"234074","AAC-211","2019/07/29 19:19:34","新北市永和區竹林路94-1號","121.519451666667","25.0122333333333","6500400","永和區"
"234067","AAC-212","2019/07/29 19:19:44","新北市永和區保平路52號","121.511341666667","25.007065","6500400","永和區"
"234003","AAC-295","2019/07/29 19:19:42","新北市永和區中山路一段102-1號","121.511148333333","25.0104983333333","6500400","永和區"
"244023","483-VK","2019/07/29 19:19:30","新北市林口區文林六街13巷22號","121.370165","25.0808066666667","6501700","林口區"
"244025","837-TS","2019/07/29 19:19:47","新北市林口區文化三路一段555巷91-1號","121.369185","25.0774566666667","6501700","林口區"
"243012","AAD-798","2019/07/29 19:19:45","新北市泰山區同義街49號","121.43181","25.05603","6501600","泰山區"
"243010","297-R6","2019/07/29 19:19:36","新北市泰山區明志路一段493-1號","121.43071","25.055035","6501600","泰山區"
"243014","KEA-2801","2019/07/29 19:19:31","新北市泰山區泰林路二段156號","121.434046666667","25.0602566666667","6501600","泰山區"
"243016","421-VK","2019/07/29 19:19:47","新北市泰山區工專路66號","121.422746666667","25.0403316666667","6501600","泰山區"
"243011","KEA-2216","2019/07/29 19:19:46","新北市泰山區中央路11巷1號","121.426303333333","25.0428433333333","6501600","泰山區"
"243013","646-TV","2019/07/29 19:19:35","新北市泰山區明志路三段145巷2弄11號","121.42514","25.0395516666667","6501600","泰山區"
"243015","680-BX","2019/07/29 19:19:49","新北市泰山區公園路42號","121.428871666667","25.0544316666667","6501600","泰山區"
"222003","436-BY","2019/07/29 19:19:45","新北市深坑區深南路204號","121.626635","25.016055","6501800","深坑區"
"222002","659-BX","2019/07/29 19:19:33","新北市深坑區北深路一段177號","121.632538333333","25.0108516666667","6501800","深坑區"
"231061","002-UM","2019/07/29 19:19:29","新北市新店區安康路一段134號","121.526666666667","24.9628416666667","6500600","新店區"
"231058","0293-UT","2019/07/29 19:19:37","新北市新店區光明街256號","121.540476666667","24.9637433333333","6500600","新店區"
"231044","046-UY","2019/07/29 19:19:33","新北市新店區中興路三段305號","121.54207","24.9856166666667","6500600","新店區"
"231060","106-UY","2019/07/29 19:19:39","新北市新店區安康路二段117號","121.512515","24.961595","6500600","新店區"
"231051","107-UY","2019/07/29 19:19:36","新北市新店區中央路63號","121.532673333333","24.97713","6500600","新店區"
"231049","108-UY","2019/07/29 19:19:35","新北市新店區明德路64號","121.541568333333","24.979455","6500600","新店區"
"231065","110-UY","2019/07/29 19:19:33","新北市新店區安祥路113號","121.475136666667","24.9568683333333","6500600","新店區"
"231062","256-BX","2019/07/29 19:19:33","新北市新店區莒光路38巷3號","121.522203333333","24.958855","6500600","新店區"
"231054","260-TV","2019/07/29 19:19:34","新北市新店區國校路29號","121.53801","24.956165","6500600","新店區"
"231042","268-BY","2019/07/29 19:19:31","新北市新店區北宜路一段3號","121.538523333333","24.9585516666667","6500600","新店區"
"231064","278-BY","2019/07/29 19:19:48","新北市新店區安忠路57巷26弄22號","121.512568333333","24.9584283333333","6500600","新店區"
"231050","AAD-862","2019/07/29 19:19:40","新北市新店區竹林路65號","121.553005","24.95137","6500600","新店區"
"231045","355-BY","2019/07/29 19:19:32","新北市新店區北宜路一段260號","121.54567","24.9527666666667","6500600","新店區"
"231055","4716-K9","2019/07/29 19:19:49","新北市新店區安德街148巷31號","121.506025","24.96054","6500600","新店區"
"231056","4715-K9","2019/07/29 19:19:30","新北市新店區安康路二段414巷2號","121.495855","24.9578083333333","6500600","新店區"
"231052","513-UM","2019/07/29 19:19:34","新北市新店區自強路169號","121.546441666667","24.9207283333333","6500600","新店區"
"231041","619-UM","2019/07/29 19:19:43","新北市新店區溪園路347號","121.523741666667","24.980285","6500600","新店區"
"231063","641-BX","2019/07/29 19:19:48","新北市新店區達觀路14巷1-3號","121.504166666667","24.9424166666667","6500600","新店區"
"231047","KED-0819","2019/07/29 19:19:34","新北市新店區德正街29號","121.544621666667","24.9713083333333","6500600","新店區"
"231046","719-UM","2019/07/29 19:18:22","新北市新店區華城路5-3號","121.529278333333","24.9578483333333","6500600","新店區"
"231057","720-UM","2019/07/29 19:19:39","新北市新店區百齡一路12號","121.553026666667","24.932475","6500600","新店區"
"231059","897-TW","2019/07/29 19:19:46","新北市新店區安和路二段207號","121.51779","24.9754483333333","6500600","新店區"
"231040","898-TW","2019/07/29 19:19:29","新北市新店區三民路64號","121.535116666667","24.972265","6500600","新店區"
"231043","899-TW","2019/07/29 19:19:32","新北市新店區北新路二段107號","121.54293","24.9744516666667","6500600","新店區"
"231066","AKT-0513","2019/07/29 19:19:35","新北市新店區安祥路35-2號","121.490591666667","24.9569766666667","6500600","新店區"
"241011","013-R5","2019/07/29 19:19:35","新北市三重區介壽路39巷252號","121.503665","25.07124","6500200","三重區"
"241028","022-UY","2019/07/29 19:19:35","新北市三重區中正北路23號","121.492175","25.0612666666667","6500200","三重區"
"241031","061-VK","2019/07/29 19:19:38","新北市三重區重新路四段97號","121.485825","25.0549","6500200","三重區"
"241017","063-VK","2019/07/29 19:19:39","新北市三重區大同北路213號","121.491868333333","25.0656033333333","6500200","三重區"
"241009","267-UM","2019/07/29 19:19:48","新北市三重區溪尾街218巷37-7號","121.486405","25.0811883333333","6500200","三重區"
"241032","269-UM","2019/07/29 19:19:50","新北市三重區新生街59號","121.484576666667","25.0594883333333","6500200","三重區"
"241007","398-BY","2019/07/29 19:19:33","新北市三重區慈愛街69號","121.486826666667","25.0793216666667","6500200","三重區"
"241030","KED-0822","2019/07/29 19:19:42","新北市三重區成功路41巷70號","121.491285","25.0530983333333","6500200","三重區"
"241020","478-VK","2019/07/29 19:19:32","新北市三重區大智街238-3號","121.489455","25.0728583333333","6500200","三重區"
"241026","480-VK","2019/07/29 19:19:32","新北市三重區重安街103號","121.493878333333","25.0552816666667","6500200","三重區"
"241006","AAD-863","2019/07/29 19:19:48","新北市三重區力行路二段145號","121.483535","25.0772833333333","6500200","三重區"
"241022","KED-0820","2019/07/29 19:19:34","新北市三重區重陽路二段50號","121.487235","25.0633933333333","6500200","三重區"
"241029","942-UM","2019/07/29 19:19:41","新北市三重區重安街28號","121.490485","25.057905","6500200","三重區"
"235066","003-UY","2019/07/29 19:19:31","新北市中和區中和路102號","121.502696666667","24.9997266666667","6500300","中和區"
"235064","005-UY","2019/07/29 19:19:30","新北市中和區景新街132巷21號","121.504445","24.9976516666667","6500300","中和區"
"235063","006-UY","2019/07/29 19:19:35","新北市中和區連勝街115號","121.494998333333","24.9951983333333","6500300","中和區"
"235056","096-UM","2019/07/29 19:19:44","新北市中和區中山路三段104號","121.476898333333","25.006155","6500300","中和區"
"235039","097-UM","2019/07/29 19:19:47","新北市中和區秀峰街119巷4弄1號","121.51978","24.9902016666667","6500300","中和區"
"235065","098-UM","2019/07/29 19:19:47","新北市中和區中山路二段2巷3弄1號","121.504943333333","25.0061183333333","6500300","中和區"
"235040","150-BY","2019/07/29 19:19:25","新北市中和區保健路50巷1-2號","121.510366666667","24.996835","6500300","中和區"
"235058","151-BY","2019/07/29 19:19:42","新北市中和區連城路469-1號","121.483546666667","24.9957266666667","6500300","中和區"
"235055","183-VK","2019/07/29 19:19:46","新北市中和區莒光路120巷13弄2號","121.471645","25.0013816666667","6500300","中和區"
"235038","185-VK","2019/07/29 19:19:44","新北市中和區大仁街20巷50號","121.520175","24.9932966666667","6500300","中和區"
"235049","186-VK","2019/07/29 19:19:38","新北市中和區景新街277號","121.509481666667","24.9936","6500300","中和區"
"235067","255-BX","2019/07/29 19:19:30","新北市中和區連城路332號","121.483156666667","24.9959083333333","6500300","中和區"
"235044","293-VK","2019/07/29 19:19:39","新北市中和區復興路268號","121.502955","24.9903883333333","6500300","中和區"
"235072","301-VK","2019/07/29 19:19:37","新北市中和區連城路218號","121.491433333333","24.9965066666667","6500300","中和區"
"235043","352-BY","2019/07/29 19:19:29","新北市中和區景平路476號","121.5053","24.9936666666667","6500300","中和區"
"235042","KEA-2878","2019/07/29 19:19:42","新北市中和區安樂路143巷2弄5號","121.51411","24.997785","6500300","中和區"
"235050","4979-A6","2019/07/29 19:19:33","新北市中和區景安路208巷19號","121.503078333333","24.9914316666667","6500300","中和區"
"235069","4980-A6","2019/07/29 19:19:44","新北市中和區福祥路85巷2弄2號","121.498806666667","25.0057983333333","6500300","中和區"
"235070","558-UM","2019/07/29 19:19:32","新北市中和區中山路二段228號","121.49895","25.0027633333333","6500300","中和區"
"235045","565-BX","2019/07/29 19:19:46","新北市中和區景新街423巷35弄32號","121.513955","24.9902616666667","6500300","中和區"
"235060","KED-0823","2019/07/29 19:19:33","新北市中和區新生街114巷6號","121.483106666667","25.0023833333333","6500300","中和區"
"235054","640-BX","2019/07/29 19:19:36","新北市中和區國光街109巷18號","121.469665","24.9999066666667","6500300","中和區"
"235047","732-UM","2019/07/29 19:19:47","新北市中和區和平街54巷1弄2號","121.508725","24.9910283333333","6500300","中和區"
"235046","733-UM","2019/07/29 19:19:48","新北市中和區忠孝街2巷9弄1號","121.510423333333","24.9822983333333","6500300","中和區"
"235071","783-BX","2019/07/29 19:19:46","新北市中和區連城路469巷40號","121.483488333333","24.9946633333333","6500300","中和區"
"235057","801-TS","2019/07/29 19:19:42","新北市中和區中山路三段37巷35號","121.479543333333","25.0047483333333","6500300","中和區"
"235052","805-TS","2019/07/29 19:19:44","新北市中和區興南路二段128巷1號","121.503933333333","24.9836833333333","6500300","中和區"
"235048","896-TW","2019/07/29 19:19:37","新北市中和區四維街40號","121.512456666667","24.987005","6500300","中和區"
"235053","900-TW","2019/07/29 19:19:50","新北市中和區華安街17巷23號","121.467278333333","24.9982816666667","6500300","中和區"
"235051","157-BY","2019/07/29 19:19:38","新北市中和區景平路239巷33弄33號","121.509591666667","24.9914866666667","6500300","中和區"
"235037","AAC-213","2019/07/29 19:19:41","新北市中和區秀朗路三段10巷14弄50號","121.524251666667","24.996505","6500300","中和區"
"235059","AAC-215","2019/07/29 19:19:32","新北市中和區錦和路195巷1弄2號","121.491066666667","24.990905","6500300","中和區"
"220068","015-TV","2019/07/29 19:19:41","新北市板橋區萬安街121號","121.483488333333","25.0250866666667","6500100","板橋區"
"220065","072-UY","2019/07/29 19:19:44","新北市板橋區民族路131號","121.467436666667","25.0081","6500100","板橋區"
"220086","073-UY","2019/07/29 19:19:39","新北市板橋區幸福路70巷1號","121.460656666667","25.0199616666667","6500100","板橋區"
"220069","AAD-861","2019/07/29 19:19:46","新北市板橋區稚暉街46巷1號","121.456441666667","25.0043183333333","6500100","板橋區"
"247004","341-TH","2019/07/29 19:19:41","新北市蘆洲區永康街66號","121.458461666667","25.0855083333333","6501400","蘆洲區"
"226004","312-R5","2019/07/29 19:19:36","新北市平溪區靜安路三段246號","121.775888333333","25.03999","6502400","平溪區"
"235041","251-BX","2019/07/29 19:19:37","新北市中和區中和路324巷3弄2號","121.510073333333","25.000825","6500300","中和區"
"228003","097-TW","2019/07/29 19:19:47","新北市貢寮區和美里和美街22-1號","121.912841666667","25.08263","6502600","貢寮區"
"228002","663-BX","2019/07/29 19:19:53","新北市貢寮區龍門里復興街46-3號","121.928518333333","25.029575","6502600","貢寮區"
"228001","670-TC","2019/07/29 19:19:46","新北市貢寮區真理里新港街10號","121.925458333333","25.0543183333333","6502600","貢寮區"
"224008","273-VK","2019/07/29 19:19:46","新北市瑞芳區明燈路三段289號","121.798366666667","25.1122833333333","6501200","瑞芳區"
"227001","642-TC","2019/07/29 19:19:43","新北市雙溪區新基里新基北街40-1號","121.86783","25.037485","6502500","雙溪區"
"227002","400-TW","2019/07/29 19:19:42","新北市雙溪區平林里梅竹蹊66-1號","121.86015","25.035825","6502500","雙溪區"
"253006","032-BX","2019/07/29 19:19:48","新北市石門區海灣新城40號","121.527131666667","25.284705","6502200","石門區"
"253005","295-VK","2019/07/29 19:19:38","新北市石門區阿里荖4-7號","121.612545","25.2790983333333","6502200","石門區"
"222001","KEA-2212","2019/07/29 19:19:38","新北市深坑區北深路二段84號","121.617501666667","25.00355","6501800","深坑區"
"208002","KEA-2872","2019/07/29 19:19:29","新北市金山區環金路376巷1號","121.632026666667","25.2222166666667","6502700","金山區"
"208003","665-BX","2019/07/29 19:19:43","新北市金山區中山路161號","121.638708333333","25.220515","6502700","金山區"
"251009","008-UM","2019/07/29 19:19:39","新北市淡水區清水街152號","121.441166666667","25.170385","6501000","淡水區"
"251005","010-UM","2019/07/29 19:19:41","新北市淡水區水源街一段34巷1號","121.44327","25.1722283333333","6501000","淡水區"
"251001","011-UM","2019/07/29 19:19:43","新北市淡水區自強路201巷39號","121.462108333333","25.12679","6501000","淡水區"
"251002","012-UM","2019/07/29 19:19:34","新北市淡水區文化路18號","121.439703333333","25.17263","6501000","淡水區"
"251015","KEA-2871","2019/07/29 19:19:49","新北市淡水區山子邊16巷5號","121.485908333333","25.1826233333333","6501000","淡水區"
"251016","179-VK","2019/07/29 19:19:44","新北市淡水區淡金路三段350巷18號","121.450773333333","25.20832","6501000","淡水區"
"251008","181-VK","2019/07/29 19:19:34","新北市淡水區沙崙路149號","121.423706666667","25.1832633333333","6501000","淡水區"
"251013","182-VK","2019/07/29 19:19:40","新北市淡水區安子內12-1號","121.481493333333","25.2190983333333","6501000","淡水區"
"243009","549-UM","2019/07/29 19:19:50","新北市泰山區和平街13巷22號","121.434461666667","25.0651416666667","6501600","泰山區"
"251007","442-VK","2019/07/29 19:19:47","新北市淡水區民生路141號","121.465643333333","25.138575","6501000","淡水區"
"251014","577-R6","2019/07/29 19:19:41","新北市淡水區小中寮19-7號","121.484771666667","25.2296033333333","6501000","淡水區"
"251003","673-BX","2019/07/29 19:19:35","新北市淡水區中山北路一段52號","121.441893333333","25.17567","6501000","淡水區"
"251010","766-UM","2019/07/29 19:19:28","新北市淡水區沙崙路25巷12號","121.42123","25.1818166666667","6501000","淡水區"
"207004","681-TV","2019/07/29 19:19:46","新北市萬里區萬里里成功新村65號","121.688306666667","25.1745666666667","6502800","萬里區"
"207003","550-UM","2019/07/29 19:19:46","新北市萬里區大鵬里萬里加投29號","121.647683333333","25.20638","6502800","萬里區"
"252002","178-VK","2019/07/29 19:19:48","新北市三芝區淡金路二段18-1號","121.502685","25.2595","6502100","三芝區"
"208001","170-UY","2019/07/29 19:19:43","新北市金山區民生路81號","121.64004","25.2195666666667","6502700","金山區"
"237004","KEA-2597","2019/07/29 19:19:42","新北市三峽區有木206號","121.439096666667","24.8514783333333","6500900","三峽區"
"237007","153-BY","2019/07/29 19:19:35","新北市三峽區二鬮路128號","121.359915","24.9081816666667","6500900","三峽區"
"237009","210-TH","2019/07/29 19:19:33","新北市三峽區民生街199號","121.371706666667","24.9348666666667","6500900","三峽區"
"237013","252-BX","2019/07/29 19:19:35","新北市三峽區光明路75巷2號","121.377106666667","24.9277066666667","6500900","三峽區"
"237012","275-BY","2019/07/29 19:19:48","新北市三峽區三樹路222巷236弄23號","121.391521666667","24.94306","6500900","三峽區"
"237008","302-VK","2019/07/29 19:19:41","新北市三峽區大同路154號","121.373128333333","24.92676","6500900","三峽區"
"237014","433-BY","2019/07/29 19:19:39","新北市三峽區中山路277巷19號","121.361678333333","24.9366766666667","6500900","三峽區"
"237006","5529-G3","2019/07/29 19:19:34","新北市三峽區介壽路一段340號","121.381356666667","24.9303366666667","6500900","三峽區"
"237011","KEA-2596","2019/07/29 19:19:34","新北市三峽區介壽路三段107號","121.395495","24.939275","6500900","三峽區"
"237015","649-BX","2019/07/29 19:19:40","新北市三峽區安坑37-9號","121.453755","24.9316266666667","6500900","三峽區"
"237010","706-TV","2019/07/29 19:19:43","新北市三峽區國光街350巷17號","121.371666666667","24.940115","6500900","三峽區"
"237005","AKY-6261","2019/07/29 19:19:39","新北市三峽區中山路459巷50-2號","121.356018333333","24.937715","6500900","三峽區"
"236078","166-UM","2019/07/29 19:19:38","新北市土城區中央路四段321巷46號","121.4127","24.9509583333333","6501300","土城區"
"236026","269-VK","2019/07/29 19:19:50","新北市土城區員林街71巷2號","121.444291666667","24.9771633333333","6501300","土城區"
"236014","270-VK","2019/07/29 19:19:44","新北市土城區廣福街5號","121.45729","24.988795","6501300","土城區"
"236069","KEA-2877","2019/07/29 19:19:45","新北市土城區學成路132號","121.44907","24.9896133333333","6501300","土城區"
"252001","KED-0821","2019/07/29 19:19:32","新北市三芝區長勤街9巷14號","121.501668333333","25.2550233333333","6502100","三芝區"
"236020","401-BY","2019/07/29 19:19:46","新北市土城區峰廷街18號","121.469035","24.98728","6501300","土城區"
"236059","912-UM","2019/07/29 19:19:42","新北市土城區中央路二段260號","121.441583333333","24.9745133333333","6501300","土城區"
"238015","755-BX","2019/07/29 19:19:40","新北市樹林區大安路531號","121.413625","24.985475","6500700","樹林區"
"238023","601-UM","2019/07/29 19:19:42","新北市樹林區中正路865號","121.408825","25.0181066666667","6500700","樹林區"
"238019","599-UM","2019/07/29 19:19:48","新北市樹林區東榮街60號","121.416773333333","24.9829883333333","6500700","樹林區"
"238018","KEA-2217","2019/07/29 19:19:43","新北市樹林區中華路120號","121.41772","24.9807366666667","6500700","樹林區"
"238022","KEA-2213","2019/07/29 19:19:32","新北市樹林區中山路二段151巷6弄1號","121.406591666667","24.978525","6500700","樹林區"
"238021","KEA-2539","2019/07/29 19:19:34","新北市樹林區柑園街二段380巷14號","121.368245","24.9500716666667","6500700","樹林區"
"238025","303-VK","2019/07/29 19:19:32","新北市樹林區中山路三段96號","121.392986666667","24.9721883333333","6500700","樹林區"
"238017","283-BY","2019/07/29 19:19:34","新北市樹林區光興街18號","121.412356666667","25.0029866666667","6500700","樹林區"
"238014","282-BY","2019/07/29 19:19:39","新北市樹林區中正路21號","121.427508333333","24.9991466666667","6500700","樹林區"
"238020","268-VK","2019/07/29 19:19:46","新北市樹林區俊英街250號","121.424495","25.010885","6500700","樹林區"
"238026","172-UY","2019/07/29 19:19:40","新北市樹林區佳園路一段41巷18號","121.3939","24.9710333333333","6500700","樹林區"
"238016","169-UY","2019/07/29 19:19:45","新北市樹林區備前街25號","121.417358333333","24.9858466666667","6500700","樹林區"
"239007","AAC-297","2019/07/29 19:19:32","新北市鶯歌區中山路138巷15號","121.351136666667","24.9591","6500800","鶯歌區"
"239006","891-R6","2019/07/29 19:19:35","新北市鶯歌區鶯桃路97巷1-1號","121.338648333333","24.9543","6500800","鶯歌區"
"239008","527-UM","2019/07/29 19:19:41","新北市鶯歌區國際二路6巷8號","121.338651666667","24.97368","6500800","鶯歌區"
"239005","526-UM","2019/07/29 19:19:46","新北市鶯歌區大湖路584號","121.335458333333","24.9734183333333","6500800","鶯歌區"
"239001","417-VK","2019/07/29 19:19:32","新北市鶯歌區鶯桃路95巷73號","121.337188333333","24.95279","6500800","鶯歌區"
"239003","360-BY","2019/07/29 19:19:50","新北市鶯歌區八德路1-2號","121.33889","24.9482016666667","6500800","鶯歌區"
"239002","359-BY","2019/07/29 19:19:47","新北市鶯歌區中正一路381號","121.358508333333","24.9571033333333","6500800","鶯歌區"
"239004","193-VK","2019/07/29 19:19:35","新北市鶯歌區二甲路106巷1號","121.333786666667","24.931355","6500800","鶯歌區"
"221008","489-VK","2019/07/29 19:19:44","新北市汐止區康寧街310號","121.626841666667","25.0672666666667","6501100","汐止區"
"221031","353-TW","2019/07/29 19:19:42","新北市汐止區康寧街753巷2弄22號","121.640246666667","25.074185","6501100","汐止區"
"221035","622-UM","2019/07/29 19:19:31","新北市汐止區汐萬路一段282號","121.65085","25.074195","6501100","汐止區"
"221002","707-TV","2019/07/29 19:19:42","新北市汐止區中興路13號","121.63706","25.0593533333333","6501100","汐止區"
"221018","753-BX","2019/07/29 19:19:52","新北市汐止區康寧街901號","121.65157","25.0749233333333","6501100","汐止區"
"220079","145-BY","2019/07/29 19:19:42","新北市板橋區民權路202巷7弄29號","121.458828333333","25.01499","6500100","板橋區"
"220080","200-UY","2019/07/29 19:19:38","新北市板橋區大觀路二段1巷14號","121.44895","25.0039333333333","6500100","板橋區"
"220082","610-BX","2019/07/29 19:19:31","新北市板橋區溪崑二街145號","121.426153333333","24.988005","6500100","板橋區"
"220084","256-TC","2019/07/29 19:19:44","新北市板橋區溪崑二街66巷27號","121.42716","24.9907533333333","6500100","板橋區"
"220056","276-BY","2019/07/29 19:19:48","新北市板橋區信義路279巷21號","121.464311666667","24.99022","6500100","板橋區"
"220072","277-BY","2019/07/29 19:19:48","新北市板橋區金門街339-2號","121.429253333333","24.98563","6500100","板橋區"
"220101","280-UM","2019/07/29 19:19:50","新北市板橋區縣民大道三段133巷1號","121.477578333333","25.023135","6500100","板橋區"
"220071","283-VK","2019/07/29 19:19:26","新北市板橋區重慶路269巷31-3號","121.464265","24.9992466666667","6500100","板橋區"
"220094","285-UM","2019/07/29 19:19:43","新北市板橋區松江街124巷7號","121.469548333333","25.0302983333333","6500100","板橋區"
"220053","285-VK","2019/07/29 19:19:43","新北市板橋區富山街83號","121.476726666667","25.0218083333333","6500100","板橋區"
"220083","286-VK","2019/07/29 19:19:32","新北市板橋區大觀路二段174巷196弄16號","121.44312","25.0036266666667","6500100","板橋區"
"220081","287-VK","2019/07/29 19:19:38","新北市板橋區南雅東路89號","121.453176666667","25.00853","6500100","板橋區"
"220090","288-VK","2019/07/29 19:19:51","新北市板橋區裕民街88號","121.46036","25.0281616666667","6500100","板橋區"
"220061","293-UM","2019/07/29 19:19:49","新北市板橋區中山路二段309巷12號","121.478563333333","25.0190066666667","6500100","板橋區"
"220106","299-UM","2019/07/29 19:19:40","新北市板橋區宏國路107號","121.470258333333","25.03227","6500100","板橋區"
"220075","303-R5","2019/07/29 19:19:36","新北市板橋區南雅西路一段10巷12號","121.454641666667","25.0047166666667","6500100","板橋區"
"220062","305-R5","2019/07/29 19:19:35","新北市板橋區三民路二段153巷30弄1號","121.480998333333","25.014785","6500100","板橋區"
"220092","307-R5","2019/07/29 19:19:45","新北市板橋區文化路二段107號","121.469495","25.02602","6500100","板橋區"
"220098","317-R6","2019/07/29 19:19:42","新北市板橋區自由路51巷11號","121.46495","25.02335","6500100","板橋區"
"220089","487-VK","2019/07/29 19:19:50","新北市板橋區英士路17號","121.46175","25.0251466666667","6500100","板橋區"
"220088","491-VK","2019/07/29 19:19:45","新北市板橋區雙十路二段85號","121.475531666667","25.02754","6500100","板橋區"
"220035","560-BX","2019/07/29 19:19:45","新北市板橋區新生街89巷36號","121.456585","25.022565","6500100","板橋區"
"220103","561-BX","2019/07/29 19:19:49","新北市板橋區陽明街23巷8弄19號","121.465376666667","25.02069","6500100","板橋區"
"220063","609-BX","2019/07/29 19:19:48","新北市板橋區三民路一段1巷42號","121.480303333333","25.0243883333333","6500100","板橋區"
"220091","637-BX","2019/07/29 19:19:30","新北市板橋區文聖街198號","121.480058333333","25.0258716666667","6500100","板橋區"
"220057","686-BX","2019/07/29 19:19:43","新北市板橋區和平路70號","121.46127","24.994545","6500100","板橋區"
"220077","687-BX","2019/07/29 19:19:41","新北市板橋區大觀路二段57號","121.446668333333","25.0026933333333","6500100","板橋區"
"220093","689-BX","2019/07/29 19:19:32","新北市板橋區新海路162號","121.460586666667","25.0237366666667","6500100","板橋區"
"220054","741-BX","2019/07/29 19:19:44","新北市板橋區四川路一段225號","121.460068333333","25.003195","6500100","板橋區"
"220102","KEA-2699","2019/07/29 19:19:35","新北市板橋區松柏街22巷36號","121.475065","25.0288933333333","6500100","板橋區"
"220055","827-TW","2019/07/29 19:19:45","新北市板橋區民族路57號","121.464651666667","25.0088616666667","6500100","板橋區"
"220067","829-TW","2019/07/29 19:19:44","新北市板橋區長安街138巷1弄46號","121.473745","25.0099533333333","6500100","板橋區"
"220074","895-R6","2019/07/29 19:19:46","新北市板橋區中正路自強新村44號","121.454931666667","25.0138033333333","6500100","板橋區"
"220073","985-R7","2019/07/29 19:19:48","新北市板橋區新生街96號","121.458381666667","25.02198","6500100","板橋區"
"220097","AAC-210","2019/07/29 19:19:47","新北市板橋區幸福路32巷4弄2號","121.46104","25.0211633333333","6500100","板橋區"
"220064","AAC-253","2019/07/29 19:19:43","新北市板橋區民權路45號","121.461935","25.0114483333333","6500100","板橋區"
"235068","KEA-2873","2019/07/29 19:19:45","新北市中和區景平路545巷1弄18號","121.498823333333","24.99867","6500300","中和區"
"235061","KEA-2875","2019/07/29 19:19:36","新北市中和區連城路549號","121.48006","24.99483","6500300","中和區"
