"lineid","car","time","location","longitude","latitude","cityid","cityname"
"234046","148-BY","2019/07/29 20:09:50","新北市永和區秀朗路二段259號","121.526266666667","24.9991783333333","6500400","永和區"
"234081","298-R6","2019/07/29 20:09:48","新北市永和區國中路33號","121.524548333333","25.005475","6500400","永和區"
"234038","336-UY","2019/07/29 20:09:45","新北市永和區成功路一段108號","121.526843333333","25.0027916666667","6500400","永和區"
"234064","337-UY","2019/07/29 20:09:31","新北市永和區秀朗路二段43號","121.52156","25.002405","6500400","永和區"
"234086","338-UY","2019/07/29 20:09:50","新北市永和區福和路160號","121.521385","25.0078916666667","6500400","永和區"
"234017","745-BX","2019/07/29 20:09:43","新北市永和區文化路117號","121.51261","25.01523","6500400","永和區"
"234030","746-BX","2019/07/29 20:09:44","新北市永和區民權路49巷32號","121.521715","24.997485","6500400","永和區"
"234054","KEA-2590","2019/07/29 20:09:32","新北市永和區博愛街19巷1號","121.517425","25.015845","6500400","永和區"
"234007","KED-0605","2019/07/29 20:09:41","新北市永和區保順路19-1號","121.504105","25.0099916666667","6500400","永和區"
"234013","KEA-2591","2019/07/29 20:09:34","新北市永和區仁愛路271號","121.506085","25.0098516666667","6500400","永和區"
"234061","AAD-866","2019/07/29 20:09:33","新北市永和區中正路283巷57號","121.515561666667","24.9989533333333","6500400","永和區"
"234070","748-BX","2019/07/29 20:09:44","新北市永和區永貞路10巷7號","121.520178333333","25.007255","6500400","永和區"
"234042","862-TW","2019/07/29 20:09:46","新北市永和區雙和街43號","121.508885","25.0027416666667","6500400","永和區"
"234050","863-TW","2019/07/29 20:09:43","新北市永和區保安路292號","121.50515","25.0118433333333","6500400","永和區"
"234011","9373-KE","2019/07/29 20:09:30","新北市永和區仁愛路352巷124號","121.500195","25.0084866666667","6500400","永和區"
"249005","172-UM","2019/07/29 20:09:32","新北市八里區下罟子57-32號","121.387408333333","25.1367233333333","6502300","八里區"
"249001","173-UM","2019/07/29 20:09:44","新北市八里區中華路二段326號","121.40328","25.1478983333333","6502300","八里區"
"249004","303-UY","2019/07/29 20:09:35","新北市八里區中山路一段189巷5號","121.411963333333","25.1581","6502300","八里區"
"249002","305-UY","2019/07/29 20:09:43","新北市八里區龍米路一段25號","121.45709","25.1162316666667","6502300","八里區"
"249003","593-UM","2019/07/29 20:09:42","新北市八里區中山路二段540巷9弄19號","121.396546666667","25.146605","6502300","八里區"
"248016","026-BX","2019/07/29 20:09:47","新北市五股區成泰路三段577巷80弄72號","121.448928333333","25.1047883333333","6501500","五股區"
"248008","KED-0815","2019/07/29 20:09:32","新北市五股區中興路一段1巷22號","121.469816666667","25.07075","6501500","五股區"
"248018","KED-0813","2019/07/29 20:09:30","新北市五股區登林路114-7號","121.423858333333","25.070765","6501500","五股區"
"248012","247-BX","2019/07/29 20:09:46","新北市五股區六合街70號","121.431876666667","25.0900283333333","6501500","五股區"
"248004","677-BX","2019/07/29 20:09:34","新北市五股區成泰路一段187號","121.43502","25.0762983333333","6501500","五股區"
"248002","678-BX","2019/07/29 20:09:47","新北市五股區成泰路三段365號","121.448756666667","25.0958066666667","6501500","五股區"
"248010","682-TV","2019/07/29 20:09:38","新北市五股區成泰路一段7巷66號","121.432611666667","25.06782","6501500","五股區"
"234023","9380-KE","2019/07/29 20:09:41","新北市永和區中正路654巷39號","121.517651666667","25.0086116666667","6500400","永和區"
"234077","969-R7","2019/07/29 20:09:33","新北市永和區中正路198號","121.515698333333","24.9972983333333","6500400","永和區"
"234074","AAC-211","2019/07/29 20:09:40","新北市永和區豫溪街144號","121.521508333333","25.01034","6500400","永和區"
"234067","AAC-212","2019/07/29 20:09:44","新北市永和區保平路214巷3弄2號","121.50926","25.0063866666667","6500400","永和區"
"234003","AAC-295","2019/07/29 20:09:42","新北市永和區中正路620號","121.517031666667","25.007795","6500400","永和區"
"243012","AAD-798","2019/07/29 20:09:45","新北市泰山區楓江路46巷1號","121.435241666667","25.0621966666667","6501600","泰山區"
"243010","297-R6","2019/07/29 20:09:36","新北市泰山區中華街18巷1號","121.427303333333","25.0518116666667","6501600","泰山區"
"243014","KEA-2801","2019/07/29 20:09:52","新北市泰山區明志路一段88號","121.433458333333","25.0642366666667","6501600","泰山區"
"243016","421-VK","2019/07/29 20:09:47","新北市泰山區明志路三段409號","121.421233333333","25.0340133333333","6501600","泰山區"
"243011","KEA-2216","2019/07/29 20:09:31","新北市泰山區明志路三段531巷2號","121.421455","25.0296883333333","6501600","泰山區"
"243015","680-BX","2019/07/29 20:09:49","新北市泰山區明志路二段53號","121.42926","25.052765","6501600","泰山區"
"222003","436-BY","2019/07/29 20:09:30","新北市深坑區埔新街60號","121.620153333333","25.0024716666667","6501800","深坑區"
"222002","659-BX","2019/07/29 20:09:33","新北市深坑區北深路三段5號","121.611021666667","25.0010433333333","6501800","深坑區"
"231061","002-UM","2019/07/29 20:09:47","新北市新店區安民街335號","121.51721","24.9747766666667","6500600","新店區"
"231044","046-UY","2019/07/29 20:09:33","新北市新店區寶元路一段15巷11號","121.54195","24.9870233333333","6500600","新店區"
"231060","106-UY","2019/07/29 20:09:38","新北市新店區安康路三段265號","121.486536666667","24.9518483333333","6500600","新店區"
"231051","107-UY","2019/07/29 20:09:36","新北市新店區中央二街5巷1號","121.529193333333","24.9728633333333","6500600","新店區"
"231049","108-UY","2019/07/29 20:09:35","新北市新店區北新路二段139巷12弄1號","121.54214","24.976005","6500600","新店區"
"231065","110-UY","2019/07/29 20:09:53","新北市新店區安祥路106巷151號","121.473506666667","24.9589716666667","6500600","新店區"
"231068","187-VK","2019/07/29 20:09:39","新北市新店區中興路二段186號","121.54813","24.9727783333333","6500600","新店區"
"231062","256-BX","2019/07/29 20:09:33","新北市新店區安康路一段61號","121.530625","24.960825","6500600","新店區"
"231054","260-TV","2019/07/29 20:09:48","新北市新店區檳榔路39號","121.542658333333","24.963485","6500600","新店區"
"231042","268-BY","2019/07/29 20:09:31","新北市新店區中興路二段89號","121.547043333333","24.9712816666667","6500600","新店區"
"231064","278-BY","2019/07/29 20:09:47","新北市新店區安光路15巷15號","121.512341666667","24.9633066666667","6500600","新店區"
"231050","AAD-862","2019/07/29 20:09:40","新北市新店區北新路一段90號","121.541856666667","24.96847","6500600","新店區"
"231045","355-BY","2019/07/29 20:09:32","新北市新店區北宜路二段71號","121.549675","24.951635","6500600","新店區"
"231055","4716-K9","2019/07/29 20:09:49","新北市新店區中華路83巷57號","121.538453333333","24.96752","6500600","新店區"
"231056","4715-K9","2019/07/29 20:09:30","新北市新店區中正路275巷29號","121.536898333333","24.97306","6500600","新店區"
"231067","4772-VM","2019/07/29 20:09:40","新北市新店區溪洲路6巷124-1號","121.533256666667","24.9635333333333","6500600","新店區"
"231052","513-UM","2019/07/29 20:09:34","新北市新店區新烏路三段寶島巷2弄3號","121.552013333333","24.898655","6500600","新店區"
"231041","619-UM","2019/07/29 20:09:43","新北市新店區中正路397號","121.53441","24.977365","6500600","新店區"
"231063","641-BX","2019/07/29 20:09:48","新北市新店區黎明路56巷1號","121.502365","24.9477816666667","6500600","新店區"
"231047","KED-0819","2019/07/29 20:09:34","新北市新店區寶橋路75號","121.545738333333","24.9752166666667","6500600","新店區"
"231057","720-UM","2019/07/29 20:09:39","新北市新店區百齡一路12號","121.553061666667","24.9324316666667","6500600","新店區"
"231059","897-TW","2019/07/29 20:09:44","新北市新店區安成街33號","121.509963333333","24.9608266666667","6500600","新店區"
"231040","898-TW","2019/07/29 20:09:29","新北市新店區中正路30號","121.54517","24.9697216666667","6500600","新店區"
"231043","899-TW","2019/07/29 20:09:32","新北市新店區民族路186號","121.536893333333","24.97606","6500600","新店區"
"241011","013-R5","2019/07/29 20:09:34","新北市三重區三和路三段39號","121.495886666667","25.07129","6500200","三重區"
"241028","022-UY","2019/07/29 20:09:35","新北市三重區仁化街138號","121.494626666667","25.057835","6500200","三重區"
"241008","059-VK","2019/07/29 20:09:39","新北市三重區永福街197巷27號","121.478583333333","25.07433","6500200","三重區"
"241031","061-VK","2019/07/29 20:09:38","新北市三重區過圳街9-1號","121.488726666667","25.0601383333333","6500200","三重區"
"241017","063-VK","2019/07/29 20:09:39","新北市三重區大智街108-3號","121.493023333333","25.0666183333333","6500200","三重區"
"241024","065-VK","2019/07/29 20:09:31","新北市三重區力行路一段178巷12號","121.481556666667","25.0713933333333","6500200","三重區"
"241001","066-VK","2019/07/29 20:09:33","新北市三重區三和路四段85號","121.490308333333","25.076045","6500200","三重區"
"241002","090-VK","2019/07/29 20:09:43","新北市三重區仁義街225巷2號","121.49668","25.08245","6500200","三重區"
"241003","091-VK","2019/07/29 20:09:36","新北市三重區仁愛街423-1號","121.490413333333","25.0816916666667","6500200","三重區"
"241015","742-BX","2019/07/29 20:09:36","新北市三重區福德北路31巷7號","121.502828333333","25.0647083333333","6500200","三重區"
"241005","262-UM","2019/07/29 20:09:48","新北市三重區碧華街294巷14號","121.489018333333","25.084275","6500200","三重區"
"241016","266-UM","2019/07/29 20:09:37","新北市三重區大同北路54巷1號","121.49417","25.0634966666667","6500200","三重區"
"241009","267-UM","2019/07/29 20:09:48","新北市三重區三和路四段382巷153號","121.479056666667","25.0780883333333","6500200","三重區"
"241032","269-UM","2019/07/29 20:09:50","新北市三重區捷運路73號","121.482831666667","25.0554516666667","6500200","三重區"
"241013","270-UM","2019/07/29 20:09:35","新北市三重區三和路三段139巷40號","121.49431","25.074115","6500200","三重區"
"241025","271-UM","2019/07/29 20:09:41","新北市三重區中正北路237號","121.47566","25.070795","6500200","三重區"
"241007","398-BY","2019/07/29 20:09:33","新北市三重區仁美街48號","121.487178333333","25.0777916666667","6500200","三重區"
"241030","KED-0822","2019/07/29 20:09:42","新北市三重區成功路145巷35號","121.487783333333","25.0532716666667","6500200","三重區"
"241020","478-VK","2019/07/29 20:09:32","新北市三重區後竹圍街2巷2號","121.49191","25.0735283333333","6500200","三重區"
"241026","480-VK","2019/07/29 20:09:32","新北市三重區福德南路42號","121.502926666667","25.0625333333333","6500200","三重區"
"241014","543-UM","2019/07/29 20:09:49","新北市三重區長樂街88號","121.501276666667","25.0694116666667","6500200","三重區"
"241023","545-UM","2019/07/29 20:09:47","新北市三重區頂崁街229號","121.477048333333","25.0682216666667","6500200","三重區"
"241006","AAD-863","2019/07/29 20:09:48","新北市三重區車路頭街135-1號","121.484255","25.0761533333333","6500200","三重區"
"241022","KED-0820","2019/07/29 20:09:34","新北市三重區重陽路二段13號","121.486888333333","25.0622266666667","6500200","三重區"
"241019","887-TS","2019/07/29 20:09:39","新北市三重區自強路二段33巷29號","121.490413333333","25.0696883333333","6500200","三重區"
"241029","942-UM","2019/07/29 20:09:41","新北市三重區光明路32巷1弄1號","121.491636666667","25.0586316666667","6500200","三重區"
"241033","AAC-255","2019/07/29 20:09:39","新北市三重區光復路一段70號","121.471923333333","25.0492783333333","6500200","三重區"
"235066","003-UY","2019/07/29 20:09:31","新北市中和區水源路127巷2弄4號","121.508195","25.004005","6500300","中和區"
"235039","097-UM","2019/07/29 20:09:47","新北市中和區立人街24-5號","121.518923333333","24.9941516666667","6500300","中和區"
"235065","098-UM","2019/07/29 20:09:47","新北市中和區永和路69號","121.496493333333","25.0056333333333","6500300","中和區"
"235040","150-BY","2019/07/29 20:09:44","新北市中和區保健路42-3號","121.509408333333","24.9972666666667","6500300","中和區"
"235055","183-VK","2019/07/29 20:09:46","新北市板橋區溪頭街322-2號","121.465155","25.034065","6500300","中和區"
"247014","KEA-2869","2019/07/29 20:09:39","新北市蘆洲區中山二路265巷43號","121.471391666667","25.0795733333333","6501400","蘆洲區"
"247008","KED-0682","2019/07/29 20:09:40","新北市蘆洲區中山一路135巷6弄30號","121.47478","25.0809333333333","6501400","蘆洲區"
"235050","4979-A6","2019/07/29 20:09:32","新北市中和區景平路322號","121.512161666667","24.992665","6500300","中和區"
"235069","4980-A6","2019/07/29 20:09:34","新北市中和區景新街45號","121.504253333333","24.999005","6500300","中和區"
"235070","558-UM","2019/07/29 20:09:52","新北市中和區連城路315號","121.489256666667","24.9961916666667","6500300","中和區"
"235059","AAC-215","2019/07/29 20:09:32","新北市中和區圓通路335巷33弄21號","121.493323333333","24.9888266666667","6500300","中和區"
"220065","072-UY","2019/07/29 20:09:44","新北市板橋區區運路28號","121.465608333333","25.00955","6500100","板橋區"
"247018","546-UM","2019/07/29 20:09:37","新北市蘆洲區民族路312號","121.477336666667","25.090115","6501400","蘆洲區"
"247004","341-TH","2019/07/29 20:09:41","新北市蘆洲區長安街285巷24號","121.457081666667","25.083955","6501400","蘆洲區"
"247024","337-TH","2019/07/29 20:08:26","新北市蘆洲區光榮路120巷8弄21號","121.465105","25.0881716666667","6501400","蘆洲區"
"247002","336-TH","2019/07/29 20:09:38","新北市蘆洲區永康街54號","121.459205","25.0861766666667","6501400","蘆洲區"
"247022","057-VK","2019/07/29 20:09:32","新北市蘆洲區三民路171巷2號","121.470805","25.0870333333333","6501400","蘆洲區"
"247012","056-VK","2019/07/29 20:09:44","新北市蘆洲區民族路252號","121.479025","25.088745","6501400","蘆洲區"
"247016","053-VK","2019/07/29 20:09:45","新北市蘆洲區光華路127號","121.466478333333","25.0823383333333","6501400","蘆洲區"
"247020","007-UY","2019/07/29 20:09:32","新北市蘆洲區民義街68巷30號","121.474126666667","25.0892133333333","6501400","蘆洲區"
"247006","002-UY","2019/07/29 20:09:43","新北市蘆洲區中山二路300巷2號","121.46861","25.0770216666667","6501400","蘆洲區"
"226004","312-R5","2019/07/29 20:09:36","新北市平溪區嶺腳里田子20號","121.74647","25.028875","6502400","平溪區"
"222001","KEA-2212","2019/07/29 20:09:38","新北市深坑區北深路三段187號","121.601278333333","25.0037116666667","6501800","深坑區"
"208003","665-BX","2019/07/29 20:09:43","新北市金山區海興路35-1號","121.62953","25.2367483333333","6502700","金山區"
"251009","008-UM","2019/07/29 20:09:39","新北市淡水區博愛街45號","121.446546666667","25.16928","6501000","淡水區"
"251004","009-UM","2019/07/29 20:09:34","新北市淡水區民族路31巷21-1號","121.461996666667","25.1365566666667","6501000","淡水區"
"251005","010-UM","2019/07/29 20:09:41","新北市淡水區學府路100巷1號","121.450241666667","25.1717266666667","6501000","淡水區"
"251001","011-UM","2019/07/29 20:09:43","新北市淡水區淡金路二段15號","121.446531666667","25.1891466666667","6501000","淡水區"
"251002","012-UM","2019/07/29 20:09:34","新北市淡水區中正路23巷1號","121.435701666667","25.1731266666667","6501000","淡水區"
"251015","KEA-2871","2019/07/29 20:09:49","新北市淡水區泉洲厝25-5號","121.484271666667","25.189765","6501000","淡水區"
"251016","179-VK","2019/07/29 20:09:44","新北市淡水區番子田19號","121.457463333333","25.228925","6501000","淡水區"
"251008","181-VK","2019/07/29 20:09:40","新北市淡水區淡海路72巷30弄21號","121.425015","25.1828083333333","6501000","淡水區"
"251013","182-VK","2019/07/29 20:09:40","新北市淡水區奎柔山路500號","121.466596666667","25.20512","6501000","淡水區"
"243009","549-UM","2019/07/29 20:09:50","新北市泰山區泰林路二段116巷3弄2號","121.435218333333","25.059635","6501600","泰山區"
"251012","441-VK","2019/07/29 20:09:41","新北市淡水區淡金路三段224號","121.448933333333","25.2048416666667","6501000","淡水區"
"251006","561-UM","2019/07/29 20:09:48","新北市淡水區北新路141巷50號","121.44883","25.1793633333333","6501000","淡水區"
"251014","577-R6","2019/07/29 20:09:41","新北市淡水區石頭厝2-1號","121.458163333333","25.235695","6501000","淡水區"
"251011","650-BX","2019/07/29 20:09:34","新北市淡水區崁頂55-3號","121.4423","25.1966233333333","6501000","淡水區"
"251003","673-BX","2019/07/29 20:09:35","新北市淡水區新市一路二段256號","121.443718333333","25.1829633333333","6501000","淡水區"
"251010","766-UM","2019/07/29 20:09:48","新北市淡水區新市三路一段312號","121.430826666667","25.1972383333333","6501000","淡水區"
"207004","681-TV","2019/07/29 20:09:46","新北市萬里區北基里愛二街2號","121.682503333333","25.17675","6502800","萬里區"
"207003","550-UM","2019/07/29 20:09:46","新北市萬里區大鵬里萬里加投166-1號","121.643525","25.2154133333333","6502800","萬里區"
"252002","178-VK","2019/07/29 20:09:48","新北市三芝區中正路一段72號","121.504003333333","25.2576416666667","6502100","三芝區"
"237012","275-BY","2019/07/29 20:09:48","新北市三峽區安溪路320號","121.370975","24.9285316666667","6500900","三峽區"
"237006","5529-G3","2019/07/29 20:09:34","新北市三峽區嘉添33號","121.368708333333","24.9114633333333","6500900","三峽區"
"237011","KEA-2596","2019/07/29 20:09:34","新北市三峽區中正路一段500號","121.37022","24.9206933333333","6500900","三峽區"
"237015","649-BX","2019/07/29 20:09:40","新北市三峽區介壽路二段138巷1弄5-1號","121.396055","24.93426","6500900","三峽區"
"237010","706-TV","2019/07/29 20:09:42","新北市三峽區復興路36-8號","121.373835","24.9366566666667","6500900","三峽區"
"237005","AKY-6261","2019/07/29 20:09:47","新北市三峽區三樹路88號","121.378155","24.9387966666667","6500900","三峽區"
"236042","KED-0685","2019/07/29 20:09:32","新北市土城區學享街72號","121.452591666667","24.986085","6501300","土城區"
"236078","166-UM","2019/07/29 20:09:38","新北市土城區民族街20號","121.418931666667","24.9630033333333","6501300","土城區"
"236030","253-BX","2019/07/29 20:09:44","新北市土城區中央路一段118巷1弄13號","121.445808333333","24.987765","6501300","土城區"
"236026","269-VK","2019/07/29 20:09:49","新北市土城區明德路二段102巷25號","121.445555","24.9850116666667","6501300","土城區"
"236014","270-VK","2019/07/29 20:09:44","新北市土城區廣興街39號","121.454946666667","24.9916","6501300","土城區"
"236039","271-VK","2019/07/29 20:09:49","新北市土城區延吉街296巷1弄1號","121.46438","24.9843666666667","6501300","土城區"
"247010","KED-0683","2019/07/29 20:09:42","新北市蘆洲區信義路159號","121.47986","25.0817333333333","6501400","蘆洲區"
"236069","KEA-2877","2019/07/29 20:09:45","新北市土城區中央路三段185-4號","121.431358333333","24.9647233333333","6501300","土城區"
"252001","KED-0821","2019/07/29 20:09:32","新北市三芝區公正街22號","121.499676666667","25.2579766666667","6502100","三芝區"
"236020","401-BY","2019/07/29 20:09:46","新北市土城區延吉街111巷1弄1號","121.47144","24.986445","6501300","土城區"
"236059","912-UM","2019/07/29 20:09:42","新北市土城區中央路二段392-1號","121.43972","24.97093","6501300","土城區"
"236048","913-UM","2019/07/29 20:09:43","新北市土城區清水路97號","121.456578333333","24.9817766666667","6501300","土城區"
"236055","AAC-216","2019/07/29 20:09:31","新北市土城區中華路一段166號","121.441503333333","24.9832433333333","6501300","土城區"
"242039","AAC-296","2019/07/29 20:09:43","新北市新莊區民安西路120號","121.426776666667","25.0184383333333","6500500","新莊區"
"242060","986-R7","2019/07/29 20:09:40","新北市新莊區瓊林路89-32號","121.443293333333","25.02624","6500500","新莊區"
"242002","751-BX","2019/07/29 20:09:50","新北市新莊區中正路55-4號","121.461906666667","25.0397733333333","6500500","新莊區"
"242029","615-BX","2019/07/29 20:09:38","新北市新莊區中原路305號","121.447283333333","25.0545016666667","6500500","新莊區"
"242058","612-BX","2019/07/29 20:09:43","新北市新莊區八德街147號","121.423595","25.0197566666667","6500500","新莊區"
"242050","497-BY","2019/07/29 20:09:43","新北市新莊區民安西路172巷1弄2號","121.4257","25.0159283333333","6500500","新莊區"
"242046","442-UM","2019/07/29 20:09:39","新北市新莊區裕民街85巷9號","121.419123333333","25.0234616666667","6500500","新莊區"
"242056","441-UM","2019/07/29 20:09:41","新北市新莊區豐年街50巷5號","121.446078333333","25.0318233333333","6500500","新莊區"
"242004","440-UM","2019/07/29 20:09:39","新北市新莊區頭興街1-7號","121.463755","25.0535316666667","6500500","新莊區"
"242042","415-TV","2019/07/29 20:09:52","新北市新莊區青山路一段177號","121.400623333333","25.030185","6500500","新莊區"
"242011","413-TV","2019/07/29 20:09:42","新北市新莊區中信街53號","121.449631666667","25.0506766666667","6500500","新莊區"
"242048","400-BY","2019/07/29 20:09:41","新北市新莊區四維路152巷29號","121.422053333333","25.0224366666667","6500500","新莊區"
"242025","362-BY","2019/07/29 20:09:43","新北市新莊區五工三路78巷3號","121.45911","25.065215","6500500","新莊區"
"242023","353-BY","2019/07/29 20:09:37","新北市新莊區化成路528號","121.46628","25.0528416666667","6500500","新莊區"
"242013","132-UY","2019/07/29 20:09:39","新北市新莊區幸福路670巷2弄13號","121.45161","25.0495833333333","6500500","新莊區"
"242036","135-UY","2019/07/29 20:09:42","新北市新莊區建安街35巷20號","121.429921666667","25.02589","6500500","新莊區"
"242053","172-VK","2019/07/29 20:09:41","新北市新莊區西盛街387巷34弄5號","121.428556666667","25.0128733333333","6500500","新莊區"
"242015","173-VK","2019/07/29 20:09:42","新北市新莊區中平路26巷26號","121.445825","25.0433433333333","6500500","新莊區"
"242021","175-VK","2019/07/29 20:09:33","新北市新莊區建中街34號","121.448915","25.0375533333333","6500500","新莊區"
"242019","KED-0687","2019/07/29 20:09:44","新北市新莊區民樂街76號","121.45792","25.043555","6500500","新莊區"
"242034","348-TH","2019/07/29 20:09:35","新北市新莊區建中街81巷10弄14號","121.44672","25.036","6500500","新莊區"
"242007","349-TH","2019/07/29 20:09:43","新北市新莊區福壽街184巷19號","121.459238333333","25.05326","6500500","新莊區"
"242031","350-TH","2019/07/29 20:09:49","新北市新莊區忠孝街29巷20號","121.443668333333","25.0363783333333","6500500","新莊區"
"242017","351-TH","2019/07/29 20:09:46","新北市新莊區中港路407號","121.452076666667","25.0471883333333","6500500","新莊區"
"238022","KEA-2213","2019/07/29 20:09:32","新北市樹林區中山路三段210-2號","121.381615","24.965615","6500700","樹林區"
"238021","KEA-2539","2019/07/29 20:09:34","新北市樹林區八德街680號","121.39607","24.96887","6500700","樹林區"
"221008","489-VK","2019/07/29 20:09:43","台北市內湖區康樂街162巷1號","121.619478333333","25.072865","6501100","汐止區"
"221036","130-UY","2019/07/29 20:09:49","新北市汐止區新台五路二段41巷6號","121.663101666667","25.0667383333333","6501100","汐止區"
"221015","131-UY","2019/07/29 20:09:36","新北市汐止區建成路26號","121.664528333333","25.0726583333333","6501100","汐止區"
"221010","269-BY","2019/07/29 20:09:31","新北市汐止區連峰街270號","121.644253333333","25.0814716666667","6501100","汐止區"
"221012","278-VK","2019/07/29 20:09:50","新北市汐止區大同路三段457號","121.678886666667","25.0712883333333","6501100","汐止區"
"221023","279-VK","2019/07/29 20:09:46","新北市汐止區明峰街208號","121.627481666667","25.06917","6501100","汐止區"
"221032","280-BY","2019/07/29 20:09:37","新北市汐止區弘道街9巷4弄3號","121.617038333333","25.0493816666667","6501100","汐止區"
"221027","281-BY","2019/07/29 20:09:41","新北市汐止區民生街4巷2號","121.660175","25.0687816666667","6501100","汐止區"
"221033","297-VK","2019/07/29 20:09:30","新北市汐止區東勢街201巷104號","121.633545","25.0429216666667","6501100","汐止區"
"221029","298-VK","2019/07/29 20:08:28","新北市汐止區樟樹一路133巷12號","121.641493333333","25.0652866666667","6501100","汐止區"
"221021","299-VK","2019/07/29 20:09:46","新北市汐止區新台五路一段160號","121.654195","25.0624483333333","6501100","汐止區"
"221035","622-UM","2019/07/29 20:09:31","新北市汐止區長江街39巷23號","121.655166666667","25.0721266666667","6501100","汐止區"
"221025","623-UM","2019/07/29 20:09:51","新北市汐止區秀峰路83號","121.660005","25.0641616666667","6501100","汐止區"
"221038","646-BX","2019/07/29 20:09:29","新北市汐止區大同路三段66-3號","121.668105","25.0772283333333","6501100","汐止區"
"221002","707-TV","2019/07/29 20:09:42","新北市汐止區康寧街861巷1號","121.645481666667","25.0758916666667","6501100","汐止區"
"221018","753-BX","2019/07/29 20:09:31","新北市汐止區招商街145號","121.67063","25.06764","6501100","汐止區"
"220079","145-BY","2019/07/29 20:09:39","新北市板橋區國光路170號","121.460418333333","25.018115","6500100","板橋區"
"220080","200-UY","2019/07/29 20:09:38","新北市板橋區大觀路二段169巷23號","121.44667","24.9996683333333","6500100","板橋區"
"220082","610-BX","2019/07/29 20:09:48","新北市板橋區金門街147號","121.432796666667","24.9908516666667","6500100","板橋區"
"220084","256-TC","2019/07/29 20:09:44","新北市樹林區博愛街207號","121.424398333333","24.9876466666667","6500100","板橋區"
"224002","257-TC","2019/07/29 20:09:42","新北市瑞芳區員山子路員山巷21號","121.817055","25.10441","6501200","瑞芳區"
"220101","280-UM","2019/07/29 20:09:50","新北市板橋區莊敬路47號","121.47324","25.026805","6500100","板橋區"
"220083","286-VK","2019/07/29 20:09:32","新北市板橋區僑中二街48巷6號","121.446026666667","25.010365","6500100","板橋區"
"220081","287-VK","2019/07/29 20:09:38","新北市板橋區僑中一街124巷20弄38號","121.447633333333","25.013835","6500100","板橋區"
"220061","293-UM","2019/07/29 20:09:49","新北市板橋區中山路一段182-1號","121.468135","25.0130683333333","6500100","板橋區"
"220106","295-UM","2019/07/29 20:09:48","新北市板橋區文化路二段502巷2號","121.475988333333","25.0330533333333","6500100","板橋區"
"242044","281-VK","2019/07/29 20:09:35","新北市新莊區萬壽路一段21巷15號","121.410631666667","25.0203383333333","6500500","新莊區"
"220075","303-R5","2019/07/29 20:09:36","新北市板橋區金華街10巷48弄78-4號","121.460185","25.020395","6500100","板橋區"
"220062","305-R5","2019/07/29 20:09:35","新北市板橋區萬安街85巷1弄11號","121.48443","25.02497","6500100","板橋區"
"242009","280-VK","2019/07/29 20:09:45","新北市新莊區昌隆街30號","121.45418","25.0506733333333","6500500","新莊區"
"220035","560-BX","2019/07/29 20:09:49","新北市板橋區新生街21號","121.4561","25.021265","6500100","板橋區"
"220077","687-BX","2019/07/29 20:09:38","新北市板橋區僑中一街102巷7弄19號","121.446021666667","25.0129","6500100","板橋區"
"220054","741-BX","2019/07/29 19:51:24","新北市板橋區重慶路155巷19號","121.463023333333","25.0039416666667","6500100","板橋區"
"220055","827-TW","2019/07/29 20:09:45","新北市板橋區仁愛路86巷13弄1號","121.461108333333","24.9989633333333","6500100","板橋區"
"220067","829-TW","2019/07/29 20:09:44","新北市板橋區中山路一段206巷89號","121.471968333333","25.0132116666667","6500100","板橋區"
"220074","895-R6","2019/07/29 20:09:46","新北市板橋區縣民大道一段310號","121.461055","25.00995","6500100","板橋區"
"220073","985-R7","2019/07/29 20:09:38","新北市板橋區南雅西路二段2-1號","121.453283333333","25.0089016666667","6500100","板橋區"
"220097","AAC-210","2019/07/29 20:09:47","新北市板橋區光正街45巷6弄5號","121.461423333333","25.016995","6500100","板橋區"
"220064","AAC-253","2019/07/29 20:09:43","新北市板橋區漢生東路193巷23-4號","121.471043333333","25.0122033333333","6500100","板橋區"
"235068","KEA-2873","2019/07/29 20:09:41","新北市中和區景平路720號","121.49675","25.002965","6500300","中和區"
