"lineid","car","time","location","longitude","latitude","cityid","cityname"
"234081","298-R6","2019/07/29 20:19:36","新北市永和區國中路104巷2弄1號","121.524476666667","25.0068066666667","6500400","永和區"
"234038","336-UY","2019/07/29 20:19:45","新北市永和區成功路一段93巷23弄13號","121.528516666667","25.0033616666667","6500400","永和區"
"234064","337-UY","2019/07/29 20:19:51","新北市永和區得和路114號","121.5185","25.000055","6500400","永和區"
"234086","338-UY","2019/07/29 20:19:32","新北市永和區福和路175號","121.519871666667","25.0076616666667","6500400","永和區"
"234017","745-BX","2019/07/29 20:19:50","新北市永和區仁愛路8號","121.515015","25.01356","6500400","永和區"
"234030","746-BX","2019/07/29 20:19:44","新北市永和區民有街75巷10弄22號","121.519296666667","24.9959916666667","6500400","永和區"
"234054","KEA-2590","2019/07/29 20:19:30","新北市永和區光復街2巷26弄1號","121.517691666667","25.0165733333333","6500400","永和區"
"234007","KED-0605","2019/07/29 20:19:41","新北市永和區環河西路二段229巷5號","121.501455","25.0098866666667","6500400","永和區"
"234013","KEA-2591","2019/07/29 20:19:34","新北市永和區保生路5巷3號","121.506096666667","25.0070766666667","6500400","永和區"
"234061","AAD-866","2019/07/29 20:19:46","新北市永和區安樂路134號","121.51413","25.0002266666667","6500400","永和區"
"234070","748-BX","2019/07/29 20:19:44","新北市永和區福和路263巷9號","121.518106666667","25.0069283333333","6500400","永和區"
"234042","862-TW","2019/07/29 20:19:41","新北市中和區中安街168號","121.510898333333","24.9999283333333","6500400","永和區"
"234050","863-TW","2019/07/29 20:19:43","新北市永和區環河西路二段9號","121.508798333333","25.016635","6500400","永和區"
"249005","172-UM","2019/07/29 20:19:32","新北市八里區下罟子2-13號","121.388403333333","25.1412833333333","6502300","八里區"
"249001","173-UM","2019/07/29 20:19:44","新北市八里區中華路二段506號","121.399783333333","25.145425","6502300","八里區"
"249004","303-UY","2019/07/29 20:19:35","新北市八里區中山路一段151號","121.412788333333","25.1589716666667","6502300","八里區"
"249002","305-UY","2019/07/29 20:19:51","新北市八里區龍米路一段78號","121.455515","25.1223483333333","6502300","八里區"
"249003","593-UM","2019/07/29 20:19:42","新北市八里區中山路二段447巷21號","121.397413333333","25.1453633333333","6502300","八里區"
"248016","026-BX","2019/07/29 20:19:47","新北市五股區凌雲路一段158巷39弄2號","121.446886666667","25.103835","6501500","五股區"
"248008","KED-0815","2019/07/29 20:19:32","新北市五股區更洲路47號","121.457046666667","25.0789716666667","6501500","五股區"
"248012","247-BX","2019/07/29 20:19:46","新北市五股區中興路四段29號","121.438656666667","25.0826866666667","6501500","五股區"
"248002","678-BX","2019/07/29 20:19:47","新北市五股區成泰路三段173號","121.44532","25.091965","6501500","五股區"
"234023","9380-KE","2019/07/29 20:19:39","新北市永和區勵行街42號","121.516581666667","25.0136033333333","6500400","永和區"
"234077","969-R7","2019/07/29 20:19:33","新北市永和區民享街12號","121.515235","24.9952216666667","6500400","永和區"
"234074","AAC-211","2019/07/29 20:19:34","新北市永和區豫溪街160巷1號","121.52331","25.0095533333333","6500400","永和區"
"234067","AAC-212","2019/07/29 20:19:44","新北市永和區保平路268巷19號","121.508155","25.00566","6500400","永和區"
"234003","AAC-295","2019/07/29 20:19:42","新北市永和區大新街24號","121.515266666667","25.0083616666667","6500400","永和區"
"243012","AAD-798","2019/07/29 20:19:46","新北市泰山區楓江路175-1號","121.440231666667","25.0665566666667","6501600","泰山區"
"243010","297-R6","2019/07/29 20:19:39","新北市泰山區明志路二段214巷16弄47號","121.426811666667","25.0505516666667","6501600","泰山區"
"243014","KEA-2801","2019/07/29 20:19:32","新北市泰山區泰林路二段243號","121.431956666667","25.0620833333333","6501600","泰山區"
"243016","421-VK","2019/07/29 20:19:47","新北市泰山區明志路二段364號","121.425615","25.0450133333333","6501600","泰山區"
"243011","KEA-2216","2019/07/29 20:19:31","新北市泰山區壽山路134巷20弄3號","121.418678333333","25.0311233333333","6501600","泰山區"
"243013","646-TV","2019/07/29 20:19:41","新北市泰山區明志路二段359巷22號","121.426055","25.0439283333333","6501600","泰山區"
"243015","680-BX","2019/07/29 20:19:49","新北市泰山區明志路一段266號","121.432106666667","25.0603316666667","6501600","泰山區"
"222003","436-BY","2019/07/29 20:19:50","新北市深坑區文化街43號","121.617741666667","25.0018833333333","6501800","深坑區"
"222002","659-BX","2019/07/29 20:19:33","新北市深坑區萬福路69號","121.601625","25.0080933333333","6501800","深坑區"
"231061","002-UM","2019/07/29 20:19:47","新北市新店區安民街121巷12號","121.515636666667","24.969225","6500600","新店區"
"231058","0293-UT","2019/07/29 20:19:36","新北市新店區薏仁坑路自強巷6號","121.4967","24.9584733333333","6500600","新店區"
"231044","046-UY","2019/07/29 20:19:33","新北市新店區北新路三段147-2號","121.541055","24.9834416666667","6500600","新店區"
"231060","106-UY","2019/07/29 20:19:38","新北市新店區安康路三段578-1號","121.481111666667","24.9486983333333","6500600","新店區"
"231051","107-UY","2019/07/29 20:19:36","新北市新店區中央六街81號","121.526863333333","24.976485","6500600","新店區"
"231049","108-UY","2019/07/29 20:19:35","新北市新店區北新路二段35號","121.542596666667","24.97255","6500600","新店區"
"231065","110-UY","2019/07/29 20:19:33","新北市新店區安祥路102巷34號","121.484235","24.9639733333333","6500600","新店區"
"231068","187-VK","2019/07/29 20:19:39","新北市新店區民權路19號","121.542","24.9826316666667","6500600","新店區"
"231062","256-BX","2019/07/29 20:19:33","新北市新店區安康路二段316號","121.505386666667","24.95807","6500600","新店區"
"231054","260-TV","2019/07/29 20:19:34","新北市新店區檳榔路111號","121.544458333333","24.9614716666667","6500600","新店區"
"231042","268-BY","2019/07/29 20:19:51","新北市新店區中興路二段233號","121.54776","24.9751383333333","6500600","新店區"
"231064","278-BY","2019/07/29 20:19:47","新北市新店區安業街33號","121.517973333333","24.9768416666667","6500600","新店區"
"231050","AAD-862","2019/07/29 20:19:47","新北市新店區博愛街8巷2號","121.541168333333","24.9733983333333","6500600","新店區"
"231045","355-BY","2019/07/29 20:19:52","新北市新店區北宜路一段80號","121.538711666667","24.9558066666667","6500600","新店區"
"231055","4716-K9","2019/07/29 20:19:49","新北市新店區北新路一段297巷23號","121.540668333333","24.9679683333333","6500600","新店區"
"231056","4715-K9","2019/07/29 20:19:30","新北市新店區中正路309號","121.536641666667","24.97498","6500600","新店區"
"231067","4772-VM","2019/07/29 20:19:40","新北市新店區安康路一段351-1號","121.519703333333","24.963835","6500600","新店區"
"231052","513-UM","2019/07/29 20:19:34","新北市新店區新烏路二段321號","121.549888333333","24.910945","6500600","新店區"
"231041","619-UM","2019/07/29 20:19:43","新北市新店區民權路63號","121.53919","24.98284","6500600","新店區"
"231063","641-BX","2019/07/29 20:19:48","新北市新店區車子路14號","121.50489","24.9540216666667","6500600","新店區"
"231047","KED-0819","2019/07/29 20:19:34","新北市新店區寶橋路88號","121.546546666667","24.9757633333333","6500600","新店區"
"231057","720-UM","2019/07/29 20:19:45","新北市新店區花園十路二段7-6號","121.55424","24.93445","6500600","新店區"
"231059","897-TW","2019/07/29 20:19:38","新北市新店區安德街64號","121.51061","24.9619816666667","6500600","新店區"
"231040","898-TW","2019/07/29 20:19:49","新北市新店區中正路106號","121.54309","24.9705583333333","6500600","新店區"
"231043","899-TW","2019/07/29 20:19:32","新北市新店區建國路131號","121.539473333333","24.9781166666667","6500600","新店區"
"231066","AKT-0513","2019/07/29 20:19:35","新北市新店區柴埕路22巷2號","121.513931666667","24.965805","6500600","新店區"
"241011","013-R5","2019/07/29 20:19:34","新北市三重區龍濱路287號","121.500903333333","25.07371","6500200","三重區"
"241028","022-UY","2019/07/29 20:19:35","新北市三重區大同南路128號","121.496376666667","25.0582183333333","6500200","三重區"
"241008","059-VK","2019/07/29 20:19:39","新北市三重區永福街209號","121.479833333333","25.074405","6500200","三重區"
"241031","061-VK","2019/07/29 20:19:41","新北市三重區三寧街22號","121.48955","25.0600866666667","6500200","三重區"
"241017","063-VK","2019/07/29 20:19:39","新北市三重區自強路一段157號","121.49347","25.0671266666667","6500200","三重區"
"241024","065-VK","2019/07/29 20:19:31","新北市三重區中正北路274號","121.48085","25.0684433333333","6500200","三重區"
"241001","066-VK","2019/07/29 20:19:33","新北市三重區溪尾街46-1號","121.490816666667","25.077185","6500200","三重區"
"241002","090-VK","2019/07/29 20:18:23","新北市三重區仁義街153號","121.497161666667","25.0809566666667","6500200","三重區"
"241003","091-VK","2019/07/29 20:19:36","新北市三重區富華街44號","121.490111666667","25.082815","6500200","三重區"
"241015","742-BX","2019/07/29 20:19:36","新北市三重區中央南路16號","121.501458333333","25.062825","6500200","三重區"
"241005","262-UM","2019/07/29 20:19:48","新北市三重區分子尾街76號","121.489196666667","25.081965","6500200","三重區"
"241016","266-UM","2019/07/29 20:19:37","新北市三重區信義西街138號","121.495371666667","25.0642983333333","6500200","三重區"
"241009","267-UM","2019/07/29 20:19:48","新北市三重區三和路四段364號","121.482966666667","25.0786816666667","6500200","三重區"
"241032","269-UM","2019/07/29 20:19:50","新北市三重區捷運路37巷20號","121.484165","25.0569633333333","6500200","三重區"
"241013","270-UM","2019/07/29 20:19:35","新北市三重區三和路三段163號","121.49196","25.07405","6500200","三重區"
"241025","271-UM","2019/07/29 20:19:41","新北市三重區三民街272巷22號","121.478686666667","25.0676933333333","6500200","三重區"
"241007","398-BY","2019/07/29 20:19:33","新北市三重區三和路四段117巷29號","121.486468333333","25.0779116666667","6500200","三重區"
"241030","KED-0822","2019/07/29 20:19:42","新北市三重區環河南路254巷55號","121.487941666667","25.0522916666667","6500200","三重區"
"241020","478-VK","2019/07/29 20:19:32","新北市三重區三和路三段170巷14號","121.492205","25.0728416666667","6500200","三重區"
"241026","480-VK","2019/07/29 20:19:32","新北市三重區中央南路134號","121.501986666667","25.0596066666667","6500200","三重區"
"241014","543-UM","2019/07/29 20:19:29","新北市三重區長榮路103號","121.503161666667","25.0692433333333","6500200","三重區"
"241023","545-UM","2019/07/29 20:19:47","新北市三重區忠孝路三段84巷1號","121.480371666667","25.0647566666667","6500200","三重區"
"241006","AAD-863","2019/07/29 20:19:48","新北市三重區車路頭街135-1號","121.484246666667","25.0761733333333","6500200","三重區"
"241022","KED-0820","2019/07/29 20:19:33","新北市三重區新北大道一段48號","121.48779","25.0614816666667","6500200","三重區"
"241019","887-TS","2019/07/29 20:19:39","新北市三重區忠孝路一段30巷58號","121.490498333333","25.0712216666667","6500200","三重區"
"241029","942-UM","2019/07/29 20:19:41","新北市三重區重安街98號","121.492601666667","25.05609","6500200","三重區"
"241033","AAC-255","2019/07/29 20:19:39","新北市三重區五谷王北街50巷31號","121.475315","25.0514916666667","6500200","三重區"
"235066","003-UY","2019/07/29 20:19:31","新北市中和區南工路116巷1號","121.507366666667","25.0036366666667","6500300","中和區"
"235039","097-UM","2019/07/29 20:19:47","新北市中和區大勇街29巷14號","121.515755","24.99473","6500300","中和區"
"235065","098-UM","2019/07/29 20:19:48","新北市中和區永和路369-3號","121.496461666667","25.005765","6500300","中和區"
"235055","183-VK","2019/07/29 20:18:46","新北市五股區中直路13-7號","121.42403","25.1107583333333","6500300","中和區"
"247014","KEA-2869","2019/07/29 20:19:39","新北市蘆洲區中山二路150號","121.471196666667","25.081285","6501400","蘆洲區"
"247008","KED-0682","2019/07/29 20:19:40","新北市蘆洲區集賢路236-2號","121.482113333333","25.0858766666667","6501400","蘆洲區"
"235050","4979-A6","2019/07/29 20:19:32","新北市中和區景平路221巷13號","121.510186666667","24.9921933333333","6500300","中和區"
"235069","4980-A6","2019/07/29 20:19:33","新北市中和區景平路479號","121.500335","24.9973433333333","6500300","中和區"
"235059","AAC-215","2019/07/29 20:19:52","新北市中和區圓通路391-3號","121.489926666667","24.989195","6500300","中和區"
"247018","546-UM","2019/07/29 20:19:37","新北市蘆洲區民族路257巷2號","121.476578333333","25.0905116666667","6501400","蘆洲區"
"247004","341-TH","2019/07/29 20:19:41","新北市蘆洲區長安街297號","121.457958333333","25.0848066666667","6501400","蘆洲區"
"247024","337-TH","2019/07/29 20:19:46","新北市蘆洲區光榮路120巷8弄39號","121.464615","25.0879","6501400","蘆洲區"
"247002","336-TH","2019/07/29 20:19:38","新北市蘆洲區長安街313巷18號","121.456173333333","25.0865183333333","6501400","蘆洲區"
"247022","057-VK","2019/07/29 20:19:32","新北市蘆洲區三民路251號","121.46845","25.0894033333333","6501400","蘆洲區"
"247012","056-VK","2019/07/29 20:19:32","新北市蘆洲區中興街24號","121.480698333333","25.086955","6501400","蘆洲區"
"247016","053-VK","2019/07/29 20:19:45","新北市蘆洲區光華路132巷39號","121.46581","25.083805","6501400","蘆洲區"
"247006","002-UY","2019/07/29 20:19:43","新北市蘆洲區九芎街136號","121.465073333333","25.0790633333333","6501400","蘆洲區"
"222001","KEA-2212","2019/07/29 20:19:38","新北市深坑區北深路三段253號","121.599215","25.0041833333333","6501800","深坑區"
"251009","008-UM","2019/07/29 20:19:39","新北市淡水區中山路46-1號","121.444248333333","25.17024","6501000","淡水區"
"251005","010-UM","2019/07/29 20:18:41","新北市淡水區淡金路二段270-1號","121.447015","25.18894","6501000","淡水區"
"251001","011-UM","2019/07/29 20:19:43","新北市淡水區淡金路二段15號","121.44644","25.1892833333333","6501000","淡水區"
"251002","012-UM","2019/07/29 20:19:34","新北市淡水區中正路177號","121.438658333333","25.1712683333333","6501000","淡水區"
"251015","KEA-2871","2019/07/29 20:19:49","新北市淡水區商工路141號","121.447176666667","25.1882933333333","6501000","淡水區"
"251016","179-VK","2019/07/29 20:19:44","新北市淡水區淡金路五段20號","121.452788333333","25.2322033333333","6501000","淡水區"
"251008","181-VK","2019/07/29 20:19:35","新北市淡水區淡海路156號","121.421563333333","25.1833933333333","6501000","淡水區"
"251013","182-VK","2019/07/29 20:19:40","新北市淡水區相公山1-3號","121.47416","25.2066633333333","6501000","淡水區"
"243009","549-UM","2019/07/29 20:19:30","新北市泰山區明志路一段247號","121.432326666667","25.0604666666667","6501600","泰山區"
"251012","441-VK","2019/07/29 20:19:41","新北市淡水區下圭柔山431-1號","121.449841666667","25.210205","6501000","淡水區"
"251006","561-UM","2019/07/29 20:19:50","新北市淡水區北新路141巷80弄28號","121.448248333333","25.1801866666667","6501000","淡水區"
"251014","577-R6","2019/07/29 20:19:47","新北市淡水區石頭厝2號","121.458276666667","25.2356183333333","6501000","淡水區"
"251003","673-BX","2019/07/29 20:19:35","新北市淡水區中山北路一段229號","121.444468333333","25.1795283333333","6501000","淡水區"
"251010","766-UM","2019/07/29 20:19:48","新北市淡水區中正路二段301號","121.42605","25.19051","6501000","淡水區"
"207004","681-TV","2019/07/29 20:19:46","新北市萬里區北基里大仁路2號","121.681836666667","25.1752266666667","6502800","萬里區"
"207003","550-UM","2019/07/29 20:19:46","新北市萬里區野柳里八斗60號","121.668993333333","25.202975","6502800","萬里區"
"252002","178-VK","2019/07/29 20:19:48","新北市三芝區中正路一段25號","121.503011666667","25.2585966666667","6502100","三芝區"
"237012","275-BY","2019/07/29 20:19:47","新北市三峽區中華路74-5號","121.371575","24.9292583333333","6500900","三峽區"
"237006","5529-G3","2019/07/29 20:19:34","新北市三峽區中正路二段41號","121.36673","24.91885","6500900","三峽區"
"237005","AKY-6261","2019/07/29 20:19:39","新北市三峽區三樹路98巷74弄91號","121.385058333333","24.93845","6500900","三峽區"
"236030","253-BX","2019/07/29 20:19:42","新北市土城區中央路一段45巷2弄1號","121.448481666667","24.9903283333333","6501300","土城區"
"236026","269-VK","2019/07/29 20:19:50","新北市土城區中央路一段249巷24號","121.446426666667","24.9853033333333","6501300","土城區"
"236014","270-VK","2019/07/29 20:19:44","新北市板橋區信義路26巷18號","121.456136666667","24.9949916666667","6501300","土城區"
"247010","KED-0683","2019/07/29 20:19:42","新北市蘆洲區信義路188巷18弄1號","121.48046","25.0845766666667","6501400","蘆洲區"
"236069","KEA-2877","2019/07/29 20:19:45","新北市土城區中山路34號","121.425095","24.9640516666667","6501300","土城區"
"252001","KED-0821","2019/07/29 20:19:32","新北市三芝區中山路一段14號","121.50071","25.258005","6502100","三芝區"
"236059","912-UM","2019/07/29 20:19:42","新北市土城區大安路101-5號","121.433491666667","24.9686766666667","6501300","土城區"
"242039","AAC-296","2019/07/29 20:19:43","新北市新莊區成功街83巷1號","121.424491666667","25.0194133333333","6500500","新莊區"
"242060","986-R7","2019/07/29 20:19:35","新北市新莊區新樹路172-13號","121.434608333333","25.0216883333333","6500500","新莊區"
"242002","751-BX","2019/07/29 20:19:30","新北市新莊區化成路102號","121.465291666667","25.0441683333333","6500500","新莊區"
"242029","615-BX","2019/07/29 20:19:38","新北市新莊區中華路二段183號","121.45245","25.0522416666667","6500500","新莊區"
"242058","612-BX","2019/07/29 20:19:43","新北市新莊區龍安路278巷16號","121.421956666667","25.0186516666667","6500500","新莊區"
"242050","497-BY","2019/07/29 20:19:43","新北市新莊區民安西路212巷1弄3號","121.425646666667","25.01468","6500500","新莊區"
"242046","442-UM","2019/07/29 20:19:39","新北市新莊區中正路新生巷43號","121.417513333333","25.0233666666667","6500500","新莊區"
"242056","441-UM","2019/07/29 20:19:40","新北市新莊區新莊路649巷15弄1號","121.444953333333","25.03158","6500500","新莊區"
"242004","440-UM","2019/07/29 20:19:39","新北市新莊區頭前路2巷5號","121.468376666667","25.0529266666667","6500500","新莊區"
"242042","415-TV","2019/07/29 20:19:31","新北市新莊區壽山路73號","121.409586666667","25.0326133333333","6500500","新莊區"
"242011","413-TV","2019/07/29 20:19:42","新北市新莊區中信街37巷1弄1號","121.450361666667","25.0505316666667","6500500","新莊區"
"242048","400-BY","2019/07/29 20:19:41","新北市新莊區四維路212巷2號","121.42114","25.02026","6500500","新莊區"
"242025","362-BY","2019/07/29 20:19:43","新北市新莊區五工三路70巷22號","121.460003333333","25.0654616666667","6500500","新莊區"
"242023","353-BY","2019/07/29 20:19:37","新北市新莊區化成路704號","121.465818333333","25.0565916666667","6500500","新莊區"
"242013","132-UY","2019/07/29 20:19:32","新北市新莊區幸福路710巷1弄10號","121.449218333333","25.0496666666667","6500500","新莊區"
"242036","135-UY","2019/07/29 20:19:43","新北市新莊區建安街62巷1弄12號","121.42645","25.0245866666667","6500500","新莊區"
"242053","172-VK","2019/07/29 20:19:40","新北市新莊區民安西路245巷8號","121.426566666667","25.013585","6500500","新莊區"
"242015","173-VK","2019/07/29 20:19:42","新北市新莊區中和街31巷22號","121.447198333333","25.0439116666667","6500500","新莊區"
"242021","175-VK","2019/07/29 20:19:33","新北市新莊區復興路一段7號","121.445635","25.0415916666667","6500500","新莊區"
"242019","KED-0687","2019/07/29 20:19:44","新北市新莊區復興路二段107號","121.456143333333","25.0443466666667","6500500","新莊區"
"242034","348-TH","2019/07/29 20:19:35","新北市新莊區仁愛街56號","121.44444","25.0370666666667","6500500","新莊區"
"242007","349-TH","2019/07/29 20:19:43","新北市新莊區福壽街124巷41弄8號","121.45931","25.0515666666667","6500500","新莊區"
"242031","350-TH","2019/07/29 20:19:49","新北市新莊區義豐街35-1號","121.441186666667","25.0352983333333","6500500","新莊區"
"242017","351-TH","2019/07/29 20:19:46","新北市新莊區中港一街93號","121.449308333333","25.0452816666667","6500500","新莊區"
"221008","489-VK","2019/07/29 20:19:43","新北市汐止區忠三街9巷32號","121.624536666667","25.0802583333333","6501100","汐止區"
"221036","130-UY","2019/07/29 20:19:37","新北市汐止區仁愛路152巷11號","121.664411666667","25.0642266666667","6501100","汐止區"
"221015","131-UY","2019/07/29 20:19:36","新北市汐止區建成路142巷19弄11號","121.66199","25.0739383333333","6501100","汐止區"
"221010","269-BY","2019/07/29 20:19:50","新北市汐止區八連路一段198巷2號","121.643026666667","25.0820416666667","6501100","汐止區"
"221012","278-VK","2019/07/29 20:19:31","新北市汐止區汐平路一段51號","121.682213333333","25.070515","6501100","汐止區"
"221023","279-VK","2019/07/29 20:19:46","新北市汐止區明峰街298巷7弄2號","121.624878333333","25.0690516666667","6501100","汐止區"
"221032","280-BY","2019/07/29 20:19:31","新北市汐止區弘道街47號","121.61818","25.0485316666667","6501100","汐止區"
"221027","281-BY","2019/07/29 20:19:41","新北市汐止區大同路二段353號","121.657001666667","25.067265","6501100","汐止區"
"221033","297-VK","2019/07/29 20:19:50","新北市汐止區東勢街215巷3弄3號","121.634011666667","25.0427733333333","6501100","汐止區"
"221029","298-VK","2019/07/29 20:14:18","新北市汐止區樟樹一路119巷17號","121.640843333333","25.0642683333333","6501100","汐止區"
"221021","299-VK","2019/07/29 20:19:40","新北市汐止區水源路一段280號","121.65419","25.0583533333333","6501100","汐止區"
"221035","622-UM","2019/07/29 20:19:51","新北市汐止區長江街57巷16號","121.65603","25.072055","6501100","汐止區"
"221025","623-UM","2019/07/29 20:19:31","新北市汐止區水源路二段34號","121.654888333333","25.0572216666667","6501100","汐止區"
"221038","646-BX","2019/07/29 20:19:49","新北市汐止區忠孝東路462巷36號","121.666553333333","25.074125","6501100","汐止區"
"221002","707-TV","2019/07/29 20:19:49","新北市汐止區福德三路26號","121.636865","25.0693633333333","6501100","汐止區"
"221018","753-BX","2019/07/29 20:19:52","新北市汐止區茄興街12號","121.673493333333","25.0671166666667","6501100","汐止區"
"220079","145-BY","2019/07/29 20:19:39","新北市板橋區中正路185號","121.456516666667","25.0166883333333","6500100","板橋區"
"220080","200-UY","2019/07/29 20:19:38","新北市板橋區大觀路二段205號","121.444781666667","24.999395","6500100","板橋區"
"220082","610-BX","2019/07/29 20:19:48","新北市板橋區大觀路三段100號","121.432648333333","24.9945666666667","6500100","板橋區"
"224002","257-TC","2019/07/29 20:19:42","新北市瑞芳區蛇子形路5號","121.825006666667","25.1042216666667","6501200","瑞芳區"
"220083","286-VK","2019/07/29 20:19:32","新北市板橋區僑中二街92巷1號","121.446213333333","25.0088933333333","6500100","板橋區"
"220081","287-VK","2019/07/29 20:19:38","新北市板橋區僑中一街124巷20弄46號","121.448201666667","25.0137066666667","6500100","板橋區"
"220061","293-UM","2019/07/29 20:19:49","新北市板橋區四川路一段286巷22號","121.457978333333","25.00119","6500100","板橋區"
"220106","295-UM","2019/07/29 20:19:48","新北市板橋區民治街135號","121.477728333333","25.03065","6500100","板橋區"
"242044","281-VK","2019/07/29 20:19:35","新北市新莊區中正路893巷38號","121.413998333333","25.0208516666667","6500500","新莊區"
"242009","280-VK","2019/07/29 20:19:51","新北市新莊區昌平街7號","121.454775","25.0516133333333","6500500","新莊區"
"220035","560-BX","2019/07/29 20:19:45","新北市板橋區新生街50號","121.456798333333","25.0210533333333","6500100","板橋區"
"220054","741-BX","2019/07/29 19:51:24","新北市板橋區重慶路155巷19號","121.463023333333","25.0039416666667","6500100","板橋區"
"220055","827-TW","2019/07/29 20:19:45","新北市板橋區仁愛路23號","121.458931666667","24.999435","6500100","板橋區"
"220074","895-R6","2019/07/29 20:19:46","新北市板橋區館前西路116號","121.456836666667","25.007535","6500100","板橋區"
"235068","KEA-2873","2019/07/29 20:19:41","新北市中和區勝利路35巷1弄8號","121.499301666667","25.007485","6500300","中和區"
