"lineid","car","time","location","longitude","latitude","cityid","cityname"
"234038","336-UY","2019/07/29 20:49:45","新北市新店區安康路二段320巷6號","121.504676666667","24.9598533333333","6500400","永和區"
"234086","338-UY","2019/07/29 20:49:32","新北市永和區光復街26-1號","121.516595","25.0173766666667","6500400","永和區"
"234042","862-TW","2019/07/29 20:49:41","台北市文山區景文街146巷26號","121.533285","24.9919683333333","6500400","永和區"
"249004","303-UY","2019/07/29 20:49:35","新北市八里區中山路一段63號","121.418351666667","25.159375","6502300","八里區"
"234074","AAC-211","2019/07/29 20:49:34","新北市永和區環河東路二段30號","121.52253","25.0127033333333","6500400","永和區"
"222003","436-BY","2019/07/29 20:49:50","新北市深坑區阿柔洋40號","121.610298333333","24.99849","6501800","深坑區"
"222002","659-BX","2019/07/29 20:49:33","新北市深坑區北深路三段93巷73號","121.60344","25.001175","6501800","深坑區"
"231061","002-UM","2019/07/29 20:49:47","新北市新店區新和街101號","121.52133","24.9867233333333","6500600","新店區"
"231058","0293-UT","2019/07/29 20:49:36","新北市新店區平等街33號","121.536593333333","24.9735333333333","6500600","新店區"
"231044","046-UY","2019/07/29 20:49:53","新北市新店區中正路441號","121.534028333333","24.9785616666667","6500600","新店區"
"231060","106-UY","2019/07/29 20:49:38","新北市新店區安康路三段740號","121.47378","24.9419883333333","6500600","新店區"
"231051","107-UY","2019/07/29 20:49:36","新北市新店區民生路156巷112號","121.526881666667","24.9825583333333","6500600","新店區"
"231049","108-UY","2019/07/29 20:49:35","新北市新店區永業路81巷1弄6號","121.5299","24.9498816666667","6500600","新店區"
"231065","110-UY","2019/07/29 20:49:13","新北市新店區安祥路104巷6弄42號","121.483156666667","24.9635066666667","6500600","新店區"
"231068","187-VK","2019/07/29 20:49:39","新北市新店區中興路三段228巷28號","121.544773333333","24.983475","6500600","新店區"
"231062","256-BX","2019/07/29 20:49:33","新北市新店區和成街14巷2號","121.487926666667","24.9475516666667","6500600","新店區"
"231054","260-TV","2019/07/29 20:49:39","新北市新店區五峰路24號","121.543671666667","24.9690866666667","6500600","新店區"
"231042","268-BY","2019/07/29 20:49:51","新北市新店區寶高路102巷9號","121.553533333333","24.9739366666667","6500600","新店區"
"231064","278-BY","2019/07/29 20:49:47","新北市新店區安民街365巷3號","121.516225","24.9756933333333","6500600","新店區"
"231050","AAD-862","2019/07/29 20:49:40","新北市新店區三民路73號","121.536121666667","24.9714833333333","6500600","新店區"
"231045","355-BY","2019/07/29 20:49:52","新北市新店區中興路一段216號","121.543821666667","24.9658033333333","6500600","新店區"
"231067","4772-VM","2019/07/29 20:49:40","新北市新店區安德街72號","121.510418333333","24.961685","6500600","新店區"
"231052","513-UM","2019/07/29 20:49:34","新北市新店區屈尺路2號","121.549421666667","24.9224683333333","6500600","新店區"
"231041","619-UM","2019/07/29 20:49:43","新北市新店區中正路700巷1號","121.533858333333","24.991195","6500600","新店區"
"231063","641-BX","2019/07/29 20:49:48","新北市新店區如意街10號","121.49473","24.9483683333333","6500600","新店區"
"231047","KED-0819","2019/07/29 20:49:34","新北市新店區文化路92號","121.544905","24.98249","6500600","新店區"
"231057","720-UM","2019/07/29 20:49:39","新北市新店區新烏路一段105巷6號","121.546021666667","24.9408366666667","6500600","新店區"
"231059","897-TW","2019/07/29 20:49:38","新北市新店區僑愛七路33號","121.501095","24.9445016666667","6500600","新店區"
"231040","898-TW","2019/07/29 20:49:49","新北市新店區中正路266號","121.539066666667","24.973505","6500600","新店區"
"231043","899-TW","2019/07/29 20:49:42","新北市新店區建國路97巷2號","121.5404","24.976955","6500600","新店區"
"231066","AKT-0513","2019/07/29 20:49:35","新北市新店區安興路69號","121.515645","24.9746283333333","6500600","新店區"
"241011","013-R5","2019/07/29 20:49:34","新北市三重區河邊北街138號","121.503333333333","25.072045","6500200","三重區"
"241028","022-UY","2019/07/29 20:49:35","新北市三重區中正南路54號","121.494036666667","25.05988","6500200","三重區"
"241008","059-VK","2019/07/29 20:49:39","新北市三重區永福街72巷11號","121.479378333333","25.0768616666667","6500200","三重區"
"241031","061-VK","2019/07/29 20:49:38","新北市三重區重陽路一段113巷2弄2號","121.487556666667","25.0599783333333","6500200","三重區"
"241017","063-VK","2019/07/29 20:49:39","新北市三重區自強路一段272號","121.492143333333","25.06771","6500200","三重區"
"241024","065-VK","2019/07/29 20:49:31","新北市三重區忠孝路三段1號","121.481938333333","25.0677616666667","6500200","三重區"
"241001","066-VK","2019/07/29 20:49:53","新北市三重區三和路四段118巷2號","121.488905","25.07476","6500200","三重區"
"241002","090-VK","2019/07/29 20:49:43","新北市三重區仁義街157巷53號","121.498378333333","25.08162","6500200","三重區"
"241003","091-VK","2019/07/29 20:49:36","新北市三重區集賢路87-1號","121.493661666667","25.0868633333333","6500200","三重區"
"241015","742-BX","2019/07/29 20:49:36","新北市三重區三和路二段172號","121.499063333333","25.0687083333333","6500200","三重區"
"241005","262-UM","2019/07/29 20:49:48","新北市三重區碧華街412號","121.491973333333","25.0852116666667","6500200","三重區"
"241016","266-UM","2019/07/29 20:49:37","新北市三重區自強路一段230號","121.493558333333","25.0669233333333","6500200","三重區"
"241009","267-UM","2019/07/29 20:49:48","新北市三重區三和路四段388-2號","121.482001666667","25.079225","6500200","三重區"
"241032","269-UM","2019/07/29 20:49:30","新北市三重區三光街32號","121.484696666667","25.0606716666667","6500200","三重區"
"241013","270-UM","2019/07/29 20:49:35","新北市三重區仁愛街119號","121.495318333333","25.0745733333333","6500200","三重區"
"241025","271-UM","2019/07/29 20:49:41","新北市三重區新北大道一段148號","121.484296666667","25.061865","6500200","三重區"
"241007","398-BY","2019/07/29 20:49:33","新北市三重區三和路四段111-2號","121.485753333333","25.0771883333333","6500200","三重區"
"241030","KED-0822","2019/07/29 20:49:42","新北市三重區環河南路221巷8號","121.492005","25.0521933333333","6500200","三重區"
"241020","478-VK","2019/07/29 20:49:52","新北市三重區忠孝路一段101號","121.489538333333","25.07222","6500200","三重區"
"241026","480-VK","2019/07/29 20:49:32","新北市三重區文化南路8號","121.500093333333","25.06242","6500200","三重區"
"241014","543-UM","2019/07/29 20:49:48","新北市三重區萬全街66號","121.501168333333","25.0701333333333","6500200","三重區"
"241023","545-UM","2019/07/29 20:49:47","新北市三重區忠孝路三段84巷1號","121.480321666667","25.0646733333333","6500200","三重區"
"241006","AAD-863","2019/07/29 20:49:48","新北市三重區車路頭街139巷12號","121.48421","25.0762383333333","6500200","三重區"
"241019","887-TS","2019/07/29 20:49:38","新北市三重區三張街21號","121.491885","25.07129","6500200","三重區"
"241029","942-UM","2019/07/29 20:49:41","新北市三重區重安街18號","121.49034","25.0580833333333","6500200","三重區"
"241033","AAC-255","2019/07/29 20:49:39","新北市三重區光復路二段1號","121.472305","25.0534316666667","6500200","三重區"
"235055","183-VK","2019/07/29 20:49:46","新北市三重區大有街25號","121.467733333333","25.064445","6500300","中和區"
"247014","KEA-2869","2019/07/29 20:49:41","新北市蘆洲區復興路30號","121.472306666667","25.0851183333333","6501400","蘆洲區"
"247008","KED-0682","2019/07/29 20:49:40","新北市三重區三和路四段420號","121.480675","25.0801266666667","6501400","蘆洲區"
"235069","4980-A6","2019/07/29 20:49:53","新北市中和區員山路381巷1弄6號","121.48066","25.0023516666667","6500300","中和區"
"247018","546-UM","2019/07/29 20:49:37","新北市蘆洲區民權路70號","121.47498","25.0873166666667","6501400","蘆洲區"
"247004","341-TH","2019/07/29 20:49:41","新北市蘆洲區長安街109號","121.461483333333","25.0808916666667","6501400","蘆洲區"
"247024","337-TH","2019/07/29 20:49:46","新北市蘆洲區長樂路136號","121.46229","25.0901333333333","6501400","蘆洲區"
"247002","336-TH","2019/07/29 20:49:38","新北市蘆洲區永康街118號","121.458013333333","25.0851816666667","6501400","蘆洲區"
"247022","057-VK","2019/07/29 20:49:32","新北市蘆洲區水湳街36-7號","121.471173333333","25.0897766666667","6501400","蘆洲區"
"247012","056-VK","2019/07/29 20:49:32","新北市三重區集賢路186號","121.48407","25.0883333333333","6501400","蘆洲區"
"247016","053-VK","2019/07/29 20:49:45","新北市蘆洲區中正路71號","121.470403333333","25.0828666666667","6501400","蘆洲區"
"247006","002-UY","2019/07/29 20:49:43","新北市蘆洲區永安南路二段16巷5號","121.467738333333","25.0771666666667","6501400","蘆洲區"
"222001","KEA-2212","2019/07/29 20:49:38","新北市深坑區北深路三段129號","121.604245","25.0025383333333","6501800","深坑區"
"251005","010-UM","2019/07/29 20:49:41","新北市淡水區鄧公路9號","121.448976666667","25.1704983333333","6501000","淡水區"
"251001","011-UM","2019/07/29 20:49:48","新北市淡水區淡金路65號","121.456075","25.1615016666667","6501000","淡水區"
"251002","012-UM","2019/07/29 20:49:34","新北市淡水區鼻頭街18-1號","121.446821666667","25.1666983333333","6501000","淡水區"
"251015","KEA-2871","2019/07/29 20:49:49","新北市淡水區淡金路四段81號","121.450086666667","25.2182916666667","6501000","淡水區"
"251016","179-VK","2019/07/29 20:49:44","新北市淡水區興仁路160號","121.451506666667","25.220335","6501000","淡水區"
"251008","181-VK","2019/07/29 20:49:34","新北市淡水區崁頂里77號","121.43018","25.203175","6501000","淡水區"
"251013","182-VK","2019/07/29 20:49:40","新北市淡水區埤島41號","121.451941666667","25.197665","6501000","淡水區"
"251012","441-VK","2019/07/29 20:49:41","新北市淡水區興仁路162號","121.451606666667","25.2208516666667","6501000","淡水區"
"251007","442-VK","2019/07/29 20:49:47","新北市淡水區鄧公路29巷22號","121.452578333333","25.1702416666667","6501000","淡水區"
"251006","561-UM","2019/07/29 20:49:35","新北市淡水區新市一路一段103號","121.431023333333","25.1867983333333","6501000","淡水區"
"251014","577-R6","2019/07/29 20:49:41","新北市淡水區公埔子32-8號","121.461646666667","25.2323616666667","6501000","淡水區"
"251011","650-BX","2019/07/29 20:49:34","新北市淡水區新市一路一段281巷206號","121.434673333333","25.1874366666667","6501000","淡水區"
"251003","673-BX","2019/07/29 20:49:35","新北市淡水區中山北路一段247巷106號","121.442003333333","25.179485","6501000","淡水區"
"251010","766-UM","2019/07/29 20:49:48","新北市淡水區沙崙路126號","121.423536666667","25.1828766666667","6501000","淡水區"
"247010","KED-0683","2019/07/29 20:49:42","新北市蘆洲區鷺江街72號","121.477066666667","25.083755","6501400","蘆洲區"
"242039","AAC-296","2019/07/29 20:49:43","新北市新莊區瓊林路59-38號","121.441226666667","25.0235333333333","6500500","新莊區"
"242002","751-BX","2019/07/29 20:49:42","新北市新莊區中港路61號","121.455303333333","25.0384266666667","6500500","新莊區"
"242029","615-BX","2019/07/29 20:49:38","新北市新莊區新北大道四段209號","121.444278333333","25.05663","6500500","新莊區"
"242058","612-BX","2019/07/29 20:49:43","新北市新莊區後港一路154號","121.429983333333","25.02742","6500500","新莊區"
"242050","497-BY","2019/07/29 20:49:52","新北市新莊區民安西路67號","121.427301666667","25.02009","6500500","新莊區"
"242056","441-UM","2019/07/29 20:49:40","新北市五股區新五路二段2巷2-1號","121.438278333333","25.0653416666667","6500500","新莊區"
"242042","415-TV","2019/07/29 20:49:31","新北市新莊區天祥街39號","121.417011666667","25.02869","6500500","新莊區"
"242011","413-TV","2019/07/29 20:49:42","新北市新莊區新北大道四段217號","121.443726666667","25.0571466666667","6500500","新莊區"
"242025","362-BY","2019/07/29 20:49:43","新北市三重區光復路二段129巷2號","121.47476","25.0593083333333","6500500","新莊區"
"242023","353-BY","2019/07/29 20:49:36","新北市新莊區化成路368號","121.465818333333","25.0496266666667","6500500","新莊區"
"242013","132-UY","2019/07/29 20:49:32","新北市新莊區中和街169號","121.447266666667","25.050375","6500500","新莊區"
"242036","135-UY","2019/07/29 20:49:42","新北市新莊區建安街10-1號","121.428573333333","25.026465","6500500","新莊區"
"242053","172-VK","2019/07/29 20:49:40","新北市新莊區新樹路268巷54-3號","121.42967","25.0155983333333","6500500","新莊區"
"242021","175-VK","2019/07/29 20:49:33","新北市五股區成泰路一段90號","121.437498333333","25.0693233333333","6500500","新莊區"
"242034","348-TH","2019/07/29 20:49:35","新北市新莊區中正路371號","121.446406666667","25.03484","6500500","新莊區"
"242007","349-TH","2019/07/29 20:49:42","新北市新莊區環河路116-1號","121.460703333333","25.0379166666667","6500500","新莊區"
"242031","350-TH","2019/07/29 20:49:49","新北市新莊區中正路508巷5弄2號","121.435038333333","25.03392","6500500","新莊區"
"221036","130-UY","2019/07/29 20:49:37","新北市汐止區新昌路62號","121.663346666667","25.0685866666667","6501100","汐止區"
"221015","131-UY","2019/07/29 20:49:36","新北市汐止區大同路二段649號","121.66475","25.0715283333333","6501100","汐止區"
"221012","278-VK","2019/07/29 20:49:50","新北市汐止區保新街21號","121.684195","25.073155","6501100","汐止區"
"221023","279-VK","2019/07/29 20:49:46","新北市汐止區民族二街7-1號","121.635086666667","25.07178","6501100","汐止區"
"221027","281-BY","2019/07/29 20:49:41","新北市汐止區水源路一段5號","121.657195","25.0669883333333","6501100","汐止區"
"221033","297-VK","2019/07/29 20:49:50","新北市汐止區合順街18巷8弄5號","121.62036","25.0418833333333","6501100","汐止區"
"221021","299-VK","2019/07/29 20:49:40","新北市汐止區莊敬街115號","121.65535","25.0610483333333","6501100","汐止區"
"221035","622-UM","2019/07/29 20:49:31","新北市汐止區長江街101-5號","121.658876666667","25.0732066666667","6501100","汐止區"
"221018","753-BX","2019/07/29 20:49:31","新北市汐止區茄苳路61號","121.666718333333","25.0707","6501100","汐止區"
"220083","286-VK","2019/07/29 20:49:52","新北市板橋區僑中二街116巷33號","121.444231666667","25.0065","6500100","板橋區"
"242044","281-VK","2019/07/29 20:49:35","新北市新莊區龍安路100號","121.418346666667","25.0205866666667","6500500","新莊區"
"242009","280-VK","2019/07/29 20:49:45","新北市新莊區幸福路511號","121.455736666667","25.0493483333333","6500500","新莊區"
