"lineid","car","time","location","longitude","latitude","cityid","cityname"
"231063","641-BX","2019/07/29 21:29:48","新北市新店區如意街50號","121.493421666667","24.9471466666667","6500600","新店區"
"241017","063-VK","2019/07/29 21:29:39","新北市三重區中正北路25巷2號","121.493166666667","25.062635","6500200","三重區"
"241024","065-VK","2019/07/29 21:29:51","新北市三重區中正北路145巷14號","121.484165","25.0678116666667","6500200","三重區"
"241003","091-VK","2019/07/29 21:29:36","新北市三重區進安街196號","121.493675","25.086285","6500200","三重區"
"241005","262-UM","2019/07/29 21:29:48","新北市三重區仁華街77號","121.485618333333","25.08294","6500200","三重區"
"241016","266-UM","2019/07/29 21:29:37","新北市三重區正義北路120號","121.496563333333","25.0653983333333","6500200","三重區"
"241007","398-BY","2019/07/29 21:29:53","新北市三重區信義西街51號","121.49518","25.0638016666667","6500200","三重區"
"247006","002-UY","2019/07/29 21:29:43","新北市蘆洲區環堤大道84號","121.45535","25.084575","6501400","蘆洲區"
"251009","008-UM","2019/07/29 21:29:39","新北市淡水區民族路29巷3弄10號","121.46368","25.1370033333333","6501000","淡水區"
"251004","009-UM","2019/07/29 21:29:54","新北市淡水區民族路2號","121.460396666667","25.136935","6501000","淡水區"
"251005","010-UM","2019/07/29 21:29:21","新北市淡水區長興街66號","121.444441666667","25.1720633333333","6501000","淡水區"
"251001","011-UM","2019/07/29 21:29:43","新北市淡水區濱海路三段148巷50弄76號","121.431373333333","25.1906333333333","6501000","淡水區"
"251002","012-UM","2019/07/29 21:29:34","新北市淡水區學府路172巷21號","121.44837","25.17486","6501000","淡水區"
"251016","179-VK","2019/07/29 21:29:44","新北市淡水區前洲子1號","121.445253333333","25.2178166666667","6501000","淡水區"
"251008","181-VK","2019/07/29 21:29:34","新北市淡水區水源街二段205號","121.457738333333","25.1762583333333","6501000","淡水區"
"251013","182-VK","2019/07/29 21:29:40","新北市淡水區埤島58-2號","121.45897","25.195085","6501000","淡水區"
"251012","443-VK","2019/07/29 21:29:44","新北市淡水區淡金路五段168號","121.45704","25.239375","6501000","淡水區"
"251006","561-UM","2019/07/29 21:29:43","新北市淡水區公明街55號","121.443533333333","25.1687433333333","6501000","淡水區"
"251014","577-R6","2019/07/29 21:29:41","新北市淡水區六塊厝2-1號","121.450175","25.2405283333333","6501000","淡水區"
"251011","650-BX","2019/07/29 21:29:54","新北市淡水區新民街164號","121.437096666667","25.178345","6501000","淡水區"
"251003","673-BX","2019/07/29 21:29:35","新北市淡水區新春街83號","121.4389","25.1824583333333","6501000","淡水區"
"251010","766-UM","2019/07/29 21:29:47","新北市淡水區沙崙路25巷21號","121.420535","25.1823983333333","6501000","淡水區"
