"lineid","car","time","location","longitude","latitude","cityid","cityname"
"241005","262-UM","2019/07/29 22:09:48","新北市八里區中山路三段409號","121.368625","25.1353583333333","6500200","三重區"
"251004","009-UM","2019/07/29 22:09:34","新北市淡水區民族路33號","121.462315","25.13582","6501000","淡水區"
"251005","010-UM","2019/07/29 22:09:41","新北市淡水區鄧公路19號","121.451486666667","25.1699766666667","6501000","淡水區"
"251008","181-VK","2019/07/29 22:09:54","新北市淡水區學府路104號","121.449878333333","25.171785","6501000","淡水區"
"251007","442-VK","2019/07/29 22:09:47","新北市淡水區北新路180號","121.449495","25.1786716666667","6501000","淡水區"
"251012","443-VK","2019/07/29 22:09:44","新北市淡水區淡金路三段161號","121.448648333333","25.202885","6501000","淡水區"
"251006","561-UM","2019/07/29 22:09:47","新北市淡水區新生街122-2號","121.440891666667","25.1746333333333","6501000","淡水區"
"251011","650-BX","2019/07/29 22:09:54","新北市淡水區水碓街7號","121.44317","25.17712","6501000","淡水區"
"251010","766-UM","2019/07/29 22:09:47","新北市淡水區沙崙路200號","121.42461","25.183895","6501000","淡水區"
