"lineid","car","time","location","longitude","latitude","cityid","cityname"
"232006","291-BY","2019/07/30 06:39:17","新北市坪林區北宜路八段558號","121.717833333333","24.9092816666667","6502000","坪林區"
"223006","022-BY","2019/07/30 06:39:24","新北市石碇區楓子林55-5號","121.642888333333","25.0080816666667","6501900","石碇區"
"223002","KEA-2673","2019/07/30 06:39:21","新北市石碇區碇坪路一段115號","121.66468","24.9878116666667","6501900","石碇區"
"223003","205-TH","2019/07/30 06:39:18","新北市石碇區小粗坑(潭邊里)5號","121.673156666667","24.98325","6501900","石碇區"
"223008","406-TH","2019/07/30 06:39:15","新北市石碇區碇坪路一段149號","121.676645","24.978485","6501900","石碇區"
"223007","661-BX","2019/07/30 06:39:28","新北市石碇區雙溪47-2號","121.651971666667","25.0067616666667","6501900","石碇區"
"227004","282-VK","2019/07/30 06:39:34","新北市雙溪區牡丹里中正路103號","121.861746666667","25.0473783333333","6502500","雙溪區"
