"lineid","car","time","location","longitude","latitude","cityid","cityname"
"244001","248-BX","2019/09/30 06:59:31","新北市林口區文化一路二段202號","121.383216666667","25.0807466666667","6501700","林口區"
"222004","289-BY","2019/09/30 06:59:31","新北市深坑區深坑街75號","121.614698333333","25.0012483333333","6501800","深坑區"
"227003","282-VK","2019/09/30 06:59:34","新北市雙溪區新基里自強路5號","121.866318333333","25.03908","6502500","雙溪區"
"252006","073-UM","2019/09/30 06:59:33","新北市三芝區埔坪里埔頭坑41號","121.50443","25.2644133333333","6502100","三芝區"
"220021","259-TC","2019/09/30 06:42:27","新北市板橋區華東街1-10號","121.448578333333","24.9948633333333","6500100","板橋區"
"220034","297-UM","2019/09/30 06:42:12","新北市板橋區華東街1-10號","121.448391666667","24.9949516666667","6500100","板橋區"
