"lineid","car","time","location","longitude","latitude","cityid","cityname"
"232017","290-BY","2019/11/18 08:25:56","新北市坪林區柑腳坑14號","121.773428333333","24.9476566666667","6502000","坪林區"
"232005","291-BY","2019/11/18 08:30:01","新北市坪林區鶯子瀨3-7號","121.705956666667","24.9141183333333","6502000","坪林區"
"232012","705-BZ","2019/11/18 08:29:46","新北市坪林區九芎根1號","121.673196666667","24.894175","6502000","坪林區"
"232001","758-BX","2019/11/18 08:29:54","新北市坪林區虎寮潭1號","121.74065","24.95184","6502000","坪林區"
"244006","080-UY","2019/11/18 08:29:46","新北市林口區林口路272巷23號","121.3869","25.084515","6501700","林口區"
"244001","248-BX","2019/11/18 08:29:51","新北市林口區下福里18鄰26號","121.310305","25.1117466666667","6501700","林口區"
"244018","402-UM","2019/11/18 08:29:51","新北市林口區公園路148號","121.371606666667","25.0718583333333","6501700","林口區"
"244012","KEA-2802","2019/11/18 08:29:47","新北市林口區中山路38號","121.3955","25.07832","6501700","林口區"
"244022","483-VK","2019/11/18 08:29:56","新北市林口區東明一街1巷12號","121.393435","25.072325","6501700","林口區"
"244016","485-VK","2019/11/18 08:29:56","新北市林口區文化二路一段230巷72號","121.371923333333","25.0726983333333","6501700","林口區"
"244008","656-BX","2019/11/18 08:29:48","新北市林口區文化一路二段217-2號","121.384276666667","25.0832466666667","6501700","林口區"
"244010","701-TV","2019/11/18 08:29:59","新北市林口區中正路190號","121.391591666667","25.07757","6501700","林口區"
"244024","837-TS","2019/11/18 08:29:56","新北市林口區文化三路一段125號","121.361456666667","25.0690516666667","6501700","林口區"
"244020","838-TS","2019/11/18 08:29:51","新北市林口區自強五街17號","121.39908","25.0762833333333","6501700","林口區"
"222004","289-BY","2019/11/18 08:29:49","新北市深坑區萬福路169-1號","121.613875","25.01462","6501800","深坑區"
"231007","189-VK","2019/11/18 08:29:45","新北市新店區新潭路一段165號","121.529476666667","24.93342","6500600","新店區"
"231008","192-VK","2019/11/18 08:29:48","新北市新店區新烏路三段165巷1號","121.553773333333","24.9011866666667","6500600","新店區"
"223003","205-TH","2019/11/18 08:29:42","新北市石碇區北宜路六段塗潭巷25號","121.649861666667","24.9337633333333","6501900","石碇區"
"223001","592-UM","2019/11/18 08:29:58","新北市石碇區北宜路六段塗潭巷53號","121.65239","24.9350283333333","6501900","石碇區"
"223004","660-BX","2019/11/18 08:29:57","新北市石碇區石碇東街12號","121.661823333333","24.99077","6501900","石碇區"
"223007","661-BX","2019/11/18 08:29:48","新北市石碇區靜安路一段105號","121.662775","25.00717","6501900","石碇區"
"223005","677-TV","2019/11/18 08:29:46","新北市石碇區石碇東街12號","121.661606666667","24.9908316666667","6501900","石碇區"
"227003","282-VK","2019/11/18 08:29:45","新北市雙溪區外柑里三叉坑4-2號","121.826348333333","25.0144566666667","6502500","雙溪區"
"252006","073-UM","2019/11/18 08:29:53","新北市三芝區後厝里番社后41-2號","121.47015","25.2434716666667","6502100","三芝區"
"252004","249-BX","2019/11/18 08:29:53","新北市三芝區興華里車埕3號","121.50119","25.2020483333333","6502100","三芝區"
"237013","760-BX","2019/11/18 08:30:01","新北市三峽區有木18-1號","121.426255","24.8619233333333","6500900","三峽區"
"242040","AAC-296","2019/11/18 08:29:49","新北市泰山區壽山路42號","121.420443333333","25.029095","6500500","新莊區"
"242059","986-R7","2019/11/18 08:29:58","新北市新莊區新樹路311號","121.433465","25.0193566666667","6500500","新莊區"
"242003","751-BX","2019/11/18 08:29:48","新北市新莊區自由街6號","121.455765","25.0478516666667","6500500","新莊區"
"242028","615-BX","2019/11/18 08:29:44","新北市新莊區中平路202號","121.44483","25.0487266666667","6500500","新莊區"
"242026","613-BX","2019/11/18 08:30:01","新北市新莊區思源路337號","121.459841666667","25.0498683333333","6500500","新莊區"
"242057","612-BX","2019/11/18 08:29:45","新北市新莊區雙鳳路134巷5號","121.412686666667","25.0280883333333","6500500","新莊區"
"242047","566-BX","2019/11/18 08:29:52","新北市新莊區萬安街47巷29號","121.422775","25.0241983333333","6500500","新莊區"
"242052","497-BY","2019/11/18 08:29:41","新北市新莊區民安西路468-1號","121.431665","25.0078966666667","6500500","新莊區"
"242012","442-UM","2019/11/18 08:29:59","新北市新莊區中泰街97號","121.448906666667","25.0465916666667","6500500","新莊區"
"242001","441-UM","2019/11/18 08:29:53","新北市新莊區新莊路104號","121.45629","25.0361","6500500","新莊區"
"242043","415-TV","2019/11/18 08:29:59","新北市新莊區雙鳳路137號","121.412848333333","25.027195","6500500","新莊區"
"242049","400-BY","2019/11/18 08:29:53","新北市新莊區民本街27巷17號","121.429185","25.0192016666667","6500500","新莊區"
"242024","362-BY","2019/11/18 08:29:57","新北市新莊區五權一路50號","121.457946666667","25.0659283333333","6500500","新莊區"
"242022","353-BY","2019/11/18 08:29:50","新北市新莊區幸福東路115號","121.461803333333","25.0494766666667","6500500","新莊區"
"242014","132-UY","2019/11/18 08:30:01","新北市新莊區新泰路502巷41弄18號","121.443761666667","25.0470533333333","6500500","新莊區"
"242038","135-UY","2019/11/18 08:29:51","新北市新莊區民安路296號","121.428145","25.0217683333333","6500500","新莊區"
"242055","172-VK","2019/11/18 08:29:49","新北市新莊區豐年街57-1號","121.446568333333","25.0298083333333","6500500","新莊區"
"242016","173-VK","2019/11/18 08:29:55","新北市新莊區永樂街146號","121.449191666667","25.0448066666667","6500500","新莊區"
"242030","175-VK","2019/11/18 08:29:56","新北市新莊區新泰路289巷4號","121.44519","25.0406533333333","6500500","新莊區"
"242006","346-TH","2019/11/18 08:29:50","新北市新莊區中華路二段36-1號","121.453925","25.0453966666667","6500500","新莊區"
"242020","347-TH","2019/11/18 08:29:58","新北市新莊區新興街37巷17號","121.450006666667","25.037715","6500500","新莊區"
"242035","348-TH","2019/11/18 08:29:57","新北市新莊區建福路48巷5號","121.426076666667","25.0275016666667","6500500","新莊區"
"242008","349-TH","2019/11/18 08:29:42","新北市新莊區中華路二段260號","121.452636666667","25.0531516666667","6500500","新莊區"
"242033","350-TH","2019/11/18 08:29:58","新北市新莊區福海街24巷5號","121.445701666667","25.0342183333333","6500500","新莊區"
"242018","351-TH","2019/11/18 08:29:54","新北市新莊區民樂街24號","121.457756666667","25.0406833333333","6500500","新莊區"
"242045","281-VK","2019/11/18 08:29:50","新北市新莊區福營路195巷24號","121.431885","25.02983","6500500","新莊區"
"242010","280-VK","2019/11/18 08:29:41","新北市新莊區中信街92號","121.44791","25.0534833333333","6500500","新莊區"
