"lineid","car","time","location","longitude","latitude","cityid","cityname"
"234044","148-BY","2019/11/18 12:59:29","新北市永和區得和路373巷31弄2號","121.525031666667","25.00051","6500400","永和區"
"234078","298-R6","2019/11/18 12:59:27","","121.520995","25.0059116666667","6500400","永和區"
"234036","336-UY","2019/11/18 12:59:23","新北市中和區秀朗路三段36巷2號","121.526503333333","24.996025","6500400","永和區"
"234062","337-UY","2019/11/18 12:59:26","新北市永和區秀朗路一段156號","121.518363333333","25.00334","6500400","永和區"
"234084","338-UY","2019/11/18 12:59:24","新北市永和區永寧街131巷1號","121.518051666667","25.005255","6500400","永和區"
"234068","552-UM","2019/11/18 12:59:18","新北市永和區中興街96號","121.5189","25.0120183333333","6500400","永和區"
"234015","745-BX","2019/11/18 12:59:19","新北市永和區永和路二段297號","121.51608","25.0160266666667","6500400","永和區"
"234028","746-BX","2019/11/18 12:59:17","新北市永和區得和路418號","121.526171666667","24.9989266666667","6500400","永和區"
"234052","KEA-2590","2019/11/18 12:59:29","新北市永和區竹林路64號","121.518258333333","25.01353","6500400","永和區"
"234005","KED-0605","2019/11/18 12:59:28","新北市永和區永和路二段50號","121.514898333333","25.0109016666667","6500400","永和區"
"234012","KEA-2591","2019/11/18 12:59:32","新北市永和區信義路17巷4號","121.514021666667","25.01187","6500400","永和區"
"234060","AAD-866","2019/11/18 12:59:12","新北市永和區福和路313號","121.516145","25.0072816666667","6500400","永和區"
"234040","862-TW","2019/11/18 12:59:31","新北市永和區永貞路267號","121.511791666667","25.0048416666667","6500400","永和區"
"234048","863-TW","2019/11/18 12:59:20","新北市永和區文化路151號","121.5107","25.016225","6500400","永和區"
"234025","9371-KE","2019/11/18 12:59:26","","121.512415","25.0054816666667","6500400","永和區"
"234010","9373-KE","2019/11/18 12:59:25","新北市永和區文化路113巷23弄11號","121.513555","25.0139733333333","6500400","永和區"
"248013","025-BX","2019/11/18 12:59:18","新北市五股區中興路三段192-10號","121.443028333333","25.0815916666667","6501500","五股區"
"248015","026-BX","2019/11/18 12:59:09","新北市五股區中興路二段37巷28號","121.460158333333","25.07502","6501500","五股區"
"248005","077-UY","2019/11/18 12:59:22","新北市五股區中興路二段147-1號","121.458271666667","25.077845","6501500","五股區"
"248007","KED-0815","2019/11/18 12:59:13","新北市五股區中興路二段163號","121.457703333333","25.0775416666667","6501500","五股區"
"248019","KED-0813","2019/11/18 12:59:19","新北市五股區中興路二段63巷17號","121.460228333333","25.07537","6501500","五股區"
"248003","677-BX","2019/11/18 12:59:19","新北市五股區中興路二段157巷11-1號","121.458045","25.0768066666667","6501500","五股區"
"248001","678-BX","2019/11/18 12:59:31","新北市五股區中興路二段83巷26-3號","121.460088333333","25.075665","6501500","五股區"
"248009","682-TV","2019/11/18 12:59:13","新北市五股區中興路二段83巷26-6號","121.459903333333","25.0750933333333","6501500","五股區"
"234022","9380-KE","2019/11/18 12:59:26","新北市永和區竹林路75巷35號","121.52059","25.0141733333333","6500400","永和區"
"234076","969-R7","2019/11/18 12:59:28","新北市永和區民享街5號","121.51514","24.995525","6500400","永和區"
"234066","AAC-212","2019/11/18 12:59:23","新北市永和區自由街70-8號","121.513515","25.0055116666667","6500400","永和區"
"234001","AAC-295","2019/11/18 12:59:29","新北市永和區永和路一段135巷2號","121.513856666667","25.008705","6500400","永和區"
"231029","106-UY","2019/11/18 12:59:10","新北市新店區安華路28-1號","121.51976","24.96086","6500600","新店區"
"231036","110-UY","2019/11/18 12:59:20","新北市新店區安一路一段1-1號","121.519366666667","24.9610683333333","6500600","新店區"
"231023","260-TV","2019/11/18 12:59:19","新北市新店區安一路一段1-1號","121.519655","24.9612666666667","6500600","新店區"
"231003","268-BY","2019/11/18 12:59:21","新北市新店區安一路一段1-1號","121.519765","24.9613516666667","6500600","新店區"
"231035","278-BY","2019/11/18 12:59:23","新北市新店區安一路一段1-1號","121.519731666667","24.961155","6500600","新店區"
"231019","513-UM","2019/11/18 12:59:15","新北市新店區安一路一段1-1號","121.519695","24.961115","6500600","新店區"
"231034","616-UM","2019/11/18 12:59:15","新北市新店區安華路1-1號","121.519473333333","24.9605116666667","6500600","新店區"
"231001","617-UM","2019/11/18 12:59:20","新北市新店區安華路28-1號","121.519391666667","24.9608083333333","6500600","新店區"
"231011","KED-0819","2019/11/18 12:59:12","新北市新店區安一路一段1-1號","121.51976","24.961305","6500600","新店區"
"231010","719-UM","2019/11/18 12:59:31","新北市新店區安一路一段1-1號","121.519621666667","24.961215","6500600","新店區"
"231026","720-UM","2019/11/18 12:59:31","新北市新店區安一路一段1-1號","121.519238333333","24.9613","6500600","新店區"
"231028","897-TW","2019/11/18 12:59:23","新北市新店區安華路28-1號","121.519743333333","24.96086","6500600","新店區"
"231004","899-TW","2019/11/18 12:59:29","新北市新店區安華路28-1號","121.519113333333","24.960845","6500600","新店區"
"235028","005-UY","2019/11/18 12:59:31","新北市中和區中正路277-6號","121.49516","24.9936533333333","6500300","中和區"
"235027","006-UY","2019/11/18 12:59:17","新北市中和區員山路36巷16-3號","121.485096666667","24.991365","6500300","中和區"
"235029","098-UM","2019/11/18 12:59:17","新北市中和區橋和路270號","121.495795","25.0065616666667","6500300","中和區"
"235022","151-BY","2019/11/18 12:59:28","新北市中和區圓通路367巷33弄61-1號","121.495976666667","24.985875","6500300","中和區"
"235031","255-BX","2019/11/18 12:59:28","新北市中和區中正路887號","121.484258333333","25.0043583333333","6500300","中和區"
"235006","KEA-2878","2019/11/18 12:59:19","新北市中和區中正路571巷1弄9號","121.487186666667","24.9934916666667","6500300","中和區"
"235034","558-UM","2019/11/18 12:57:45","新北市中和區和城路一段271巷1號","121.48559","24.99171","6500300","中和區"
"235009","565-BX","2019/11/18 12:59:25","","121.485458333333","24.9920533333333","6500300","中和區"
"235024","KED-0823","2019/11/18 12:59:25","新北市中和區員山路36巷16-2號","121.485405","24.9914316666667","6500300","中和區"
"235018","640-BX","2019/11/18 12:59:12","新北市土城區金城路三段259-1號","121.471965","24.99012","6500300","中和區"
"235035","647-TV","2019/11/18 12:59:30","新北市中和區民樂路71號","121.484213333333","25.0013166666667","6500300","中和區"
"235026","800-TS","2019/11/18 12:59:29","新北市中和區錦和路65號","121.489318333333","24.998315","6500300","中和區"
"235021","801-TS","2019/11/18 12:59:13","新北市中和區連城路525-8號","121.48091","24.9949033333333","6500300","中和區"
"235016","805-TS","2019/11/18 12:59:25","新北市中和區員山路36巷16-3號","121.48502","24.991125","6500300","中和區"
"235002","911-UM","2019/11/18 12:59:27","新北市中和區秀朗路三段10巷14弄24-3號","121.52506","24.997175","6500300","中和區"
"235015","157-BY","2019/11/18 12:59:27","新北市中和區中正路521號","121.48819","24.9935266666667","6500300","中和區"
"235001","AAC-213","2019/11/18 12:59:18","新北市中和區景平路149號","121.513896666667","24.99212","6500300","中和區"
"235023","AAC-215","2019/11/18 12:59:21","新北市中和區員山路36巷16-3號","121.484935","24.9911216666667","6500300","中和區"
"253004","6251-TK","2019/11/18 12:59:15","新北市石門區中山路64-1號","121.56769","25.2903683333333","6502200","石門區"
"253001","KEC-0718","2019/11/18 12:59:16","新北市石門區中山路33號","121.566963333333","25.2910583333333","6502200","石門區"
"207002","749-BX","2019/11/18 12:59:14","新北市萬里區雙興里大坪路27號","121.635418333333","25.1685133333333","6502800","萬里區"
"252005","073-UM","2019/11/18 12:59:12","新北市三芝區埔坪里埔頭坑41號","121.5046","25.2644683333333","6502100","三芝區"
"207001","662-BX","2019/11/18 12:59:24","新北市萬里區萬里里獅頭路22-1號","121.692896666667","25.1781933333333","6502800","萬里區"
"237013","760-BX","2019/11/18 12:59:09","新北市三峽區中山路459巷135號","121.349226666667","24.9329716666667","6500900","三峽區"
"220021","985-R7","2019/11/18 12:59:20","新北市板橋區華東街1-10號","121.448376666667","24.9950333333333","6500100","板橋區"
"235032","KEA-2873","2019/11/18 12:59:28","新北市中和區員山路36巷16-3號","121.485031666667","24.99133","6500300","中和區"
"235025","KEA-2875","2019/11/18 12:59:06","新北市土城區金城路三段257號","121.471843333333","24.990025","6500300","中和區"
