"lineid","car","time","location","longitude","latitude","cityid","cityname"
"234044","148-BY","2019/11/18 13:29:29","新北市永和區秀朗路二段178號","121.526343333333","25.0012083333333","6500400","永和區"
"234078","298-R6","2019/11/18 13:29:27","新北市永和區環河東路三段60號","121.526801666667","25.0058116666667","6500400","永和區"
"234036","336-UY","2019/11/18 13:29:23","新北市永和區民樂街30巷1號","121.527553333333","25.0010983333333","6500400","永和區"
"234062","337-UY","2019/11/18 13:29:26","新北市永和區得和路243巷26號","121.520821666667","25.0010916666667","6500400","永和區"
"234084","338-UY","2019/11/18 13:29:16","新北市永和區國中路2號","121.524136666667","25.0041783333333","6500400","永和區"
"234068","552-UM","2019/11/18 13:29:18","新北市永和區竹林路182號","121.520428333333","25.0097566666667","6500400","永和區"
"234015","745-BX","2019/11/18 13:29:31","新北市永和區環河西路一段51巷1號","121.514341666667","25.0181433333333","6500400","永和區"
"234028","746-BX","2019/11/18 13:29:17","新北市永和區民族街81巷62號","121.520503333333","24.9963033333333","6500400","永和區"
"234052","KEA-2590","2019/11/18 13:29:30","新北市永和區復興街5號","121.515753333333","25.01287","6500400","永和區"
"234005","KED-0605","2019/11/18 13:29:28","新北市永和區永貞路375號","121.508225","25.008295","6500400","永和區"
"234012","KEA-2591","2019/11/18 13:29:12","新北市永和區永和路二段96號","121.514988333333","25.0117416666667","6500400","永和區"
"234060","AAD-866","2019/11/18 13:29:12","新北市永和區中正路548-1號","121.517213333333","25.0054416666667","6500400","永和區"
"234040","862-TW","2019/11/18 13:29:11","新北市永和區中和路519巷10號","121.51096","25.003155","6500400","永和區"
"234048","863-TW","2019/11/18 13:29:20","新北市永和區信義路126-1號","121.512383333333","25.0151616666667","6500400","永和區"
"234025","9371-KE","2019/11/18 13:29:26","新北市永和區中山路一段17巷4弄16號","121.513086666667","25.0101766666667","6500400","永和區"
"234010","9373-KE","2019/11/18 13:29:22","新北市永和區仁愛路141巷30弄5號","121.511893333333","25.011645","6500400","永和區"
"248013","025-BX","2019/11/18 13:29:18","新北市五股區成泰路一段106-1號","121.435701666667","25.0720433333333","6501500","五股區"
"248015","026-BX","2019/11/18 13:29:29","新北市五股區凌雲路一段83巷1-4號","121.450485","25.1008716666667","6501500","五股區"
"248005","077-UY","2019/11/18 13:29:25","新北市五股區中興路一段38號","121.468368333333","25.0725883333333","6501500","五股區"
"248007","KED-0815","2019/11/18 13:29:13","新北市五股區中興路二段78-5號","121.461378333333","25.07862","6501500","五股區"
"248019","KED-0813","2019/11/18 13:29:19","新北市五股區孝義路70-1號","121.452276666667","25.1134066666667","6501500","五股區"
"248011","247-BX","2019/11/18 13:29:24","新北市五股區御史路34號","121.442111666667","25.0934166666667","6501500","五股區"
"248003","677-BX","2019/11/18 13:29:18","新北市五股區民義路一段206號","121.430395","25.08905","6501500","五股區"
"248001","678-BX","2019/11/18 13:29:11","新北市五股區西雲路163號","121.446151666667","25.0943416666667","6501500","五股區"
"248009","682-TV","2019/11/18 13:29:13","新北市五股區明德路10號","121.433355","25.0717716666667","6501500","五股區"
"234022","9380-KE","2019/11/18 13:29:26","新北市永和區竹林路91巷44弄6-1號","121.521535","25.0127116666667","6500400","永和區"
"234076","969-R7","2019/11/18 13:29:28","新北市永和區智光街28號","121.517875","24.9989233333333","6500400","永和區"
"234072","AAC-211","2019/11/18 13:29:19","新北市永和區永和路二段243號","121.515745","25.01467","6500400","永和區"
"234066","AAC-212","2019/11/18 13:29:23","新北市永和區保平路125號","121.510615","25.0064483333333","6500400","永和區"
"234001","AAC-295","2019/11/18 13:29:29","新北市永和區保平路14號","121.512673333333","25.0075683333333","6500400","永和區"
"244001","248-BX","2019/11/18 13:29:27","新北市林口區瑞平里12鄰40-1號","121.33642","25.1180016666667","6501700","林口區"
"243003","KEA-2216","2019/11/18 13:29:27","新北市泰山區公園路54號","121.427775","25.0549766666667","6501600","泰山區"
"231030","002-UM","2019/11/18 13:29:16","新北市新店區安華路28-1號","121.519648333333","24.9608583333333","6500600","新店區"
"231024","0291-UT","2019/11/18 13:29:27","新北市新店區中正路128巷11號","121.542643333333","24.9720733333333","6500600","新店區"
"231005","046-UY","2019/11/18 13:29:16","新北市新店區安康路一段46巷16號","121.531338333333","24.9613916666667","6500600","新店區"
"231029","106-UY","2019/11/18 13:29:10","新北市新店區安忠路57巷13號","121.513353333333","24.95742","6500600","新店區"
"231018","107-UY","2019/11/18 13:29:28","新北市新店區中央路91號","121.53197","24.975955","6500600","新店區"
"231013","108-UY","2019/11/18 13:29:26","新北市新店區中央路210-1號","121.530113333333","24.9735566666667","6500600","新店區"
"231036","110-UY","2019/11/18 13:29:20","新北市新店區安祥路190巷33號","121.477678333333","24.9560083333333","6500600","新店區"
"231031","256-BX","2019/11/18 13:29:14","新北市新店區僑信路2巷2號","121.499713333333","24.95379","6500600","新店區"
"231023","260-TV","2019/11/18 13:29:19","新北市新店區北新路一段43號","121.538073333333","24.9594716666667","6500600","新店區"
"231003","268-BY","2019/11/18 13:29:21","新北市新店區中興路二段219號","121.548015","24.974325","6500600","新店區"
"231035","278-BY","2019/11/18 13:29:23","新北市新店區安康路一段355號","121.51984","24.9635616666667","6500600","新店區"
"231014","AAD-862","2019/11/18 13:29:14","新北市新店區新烏路一段11巷1弄2號","121.547343333333","24.9513483333333","6500600","新店區"
"231006","355-BY","2019/11/18 13:29:13","新北市新店區安一路一段1-1號","121.519373333333","24.961025","6500600","新店區"
"231038","3712-VJ","2019/11/18 13:29:15","新北市新店區安華路28-1號","121.519348333333","24.9605816666667","6500600","新店區"
"231027","3713-VJ","2019/11/18 13:29:25","新北市新店區環河路19巷13號","121.537621666667","24.960465","6500600","新店區"
"231025","4715-K9","2019/11/18 13:29:26","新北市新店區中央五街37號","121.528556666667","24.9750533333333","6500600","新店區"
"231019","513-UM","2019/11/18 13:29:15","新北市新店區安一路一段1-1號","121.519573333333","24.9611033333333","6500600","新店區"
"231034","616-UM","2019/11/18 13:29:16","新北市新店區安華路1-1號","121.519428333333","24.960525","6500600","新店區"
"231001","617-UM","2019/11/18 13:29:20","新北市新店區安康路一段355-3號","121.519783333333","24.9622716666667","6500600","新店區"
"231002","619-UM","2019/11/18 13:29:25","新北市新店區安康路一段160號","121.526175","24.9630083333333","6500600","新店區"
"231011","KED-0819","2019/11/18 13:29:12","新北市新店區環河路6號","121.53822","24.9618583333333","6500600","新店區"
"231010","719-UM","2019/11/18 13:29:11","新北市新店區自由街11號","121.535408333333","24.9749633333333","6500600","新店區"
"231026","720-UM","2019/11/18 13:29:11","新北市新店區安一路一段1-1號","121.519158333333","24.961345","6500600","新店區"
"231028","897-TW","2019/11/18 13:29:23","新北市新店區安華路28-1號","121.519546666667","24.9606833333333","6500600","新店區"
"231004","899-TW","2019/11/18 13:29:29","新北市新店區安一路一段1-1號","121.519723333333","24.961725","6500600","新店區"
"231037","AKT-0513","2019/11/18 13:29:29","新北市新店區薏仁坑路55號","121.490916666667","24.96444","6500600","新店區"
"235030","003-UY","2019/11/18 13:29:15","新北市中和區中山路二段120號","121.502678333333","25.0038283333333","6500300","中和區"
"235028","005-UY","2019/11/18 13:29:11","新北市中和區連城路144巷4弄11號","121.495738333333","24.9989066666667","6500300","中和區"
"235027","006-UY","2019/11/18 13:29:17","新北市中和區連城路353號","121.487928333333","24.996035","6500300","中和區"
"235020","096-UM","2019/11/18 13:29:32","新北市中和區新民街101號","121.48033","25.0083","6500300","中和區"
"235003","097-UM","2019/11/18 13:29:32","新北市中和區大勇街25巷2號","121.517221666667","24.9933183333333","6500300","中和區"
"235029","098-UM","2019/11/18 13:29:17","新北市中和區莊敬路49巷20弄32號","121.50322","25.0051683333333","6500300","中和區"
"235004","150-BY","2019/11/18 13:29:19","新北市中和區安平路59號","121.509568333333","24.995015","6500300","中和區"
"235022","151-BY","2019/11/18 13:29:28","新北市中和區圓通路369巷165號","121.490166666667","24.9822016666667","6500300","中和區"
"235019","183-VK","2019/11/18 13:29:30","新北市中和區莒光路120巷13弄1-4號","121.471625","25.0014916666667","6500300","中和區"
"235031","255-BX","2019/11/18 13:29:28","新北市中和區新生街220巷4號","121.482883333333","24.9985866666667","6500300","中和區"
"235036","301-VK","2019/11/18 13:29:22","新北市中和區連城路183號","121.49532","24.9983033333333","6500300","中和區"
"235007","352-BY","2019/11/18 13:29:13","新北市中和區景平路245號","121.509023333333","24.9929383333333","6500300","中和區"
"235006","KEA-2878","2019/11/18 13:29:19","新北市中和區自立路56巷17號","121.522773333333","24.9915816666667","6500300","中和區"
"235014","4979-A6","2019/11/18 13:29:22","新北市中和區景新街362巷10號","121.511941666667","24.9901283333333","6500300","中和區"
"235033","4980-A6","2019/11/18 13:29:19","新北市中和區連城路99巷36號","121.49702","24.9989716666667","6500300","中和區"
"235034","558-UM","2019/11/18 13:29:16","新北市中和區南華路75號","121.505028333333","24.9973916666667","6500300","中和區"
"235009","565-BX","2019/11/18 13:29:25","新北市中和區南山路236-1號","121.506455","24.9895183333333","6500300","中和區"
"235024","KED-0823","2019/11/18 13:29:25","新北市中和區中山路三段81號","121.475826666667","25.0059283333333","6500300","中和區"
"235018","640-BX","2019/11/18 13:29:12","新北市中和區莒光路93號","121.472425","25.0031583333333","6500300","中和區"
"235035","647-TV","2019/11/18 13:29:30","新北市中和區環中路128號","121.48199","25.0127016666667","6500300","中和區"
"235011","732-UM","2019/11/18 13:29:15","新北市中和區南山路282號","121.507921666667","24.98783","6500300","中和區"
"235026","800-TS","2019/11/18 13:29:25","新北市中和區中山路二段312巷10弄1號","121.495548333333","25.003205","6500300","中和區"
"235021","801-TS","2019/11/18 13:29:13","新北市中和區員山路327巷23號","121.48007","25.0018516666667","6500300","中和區"
"235005","802-TS","2019/11/18 13:29:26","新北市中和區中和路320號","121.5097","25.00067","6500300","中和區"
"235016","805-TS","2019/11/18 13:29:25","新北市中和區興南路二段94號","121.505301666667","24.98434","6500300","中和區"
"235012","896-TW","2019/11/18 13:29:21","新北市中和區中正路637巷52弄1號","121.485423333333","24.993425","6500300","中和區"
"235017","900-TW","2019/11/18 13:29:25","新北市中和區連城路607號","121.478265","24.99313","6500300","中和區"
"235002","911-UM","2019/11/18 13:29:27","新北市中和區自立路151號","121.522786666667","24.9930816666667","6500300","中和區"
"235015","157-BY","2019/11/18 13:29:27","新北市中和區興南路二段114巷10弄38號","121.504055","24.9851266666667","6500300","中和區"
"235001","AAC-213","2019/11/18 13:29:18","新北市中和區景德街56號","121.517426666667","24.9915183333333","6500300","中和區"
"235023","AAC-215","2019/11/18 13:29:21","新北市中和區員山路36巷16-3號","121.48498","24.9912066666667","6500300","中和區"
"220013","072-UY","2019/11/18 13:29:27","新北市板橋區南雅南路二段116號","121.453171666667","25.00017","6500100","板橋區"
"220017","AAD-861","2019/11/18 13:29:13","新北市板橋區南雅南路二段144巷69號","121.450488333333","24.9953616666667","6500100","板橋區"
"247013","056-VK","2019/11/18 13:29:20","新北市五股區中興路三段2巷10號","121.449206666667","25.0810783333333","6501400","蘆洲區"
"247011","002-UY","2019/11/18 13:29:14","新北市五股區中興路三段163號","121.449333333333","25.0809183333333","6501400","蘆洲區"
"235013","251-BX","2019/11/18 13:29:22","新北市中和區景安路117號","121.50579","24.9964666666667","6500300","中和區"
"253003","6232-TK","2019/11/18 13:29:26","新北市石門區內石門50-1號","121.571561666667","25.2626983333333","6502200","石門區"
"253004","6251-TK","2019/11/18 13:29:15","新北市石門區竹子湖11號","121.618001666667","25.2580833333333","6502200","石門區"
"253002","637-UY","2019/11/18 13:29:20","新北市石門區老崩山40-2號","121.561745","25.2677733333333","6502200","石門區"
"253001","KEC-0718","2019/11/18 13:29:16","新北市三芝區新庄里新庄子71-3號","121.512923333333","25.2763966666667","6502200","石門區"
"207002","749-BX","2019/11/18 13:29:14","新北市萬里區崁腳里崁腳路166號","121.64502","25.1558266666667","6502800","萬里區"
"252005","073-UM","2019/11/18 13:29:12","新北市三芝區福德里土地公埔66-2號","121.517673333333","25.2270316666667","6502100","三芝區"
"207001","662-BX","2019/11/18 13:28:04","新北市萬里區龜吼里石角路19-1號","121.683908333333","25.1915966666667","6502800","萬里區"
"237013","760-BX","2019/11/18 13:29:29","新北市三峽區介壽路三段26-1號","121.39602","24.93662","6500900","三峽區"
"220028","200-UY","2019/11/18 13:29:23","新北市板橋區華東街1-9號","121.448171666667","24.9948333333333","6500100","板橋區"
"220030","610-BX","2019/11/18 13:29:28","新北市板橋區華東街1-10號","121.448251666667","24.99494","6500100","板橋區"
"220004","276-BY","2019/11/18 13:29:20","新北市板橋區南雅南路二段144巷19號","121.450961666667","24.99577","6500100","板橋區"
"220019","283-VK","2019/11/18 13:29:19","新北市板橋區華東街1-9號","121.448048333333","24.9948833333333","6500100","板橋區"
"220031","286-VK","2019/11/18 13:29:21","新北市板橋區華東街1-10號","121.448401666667","24.9950683333333","6500100","板橋區"
"220029","287-VK","2019/11/18 13:29:27","新北市板橋區華東街1-10號","121.448273333333","24.995025","6500100","板橋區"
"220032","296-UM","2019/11/18 13:29:23","新北市板橋區華東街1-10號","121.448268333333","24.9949066666667","6500100","板橋區"
"220038","487-VK","2019/11/18 13:29:14","新北市板橋區民生路二段161巷1號","121.469835","25.0199183333333","6500100","板橋區"
"220104","560-BX","2019/11/18 13:29:30","新北市板橋區南雅西路二段145巷6號","121.45162","25.0118633333333","6500100","板橋區"
"220005","686-BX","2019/11/18 13:29:27","新北市板橋區華東街1-10號","121.44821","24.995045","6500100","板橋區"
"220025","687-BX","2019/11/18 13:29:14","新北市板橋區大觀路二段265巷7-7號","121.444155","24.9945566666667","6500100","板橋區"
"220002","741-BX","2019/11/18 13:29:15","新北市板橋區華東街1-9號","121.448205","24.9948966666667","6500100","板橋區"
"220003","827-TW","2019/11/18 13:29:10","新北市板橋區華東街1-9號","121.448236666667","24.994945","6500100","板橋區"
"220022","895-R6","2019/11/18 13:29:17","新北市板橋區南雅南路二段144巷2號","121.451553333333","24.9962616666667","6500100","板橋區"
"220021","985-R7","2019/11/18 13:29:20","新北市板橋區四川路二段140巷20號","121.449166666667","24.993505","6500100","板橋區"
"220012","AAC-253","2019/11/18 13:29:16","新北市板橋區南雅南路二段116號","121.452493333333","25.000555","6500100","板橋區"
"235032","KEA-2873","2019/11/18 13:29:28","新北市中和區中正路273-5號","121.495658333333","24.9932933333333","6500300","中和區"
"235025","KEA-2875","2019/11/18 13:29:06","新北市中和區民享街92巷1號","121.474531666667","24.99985","6500300","中和區"
