"lineid","car","time","location","longitude","latitude","cityid","cityname"
"234044","148-BY","2019/11/18 14:13:29","新北市永和區得和路293號","121.52273","24.9995416666667","6500400","永和區"
"234078","298-R6","2019/11/18 14:13:27","新北市永和區永亨路104號","121.523435","25.0045633333333","6500400","永和區"
"234036","336-UY","2019/11/18 14:13:23","新北市永和區成功路一段93巷23弄13號","121.528478333333","25.0033833333333","6500400","永和區"
"234062","337-UY","2019/11/18 14:13:26","新北市永和區永元路95巷2號","121.522381666667","25.0020266666667","6500400","永和區"
"234084","338-UY","2019/11/18 14:13:16","新北市永和區中正路557號","121.516675","25.0083716666667","6500400","永和區"
"234068","552-UM","2019/11/18 14:13:18","新北市永和區永亨路31號","121.519781666667","25.006175","6500400","永和區"
"234028","746-BX","2019/11/18 14:13:17","新北市永和區民權路84號","121.519928333333","24.9970083333333","6500400","永和區"
"234052","KEA-2590","2019/11/18 14:13:30","新北市永和區博愛街12號","121.51679","25.01583","6500400","永和區"
"234005","KED-0605","2019/11/18 14:13:28","新北市中和區保平路300號","121.507788333333","25.00441","6500400","永和區"
"234012","KEA-2591","2019/11/18 14:13:12","新北市永和區中山路一段214號","121.508421666667","25.00851","6500400","永和區"
"234060","AAD-866","2019/11/18 14:13:12","新北市永和區安樂路166號","121.514503333333","25.0007516666667","6500400","永和區"
"234040","862-TW","2019/11/18 14:13:30","新北市中和區中安街168號","121.510876666667","24.9998516666667","6500400","永和區"
"234048","863-TW","2019/11/18 14:13:27","新北市永和區環河西路二段47號","121.507183333333","25.0154833333333","6500400","永和區"
"234025","9371-KE","2019/11/18 14:13:26","新北市永和區安樂路198巷安和二弄2號","121.515416666667","25.0018083333333","6500400","永和區"
"248007","KED-0815","2019/11/18 14:13:13","新北市五股區中興路二段83巷26-6號","121.459578333333","25.0752233333333","6501500","五股區"
"248019","KED-0813","2019/11/18 14:05:03","新北市五股區凌雲路三段59-6號","121.425","25.1249733333333","6501500","五股區"
"248011","247-BX","2019/11/18 14:13:21","新北市五股區工商路66號","121.43888","25.084585","6501500","五股區"
"248003","677-BX","2019/11/18 14:13:19","新北市五股區五福路56號","121.433426666667","25.0896883333333","6501500","五股區"
"248001","678-BX","2019/11/18 14:13:31","新北市五股區成泰路三段577巷52號","121.45069","25.1032066666667","6501500","五股區"
"248009","682-TV","2019/11/18 14:13:13","新北市五股區水碓一路23號","121.430626666667","25.0713983333333","6501500","五股區"
"234022","9380-KE","2019/11/18 14:13:26","新北市永和區竹林路25巷21號","121.518153333333","25.0150316666667","6500400","永和區"
"234076","969-R7","2019/11/18 14:13:28","新北市永和區民族街81巷3號","121.518731666667","24.996585","6500400","永和區"
"234072","AAC-211","2019/11/18 14:13:19","新北市永和區竹林路241號","121.520846666667","25.0080966666667","6500400","永和區"
"234066","AAC-212","2019/11/18 14:13:23","新北市永和區保平路238號","121.509278333333","25.0054716666667","6500400","永和區"
"234001","AAC-295","2019/11/18 14:13:29","新北市永和區中正路577巷9號","121.51611","25.008835","6500400","永和區"
"244001","248-BX","2019/11/18 14:13:27","新北市林口區太平里11鄰38號","121.360073333333","25.1318433333333","6501700","林口區"
"243004","AAD-798","2019/11/18 14:13:15","新北市泰山區辭修路36巷1弄7號","121.428186666667","25.058185","6501600","泰山區"
"243002","297-R6","2019/11/18 14:13:27","新北市泰山區明志路一段492巷4弄1號","121.430021666667","25.05481","6501600","泰山區"
"243006","KEA-2801","2019/11/18 14:13:29","新北市泰山區泰林路二段364號","121.428705","25.0637283333333","6501600","泰山區"
"243008","421-VK","2019/11/18 14:13:17","新北市泰山區明志路三段112號","121.425011666667","25.040705","6501600","泰山區"
"243001","KEA-2215","2019/11/18 14:13:18","新北市泰山區文化街1巷2號","121.433886666667","25.064025","6501600","泰山區"
"243003","KEA-2216","2019/11/18 14:13:27","新北市泰山區明志路二段325號","121.425838333333","25.04511","6501600","泰山區"
"243005","646-TV","2019/11/18 14:13:09","新北市泰山區台麗街7號","121.424343333333","25.0383333333333","6501600","泰山區"
"243007","680-BX","2019/11/18 14:13:29","新北市泰山區明志路一段493-1號","121.430715","25.0550166666667","6501600","泰山區"
"231030","002-UM","2019/11/18 14:13:16","新北市新店區安興路7-1號","121.515073333333","24.9685316666667","6500600","新店區"
"231024","0291-UT","2019/11/18 14:13:27","新北市新店區安興路39號","121.516415","24.9709","6500600","新店區"
"231005","046-UY","2019/11/18 14:13:24","新北市新店區中興路三段259號","121.542418333333","24.984655","6500600","新店區"
"231029","106-UY","2019/11/18 14:13:16","新北市新店區安康路二段161號","121.510233333333","24.9594183333333","6500600","新店區"
"231018","107-UY","2019/11/18 14:13:28","新北市新店區中央五街55號","121.527801666667","24.9754383333333","6500600","新店區"
"231013","108-UY","2019/11/18 14:13:25","新北市新店區北新路三段49號","121.54188","24.9805433333333","6500600","新店區"
"231036","110-UY","2019/11/18 14:13:20","新北市新店區安祥路109巷5號","121.475695","24.9589066666667","6500600","新店區"
"231031","256-BX","2019/11/18 14:13:14","新北市新店區太平路27號","121.533721666667","24.9582816666667","6500600","新店區"
"231023","260-TV","2019/11/18 14:13:19","新北市新店區文中路51號","121.539795","24.9566566666667","6500600","新店區"
"231003","268-BY","2019/11/18 14:13:21","新北市新店區檳榔路29巷10號","121.542268333333","24.9637383333333","6500600","新店區"
"231035","278-BY","2019/11/18 14:13:23","新北市新店區安和路二段115號","121.518663333333","24.97043","6500600","新店區"
"231014","AAD-862","2019/11/18 14:13:13","新北市新店區郵政路3巷5號","121.557388333333","24.95205","6500600","新店區"
"231006","355-BY","2019/11/18 14:13:13","新北市新店區北宜路二段271號","121.55478","24.9536233333333","6500600","新店區"
"231038","3712-VJ","2019/11/18 14:13:15","新北市新店區溪洲路6巷40-1號","121.533685","24.9629266666667","6500600","新店區"
"231027","3713-VJ","2019/11/18 14:13:25","新北市新店區光明街84號","121.538746666667","24.9601183333333","6500600","新店區"
"231025","4715-K9","2019/11/18 14:13:26","新北市新店區自立街26號","121.5387","24.9783833333333","6500600","新店區"
"231019","513-UM","2019/11/18 14:13:15","新北市新店區屈尺路48號","121.547795","24.9226683333333","6500600","新店區"
"231034","616-UM","2019/11/18 14:13:15","新北市新店區車子路11號","121.503046666667","24.9520466666667","6500600","新店區"
"231001","617-UM","2019/11/18 14:13:28","新北市新店區中華路39號","121.540318333333","24.9676983333333","6500600","新店區"
"231002","619-UM","2019/11/18 14:13:25","新北市新店區中正路487號","121.5339","24.9821","6500600","新店區"
"231011","KED-0819","2019/11/18 14:13:12","新北市新店區五峰路63巷8弄72號","121.548028333333","24.9685483333333","6500600","新店區"
"231028","897-TW","2019/11/18 14:13:23","新北市新店區安和路三段47號","121.518036666667","24.9826283333333","6500600","新店區"
"231004","899-TW","2019/11/18 14:13:09","新北市新店區北新路二段150號","121.543033333333","24.975015","6500600","新店區"
"231037","AKT-0513","2019/11/18 14:13:29","新北市新店區安康路三段77號","121.492001666667","24.951995","6500600","新店區"
"235030","003-UY","2019/11/18 14:13:15","新北市中和區中和路102號","121.502673333333","24.9996983333333","6500300","中和區"
"235028","005-UY","2019/11/18 14:13:31","新北市中和區中和路2號","121.499425","25.002445","6500300","中和區"
"235027","006-UY","2019/11/18 14:13:17","新北市中和區連城路249巷28弄1號","121.494776666667","24.994905","6500300","中和區"
"235020","096-UM","2019/11/18 14:13:32","新北市中和區員山路476號","121.479831666667","25.0067","6500300","中和區"
"235003","097-UM","2019/11/18 14:13:12","新北市中和區秀峰街119巷8弄7號","121.519123333333","24.9898716666667","6500300","中和區"
"235029","098-UM","2019/11/18 14:13:29","新北市中和區中山路二段64巷11號","121.503255","25.0056766666667","6500300","中和區"
"235004","150-BY","2019/11/18 14:13:19","新北市中和區宜安路74號","121.511201666667","24.9972766666667","6500300","中和區"
"235022","151-BY","2019/11/18 14:13:28","新北市中和區和城路一段271巷1號","121.485331666667","24.9918916666667","6500300","中和區"
"235019","183-VK","2019/11/18 14:13:21","新北市中和區莒光路3巷5號","121.472106666667","25.006085","6500300","中和區"
"235031","255-BX","2019/11/18 14:13:28","新北市中和區連城路314號","121.483541666667","24.99615","6500300","中和區"
"235008","293-VK","2019/11/18 14:13:18","新北市中和區中興街266巷2號","121.498483333333","24.9875116666667","6500300","中和區"
"235036","301-VK","2019/11/18 14:13:22","新北市中和區福美路309號","121.496906666667","25.0047866666667","6500300","中和區"
"235007","352-BY","2019/11/18 14:13:33","新北市中和區景平路290號","121.513183333333","24.9927433333333","6500300","中和區"
"235006","KEA-2878","2019/11/18 14:13:19","新北市永和區民有街18號","121.516515","24.99669","6500300","中和區"
"247015","KEA-2869","2019/11/18 14:13:15","新北市蘆洲區光華路46巷22號","121.468303333333","25.08375","6501400","蘆洲區"
"247009","KED-0682","2019/11/18 14:13:13","新北市蘆洲區信義路170號","121.479353333333","25.08388","6501400","蘆洲區"
"235014","4979-A6","2019/11/18 14:13:27","新北市中和區復興路280巷18弄2號","121.502481666667","24.9916","6500300","中和區"
"235033","4980-A6","2019/11/18 14:13:19","新北市中和區景平路736巷1弄5號","121.497286666667","25.0040316666667","6500300","中和區"
"235034","558-UM","2019/11/18 14:13:31","新北市中和區中山路二段253號","121.497708333333","25.0024016666667","6500300","中和區"
"235009","565-BX","2019/11/18 14:13:25","新北市中和區景新街423巷33弄12號","121.513738333333","24.9902483333333","6500300","中和區"
"235024","KED-0823","2019/11/18 14:13:24","新北市中和區民樂路37號","121.483225","25.0016383333333","6500300","中和區"
"235018","640-BX","2019/11/18 14:13:12","新北市中和區國光街112巷22弄15號","121.470178333333","25.0023983333333","6500300","中和區"
"235035","647-TV","2019/11/18 14:13:30","新北市中和區立言街52號","121.488298333333","25.0067566666667","6500300","中和區"
"235011","732-UM","2019/11/18 14:13:15","新北市中和區興南路一段56巷28號","121.510331666667","24.9913583333333","6500300","中和區"
"235010","733-UM","2019/11/18 14:13:25","新北市中和區工專路111號","121.507546666667","24.9823233333333","6500300","中和區"
"235026","800-TS","2019/11/18 14:13:25","新北市中和區中山路二段526巷17號","121.48579","25.0054966666667","6500300","中和區"
"235021","801-TS","2019/11/18 14:13:33","新北市中和區中山路三段37巷37號","121.479648333333","25.004805","6500300","中和區"
"235005","802-TS","2019/11/18 14:13:26","新北市中和區宜安路118巷16號","121.510785","24.9984983333333","6500300","中和區"
"235016","805-TS","2019/11/18 14:13:24","新北市中和區興南路二段142巷19弄38號","121.502625","24.983505","6500300","中和區"
"235012","896-TW","2019/11/18 14:13:21","新北市中和區華新街109巷32號","121.508733333333","24.9802116666667","6500300","中和區"
"235017","900-TW","2019/11/18 14:13:25","新北市中和區民德路206號","121.46816","24.998445","6500300","中和區"
"235002","911-UM","2019/11/18 14:13:27","新北市中和區大仁街11號","121.517695","24.992685","6500300","中和區"
"235015","157-BY","2019/11/18 14:13:27","新北市中和區和平街2巷3號","121.510085","24.9903233333333","6500300","中和區"
"235001","AAC-213","2019/11/18 14:13:18","新北市中和區自立路15巷4號","121.522703333333","24.99604","6500300","中和區"
"235023","AAC-215","2019/11/18 14:13:21","新北市中和區圓通路367巷2號","121.491133333333","24.989305","6500300","中和區"
"220013","072-UY","2019/11/18 14:13:27","新北市板橋區民族路223號","121.469675","25.0073466666667","6500100","板橋區"
"220034","073-UY","2019/11/18 14:13:26","新北市板橋區中正路216巷115號","121.459486666667","25.0193183333333","6500100","板橋區"
"220105","075-UY","2019/11/18 14:13:17","新北市板橋區江寧路三段85巷14號","121.472365","25.0331866666667","6500100","板橋區"
"220017","AAD-861","2019/11/18 14:13:33","新北市板橋區大明街20巷29弄9號","121.458243333333","25.0035083333333","6500100","板橋區"
"247005","893-R6","2019/11/18 14:13:21","新北市蘆洲區九芎街13號","121.468163333333","25.0785333333333","6501400","蘆洲區"
"247003","341-TH","2019/11/18 14:13:17","新北市蘆洲區長安街193巷38弄11號","121.458725","25.0812583333333","6501400","蘆洲區"
"247023","057-VK","2019/11/18 14:13:30","新北市蘆洲區長榮路378號","121.459871666667","25.08702","6501400","蘆洲區"
"247013","056-VK","2019/11/18 14:13:20","新北市蘆洲區三民路105號","121.472656666667","25.0860133333333","6501400","蘆洲區"
"247017","053-VK","2019/11/18 14:13:25","新北市蘆洲區民族路203-1號","121.478108333333","25.089215","6501400","蘆洲區"
"247021","007-UY","2019/11/18 14:13:11","新北市蘆洲區三民路214號","121.468965","25.0892283333333","6501400","蘆洲區"
"247011","002-UY","2019/11/18 14:13:14","新北市蘆洲區復興路152號","121.477431666667","25.0877066666667","6501400","蘆洲區"
"247001","001-UY","2019/11/18 14:13:29","新北市蘆洲區永平街6號","121.459656666667","25.09041","6501400","蘆洲區"
"235013","251-BX","2019/11/18 14:13:22","新北市中和區景新街235號","121.50813","24.9945183333333","6500300","中和區"
"253003","6232-TK","2019/11/18 14:13:26","新北市石門區內石門62號","121.578","25.26585","6502200","石門區"
"253004","6251-TK","2019/11/18 14:13:15","新北市石門區小坑38號","121.596263333333","25.26382","6502200","石門區"
"253002","637-UY","2019/11/18 14:13:20","新北市石門區七股20-3號","121.550235","25.2702783333333","6502200","石門區"
"253001","KEC-0718","2019/11/18 14:13:16","新北市石門區八甲27-2號","121.526691666667","25.27716","6502200","石門區"
"207002","749-BX","2019/11/18 14:13:14","新北市萬里區溪底里瑞泉路7號","121.603318333333","25.1409683333333","6502800","萬里區"
"252005","073-UM","2019/11/18 14:13:12","新北市三芝區橫山里橫山52號","121.533433333333","25.25628","6502100","三芝區"
"207001","662-BX","2019/11/18 14:13:24","新北市萬里區磺潭里清水18號","121.637783333333","25.1976233333333","6502800","萬里區"
"237013","760-BX","2019/11/18 14:13:09","新北市三峽區中園街42號","121.368198333333","24.9264483333333","6500900","三峽區"
"236040","KED-0685","2019/11/18 14:13:22","新北市土城區裕生路71-1號","121.447113333333","24.9845516666667","6501300","土城區"
"236074","166-UM","2019/11/18 14:13:21","新北市土城區永安街41號","121.432966666667","24.964275","6501300","土城區"
"236029","253-BX","2019/11/18 14:13:13","新北市土城區中央路二段257號","121.439933333333","24.97141","6501300","土城區"
"236024","269-VK","2019/11/18 14:13:19","新北市土城區承天路67號","121.439588333333","24.9635133333333","6501300","土城區"
"236012","270-VK","2019/11/18 14:13:09","新北市土城區青雲路33號","121.460515","24.9882433333333","6501300","土城區"
"236032","271-VK","2019/11/18 14:13:18","新北市土城區青雲路451巷1號","121.459015","24.974655","6501300","土城區"
"247007","KED-0683","2019/11/18 14:13:20","新北市蘆洲區中山一路293-1號","121.471638333333","25.079245","6501400","蘆洲區"
"236064","KEA-2877","2019/11/18 14:13:29","新北市土城區明德路一段128巷5號","121.46335","24.9790133333333","6501300","土城區"
"236016","401-BY","2019/11/18 14:13:27","新北市土城區金城路一段112號","121.44657","24.975875","6501300","土城區"
"236045","752-BX","2019/11/18 14:13:18","新北市土城區明德路一段365-1號","121.453565","24.9790683333333","6501300","土城區"
"236057","912-UM","2019/11/18 14:13:10","新北市土城區中央路四段211號","121.413861666667","24.9558533333333","6501300","土城區"
"236060","915-UM","2019/11/18 14:13:10","新北市土城區金城路三段202-3號","121.469398333333","24.98861","6501300","土城區"
"236054","AAC-216","2019/11/18 14:13:26","新北市土城區中華路二段92號","121.438231666667","24.974765","6501300","土城區"
"220027","145-BY","2019/11/18 14:13:11","新北市板橋區公館街18號","121.45688","25.01229","6500100","板橋區"
"220028","200-UY","2019/11/18 14:13:23","新北市板橋區大觀路二段7巷13號","121.447516666667","25.0035333333333","6500100","板橋區"
"220030","610-BX","2019/11/18 14:13:28","新北市板橋區大觀路三段275號","121.428416666667","24.9923033333333","6500100","板橋區"
"220050","245-BX","2019/11/18 14:13:22","新北市板橋區莊敬路6-1號","121.4738","25.0280366666667","6500100","板橋區"
"220004","276-BY","2019/11/18 14:13:20","新北市板橋區信義路215號","121.459468333333","24.9914816666667","6500100","板橋區"
"220020","277-BY","2019/11/18 14:13:16","新北市板橋區金門街378號","121.426935","24.983735","6500100","板橋區"
"220043","283-UM","2019/11/18 14:13:27","新北市板橋區光武街110巷16號","121.466658333333","25.0296433333333","6500100","板橋區"
"220019","283-VK","2019/11/18 14:13:19","新北市板橋區和平路239號","121.465305","24.9986133333333","6500100","板橋區"
"220001","285-VK","2019/11/18 14:13:27","新北市板橋區富山街53巷1弄1號","121.477586666667","25.020745","6500100","板橋區"
"220031","286-VK","2019/11/18 14:13:21","新北市板橋區大觀路二段174巷165弄18號","121.441266666667","25.003595","6500100","板橋區"
"220029","287-VK","2019/11/18 14:13:27","新北市板橋區南雅西路二段106號","121.452208333333","25.0119266666667","6500100","板橋區"
"220039","288-VK","2019/11/18 14:13:15","新北市板橋區長江路一段106巷20弄11號","121.460168333333","25.0282716666667","6500100","板橋區"
"220009","293-UM","2019/11/18 14:13:13","新北市板橋區中山路二段211巷4號","121.47645","25.0174483333333","6500100","板橋區"
"220032","296-UM","2019/11/18 14:13:23","新北市板橋區溪崑二街22巷20號","121.428223333333","24.9916516666667","6500100","板橋區"
"220023","303-R5","2019/11/18 14:13:20","新北市板橋區館前西路163號","121.455908333333","25.008115","6500100","板橋區"
"220010","305-R5","2019/11/18 14:13:28","新北市板橋區三民路二段居仁巷1弄48-1號","121.48097","25.0136916666667","6500100","板橋區"
"220041","307-R5","2019/11/18 14:13:26","新北市板橋區文化路二段125巷23號","121.469735","25.027525","6500100","板橋區"
"220047","317-R6","2019/11/18 14:13:14","新北市板橋區四維路152號","121.464981666667","25.0256666666667","6500100","板橋區"
"220038","487-VK","2019/11/18 14:13:14","新北市板橋區漢生西路25號","121.463288333333","25.0182716666667","6500100","板橋區"
"220037","491-VK","2019/11/18 14:13:16","新北市板橋區文化路二段182巷1弄26號","121.471753333333","25.0282866666667","6500100","板橋區"
"220104","560-BX","2019/11/18 14:13:30","新北市板橋區中正路411號","121.454088333333","25.0225966666667","6500100","板橋區"
"220052","561-BX","2019/11/18 14:13:27","新北市板橋區文化路一段266號","121.46732","25.0205766666667","6500100","板橋區"
"220011","609-BX","2019/11/18 14:13:12","新北市板橋區三民路二段201號","121.479081666667","25.0137466666667","6500100","板橋區"
"220040","637-BX","2019/11/18 14:13:13","新北市板橋區縣民大道三段187巷5號","121.479256666667","25.0250016666667","6500100","板橋區"
"220005","686-BX","2019/11/18 14:13:27","新北市板橋區五權街63號","121.464855","24.9933516666667","6500100","板橋區"
"220025","687-BX","2019/11/18 14:13:21","新北市板橋區龍興街95巷1號","121.444065","25.0023033333333","6500100","板橋區"
"220042","689-BX","2019/11/18 14:13:30","新北市板橋區雨農路32號","121.46125","25.0243633333333","6500100","板橋區"
"220002","741-BX","2019/11/18 14:13:15","新北市板橋區重慶路76巷3號","121.461593333333","25.0062216666667","6500100","板橋區"
"220051","KEA-2699","2019/11/18 14:13:23","新北市板橋區松柏街15巷9-3號","121.47403","25.0300966666667","6500100","板橋區"
"220003","827-TW","2019/11/18 14:13:10","新北市板橋區新民街7巷10號","121.463553333333","25.010235","6500100","板橋區"
"220016","830-TW","2019/11/18 14:13:26","新北市板橋區三民路一段1巷39號","121.48022","25.0249","6500100","板橋區"
"220014","831-TW","2019/11/18 14:13:24","新北市板橋區中山路二段90巷43弄1號","121.476455","25.0149966666667","6500100","板橋區"
"220022","895-R6","2019/11/18 14:13:26","新北市板橋區後菜園街45號","121.456121666667","25.009845","6500100","板橋區"
"220021","985-R7","2019/11/18 14:13:19","新北市板橋區民權路214號","121.458838333333","25.014095","6500100","板橋區"
"220046","AAC-210","2019/11/18 14:13:30","新北市板橋區幸福路60巷56-1號","121.459778333333","25.02211","6500100","板橋區"
"220012","AAC-253","2019/11/18 14:13:16","新北市板橋區縣民大道二段101號","121.466155","25.0151066666667","6500100","板橋區"
"235032","KEA-2873","2019/11/18 14:13:28","新北市中和區景平路493巷10號","121.499303333333","24.9970516666667","6500300","中和區"
"235025","KEA-2875","2019/11/18 14:13:19","新北市中和區員山路143巷36號","121.479381666667","24.99565","6500300","中和區"
