"lineid","car","time","location","longitude","latitude","cityid","cityname"
"249002","305-UY","2019/11/18 16:29:27","新北市八里區龍米路二段150號","121.435871666667","25.15696","6502300","八里區"
"231046","719-UM","2019/11/18 16:29:16","新北市新店區灣潭路3-3號","121.53817","24.9508316666667","6500600","新店區"
"241011","013-R5","2019/11/18 16:29:23","新北市三重區龍濱路172號","121.501345","25.0728016666667","6500200","三重區"
"241028","022-UY","2019/11/18 16:29:18","新北市三重區中正南路163號","121.49378","25.0560016666667","6500200","三重區"
"241008","059-VK","2019/11/18 16:29:17","新北市三重區力行路二段136巷45弄12號","121.479016666667","25.0753366666667","6500200","三重區"
"241031","061-VK","2019/11/18 16:29:13","新北市三重區重陽路一段77號","121.486681666667","25.05874","6500200","三重區"
"241015","062-VK","2019/11/18 16:29:26","新北市三重區福德北路42號","121.501741666667","25.065275","6500200","三重區"
"241017","063-VK","2019/11/18 16:29:24","新北市三重區重新路二段99號","121.495535","25.0619833333333","6500200","三重區"
"241024","065-VK","2019/11/18 16:29:27","新北市三重區中正北路315巷16弄14號","121.475585","25.0717016666667","6500200","三重區"
"241007","066-VK","2019/11/18 16:29:30","新北市三重區三和路四段167巷119號","121.487438333333","25.08014","6500200","三重區"
"241002","090-VK","2019/11/18 16:29:25","新北市三重區五華街26號","121.494685","25.0806316666667","6500200","三重區"
"241003","091-VK","2019/11/18 16:29:17","新北市三重區五華街57巷22號","121.493596666667","25.0829333333333","6500200","三重區"
"241006","262-UM","2019/11/18 16:29:25","新北市三重區力行路二段125號","121.48315","25.0766833333333","6500200","三重區"
"241014","316-R6","2019/11/18 16:29:13","新北市三重區河邊北街70-3號","121.504256666667","25.068405","6500200","三重區"
"241016","266-UM","2019/11/18 16:29:30","新北市三重區自強路一段160巷2弄46號","121.494453333333","25.0657266666667","6500200","三重區"
"241009","267-UM","2019/11/18 16:29:28","新北市三重區三和路四段191巷64號","121.483776666667","25.0796433333333","6500200","三重區"
"241018","268-UM","2019/11/18 16:29:18","新北市三重區重陽路四段48號","121.49166","25.0700933333333","6500200","三重區"
"241032","269-UM","2019/11/18 16:29:28","新北市三重區三陽路100巷3弄13號","121.483043333333","25.0581283333333","6500200","三重區"
"241013","270-UM","2019/11/18 16:29:17","新北市三重區仁愛街52號","121.49597","25.0728016666667","6500200","三重區"
"241025","271-UM","2019/11/18 16:29:14","新北市三重區中正北路560巷100弄14號","121.47259","25.0686433333333","6500200","三重區"
"241030","KED-0822","2019/11/18 16:29:31","新北市三重區成功路49號","121.489386666667","25.0507","6500200","三重區"
"241004","475-VK","2019/11/18 16:29:18","新北市三重區仁愛街377巷48號","121.492395","25.08086","6500200","三重區"
"241020","478-VK","2019/11/18 16:29:27","新北市三重區車路頭街37巷26號","121.484576666667","25.0718366666667","6500200","三重區"
"241026","480-VK","2019/11/18 16:29:17","新北市三重區中央南路95巷21號","121.500758333333","25.0605633333333","6500200","三重區"
"241023","545-UM","2019/11/18 16:29:30","新北市三重區忠孝路三段50巷45號","121.482946666667","25.064385","6500200","三重區"
"241001","547-UM","2019/11/18 16:29:15","新北市三重區福隆路83號","121.49177","25.07804","6500200","三重區"
"241033","557-UM","2019/11/18 16:29:28","新北市三重區五谷王北街2巷5號","121.474715","25.0478883333333","6500200","三重區"
"241019","KEA-2593","2019/11/18 16:29:28","新北市三重區重陽路三段154號","121.489755","25.0675216666667","6500200","三重區"
"241012","743-BX","2019/11/18 16:29:30","新北市三重區河邊北街250號","121.501825","25.0760683333333","6500200","三重區"
"241022","KED-0820","2019/11/18 16:29:27","新北市三重區新北大道一段72號","121.486313333333","25.0615866666667","6500200","三重區"
"241005","KED-0670","2019/11/18 16:29:20","新北市三重區仁華街122號","121.486138333333","25.0831033333333","6500200","三重區"
"241029","942-UM","2019/11/18 16:29:27","新北市三重區集美街126巷25號","121.489945","25.0538316666667","6500200","三重區"
"247015","KEA-2869","2019/11/18 16:03:05","新北市五股區中興路三段163號","121.449228333333","25.080795","6501400","蘆洲區"
"247014","056-VK","2019/11/18 16:29:28","新北市五股區中興路三段163號","121.449405","25.0806","6501400","蘆洲區"
"224007","285-BY","2019/11/18 16:29:14","新北市瑞芳區瑞竹路36巷41號","121.764153333333","25.1043366666667","6501200","瑞芳區"
"224009","275-VK","2019/11/18 16:23:13","新北市瑞芳區民權街3-1號","121.809313333333","25.1083166666667","6501200","瑞芳區"
"224005","271-BY","2019/11/18 16:29:23","新北市瑞芳區瑞濱路67號","121.822293333333","25.1209066666667","6501200","瑞芳區"
"227001","642-TC","2019/11/18 16:29:10","新北市雙溪區牡丹里石1-1號","121.864595","25.0480683333333","6502500","雙溪區"
"227002","400-TW","2019/11/18 16:29:07","新北市雙溪區外柑里外柑腳33號","121.809393333333","25.020235","6502500","雙溪區"
"251016","180-VK","2019/11/18 16:29:21","新北市淡水區中正路二段18號","121.41966","25.1811516666667","6501000","淡水區"
"251008","181-VK","2019/11/18 16:29:17","新北市淡水區樹梅坑7-6號","121.472398333333","25.1436516666667","6501000","淡水區"
"251013","182-VK","2019/11/18 16:29:25","新北市淡水區北新路三段171號","121.491555","25.1913016666667","6501000","淡水區"
"251014","577-R6","2019/11/18 16:29:31","新北市淡水區中正路二段31號","121.419505","25.1815366666667","6501000","淡水區"
"238023","601-UM","2019/11/18 16:29:18","新北市樹林區中山路三段210-2號","121.381401666667","24.9656066666667","6500700","樹林區"
"238006","599-UM","2019/11/18 16:29:27","新北市樹林區中華路174號","121.414653333333","24.9802933333333","6500700","樹林區"
"238025","303-VK","2019/11/18 16:29:30","新北市樹林區中正路22-1號","121.427925","24.9995","6500700","樹林區"
"238004","283-BY","2019/11/18 16:29:19","新北市樹林區中正路433-1號","121.41484","25.008065","6500700","樹林區"
"238001","282-BY","2019/11/18 16:29:26","新北市樹林區大慶街99-1號","121.42772","24.99969","6500700","樹林區"
"238007","268-VK","2019/11/18 16:29:10","新北市樹林區中正路22-1號","121.427815","24.9993766666667","6500700","樹林區"
