"lineid","car","time","location","longitude","latitude","cityid","cityname"
"249005","172-UM","2019/11/18 16:59:24","新北市八里區渡船頭3-19號","121.433945","25.1517633333333","6502300","八里區"
"249004","303-UY","2019/11/18 16:59:29","新北市八里區忠孝路353號","121.416445","25.1611733333333","6502300","八里區"
"249002","305-UY","2019/11/18 16:56:07","新北市八里區牛寮埔28-3號","121.432335","25.143745","6502300","八里區"
"249003","593-UM","2019/11/18 16:59:28","新北市八里區中山路二段289號","121.401511666667","25.1486483333333","6502300","八里區"
"244007","080-UY","2019/11/18 16:59:27","新北市林口區文化北路二段616號","121.378776666667","25.09395","6501700","林口區"
"244019","402-UM","2019/11/18 16:59:28","新北市林口區中山路152-1號","121.391028333333","25.0787166666667","6501700","林口區"
"244023","483-VK","2019/11/18 16:59:17","新北市林口區粉寮路二段1-1號","121.40032","25.0831883333333","6501700","林口區"
"244017","485-VK","2019/11/18 16:59:27","新北市林口區粉寮69號","121.405083333333","25.0907883333333","6501700","林口區"
"244009","656-BX","2019/11/18 16:59:17","新北市林口區粉寮路一段77-2號","121.397171666667","25.0796033333333","6501700","林口區"
"244025","837-TS","2019/11/18 16:59:12","新北市林口區粉寮路60-16號","121.404395","25.08956","6501700","林口區"
"244021","838-TS","2019/11/18 16:59:21","新北市林口區粉寮一街124號","121.404906666667","25.08599","6501700","林口區"
"231046","719-UM","2019/11/18 16:59:16","新北市新店區灣潭路29-5號","121.539578333333","24.9387266666667","6500600","新店區"
"241011","013-R5","2019/11/18 16:59:22","新北市三重區仁愛街55巷95號","121.500138333333","25.0731216666667","6500200","三重區"
"241028","022-UY","2019/11/18 16:59:18","新北市三重區中正南路43號","121.49396","25.0597816666667","6500200","三重區"
"241008","059-VK","2019/11/18 16:59:17","新北市三重區永福街177巷6-1號","121.47856","25.0749816666667","6500200","三重區"
"241031","061-VK","2019/11/18 16:59:13","新北市三重區重新路三段115巷2號","121.490558333333","25.05996","6500200","三重區"
"241015","062-VK","2019/11/18 16:59:26","新北市三重區福德北路82-4號","121.5014","25.0662083333333","6500200","三重區"
"241017","063-VK","2019/11/18 16:59:28","新北市三重區明志街28號","121.491796666667","25.063985","6500200","三重區"
"241024","065-VK","2019/11/18 16:59:27","新北市三重區大勇街82巷15弄30號","121.481066666667","25.0719916666667","6500200","三重區"
"241007","066-VK","2019/11/18 16:59:30","新北市三重區溪尾街138號","121.489216666667","25.0796733333333","6500200","三重區"
"241002","090-VK","2019/11/18 16:59:25","新北市三重區仁義街101巷2號","121.497591666667","25.0802233333333","6500200","三重區"
"241003","091-VK","2019/11/18 16:59:17","新北市三重區五華街87巷37弄5號","121.493573333333","25.0837333333333","6500200","三重區"
"241006","262-UM","2019/11/18 16:58:45","新北市三重區聯華街127號","121.484818333333","25.0750416666667","6500200","三重區"
"241014","316-R6","2019/11/18 16:59:13","新北市三重區介壽路32號","121.500821666667","25.070585","6500200","三重區"
"241016","266-UM","2019/11/18 16:59:30","新北市三重區大同北路120巷1-3號","121.493106666667","25.0640633333333","6500200","三重區"
"241009","267-UM","2019/11/18 16:59:28","新北市三重區仁美街108巷13號","121.484795","25.0805783333333","6500200","三重區"
"241018","268-UM","2019/11/18 16:59:18","新北市三重區民生東街1-1號","121.49283","25.0684716666667","6500200","三重區"
"241032","269-UM","2019/11/18 16:59:28","新北市三重區重陽路一段130巷11號","121.48601","25.0606366666667","6500200","三重區"
"241013","270-UM","2019/11/18 16:59:17","新北市三重區仁和街42-1號","121.496958333333","25.073765","6500200","三重區"
"241025","271-UM","2019/11/18 16:59:22","新北市三重區中正北路510號","121.472681666667","25.071495","6500200","三重區"
"241030","KED-0822","2019/11/18 16:59:31","新北市三重區昌隆街66號","121.491051666667","25.05096","6500200","三重區"
"241004","475-VK","2019/11/18 16:59:18","新北市三重區五華街106號","121.492593333333","25.0825566666667","6500200","三重區"
"241020","478-VK","2019/11/18 16:59:27","新北市三重區後竹圍街175巷16號","121.485696666667","25.0724866666667","6500200","三重區"
"241026","480-VK","2019/11/18 16:59:17","新北市三重區光興街1號","121.500273333333","25.0604083333333","6500200","三重區"
"241023","545-UM","2019/11/18 16:59:30","新北市三重區忠孝路三段126號","121.480176666667","25.063705","6500200","三重區"
"241001","547-UM","2019/11/18 16:59:15","新北市三重區仁愛街172巷6號","121.493755","25.0765283333333","6500200","三重區"
"241033","557-UM","2019/11/18 16:59:28","新北市三重區中興北街271號","121.468966666667","25.0605666666667","6500200","三重區"
"241019","KEA-2593","2019/11/18 16:59:28","新北市三重區自強路二段74巷19號","121.48805","25.0699066666667","6500200","三重區"
"241012","743-BX","2019/11/18 16:59:30","新北市三重區仁和街207號","121.500763333333","25.074965","6500200","三重區"
"241022","KED-0820","2019/11/18 16:59:27","新北市三重區中華路128號","121.483495","25.0638966666667","6500200","三重區"
"241005","KED-0670","2019/11/18 16:59:20","新北市三重區仁華街5號","121.483441666667","25.0813833333333","6500200","三重區"
"241029","942-UM","2019/11/18 16:59:27","新北市三重區中正南路252巷5號","121.493425","25.0526816666667","6500200","三重區"
"247016","KEA-2869","2019/11/18 16:59:15","新北市蘆洲區中正路67號","121.470278333333","25.0826416666667","6501400","蘆洲區"
"247010","KED-0682","2019/11/18 16:59:19","新北市蘆洲區信義路170號","121.479318333333","25.0838766666667","6501400","蘆洲區"
"247006","893-R6","2019/11/18 16:59:20","新北市蘆洲區長安街99巷31號","121.46076","25.0796816666667","6501400","蘆洲區"
"247020","546-UM","2019/11/18 16:59:22","新北市蘆洲區民族路422巷82弄14號","121.473988333333","25.0938483333333","6501400","蘆洲區"
"247008","500-BY","2019/11/18 16:59:26","新北市蘆洲區中山一路197巷18號","121.474883333333","25.0800783333333","6501400","蘆洲區"
"247004","341-TH","2019/11/18 16:59:27","新北市蘆洲區長安街108巷5弄1號","121.461205","25.08177","6501400","蘆洲區"
"247024","057-VK","2019/11/18 16:59:09","新北市蘆洲區長興路255號","121.460458333333","25.0874983333333","6501400","蘆洲區"
"247014","056-VK","2019/11/18 16:59:28","新北市蘆洲區中山二路46巷13號","121.474331666667","25.0823433333333","6501400","蘆洲區"
"247018","053-VK","2019/11/18 16:59:23","新北市蘆洲區民族路227巷20號","121.476865","25.0892266666667","6501400","蘆洲區"
"247022","007-UY","2019/11/18 16:59:28","新北市蘆洲區三民路128巷138號","121.468603333333","25.0920433333333","6501400","蘆洲區"
"247002","001-UY","2019/11/18 16:59:29","新北市蘆洲區永平街16號","121.459163333333","25.0905483333333","6501400","蘆洲區"
"228003","097-TW","2019/11/18 16:59:22","新北市貢寮區福隆里興隆街24-1號","121.944388333333","25.0165716666667","6502600","貢寮區"
"228001","212-TW","2019/11/18 16:59:09","新北市貢寮區貢寮里朝陽街1-2號","121.912285","25.0212883333333","6502600","貢寮區"
"228002","663-BX","2019/11/18 16:59:15","新北市貢寮區貢寮里長泰路24-1號","121.901956666667","25.0240283333333","6502600","貢寮區"
"224007","285-BY","2019/11/18 16:59:17","新北市瑞芳區粗坑口路86巷4號","121.760788333333","25.099125","6501200","瑞芳區"
"224009","275-VK","2019/11/18 16:59:29","新北市瑞芳區明燈路一段1號","121.826535","25.1093233333333","6501200","瑞芳區"
"224008","273-VK","2019/11/18 16:59:24","新北市瑞芳區逢甲路6號","121.812228333333","25.107895","6501200","瑞芳區"
"224005","271-BY","2019/11/18 16:59:23","新北市瑞芳區鼻頭路247號","121.906416666667","25.1211033333333","6501200","瑞芳區"
"227001","642-TC","2019/11/18 16:59:30","新北市雙溪區三貂里定福路22-1號","121.851511666667","25.0732683333333","6502500","雙溪區"
"227002","400-TW","2019/11/18 16:59:27","新北市雙溪區上林里內平林90號","121.827815","25.027585","6502500","雙溪區"
"251009","008-UM","2019/11/18 16:59:12","新北市淡水區中正路二段31號","121.419505","25.1815666666667","6501000","淡水區"
"251004","009-UM","2019/11/18 16:58:56","新北市淡水區中正東路36號","121.44875","25.1657333333333","6501000","淡水區"
"251005","010-UM","2019/11/18 16:59:14","新北市淡水區中山路132號","121.441653333333","25.1711566666667","6501000","淡水區"
"251015","KEA-2871","2019/11/18 16:59:13","新北市淡水區忠愛街5-2號","121.460671666667","25.171605","6501000","淡水區"
"251016","180-VK","2019/11/18 16:59:21","新北市淡水區瓦坑3號","121.477631666667","25.1808533333333","6501000","淡水區"
"251008","181-VK","2019/11/18 16:59:17","新北市淡水區樹梅坑9號","121.47278","25.14267","6501000","淡水區"
"251013","182-VK","2019/11/18 16:59:25","新北市淡水區泉洲厝32號","121.489286666667","25.1925983333333","6501000","淡水區"
"251012","441-VK","2019/11/18 16:59:18","新北市淡水區中正路二段31號","121.419358333333","25.181635","6501000","淡水區"
"251007","442-VK","2019/11/18 16:59:14","新北市淡水區中正東路二段19號","121.458628333333","25.15712","6501000","淡水區"
"251006","561-UM","2019/11/18 16:59:13","新北市淡水區文化路63號","121.438196666667","25.17285","6501000","淡水區"
"251014","577-R6","2019/11/18 16:59:11","新北市淡水區淡金路四段472巷24號","121.452945","25.22408","6501000","淡水區"
"251011","650-BX","2019/11/18 16:59:25","新北市淡水區淡金路39號","121.456066666667","25.16076","6501000","淡水區"
"252002","178-VK","2019/11/18 16:59:22","新北市三芝區忠孝街138-1號","121.50605","25.2581616666667","6502100","三芝區"
"233002","762-BX","2019/11/18 16:59:23","新北市烏來區啦卡路2-1號","121.552385","24.863925","6502900","烏來區"
"252001","KED-0821","2019/11/18 16:59:27","新北市三芝區淡金路二段47-1號","121.503533333333","25.2605183333333","6502100","三芝區"
"242042","AAC-296","2019/11/18 16:59:29","新北市新莊區新泰路357巷3弄57號","121.442295","25.0395683333333","6500500","新莊區"
"242004","751-BX","2019/11/18 16:59:17","新北市新莊區三和路12-21號","121.441986666667","25.0385516666667","6500500","新莊區"
"242027","613-BX","2019/11/18 16:59:18","新北市新莊區新泰路357巷1弄57號","121.442613333333","25.0395583333333","6500500","新莊區"
"242058","612-BX","2019/11/18 16:59:21","新北市新莊區新泰路357巷3弄57號","121.442111666667","25.03928","6500500","新莊區"
"242048","566-BX","2019/11/18 16:59:29","新北市新莊區三和路12-21號","121.442255","25.0383783333333","6500500","新莊區"
"242053","497-BY","2019/11/18 16:59:26","新北市新莊區新泰路357巷3弄57號","121.442361666667","25.0394183333333","6500500","新莊區"
"242025","362-BY","2019/11/18 16:59:20","新北市新莊區三和路12-21號","121.44226","25.0385566666667","6500500","新莊區"
"242031","175-VK","2019/11/18 16:58:57","新北市新莊區三和路18-21號","121.441498333333","25.0388016666667","6500500","新莊區"
"242036","348-TH","2019/11/18 16:59:28","新北市新莊區新泰路255巷83號","121.442046666667","25.0388333333333","6500500","新莊區"
"242009","349-TH","2019/11/18 16:59:21","新北市新莊區三和路12-21號","121.442168333333","25.0383416666667","6500500","新莊區"
"242019","351-TH","2019/11/18 16:59:15","新北市新莊區新泰路357巷3弄57號","121.442055","25.0394833333333","6500500","新莊區"
"238023","601-UM","2019/11/18 16:59:18","新北市樹林區中正路433-1號","121.414925","25.0079283333333","6500700","樹林區"
"238025","303-VK","2019/11/18 16:59:10","新北市樹林區中正路22-1號","121.42785","24.9994816666667","6500700","樹林區"
"238017","283-BY","2019/11/18 16:59:19","新北市樹林區三多路123號","121.414506666667","25.0078516666667","6500700","樹林區"
"238001","282-BY","2019/11/18 16:59:26","新北市樹林區中正路22-1號","121.427763333333","24.9995233333333","6500700","樹林區"
"239007","AAC-297","2019/11/18 16:59:30","新北市鶯歌區二甲路13-16號","121.34534","24.93515","6500800","鶯歌區"
"239008","527-UM","2019/11/18 16:59:17","新北市鶯歌區二甲路13-16號","121.345078333333","24.9351233333333","6500800","鶯歌區"
"239005","526-UM","2019/11/18 16:59:30","新北市鶯歌區二甲路12-2號","121.345595","24.93507","6500800","鶯歌區"
"233001","KEA-2870","2019/11/18 16:59:16","新北市烏來區環山路58號","121.548093333333","24.8648033333333","6502900","烏來區"
"242046","281-VK","2019/11/18 16:59:19","新北市新莊區公園一路75巷13號","121.442588333333","25.0383916666667","6500500","新莊區"
"242011","280-VK","2019/11/18 16:59:15","新北市新莊區三和路12-21號","121.442013333333","25.0382966666667","6500500","新莊區"
