"lineid","car","time","location","longitude","latitude","cityid","cityname"
"249005","172-UM","2019/11/18 17:29:19","新北市八里區荖阡坑路71號","121.406863333333","25.126245","6502300","八里區"
"249001","173-UM","2019/11/18 17:29:28","新北市八里區中華路一段3號","121.422966666667","25.1584433333333","6502300","八里區"
"249004","303-UY","2019/11/18 17:29:28","新北市八里區賢三街189號","121.413885","25.156295","6502300","八里區"
"249002","305-UY","2019/11/18 17:29:27","新北市八里區龍米路二段97號","121.447486666667","25.14238","6502300","八里區"
"249003","593-UM","2019/11/18 17:29:28","新北市八里區中山路二段398號","121.400618333333","25.14782","6502300","八里區"
"232011","375-UM","2019/11/18 17:29:21","新北市坪林區鶯子瀨9-13號","121.71063","24.9157583333333","6502000","坪林區"
"244007","080-UY","2019/11/18 17:29:27","新北市林口區中湖50-1號","121.383523333333","25.091395","6501700","林口區"
"244019","402-UM","2019/11/18 17:29:28","新北市林口區文化一路一段135巷18號","121.373253333333","25.0723933333333","6501700","林口區"
"244013","KEA-2802","2019/11/18 17:29:17","新北市林口區中山路250號","121.386021666667","25.0794166666667","6501700","林口區"
"244023","483-VK","2019/11/18 17:29:17","新北市林口區東明三街416號","121.39276","25.0711266666667","6501700","林口區"
"244017","485-VK","2019/11/18 17:29:27","新北市林口區文化一路二段202號","121.383186666667","25.080745","6501700","林口區"
"244009","656-BX","2019/11/18 17:29:17","新北市林口區寶林路269號","121.384593333333","25.0847733333333","6501700","林口區"
"244011","701-TV","2019/11/18 17:29:21","新北市林口區佳林路217號","121.383853333333","25.07658","6501700","林口區"
"244025","837-TS","2019/11/18 17:29:12","新北市林口區文化二路一段241巷28號","121.366191666667","25.0717133333333","6501700","林口區"
"244021","838-TS","2019/11/18 17:29:21","新北市林口區醒吾新村1號","121.396345","25.0791266666667","6501700","林口區"
"231046","719-UM","2019/11/18 17:13:56","新北市新店區直潭一街100號","121.534941666667","24.9390633333333","6500600","新店區"
"241015","062-VK","2019/11/18 17:29:26","新北市三重區長元街79號","121.50327","25.0668533333333","6500200","三重區"
"241017","063-VK","2019/11/18 17:29:23","新北市三重區重新路三段49號","121.493066666667","25.06165","6500200","三重區"
"241024","065-VK","2019/11/18 17:29:27","新北市三重區大勇街82巷15弄5號","121.479986666667","25.07181","6500200","三重區"
"241007","066-VK","2019/11/18 17:29:30","新北市三重區三和路四段145巷156號","121.48817","25.0794283333333","6500200","三重區"
"241002","090-VK","2019/11/18 17:29:25","新北市三重區環河北路三段468號","121.491116666667","25.09089","6500200","三重區"
"241003","091-VK","2019/11/18 17:29:17","新北市三重區富福街24號","121.490431666667","25.0835983333333","6500200","三重區"
"241014","316-R6","2019/11/18 17:29:13","新北市三重區安和路13號","121.501341666667","25.0683416666667","6500200","三重區"
"241016","266-UM","2019/11/18 17:29:30","新北市三重區信義西街104號","121.495906666667","25.0644516666667","6500200","三重區"
"241009","267-UM","2019/11/18 17:29:28","新北市三重區力行路二段162巷53號","121.481153333333","25.07639","6500200","三重區"
"241018","268-UM","2019/11/18 17:29:18","新北市三重區自強路一段183號","121.492445","25.0680566666667","6500200","三重區"
"241013","270-UM","2019/11/18 17:29:17","新北市三重區仁愛街141巷18號","121.496248333333","25.075715","6500200","三重區"
"241030","KED-0822","2019/11/18 17:29:11","新北市三重區中正南路287號","121.493015","25.0520366666667","6500200","三重區"
"241020","478-VK","2019/11/18 17:29:27","新北市三重區忠孝路二段4-3號","121.48657","25.0712466666667","6500200","三重區"
"241033","557-UM","2019/11/18 17:29:28","新北市三重區興德路133號","121.470098333333","25.053015","6500200","三重區"
"241019","KEA-2593","2019/11/18 17:29:28","新北市三重區自強路二段27號","121.489666666667","25.0693066666667","6500200","三重區"
"241012","743-BX","2019/11/18 17:29:30","新北市三重區龍門路174號","121.499083333333","25.073245","6500200","三重區"
"247016","KEA-2869","2019/11/18 17:29:15","新北市蘆洲區光華路22巷27號","121.46861","25.0843533333333","6501400","蘆洲區"
"247010","KED-0682","2019/11/18 17:29:28","新北市蘆洲區鷺江街1號","121.47941","25.0827716666667","6501400","蘆洲區"
"247006","893-R6","2019/11/18 17:29:20","新北市蘆洲區長安街68巷18號","121.463723333333","25.080765","6501400","蘆洲區"
"247008","500-BY","2019/11/18 17:29:26","新北市蘆洲區信義路34巷56號","121.475128333333","25.0779483333333","6501400","蘆洲區"
"247004","341-TH","2019/11/18 17:29:27","新北市蘆洲區中原路23號","121.460476666667","25.08293","6501400","蘆洲區"
"247024","057-VK","2019/11/18 17:29:29","新北市蘆洲區長興路389號","121.461125","25.0917466666667","6501400","蘆洲區"
"247014","056-VK","2019/11/18 17:29:28","新北市蘆洲區復興路56號","121.473043333333","25.085615","6501400","蘆洲區"
"247018","053-VK","2019/11/18 17:29:24","新北市蘆洲區民義街22巷20號","121.471838333333","25.0880466666667","6501400","蘆洲區"
"247022","007-UY","2019/11/18 17:29:27","新北市蘆洲區三民路301號","121.465468333333","25.0907733333333","6501400","蘆洲區"
"247002","001-UY","2019/11/18 17:29:29","新北市蘆洲區永樂街38巷67弄17號","121.45794","25.0907216666667","6501400","蘆洲區"
"228003","097-TW","2019/11/18 17:29:22","新北市貢寮區仁理村研海街62-2號","121.925463333333","25.04583","6502600","貢寮區"
"228001","212-TW","2019/11/18 17:29:29","新北市貢寮區仁理村仁愛路46號","121.925231666667","25.053315","6502600","貢寮區"
"228002","663-BX","2019/11/18 17:29:15","新北市貢寮區福隆里興隆街100巷7號","121.93513","25.0182383333333","6502600","貢寮區"
"224010","AGQ-8101","2019/11/18 17:29:12","新北市瑞芳區逢甲路1號","121.810151666667","25.108465","6501200","瑞芳區"
"224006","676-BX","2019/11/18 17:29:26","新北市瑞芳區傑魚坑路153號","121.790081666667","25.1095883333333","6501200","瑞芳區"
"224009","275-VK","2019/11/18 17:29:29","新北市瑞芳區汽車路159號","121.838083333333","25.1098183333333","6501200","瑞芳區"
"224008","273-VK","2019/11/18 17:29:24","新北市瑞芳區侯硐路204號","121.830398333333","25.0881533333333","6501200","瑞芳區"
"224005","271-BY","2019/11/18 17:29:23","新北市瑞芳區海濱路3巷2-1號","121.846905","25.1266666666667","6501200","瑞芳區"
"227001","642-TC","2019/11/18 17:23:07","新北市雙溪區三貂里政光路3-1號","121.850778333333","25.0632916666667","6502500","雙溪區"
"227002","400-TW","2019/11/18 17:29:27","新北市雙溪區共和里東榮街52號","121.866341666667","25.03364","6502500","雙溪區"
"251009","008-UM","2019/11/18 17:29:12","新北市淡水區建設街1巷1號","121.438971666667","25.1728066666667","6501000","淡水區"
"251004","009-UM","2019/11/18 17:08:44","新北市淡水區中正東路二段88巷15號","121.459043333333","25.1504816666667","6501000","淡水區"
"251005","010-UM","2019/11/18 17:29:14","新北市淡水區鄧公路33巷2號","121.451308333333","25.1709766666667","6501000","淡水區"
"251015","KEA-2871","2019/11/18 17:29:13","新北市淡水區三空泉20號","121.469171666667","25.165585","6501000","淡水區"
"251016","180-VK","2019/11/18 17:29:21","新北市淡水區埤島39-15號","121.452866666667","25.1953383333333","6501000","淡水區"
"251008","181-VK","2019/11/18 17:29:17","新北市淡水區大同路100巷9號","121.462683333333","25.1396516666667","6501000","淡水區"
"251013","182-VK","2019/11/18 17:29:25","新北市淡水區水尾子3號","121.465005","25.1950333333333","6501000","淡水區"
"251010","413-VK","2019/11/18 17:29:16","新北市淡水區中正路二段211號","121.426195","25.1891266666667","6501000","淡水區"
"251012","441-VK","2019/11/18 17:29:18","新北市淡水區北新路111號","121.448041666667","25.178455","6501000","淡水區"
"251007","442-VK","2019/11/18 17:29:14","新北市淡水區民生路56號","121.461985","25.1379316666667","6501000","淡水區"
"251006","561-UM","2019/11/18 17:29:23","新北市淡水區大仁街13號","121.442336666667","25.174955","6501000","淡水區"
"251014","577-R6","2019/11/18 17:29:31","新北市淡水區公埔子20-8號","121.469285","25.2279483333333","6501000","淡水區"
"251011","650-BX","2019/11/18 17:29:25","新北市淡水區三空泉7-1號","121.475951666667","25.16124","6501000","淡水區"
"251002","672-BX","2019/11/18 17:29:31","新北市淡水區中正路一段61號","121.42387","25.1778233333333","6501000","淡水區"
"251003","673-BX","2019/11/18 17:29:18","新北市淡水區中山路158號","121.440776666667","25.172845","6501000","淡水區"
"207003","681-TV","2019/11/18 17:29:24","新北市萬里區龜吼里美崙路38號","121.686425","25.1846116666667","6502800","萬里區"
"207004","291-VK","2019/11/18 17:29:15","新北市萬里區萬里里成功新村44號","121.687611666667","25.174635","6502800","萬里區"
"252002","178-VK","2019/11/18 17:29:22","新北市三芝區忠孝街1-14號","121.505523333333","25.2539233333333","6502100","三芝區"
"233002","762-BX","2019/11/18 17:29:23","新北市烏來區環山路108巷7-6號","121.548536666667","24.8624633333333","6502900","烏來區"
"247012","KED-0683","2019/11/18 17:29:17","新北市蘆洲區三民路70號","121.47547","25.08379","6501400","蘆洲區"
"252001","KED-0821","2019/11/18 17:29:27","新北市三芝區長安街119號","121.498025","25.2596366666667","6502100","三芝區"
"242042","AAC-296","2019/11/18 17:29:29","新北市新莊區新樹路113巷17號","121.43889","25.026605","6500500","新莊區"
"242060","986-R7","2019/11/18 17:29:29","新北市新莊區瓊林路59-38號","121.441105","25.023415","6500500","新莊區"
"242004","751-BX","2019/11/18 17:29:17","新北市新莊區中港路282號","121.453001666667","25.04414","6500500","新莊區"
"242029","615-BX","2019/11/18 17:29:23","新北市新莊區復興路二段174號","121.458563333333","25.0443583333333","6500500","新莊區"
"242027","613-BX","2019/11/18 17:29:19","新北市新莊區思源路45號","121.459941666667","25.0399333333333","6500500","新莊區"
"242058","612-BX","2019/11/18 17:29:21","新北市新莊區中正路400號","121.441925","25.0343983333333","6500500","新莊區"
"242048","566-BX","2019/11/18 17:29:24","新北市新莊區四維路215號","121.421671666667","25.0198816666667","6500500","新莊區"
"242053","497-BY","2019/11/18 17:29:26","新北市新莊區瓊林南路305巷25號","121.435655","25.0050333333333","6500500","新莊區"
"242013","442-UM","2019/11/18 17:29:26","新北市新莊區中誠街16巷2號","121.452021666667","25.0483583333333","6500500","新莊區"
"242002","441-UM","2019/11/18 17:29:21","新北市新莊區新莊路211號","121.45533","25.0354166666667","6500500","新莊區"
"242044","415-TV","2019/11/18 17:29:10","新北市新莊區富國路101-1號","121.421363333333","25.0255266666667","6500500","新莊區"
"242050","400-BY","2019/11/18 17:29:28","新北市新莊區瓊林南路1號","121.43851","25.0207216666667","6500500","新莊區"
"242025","362-BY","2019/11/18 17:29:20","新北市新莊區中港路268號","121.453145","25.0438866666667","6500500","新莊區"
"242023","353-BY","2019/11/18 17:29:25","新北市新莊區公園路148號","121.453123333333","25.0401133333333","6500500","新莊區"
"242015","132-UY","2019/11/18 17:29:24","新北市新莊區建中街83號","121.447126666667","25.0365883333333","6500500","新莊區"
"242039","135-UY","2019/11/18 17:29:25","新北市新莊區民安東路37號","121.428816666667","25.02095","6500500","新莊區"
"242056","172-VK","2019/11/18 17:29:26","新北市新莊區景德路204號","121.449273333333","25.0337833333333","6500500","新莊區"
"242017","173-VK","2019/11/18 17:29:20","新北市新莊區中港路292號","121.452886666667","25.0446383333333","6500500","新莊區"
"242031","175-VK","2019/11/18 17:29:17","新北市新莊區新泰路462號","121.443438333333","25.0448566666667","6500500","新莊區"
"242007","346-TH","2019/11/18 17:29:21","新北市新莊區中港路286號","121.45301","25.044385","6500500","新莊區"
"242021","347-TH","2019/11/18 17:29:26","新北市新莊區新莊路152巷28號","121.454863333333","25.0366116666667","6500500","新莊區"
"242036","348-TH","2019/11/18 17:29:28","新北市新莊區建國二路5-3號","121.43484","25.0236766666667","6500500","新莊區"
"242009","349-TH","2019/11/18 17:29:21","新北市新莊區中原路232號","121.452896666667","25.0546733333333","6500500","新莊區"
"242034","350-TH","2019/11/18 17:29:26","新北市新莊區新莊路372號","121.449306666667","25.033475","6500500","新莊區"
"242019","351-TH","2019/11/18 17:29:15","新北市新莊區中港路50號","121.455376666667","25.0384483333333","6500500","新莊區"
"238015","755-BX","2019/11/18 17:29:19","新北市樹林區保安街一段73號","121.422943333333","24.9950266666667","6500700","樹林區"
"238023","601-UM","2019/11/18 17:29:18","新北市樹林區三福街114號","121.406431666667","25.016355","6500700","樹林區"
"238019","599-UM","2019/11/18 17:29:27","新北市樹林區八德街136號","121.421408333333","24.9789116666667","6500700","樹林區"
"238024","5061-A6","2019/11/18 17:29:14","新北市樹林區鎮前街169巷21號","121.423271666667","24.988685","6500700","樹林區"
"238018","KEA-2217","2019/11/18 17:29:26","新北市樹林區鎮前街181號","121.421778333333","24.9869983333333","6500700","樹林區"
"238022","KEA-2213","2019/11/18 17:29:25","新北市樹林區仁愛街23號","121.421685","24.981715","6500700","樹林區"
"238021","KEA-2539","2019/11/18 17:29:21","新北市樹林區佳園路二段41號","121.391841666667","24.9626883333333","6500700","樹林區"
"238025","303-VK","2019/11/18 17:29:30","新北市樹林區保安街二段73號","121.415966666667","25.0007983333333","6500700","樹林區"
"238017","283-BY","2019/11/18 17:29:19","新北市樹林區中正路460號","121.412806666667","25.0123866666667","6500700","樹林區"
"238014","282-BY","2019/11/18 17:29:26","新北市樹林區保安街一段294巷20號","121.420281666667","24.9987016666667","6500700","樹林區"
"238020","268-VK","2019/11/18 17:29:30","新北市樹林區千歲街111-1號","121.429248333333","25.0016316666667","6500700","樹林區"
"238026","172-UY","2019/11/18 17:29:26","新北市樹林區中山路二段249巷2號","121.401866666667","24.97574","6500700","樹林區"
"238016","169-UY","2019/11/18 17:29:19","新北市樹林區中山路一段2巷5號","121.424275","24.9937066666667","6500700","樹林區"
"239007","AAC-297","2019/11/18 17:29:29","新北市鶯歌區中正一路187號","121.35334","24.9570416666667","6500800","鶯歌區"
"239006","891-R6","2019/11/18 17:29:30","新北市鶯歌區福安街7巷24弄25號","121.334613333333","24.9657333333333","6500800","鶯歌區"
"239008","527-UM","2019/11/18 17:29:17","新北市鶯歌區西湖街243巷1號","121.338598333333","24.9662733333333","6500800","鶯歌區"
"239005","526-UM","2019/11/18 17:29:10","新北市鶯歌區鶯桃路二段9號","121.325913333333","24.9719933333333","6500800","鶯歌區"
"239001","417-VK","2019/11/18 17:29:14","新北市鶯歌區尖山路235號","121.340033333333","24.943685","6500800","鶯歌區"
"239003","360-BY","2019/11/18 17:29:23","新北市鶯歌區德昌街201號","121.330018333333","24.960305","6500800","鶯歌區"
"239002","359-BY","2019/11/18 17:29:26","新北市鶯歌區南雅路416號","121.347493333333","24.954015","6500800","鶯歌區"
"239004","193-VK","2019/11/18 17:29:26","新北市鶯歌區文化路300號","121.352595","24.94673","6500800","鶯歌區"
"233001","KEA-2870","2019/11/18 17:29:22","新北市烏來區娃娃谷57號","121.528843333333","24.84065","6502900","烏來區"
"242046","281-VK","2019/11/18 17:29:19","新北市新莊區新樹路51號","121.440165","25.0319966666667","6500500","新莊區"
"242011","280-VK","2019/11/18 17:29:15","新北市新莊區中港路469號","121.452358333333","25.04906","6500500","新莊區"
