"lineid","car","time","location","longitude","latitude","cityid","cityname"
"234026","9371-KE","2019/11/18 17:43:23","新北市永和區永平路20號","121.513365","25.0087966666667","6500400","永和區"
"249005","172-UM","2019/11/18 17:43:19","新北市八里區荖阡坑路34-1號","121.402751666667","25.1297366666667","6502300","八里區"
"249001","173-UM","2019/11/18 17:43:28","新北市八里區龍米路二段153-8號","121.440178333333","25.1534433333333","6502300","八里區"
"249004","303-UY","2019/11/18 17:43:28","新北市八里區賢二街24號","121.419246666667","25.1585416666667","6502300","八里區"
"249002","305-UY","2019/11/18 17:43:27","新北市八里區坪子頂1號","121.442078333333","25.125875","6502300","八里區"
"249003","593-UM","2019/11/18 17:43:28","新北市八里區中山路二段212號","121.405425","25.15181","6502300","八里區"
"232011","375-UM","2019/11/18 17:43:21","新北市坪林區北宜路八段97號","121.70584","24.93499","6502000","坪林區"
"244007","080-UY","2019/11/18 17:43:27","新北市林口區林口路197號","121.387561666667","25.082625","6501700","林口區"
"244019","402-UM","2019/11/18 17:43:28","新北市林口區忠孝路554號","121.374003333333","25.0680416666667","6501700","林口區"
"244013","KEA-2802","2019/11/18 17:43:17","新北市林口區中山路151號","121.386878333333","25.0791933333333","6501700","林口區"
"244023","483-VK","2019/11/18 17:43:17","新北市林口區興林路438號","121.389005","25.06825","6501700","林口區"
"244017","485-VK","2019/11/18 17:43:27","新北市林口區文化二路一段260巷9號","121.371335","25.0730083333333","6501700","林口區"
"244009","656-BX","2019/11/18 17:43:17","新北市林口區文化一路二段173號","121.383175","25.08142","6501700","林口區"
"244011","701-TV","2019/11/18 17:43:21","新北市林口區中正路263號","121.390253333333","25.077625","6501700","林口區"
"244025","837-TS","2019/11/18 17:43:12","新北市林口區文化三路一段181號","121.36226","25.0701733333333","6501700","林口區"
"244021","838-TS","2019/11/18 17:43:21","新北市林口區仁愛路一段83巷38號","121.397705","25.0706083333333","6501700","林口區"
"222003","436-BY","2019/11/18 17:43:21","新北市深坑區北深路二段147號","121.614333333333","25.0023033333333","6501800","深坑區"
"222002","659-BX","2019/11/18 17:43:23","新北市深坑區深南路1號","121.622035","25.0049016666667","6501800","深坑區"
"241017","063-VK","2019/11/18 17:43:23","新北市三重區重新路二段99號","121.495521666667","25.0619366666667","6500200","三重區"
"241007","066-VK","2019/11/18 17:43:09","新北市蘆洲區永安南路一段178號","121.475528333333","25.07465","6500200","三重區"
"241002","090-VK","2019/11/18 17:42:05","新北市五股區中興路三段2巷10號","121.448033333333","25.0845866666667","6500200","三重區"
"241014","316-R6","2019/11/18 17:43:13","新北市三重區龍濱路231號","121.501638333333","25.07203","6500200","三重區"
"241016","266-UM","2019/11/18 17:43:10","新北市三重區重新路二段122號","121.496353333333","25.0615933333333","6500200","三重區"
"241009","267-UM","2019/11/18 17:43:28","新北市五股區凌雲路二段66號","121.438608333333","25.1063016666667","6500200","三重區"
"241024","462-BY","2019/11/18 17:43:31","新北市三重區力行路二段9巷3號","121.4824","25.0721183333333","6500200","三重區"
"241033","557-UM","2019/11/18 17:43:28","新北市三重區光復路一段5號","121.472101666667","25.047025","6500200","三重區"
"235063","006-UY","2019/11/18 17:43:15","新北市中和區員山路36巷16-3號","121.485093333333","24.9913716666667","6500300","中和區"
"247016","KEA-2869","2019/11/18 17:43:15","新北市蘆洲區中正路185巷31弄46號","121.467235","25.0831333333333","6501400","蘆洲區"
"247010","KED-0682","2019/11/18 17:43:28","新北市蘆洲區三民路2號","121.475998333333","25.0819633333333","6501400","蘆洲區"
"247006","893-R6","2019/11/18 17:43:20","新北市蘆洲區長安街23巷19號","121.463485","25.07852","6501400","蘆洲區"
"247020","546-UM","2019/11/18 17:43:22","新北市蘆洲區民義街101巷17-1號","121.473025","25.0913116666667","6501400","蘆洲區"
"247008","500-BY","2019/11/18 17:43:26","新北市蘆洲區和平路19巷14號","121.472258333333","25.0785483333333","6501400","蘆洲區"
"247004","341-TH","2019/11/18 17:43:27","新北市蘆洲區長安街249巷12號","121.458496666667","25.0831033333333","6501400","蘆洲區"
"247024","057-VK","2019/11/18 17:43:20","新北市蘆洲區光榮路101巷28號","121.46401","25.0901933333333","6501400","蘆洲區"
"247014","056-VK","2019/11/18 17:43:28","新北市蘆洲區中正路31號","121.471158333333","25.0822133333333","6501400","蘆洲區"
"247018","053-VK","2019/11/18 17:43:23","新北市蘆洲區三民路98巷9號","121.472573333333","25.0871733333333","6501400","蘆洲區"
"247022","007-UY","2019/11/18 17:43:28","新北市蘆洲區中正路262號","121.465545","25.08968","6501400","蘆洲區"
"247002","001-UY","2019/11/18 17:43:29","新北市蘆洲區永平街32巷15號","121.459026666667","25.0913783333333","6501400","蘆洲區"
"228003","097-TW","2019/11/18 17:43:22","新北市貢寮區仁理村仁和路43號","121.923975","25.0540233333333","6502600","貢寮區"
"228001","212-TW","2019/11/18 17:43:29","新北市貢寮區仁理村仁愛路95-1號","121.927678333333","25.0554266666667","6502600","貢寮區"
"228002","663-BX","2019/11/18 17:43:15","新北市貢寮區福隆里龜壽谷街13號","121.957411666667","25.005305","6502600","貢寮區"
"224006","676-BX","2019/11/18 17:43:26","新北市瑞芳區傑魚坑路49號","121.793513333333","25.1105033333333","6501200","瑞芳區"
"224009","275-VK","2019/11/18 17:43:29","新北市瑞芳區汽車路9-3號","121.845543333333","25.10984","6501200","瑞芳區"
"224008","273-VK","2019/11/18 17:43:24","新北市瑞芳區明燈路一段15號","121.823861666667","25.1075216666667","6501200","瑞芳區"
"224005","271-BY","2019/11/18 17:43:23","新北市瑞芳區海濱路38-1號","121.831093333333","25.1234883333333","6501200","瑞芳區"
"227001","642-TC","2019/11/18 17:23:07","新北市雙溪區三貂里政光路3-1號","121.850778333333","25.0632916666667","6502500","雙溪區"
"227002","400-TW","2019/11/18 17:43:27","新北市雙溪區共和里東榮街52號","121.866328333333","25.03365","6502500","雙溪區"
"251009","008-UM","2019/11/18 17:43:12","新北市淡水區中正路38-1號","121.443753333333","25.1692666666667","6501000","淡水區"
"251004","009-UM","2019/11/18 17:43:01","新北市淡水區民權路13-5號","121.45933","25.1415133333333","6501000","淡水區"
"251005","010-UM","2019/11/18 17:43:14","新北市淡水區鄧公路35巷2號","121.451575","25.1712566666667","6501000","淡水區"
"251015","KEA-2871","2019/11/18 17:43:13","新北市淡水區糞箕湖9-1號","121.485291666667","25.1707283333333","6501000","淡水區"
"251016","180-VK","2019/11/18 17:43:20","新北市淡水區埤島39-15號","121.45275","25.1958816666667","6501000","淡水區"
"251008","181-VK","2019/11/18 17:43:17","新北市淡水區八勢路一段123巷5弄5號","121.466576666667","25.1563216666667","6501000","淡水區"
"251013","182-VK","2019/11/18 17:43:25","新北市淡水區社厝坑3-9號","121.474601666667","25.1901683333333","6501000","淡水區"
"251010","413-VK","2019/11/18 17:43:16","新北市淡水區淡海路280巷33弄34-2號","121.418713333333","25.188605","6501000","淡水區"
"251012","441-VK","2019/11/18 17:43:27","新北市淡水區北新路一段8號","121.453991666667","25.1809833333333","6501000","淡水區"
"251007","442-VK","2019/11/18 17:43:14","新北市淡水區民生路124巷6號","121.463888333333","25.138085","6501000","淡水區"
"251006","561-UM","2019/11/18 17:43:13","新北市淡水區大信街24巷4號","121.442003333333","25.17661","6501000","淡水區"
"251014","577-R6","2019/11/18 17:43:31","新北市淡水區北勢子19號","121.47922","25.22809","6501000","淡水區"
"251011","650-BX","2019/11/18 17:43:25","新北市淡水區小坪頂74號","121.484685","25.1589983333333","6501000","淡水區"
"251002","672-BX","2019/11/18 17:43:31","新北市淡水區中山路151-7號","121.440238333333","25.1723833333333","6501000","淡水區"
"251003","673-BX","2019/11/18 17:43:18","新北市淡水區中山北路一段98號","121.442501666667","25.17651","6501000","淡水區"
"207003","681-TV","2019/11/18 17:43:26","新北市萬里區龜吼里漁澳路25-1號","121.68624","25.194775","6502800","萬里區"
"207004","291-VK","2019/11/18 17:43:18","新北市萬里區中幅里中福路5號","121.686876666667","25.1647416666667","6502800","萬里區"
"252002","178-VK","2019/11/18 17:43:22","新北市三芝區中正路二段6號","121.50475","25.2554966666667","6502100","三芝區"
"237004","KEA-2597","2019/11/18 17:43:14","新北市三峽區中山路459巷52-1號","121.356588333333","24.9359716666667","6500900","三峽區"
"237013","252-BX","2019/11/18 17:43:27","新北市三峽區愛國路16巷7號","121.373906666667","24.9334","6500900","三峽區"
"237014","433-BY","2019/11/18 17:43:12","新北市三峽區中山路246號","121.36219","24.9374983333333","6500900","三峽區"
"237011","KEA-2596","2019/11/18 17:43:11","新北市三峽區仁愛街26號","121.368406666667","24.9321016666667","6500900","三峽區"
"237010","706-TV","2019/11/18 17:43:28","新北市三峽區中山路121號","121.365485","24.9359283333333","6500900","三峽區"
"237005","AKY-6261","2019/11/18 17:43:26","新北市三峽區中山路459巷135號","121.348558333333","24.9330033333333","6500900","三峽區"
"236042","KED-0685","2019/11/18 17:43:24","新北市土城區城林路6巷80號","121.438485","24.9795683333333","6501300","土城區"
"233002","762-BX","2019/11/18 17:43:23","新北市烏來區環山路18號","121.549363333333","24.8684883333333","6502900","烏來區"
"236078","166-UM","2019/11/18 17:43:30","新北市土城區永寧路25號","121.430431666667","24.963705","6501300","土城區"
"236014","270-VK","2019/11/18 17:43:24","新北市土城區城林路6巷80號","121.438485","24.9795866666667","6501300","土城區"
"236039","271-VK","2019/11/18 17:43:25","新北市土城區城林路6巷80號","121.438463333333","24.9797416666667","6501300","土城區"
"247012","KED-0683","2019/11/18 17:43:16","新北市蘆洲區復興路60巷1弄19號","121.475386666667","25.0863933333333","6501400","蘆洲區"
"252001","KED-0821","2019/11/18 17:43:27","新北市三芝區中山路一段8號","121.500628333333","25.2586866666667","6502100","三芝區"
"236020","401-BY","2019/11/18 17:43:19","新北市土城區城林路6巷80號","121.438745","24.9796566666667","6501300","土城區"
"236059","912-UM","2019/11/18 17:43:15","新北市土城區城林路6巷80號","121.438456666667","24.9796683333333","6501300","土城區"
"242042","AAC-296","2019/11/18 17:43:29","新北市泰山區中山路二段841號","121.425913333333","25.03539","6500500","新莊區"
"242060","986-R7","2019/11/18 17:43:29","新北市新莊區瓊林南路79-1號","121.434373333333","25.012945","6500500","新莊區"
"242004","751-BX","2019/11/18 17:43:17","新北市新莊區自立街212號","121.45712","25.0453816666667","6500500","新莊區"
"242029","615-BX","2019/11/18 17:43:23","新北市新莊區復興路一段77號","121.44816","25.0426216666667","6500500","新莊區"
"242027","613-BX","2019/11/18 17:43:19","新北市新莊區福壽街138號","121.457725","25.0517516666667","6500500","新莊區"
"242058","612-BX","2019/11/18 17:43:29","新北市新莊區中正路672號","121.420898333333","25.028435","6500500","新莊區"
"242048","566-BX","2019/11/18 17:43:29","新北市新莊區萬安街125號","121.420678333333","25.022395","6500500","新莊區"
"242053","497-BY","2019/11/18 17:43:26","新北市新莊區新樹路699巷35號","121.43314","25.00109","6500500","新莊區"
"242013","442-UM","2019/11/18 17:43:21","新北市新莊區中誠街142巷13弄2號","121.448648333333","25.0481716666667","6500500","新莊區"
"242002","441-UM","2019/11/18 17:43:21","新北市新莊區新莊路435號","121.450126666667","25.0334966666667","6500500","新莊區"
"242044","415-TV","2019/11/18 17:43:30","新北市新莊區中正路871巷32號","121.419615","25.026435","6500500","新莊區"
"242050","400-BY","2019/11/18 17:43:28","新北市新莊區西盛街201巷13號","121.42901","25.01708","6500500","新莊區"
"242025","362-BY","2019/11/18 17:43:20","新北市新莊區思源路487號","121.460246666667","25.0560616666667","6500500","新莊區"
"242023","353-BY","2019/11/18 17:43:24","新北市新莊區民樂街73號","121.457868333333","25.042065","6500500","新莊區"
"242015","132-UY","2019/11/18 17:43:04","新北市新莊區新泰路368號","121.44449","25.0426416666667","6500500","新莊區"
"242039","135-UY","2019/11/18 17:43:25","新北市新莊區民安路141號","121.425211666667","25.02398","6500500","新莊區"
"242056","172-VK","2019/11/18 17:43:26","新北市新莊區瓊林路13-8號","121.448128333333","25.030155","6500500","新莊區"
"242017","173-VK","2019/11/18 17:43:20","新北市新莊區復興路一段141號","121.450208333333","25.0431916666667","6500500","新莊區"
"242031","175-VK","2019/11/18 17:43:17","新北市新莊區新泰路349號","121.444743333333","25.0421283333333","6500500","新莊區"
"242007","346-TH","2019/11/18 17:43:21","新北市新莊區福樂街69號","121.457088333333","25.0477983333333","6500500","新莊區"
"242021","347-TH","2019/11/18 17:43:26","新北市新莊區中華路一段118號","121.452501666667","25.04058","6500500","新莊區"
"242036","348-TH","2019/11/18 17:43:32","新北市新莊區後港一路102號","121.428","25.0268266666667","6500500","新莊區"
"242009","349-TH","2019/11/18 17:43:27","新北市新莊區福壽街169巷13號","121.456796666667","25.053645","6500500","新莊區"
"242034","350-TH","2019/11/18 17:43:26","新北市新莊區新莊路608號","121.443645","25.0328566666667","6500500","新莊區"
"242019","351-TH","2019/11/18 17:43:15","新北市新莊區中港路271號","121.453535","25.0435816666667","6500500","新莊區"
"238015","755-BX","2019/11/18 17:43:13","新北市樹林區長壽街70巷1弄3號","121.421441666667","24.9942816666667","6500700","樹林區"
"238023","601-UM","2019/11/18 17:43:25","新北市樹林區三福街68號","121.404855","25.0164883333333","6500700","樹林區"
"238019","599-UM","2019/11/18 17:43:27","新北市樹林區太平路93號","121.419046666667","24.981335","6500700","樹林區"
"238018","KEA-2217","2019/11/18 17:43:23","新北市樹林區博愛街73號","121.427133333333","24.9921466666667","6500700","樹林區"
"238022","KEA-2213","2019/11/18 17:43:25","新北市樹林區太順街62巷1弄2號","121.417696666667","24.9794333333333","6500700","樹林區"
"238021","KEA-2539","2019/11/18 17:43:21","新北市樹林區柑園街一段67號","121.402313333333","24.9602683333333","6500700","樹林區"
"238025","303-VK","2019/11/18 17:43:30","新北市樹林區三俊街50號","121.412166666667","25.0155666666667","6500700","樹林區"
"238017","283-BY","2019/11/18 17:43:19","新北市樹林區三德街30巷23號","121.414703333333","25.01247","6500700","樹林區"
"238014","282-BY","2019/11/18 17:43:26","新北市樹林區保安街一段289巷56號","121.417273333333","24.9962","6500700","樹林區"
"238020","268-VK","2019/11/18 17:43:30","新北市樹林區俊英街166巷8號","121.427016666667","25.0071466666667","6500700","樹林區"
"238026","172-UY","2019/11/18 17:43:26","新北市樹林區新興街19巷34弄22號","121.402175","24.9727833333333","6500700","樹林區"
"238016","169-UY","2019/11/18 17:43:19","新北市樹林區復興路306號","121.41689","24.9870583333333","6500700","樹林區"
"239007","AAC-297","2019/11/18 17:43:29","新北市鶯歌區鶯桃路171號","121.336956666667","24.9553833333333","6500800","鶯歌區"
"239006","891-R6","2019/11/18 17:43:10","新北市鶯歌區鶯桃路436巷61弄4號","121.333773333333","24.966875","6500800","鶯歌區"
"239008","527-UM","2019/11/18 17:43:17","新北市鶯歌區大湖路391號","121.330953333333","24.97886","6500800","鶯歌區"
"239005","526-UM","2019/11/18 17:43:32","新北市鶯歌區鳳吉四街15號","121.326533333333","24.9726216666667","6500800","鶯歌區"
"239001","417-VK","2019/11/18 17:43:14","新北市鶯歌區中正三路215號","121.335283333333","24.939355","6500800","鶯歌區"
"239003","360-BY","2019/11/18 17:43:23","新北市鶯歌區鶯桃路202巷9弄13號","121.337273333333","24.9589433333333","6500800","鶯歌區"
"239002","359-BY","2019/11/18 17:43:26","新北市鶯歌區南雅路491號","121.345643333333","24.95396","6500800","鶯歌區"
"239004","193-VK","2019/11/18 17:43:26","新北市鶯歌區三鶯路109號","121.359495","24.9442616666667","6500800","鶯歌區"
"221008","489-VK","2019/11/18 17:43:28","新北市汐止區康寧街901號","121.651473333333","25.0750283333333","6501100","汐止區"
"221010","269-BY","2019/11/18 17:43:19","新北市汐止區汐萬路一段418巷28號","121.649903333333","25.0786016666667","6501100","汐止區"
"221029","298-VK","2019/11/18 17:43:17","新北市汐止區康寧街901號","121.651688333333","25.074935","6501100","汐止區"
"233001","KEA-2870","2019/11/18 17:43:16","新北市烏來區信福路6巷6號","121.527661666667","24.84075","6502900","烏來區"
"242046","281-VK","2019/11/18 17:43:28","新北市新莊區建國一路27號","121.43411","25.0312933333333","6500500","新莊區"
"242011","280-VK","2019/11/18 17:43:15","新北市新莊區榮華路二段2號","121.45086","25.055845","6500500","新莊區"
