"lineid","car","time","location","longitude","latitude","cityid","cityname"
"234013","KEA-2591","2019/11/18 20:43:13","新北市新店區安民街115巷16號","121.51509","24.9681383333333","6500400","永和區"
"249001","173-UM","2019/11/18 20:43:17","新北市八里區中山路三段227號","121.381925","25.1403433333333","6502300","八里區"
"249004","303-UY","2019/11/18 20:43:23","新北市八里區中山路一段157巷26號","121.412945","25.1581233333333","6502300","八里區"
"234074","AAC-211","2019/11/18 20:43:17","新北市永和區竹林路39巷32弄22號","121.520866666667","25.0152","6500400","永和區"
"222003","436-BY","2019/11/18 20:43:21","新北市深坑區阿柔洋40號","121.610308333333","24.998475","6501800","深坑區"
"222002","659-BX","2019/11/18 20:43:23","新北市深坑區北深路三段274號","121.598018333333","25.0048133333333","6501800","深坑區"
"231061","002-UM","2019/11/18 20:43:24","新北市新店區新和街41號","121.519318333333","24.9850816666667","6500600","新店區"
"231044","046-UY","2019/11/18 20:43:12","新北市新店區建國路221號","121.537596666667","24.9814033333333","6500600","新店區"
"231060","106-UY","2019/11/18 20:43:29","新北市新店區安康路三段628號","121.478753333333","24.9459166666667","6500600","新店區"
"231051","107-UY","2019/11/18 20:43:17","新北市新店區中央七街112號","121.525643333333","24.9776766666667","6500600","新店區"
"231049","108-UY","2019/11/18 20:43:16","新北市新店區永業路81巷5弄33號","121.531061666667","24.9500333333333","6500600","新店區"
"231065","110-UY","2019/11/18 20:43:23","新北市新店區安祥路104巷6弄5號","121.481603333333","24.9629383333333","6500600","新店區"
"231068","187-VK","2019/11/18 20:43:21","新北市新店區寶元路一段89號","121.543338333333","24.9850766666667","6500600","新店區"
"231062","256-BX","2019/11/18 20:43:13","新北市新店區安泰路60巷55弄170號","121.484813333333","24.9456466666667","6500600","新店區"
"231054","260-TV","2019/11/18 20:43:11","新北市新店區北新路一段88巷9號","121.542613333333","24.9673783333333","6500600","新店區"
"231042","268-BY","2019/11/18 20:43:22","新北市新店區寶高路118號","121.554533333333","24.9759766666667","6500600","新店區"
"231064","278-BY","2019/11/18 20:43:27","新北市新店區安民街389號","121.51607","24.977035","6500600","新店區"
"231050","AAD-862","2019/11/18 20:43:15","新北市新店區中正路247巷5號","121.538786666667","24.972845","6500600","新店區"
"231045","355-BY","2019/11/18 20:43:16","新北市新店區長春路20-3號","121.549751666667","24.9573766666667","6500600","新店區"
"231058","3713-VJ","2019/11/18 20:43:16","新北市新店區平等街1號","121.537056666667","24.97432","6500600","新店區"
"231056","4715-K9","2019/11/18 20:43:25","新北市新店區安業街8巷2號","121.514998333333","24.9777633333333","6500600","新店區"
"231067","4772-VM","2019/11/18 20:43:10","新北市新店區安康路一段355號","121.519891666667","24.963775","6500600","新店區"
"231052","513-UM","2019/11/18 20:43:21","新北市新店區新烏路二段300號","121.547845","24.9125766666667","6500600","新店區"
"231040","617-UM","2019/11/18 20:43:14","新北市新店區中正路263巷2號","121.538458333333","24.973495","6500600","新店區"
"231041","619-UM","2019/11/18 20:43:24","新北市新店區中正路689號","121.533953333333","24.9905166666667","6500600","新店區"
"231063","641-BX","2019/11/18 20:43:25","新北市新店區如意街3巷1號","121.495693333333","24.94946","6500600","新店區"
"231047","KED-0819","2019/11/18 20:43:24","新北市新店區寶元路二段1巷2號","121.55062","24.984175","6500600","新店區"
"231057","720-UM","2019/11/18 20:43:17","新北市新店區花園六路二段9號","121.555775","24.933245","6500600","新店區"
"231059","897-TW","2019/11/18 20:43:16","新北市新店區僑信路107號","121.500418333333","24.9465483333333","6500600","新店區"
"231043","899-TW","2019/11/18 20:43:28","新北市新店區博愛街13巷24號","121.540195","24.9739983333333","6500600","新店區"
"231066","AKT-0513","2019/11/18 20:43:25","新北市新店區安興路69-1號","121.515713333333","24.9748716666667","6500600","新店區"
"241011","013-R5","2019/11/18 20:43:24","新北市三重區龍門路174號","121.499068333333","25.0732366666667","6500200","三重區"
"241028","022-UY","2019/11/18 20:43:17","新北市三重區中正南路50號","121.493941666667","25.0599266666667","6500200","三重區"
"241008","059-VK","2019/11/18 20:43:13","新北市三重區下竹圍街42-1號","121.480991666667","25.0748316666667","6500200","三重區"
"241031","061-VK","2019/11/18 20:43:12","新北市三重區重新路四段41巷5弄15號","121.487781666667","25.0585216666667","6500200","三重區"
"241015","062-VK","2019/11/18 20:43:26","新北市三重區雙園街10號","121.49764","25.0681283333333","6500200","三重區"
"241017","063-VK","2019/11/18 20:43:27","新北市三重區民生街38巷1弄9號","121.4918","25.0667766666667","6500200","三重區"
"241024","065-VK","2019/11/18 20:43:27","新北市三重區忠孝路三段63號","121.480728333333","25.0662383333333","6500200","三重區"
"241007","066-VK","2019/11/18 20:43:30","新北市三重區三和路四段95-7號","121.487671666667","25.0761883333333","6500200","三重區"
"241002","090-VK","2019/11/18 20:43:25","新北市三重區仁義街159巷1號","121.49746","25.0812066666667","6500200","三重區"
"241003","091-VK","2019/11/18 20:43:12","新北市三重區五華街141巷58號","121.493515","25.0867166666667","6500200","三重區"
"241006","262-UM","2019/11/18 20:43:25","新北市三重區車路頭街135-1號","121.484215","25.0761966666667","6500200","三重區"
"241016","266-UM","2019/11/18 20:43:30","新北市三重區長壽西街49號","121.496103333333","25.0672033333333","6500200","三重區"
"241009","267-UM","2019/11/18 20:43:16","新北市三重區碧華街51號","121.484631666667","25.0813316666667","6500200","三重區"
"241018","268-UM","2019/11/18 20:43:17","新北市三重區正義北路337號","121.493665","25.071575","6500200","三重區"
"241032","269-UM","2019/11/18 20:43:24","新北市三重區重陽路一段120巷35號","121.485113333333","25.0601666666667","6500200","三重區"
"241013","270-UM","2019/11/18 20:43:23","新北市三重區三和路四段152號","121.488411666667","25.075725","6500200","三重區"
"241025","271-UM","2019/11/18 20:43:20","新北市三重區忠孝路三段99巷11號","121.479996666667","25.06459","6500200","三重區"
"241035","KEA-2210","2019/11/18 20:43:13","新北市三重區三和路三段41號","121.495581666667","25.071305","6500200","三重區"
"241030","KED-0822","2019/11/18 20:43:11","新北市三重區成功路73巷18號","121.489441666667","25.0519483333333","6500200","三重區"
"241004","475-VK","2019/11/18 20:43:18","新北市三重區仁愛街406巷3號","121.490688333333","25.0812016666667","6500200","三重區"
"241020","478-VK","2019/11/18 20:43:18","新北市三重區忠孝路一段101號","121.48953","25.072155","6500200","三重區"
"241026","480-VK","2019/11/18 20:43:17","新北市三重區和平街1號","121.500081666667","25.0622583333333","6500200","三重區"
"241023","545-UM","2019/11/18 20:43:22","新北市三重區忠孝路三段75巷19號","121.479708333333","25.066225","6500200","三重區"
"241001","547-UM","2019/11/18 20:43:27","新北市三重區自強路三段76巷14號","121.486158333333","25.0740916666667","6500200","三重區"
"241033","557-UM","2019/11/18 20:43:28","新北市三重區中興北街177號","121.469068333333","25.05599","6500200","三重區"
"241019","KEA-2593","2019/11/18 20:43:27","新北市三重區忠孝路一段10巷2號","121.491948333333","25.07154","6500200","三重區"
"241012","743-BX","2019/11/18 20:43:30","新北市三重區龍濱路219巷12號","121.502288333333","25.0721483333333","6500200","三重區"
"241022","KED-0820","2019/11/18 20:43:27","新北市三重區貴陽街20號","121.484213333333","25.06202","6500200","三重區"
"241005","KED-0670","2019/11/18 20:43:20","新北市三重區五華街167號","121.490256666667","25.0850883333333","6500200","三重區"
"241029","942-UM","2019/11/18 20:43:26","新北市三重區泉州街84巷18號","121.495831666667","25.0542933333333","6500200","三重區"
"235055","183-VK","2019/11/18 20:43:24","新北市五股區天乙路102-18號","121.447331666667","25.1070166666667","6500300","中和區"
"247016","KEA-2869","2019/11/18 20:43:16","新北市蘆洲區中山一路282號","121.471163333333","25.0791083333333","6501400","蘆洲區"
"247010","KED-0682","2019/11/18 20:43:14","新北市蘆洲區民族路7號","121.475686666667","25.0839733333333","6501400","蘆洲區"
"235069","4980-A6","2019/11/18 20:43:29","新北市中和區員山路359巷2號","121.480916666667","25.0021116666667","6500300","中和區"
"220086","073-UY","2019/11/18 20:43:32","新北市樹林區八德街666號","121.395635","24.9687733333333","6500100","板橋區"
"247006","893-R6","2019/11/18 20:43:15","新北市蘆洲區和平路124號","121.467406666667","25.0801683333333","6501400","蘆洲區"
"247008","500-BY","2019/11/18 20:43:19","新北市蘆洲區永安北路二段12巷15號","121.480485","25.0811183333333","6501400","蘆洲區"
"247004","341-TH","2019/11/18 20:43:16","新北市蘆洲區長安街231號","121.4593","25.0827533333333","6501400","蘆洲區"
"247024","057-VK","2019/11/18 20:43:23","新北市蘆洲區長樂路91號","121.462421666667","25.08732","6501400","蘆洲區"
"247014","056-VK","2019/11/18 20:43:24","新北市蘆洲區成功路74號","121.473173333333","25.081085","6501400","蘆洲區"
"247022","007-UY","2019/11/18 20:43:12","新北市蘆洲區中正路164號","121.468746666667","25.0857","6501400","蘆洲區"
"247002","001-UY","2019/11/18 20:43:26","新北市蘆洲區長榮路341號","121.45958","25.0874916666667","6501400","蘆洲區"
"224009","275-VK","2019/11/18 20:42:46","新北市瑞芳區大寮路356-1號","121.784726666667","25.10327","6501200","瑞芳區"
"222001","KEA-2212","2019/11/18 20:43:24","新北市深坑區北深路三段204號","121.601303333333","25.003745","6501800","深坑區"
"251015","KEA-2871","2019/11/18 20:43:13","新北市淡水區淡金路三段446號","121.450798333333","25.2143883333333","6501000","淡水區"
"251016","180-VK","2019/11/18 20:43:20","新北市淡水區後洲子9-4號","121.447173333333","25.2245816666667","6501000","淡水區"
"251013","182-VK","2019/11/18 20:43:27","新北市淡水區番子厝12號","121.46012","25.2018766666667","6501000","淡水區"
"251010","413-VK","2019/11/18 20:43:16","新北市淡水區沙崙路131巷5號","121.422685","25.182915","6501000","淡水區"
"251012","441-VK","2019/11/18 20:43:18","新北市淡水區興仁路103巷60號","121.450321666667","25.2166483333333","6501000","淡水區"
"251007","442-VK","2019/11/18 20:43:13","新北市淡水區學府路102巷62號","121.453446666667","25.1711533333333","6501000","淡水區"
"251001","559-UM","2019/11/18 20:43:12","新北市淡水區淡金路一段96號","121.457886666667","25.1740366666667","6501000","淡水區"
"251006","561-UM","2019/11/18 20:43:13","新北市淡水區商工路30號","121.44728","25.1882583333333","6501000","淡水區"
"251014","577-R6","2019/11/18 20:43:30","新北市淡水區公埔子32-8號","121.461608333333","25.2323383333333","6501000","淡水區"
"251002","672-BX","2019/11/18 20:43:31","新北市淡水區中正路32號","121.443885","25.169205","6501000","淡水區"
"251003","673-BX","2019/11/18 20:43:17","新北市淡水區新民街152巷6弄22號","121.438795","25.1785166666667","6501000","淡水區"
"247012","KED-0683","2019/11/18 20:43:23","新北市蘆洲區中興街77號","121.482038333333","25.0879483333333","6501400","蘆洲區"
"242042","AAC-296","2019/11/18 20:43:24","新北市新莊區天祥街19巷1-1號","121.417418333333","25.027775","6500500","新莊區"
"242060","986-R7","2019/11/18 20:43:29","新北市新莊區新樹路262號","121.432655","25.0148333333333","6500500","新莊區"
"242004","751-BX","2019/11/18 20:43:14","新北市新莊區化成路371巷27號","121.463538333333","25.0569966666667","6500500","新莊區"
"242029","615-BX","2019/11/18 20:43:29","新北市新莊區中華路二段41號","121.453321666667","25.0466633333333","6500500","新莊區"
"242027","613-BX","2019/11/18 20:43:29","新北市新莊區思源路269號","121.459828333333","25.0478066666667","6500500","新莊區"
"242058","612-BX","2019/11/18 20:43:25","新北市新莊區民安路138號","121.424161666667","25.0253783333333","6500500","新莊區"
"242048","566-BX","2019/11/18 20:43:30","新北市新莊區中正路847號","121.420108333333","25.0281316666667","6500500","新莊區"
"242053","497-BY","2019/11/18 20:43:26","新北市新莊區民安西路191號","121.42608","25.01553","6500500","新莊區"
"242013","442-UM","2019/11/18 20:43:20","新北市新莊區中和街191巷33號","121.447185","25.0507033333333","6500500","新莊區"
"242002","441-UM","2019/11/18 20:43:21","新北市新莊區中港路五守新村16巷6號","121.454851666667","25.0388966666667","6500500","新莊區"
"242044","415-TV","2019/11/18 20:43:15","新北市新莊區龍安路90號","121.417635","25.0207216666667","6500500","新莊區"
"242050","400-BY","2019/11/18 20:43:14","新北市新莊區民安西路161號","121.426201666667","25.0163216666667","6500500","新莊區"
"242025","362-BY","2019/11/18 20:43:16","新北市三重區疏洪西路399號","121.469298333333","25.063735","6500500","新莊區"
"242023","353-BY","2019/11/18 20:43:26","新北市新莊區化成路624號","121.466115","25.0549433333333","6500500","新莊區"
"242015","132-UY","2019/11/18 20:43:13","新北市新莊區復興路一段89號","121.44853","25.0427516666667","6500500","新莊區"
"242039","135-UY","2019/11/18 20:43:29","新北市新莊區瓊林北路33-1號","121.43899","25.0216016666667","6500500","新莊區"
"242056","172-VK","2019/11/18 20:43:12","新北市新莊區瓊泰路80巷45號","121.444938333333","25.0292033333333","6500500","新莊區"
"242017","173-VK","2019/11/18 20:43:20","新北市新莊區中港三街147號","121.447985","25.045945","6500500","新莊區"
"242031","175-VK","2019/11/18 20:43:17","新北市新莊區中正路508巷5號","121.43586","25.03326","6500500","新莊區"
"242007","346-TH","2019/11/18 20:43:21","新北市新莊區福壽街56巷5號","121.45871","25.0488416666667","6500500","新莊區"
"242021","347-TH","2019/11/18 20:43:25","新北市新莊區公園路98號","121.450626666667","25.0399283333333","6500500","新莊區"
"242036","348-TH","2019/11/18 20:43:23","新北市新莊區建安街16巷3號","121.428395","25.0264116666667","6500500","新莊區"
"242009","349-TH","2019/11/18 20:43:21","新北市新莊區福壽街99巷15弄7號","121.456761666667","25.050135","6500500","新莊區"
"242034","350-TH","2019/11/18 20:43:26","新北市新莊區建中街110號","121.446081666667","25.0365483333333","6500500","新莊區"
"242019","351-TH","2019/11/18 20:43:28","新北市新莊區中港路9號","121.454958333333","25.0370416666667","6500500","新莊區"
"221008","489-VK","2019/11/18 20:43:28","新北市汐止區康寧街426號","121.630721666667","25.0681216666667","6501100","汐止區"
"221036","130-UY","2019/11/18 20:43:27","新北市汐止區新昌路21號","121.661958333333","25.0676333333333","6501100","汐止區"
"221015","131-UY","2019/11/18 20:43:23","新北市汐止區建成路26號","121.664525","25.0727283333333","6501100","汐止區"
"221012","278-VK","2019/11/18 20:43:21","新北市汐止區保新街275號","121.692385","25.068565","6501100","汐止區"
"221023","279-VK","2019/11/18 20:43:29","新北市汐止區湖東街76巷1號","121.635815","25.073475","6501100","汐止區"
"221027","281-BY","2019/11/18 20:43:12","新北市汐止區大同路二段447號","121.659591666667","25.06758","6501100","汐止區"
"221029","298-VK","2019/11/18 20:43:17","新北市汐止區大同路一段421號","121.642723333333","25.0612366666667","6501100","汐止區"
"221021","299-VK","2019/11/18 20:43:21","新北市汐止區水源路一段293號","121.654416666667","25.058275","6501100","汐止區"
"221031","353-TW","2019/11/18 20:43:26","新北市汐止區中興路27巷22號","121.63408","25.0608166666667","6501100","汐止區"
"221035","622-UM","2019/11/18 20:43:26","新北市汐止區長江街101-5號","121.658708333333","25.0732283333333","6501100","汐止區"
"221025","623-UM","2019/11/18 20:42:08","新北市汐止區水源路二段189號","121.65783","25.0533066666667","6501100","汐止區"
"221033","647-BX","2019/11/18 20:43:29","新北市汐止區合順街18巷8弄5號","121.620345","25.0419433333333","6501100","汐止區"
"221002","707-TV","2019/11/18 20:43:16","新北市汐止區福德二路163號","121.631113333333","25.0651933333333","6501100","汐止區"
"221018","753-BX","2019/11/18 20:38:31","新北市汐止區茄苳路70號","121.666743333333","25.0706666666667","6501100","汐止區"
"220083","286-VK","2019/11/18 20:43:25","新北市板橋區僑中二街116巷10號","121.445263333333","25.0065666666667","6500100","板橋區"
"242046","281-VK","2019/11/18 20:43:19","新北市新莊區裕民街25號","121.419105","25.0254383333333","6500500","新莊區"
"242011","280-VK","2019/11/18 20:43:15","新北市新莊區中榮街122巷2號","121.446585","25.0531566666667","6500500","新莊區"
"220077","687-BX","2019/11/18 20:43:19","新北市林口區太平里180號","121.366975","25.1350533333333","6500100","板橋區"
