"lineid","car","time","location","longitude","latitude","cityid","cityname"
"231060","106-UY","2019/11/18 21:13:29","新北市新店區安康路二段454號","121.494436666667","24.954235","6500600","新店區"
"231051","107-UY","2019/11/18 21:13:17","新北市新店區中正路700巷40號","121.535471666667","24.9917366666667","6500600","新店區"
"231065","110-UY","2019/11/18 21:13:22","新北市新店區安祥路35-2號","121.490735","24.9564983333333","6500600","新店區"
"231068","187-VK","2019/11/18 21:13:21","新北市新店區安康路二段320巷6號","121.505498333333","24.9602216666667","6500600","新店區"
"231062","256-BX","2019/11/18 21:13:33","新北市新店區雙城路60巷16弄13號","121.491753333333","24.9478833333333","6500600","新店區"
"231050","AAD-862","2019/11/18 21:13:15","新北市新店區華興街11號","121.537846666667","24.969585","6500600","新店區"
"231040","617-UM","2019/11/18 21:13:28","新北市新店區北新路一段131號","121.539553333333","24.9628716666667","6500600","新店區"
"231063","641-BX","2019/11/18 21:13:25","新北市新店區玫瑰路57巷24號","121.496555","24.9462416666667","6500600","新店區"
"231057","720-UM","2019/11/18 21:13:17","新北市新店區屈尺路55-1號","121.546211666667","24.9225716666667","6500600","新店區"
"231059","897-TW","2019/11/18 21:13:16","新北市新店區僑義路33號","121.500521666667","24.9504716666667","6500600","新店區"
"241028","022-UY","2019/11/18 21:13:17","新北市三重區同安街112號","121.494278333333","25.056275","6500200","三重區"
"241008","059-VK","2019/11/18 21:13:13","新北市三重區自強路一段62號","121.49731","25.0666783333333","6500200","三重區"
"241031","061-VK","2019/11/18 21:13:12","新北市三重區五谷王南街46巷37號","121.475746666667","25.0455133333333","6500200","三重區"
"241015","062-VK","2019/11/18 21:13:26","新北市三重區河邊北街23號","121.504245","25.0654033333333","6500200","三重區"
"241017","063-VK","2019/11/18 21:13:27","新北市三重區大同北路132巷8號","121.492271666667","25.0646283333333","6500200","三重區"
"241024","065-VK","2019/11/18 21:13:27","新北市三重區力行路二段4號","121.48166","25.071925","6500200","三重區"
"241007","066-VK","2019/11/18 21:13:30","新北市三重區車路頭街135-1號","121.484251666667","25.075995","6500200","三重區"
"241002","090-VK","2019/11/18 21:13:25","新北市三重區五華街18號","121.494836666667","25.0803633333333","6500200","三重區"
"241003","091-VK","2019/11/18 21:13:12","新北市三重區仁義街228巷1號","121.494901666667","25.0847766666667","6500200","三重區"
"241006","262-UM","2019/11/18 21:13:25","新北市三重區中正北路2號","121.489256666667","25.06304","6500200","三重區"
"241016","266-UM","2019/11/18 21:13:30","新北市三重區信義西街138號","121.495438333333","25.0644716666667","6500200","三重區"
"241009","267-UM","2019/11/18 21:13:28","新北市三重區忠孝路三段18號","121.481553333333","25.067185","6500200","三重區"
"241018","268-UM","2019/11/18 21:13:17","新北市三重區忠孝路一段2號","121.49277","25.0717283333333","6500200","三重區"
"241032","269-UM","2019/11/18 21:13:24","新北市三重區中興北街134-1號","121.468985","25.0559333333333","6500200","三重區"
"241013","270-UM","2019/11/18 21:13:23","新北市三重區仁愛街66號","121.495816666667","25.0731783333333","6500200","三重區"
"241025","271-UM","2019/11/18 21:13:20","新北市三重區中正北路208巷11號","121.482226666667","25.0669483333333","6500200","三重區"
"241030","KED-0822","2019/11/18 21:13:11","新北市三重區五谷王北街20巷15弄1號","121.47506","25.048475","6500200","三重區"
"241004","475-VK","2019/11/18 21:13:18","新北市三重區仁愛街423-1號","121.490355","25.0814566666667","6500200","三重區"
"241026","480-VK","2019/11/18 21:13:17","新北市三重區中正南路188號","121.49409","25.0561716666667","6500200","三重區"
"241023","545-UM","2019/11/18 21:13:22","新北市三重區中正北路176巷27號","121.48265","25.065935","6500200","三重區"
"241001","547-UM","2019/11/18 21:13:27","新北市三重區福隆路42號","121.4923","25.0783483333333","6500200","三重區"
"241033","557-UM","2019/11/18 21:13:28","新北市三重區光復路二段170號","121.471821666667","25.06118","6500200","三重區"
"241019","KEA-2593","2019/11/18 21:13:27","新北市三重區重陽路三段7-4號","121.489388333333","25.066485","6500200","三重區"
"241012","743-BX","2019/11/18 21:13:10","新北市三重區仁信街29號","121.50125","25.075535","6500200","三重區"
"241022","KED-0820","2019/11/18 21:13:27","新北市三重區中正北路64巷23號","121.485911666667","25.06369","6500200","三重區"
"241005","KED-0670","2019/11/18 21:13:20","新北市三重區仁華街116-1號","121.48588","25.0830033333333","6500200","三重區"
"241029","942-UM","2019/11/18 21:13:26","新北市三重區正義南路111號","121.49823","25.0585166666667","6500200","三重區"
"235055","183-VK","2019/11/18 21:13:24","新北市中和區員山路36巷12號","121.484005","24.9907416666667","6500300","中和區"
"247016","KEA-2869","2019/11/18 21:13:16","新北市蘆洲區中正路185巷78弄2號","121.46613","25.084465","6501400","蘆洲區"
"247010","KED-0682","2019/11/18 21:13:14","新北市蘆洲區鷺江街23號","121.478911666667","25.08244","6501400","蘆洲區"
"247006","893-R6","2019/11/18 21:13:15","新北市蘆洲區長安街22巷6號","121.464456666667","25.07939","6501400","蘆洲區"
"247020","546-UM","2019/11/18 21:13:14","新北市蘆洲區民族路426巷22號","121.473003333333","25.092865","6501400","蘆洲區"
"247008","500-BY","2019/11/18 21:13:19","新北市蘆洲區民生街43號","121.475126666667","25.078875","6501400","蘆洲區"
"247004","341-TH","2019/11/18 21:13:15","新北市蘆洲區永安南路二段322號","121.457035","25.0826616666667","6501400","蘆洲區"
"247024","057-VK","2019/11/18 21:13:23","新北市蘆洲區長興路50巷1號","121.463791666667","25.08376","6501400","蘆洲區"
"247014","056-VK","2019/11/18 21:13:24","新北市蘆洲區忠孝路74號","121.471511666667","25.0854233333333","6501400","蘆洲區"
"247018","053-VK","2019/11/18 21:13:14","新北市蘆洲區復興路111-6號","121.476465","25.0883533333333","6501400","蘆洲區"
"247022","007-UY","2019/11/18 21:13:12","新北市蘆洲區三民路241號","121.469088333333","25.0888933333333","6501400","蘆洲區"
"247002","001-UY","2019/11/18 21:13:26","新北市蘆洲區永樂街38巷40號","121.458573333333","25.0900216666667","6501400","蘆洲區"
"251009","008-UM","2019/11/18 21:13:32","新北市淡水區民族路112巷66號","121.461995","25.13433","6501000","淡水區"
"251004","009-UM","2019/11/18 21:13:26","新北市淡水區民族路33號","121.462308333333","25.1358416666667","6501000","淡水區"
"251005","010-UM","2019/11/18 21:13:14","新北市淡水區仁愛街11號","121.446153333333","25.170465","6501000","淡水區"
"251015","KEA-2871","2019/11/18 21:13:13","新北市淡水區淡金路四段542巷83弄12號","121.455991666667","25.2268966666667","6501000","淡水區"
"251016","180-VK","2019/11/18 21:13:20","新北市淡水區前洲子5號","121.442973333333","25.2189133333333","6501000","淡水區"
"251008","181-VK","2019/11/18 21:13:16","新北市淡水區淡金路二段81號","121.451543333333","25.1815333333333","6501000","淡水區"
"251013","182-VK","2019/11/18 21:13:25","新北市淡水區行忠路330號","121.460676666667","25.1998983333333","6501000","淡水區"
"251010","413-VK","2019/11/18 21:13:16","新北市淡水區中正路一段63巷7弄2號","121.422983333333","25.1773166666667","6501000","淡水區"
"251012","441-VK","2019/11/18 21:13:18","新北市淡水區淡金路五段91號","121.45622","25.236395","6501000","淡水區"
"251001","559-UM","2019/11/18 21:13:32","新北市淡水區中山北路二段381巷121號","121.443296666667","25.1857716666667","6501000","淡水區"
"251014","577-R6","2019/11/18 21:13:31","新北市淡水區六塊厝2-1號","121.450146666667","25.2404433333333","6501000","淡水區"
"251011","650-BX","2019/11/18 21:13:29","新北市淡水區新民街178巷42弄8-1號","121.438451666667","25.1797116666667","6501000","淡水區"
"251002","672-BX","2019/11/18 21:13:31","新北市淡水區學府路172巷21號","121.448246666667","25.1749833333333","6501000","淡水區"
"251003","673-BX","2019/11/18 21:13:17","新北市淡水區新春街96號","121.439153333333","25.1824183333333","6501000","淡水區"
"247012","KED-0683","2019/11/18 21:13:23","新北市蘆洲區民族路242號","121.47926","25.0883983333333","6501400","蘆洲區"
"242009","349-TH","2019/11/18 21:13:21","新北市三重區光復路二段188號","121.471086666667","25.0628416666667","6500500","新莊區"
"220077","687-BX","2019/11/18 21:13:19","新北市五股區成泰路三段320號","121.450336666667","25.0970016666667","6500100","板橋區"
