"lineid","car","time","location","longitude","latitude","cityid","cityname"
"251004","009-UM","2019/11/18 22:13:26","新北市淡水區民族路33號","121.4623","25.1358266666667","6501000","淡水區"
"251008","181-VK","2019/11/18 22:13:16","新北市淡水區學府路104號","121.449873333333","25.1718","6501000","淡水區"
"251010","413-VK","2019/11/18 22:13:16","新北市淡水區沙崙路200號","121.424685","25.183875","6501000","淡水區"
"251007","442-VK","2019/11/18 22:13:13","新北市淡水區北新路184巷1號","121.449535","25.1786033333333","6501000","淡水區"
"251011","650-BX","2019/11/18 22:13:29","新北市淡水區水碓街7號","121.443175","25.1771033333333","6501000","淡水區"
