"lineid","car","time","location","longitude","latitude","cityid","cityname"
"234044","148-BY","2019/12/06 13:13:22","新北市永和區秀朗路二段148巷3弄1號","121.525453333333","25.0012","6500400","永和區"
"234036","336-UY","2019/12/06 13:13:30","新北市永和區環河東路四段84號","121.528426666667","24.9977816666667","6500400","永和區"
"234062","337-UY","2019/12/06 13:13:16","新北市永和區永元路50號","121.522265","25.0009966666667","6500400","永和區"
"234084","338-UY","2019/12/06 13:13:35","新北市永和區永利路4巷2號","121.517463333333","25.0055166666667","6500400","永和區"
"234068","552-UM","2019/12/06 13:13:33","新北市永和區豫溪街126號","121.51973","25.010135","6500400","永和區"
"234015","745-BX","2019/12/06 13:13:29","新北市永和區文化路90巷27弄1號","121.513331666667","25.0163816666667","6500400","永和區"
"234028","746-BX","2019/12/06 13:13:31","新北市永和區民生路23號","121.522881666667","24.9988283333333","6500400","永和區"
"234052","KEA-2590","2019/12/06 13:13:35","新北市永和區中興街135號","121.51877","25.01228","6500400","永和區"
"234005","KED-0605","2019/12/06 13:13:17","新北市永和區中山路一段240號","121.507565","25.0077716666667","6500400","永和區"
"234012","KEA-2591","2019/12/06 13:13:33","新北市永和區信義路77號","121.512456666667","25.0132716666667","6500400","永和區"
"234060","AAD-866","2019/12/06 13:13:32","新北市永和區秀朗路一段147號","121.5163","25.0046433333333","6500400","永和區"
"234078","748-BX","2019/12/06 13:13:20","新北市永和區永貞路39巷9弄4號","121.52218","25.0067383333333","6500400","永和區"
"234040","862-TW","2019/12/06 13:13:29","新北市永和區水源街43巷2號","121.509851666667","25.0042016666667","6500400","永和區"
"234048","863-TW","2019/12/06 13:13:28","新北市永和區保福路二段94巷19號","121.511016666667","25.0139516666667","6500400","永和區"
"234025","9371-KE","2019/12/06 13:13:25","新北市永和區豫溪街28巷22號","121.515041666667","25.0089733333333","6500400","永和區"
"234010","9373-KE","2019/12/06 13:13:20","新北市永和區文化路126巷10弄2號","121.513131666667","25.01594","6500400","永和區"
"248019","KED-0813","2019/12/06 13:13:25","新北市五股區成泰路三段544-18號","121.453101666667","25.10365","6501500","五股區"
"234022","9380-KE","2019/12/06 13:13:33","新北市永和區竹林路124巷29號","121.518471666667","25.0112083333333","6500400","永和區"
"234076","969-R7","2019/12/06 13:13:15","新北市永和區民有街20號","121.516651666667","24.996565","6500400","永和區"
"234072","AAC-211","2019/12/06 13:13:32","新北市永和區竹林路146號","121.519986666667","25.0107616666667","6500400","永和區"
"234066","AAC-212","2019/12/06 13:13:32","新北市永和區保平路18巷8號","121.512325","25.0078983333333","6500400","永和區"
"234001","AAC-295","2019/12/06 13:13:35","新北市永和區和平街58號","121.51227","25.0099466666667","6500400","永和區"
"231030","002-UM","2019/12/06 13:13:14","新北市新店區安華路28-1號","121.519913333333","24.960845","6500600","新店區"
"231027","0293-UT","2019/12/06 13:13:24","新北市新店區安華路1-1號","121.519678333333","24.9604833333333","6500600","新店區"
"231029","106-UY","2019/12/06 13:13:20","新北市新店區安華路28-1號","121.519718333333","24.960735","6500600","新店區"
"231013","108-UY","2019/12/06 13:13:25","新北市新店區安一路一段1-1號","121.519683333333","24.961165","6500600","新店區"
"231036","110-UY","2019/12/06 13:13:27","新北市新店區安康路三段454號","121.484333333333","24.9512583333333","6500600","新店區"
"231016","KEA-2219","2019/12/06 13:13:25","新北市新店區安一路一段1-1號","121.519771666667","24.9611933333333","6500600","新店區"
"231032","256-BX","2019/12/06 13:13:35","新北市新店區安一路一段1-1號","121.519723333333","24.9611133333333","6500600","新店區"
"231023","260-TV","2019/12/06 13:13:23","新北市新店區安一路一段1-1號","121.51942","24.9612566666667","6500600","新店區"
"231003","268-BY","2019/12/06 13:13:30","新北市新店區安一路一段1-1號","121.519713333333","24.96128","6500600","新店區"
"231035","278-BY","2019/12/06 13:13:33","新北市新店區安華路28-1號","121.519895","24.961035","6500600","新店區"
"231006","355-BY","2019/12/06 13:13:36","新北市新店區安華路28-1號","121.519276666667","24.9607833333333","6500600","新店區"
"231024","4716-K9","2019/12/06 13:13:34","新北市新店區安華路28-1號","121.51953","24.960685","6500600","新店區"
"231025","4715-K9","2019/12/06 13:13:31","新北市新店區安康路一段70號","121.528418333333","24.9617933333333","6500600","新店區"
"231022","513-UM","2019/12/06 13:13:18","新北市新店區安華路28-1號","121.519701666667","24.9609983333333","6500600","新店區"
"231012","KED-0819","2019/12/06 13:13:25","新北市新店區安一路一段1-1號","121.51992","24.9611866666667","6500600","新店區"
"231010","719-UM","2019/12/06 13:13:19","新北市新店區安一路一段1-1號","121.519498333333","24.9614316666667","6500600","新店區"
"231026","720-UM","2019/12/06 13:13:27","新北市新店區安德街116巷26弄12號","121.509083333333","24.9613916666667","6500600","新店區"
"231028","897-TW","2019/12/06 13:13:13","新北市新店區安華路28-1號","121.519776666667","24.9607116666667","6500600","新店區"
"231001","898-TW","2019/12/06 13:13:37","新北市新店區安華路28-1號","121.519546666667","24.961015","6500600","新店區"
"231004","899-TW","2019/12/06 13:13:28","新北市新店區安華路28-1號","121.519245","24.9607566666667","6500600","新店區"
"231037","AKT-0513","2019/12/06 13:13:19","新北市新店區安華路28-1號","121.519456666667","24.960705","6500600","新店區"
"235028","005-UY","2019/12/06 13:13:28","新北市中和區板南路218號","121.498011666667","24.9940166666667","6500300","中和區"
"235027","006-UY","2019/12/06 13:13:25","新北市中和區員山路36巷16-3號","121.484968333333","24.9911983333333","6500300","中和區"
"235003","097-UM","2019/12/06 13:13:31","新北市中和區中正路291號","121.493305","24.993855","6500300","中和區"
"235029","098-UM","2019/12/06 13:13:21","新北市中和區中山路二段68號","121.503831666667","25.0045733333333","6500300","中和區"
"235004","150-BY","2019/12/06 13:13:28","新北市中和區中正路133號","121.499638333333","24.9935383333333","6500300","中和區"
"235022","151-BY","2019/12/06 13:13:28","新北市中和區圓通路369巷2號","121.4912","24.9894916666667","6500300","中和區"
"235019","183-VK","2019/12/06 13:13:27","新北市中和區連城路599號","121.478685","24.99324","6500300","中和區"
"235002","185-VK","2019/12/06 13:13:18","新北市中和區大智街7-3號","121.519665","24.99188","6500300","中和區"
"235031","255-BX","2019/12/06 13:13:34","新北市中和區新生街191號","121.483911666667","25.0002466666667","6500300","中和區"
"235036","301-VK","2019/12/06 13:13:25","新北市中和區錦和路180號","121.489968333333","24.995445","6500300","中和區"
"235007","352-BY","2019/12/06 13:13:15","新北市中和區中正路93號","121.500181666667","24.9935783333333","6500300","中和區"
"235006","KEA-2878","2019/12/06 13:13:17","新北市中和區景平路285號","121.50741","24.9930583333333","6500300","中和區"
"235014","4979-A6","2019/12/06 13:13:19","新北市中和區中正路305號","121.492078333333","24.9936666666667","6500300","中和區"
"235033","4980-A6","2019/12/06 13:13:23","新北市中和區圓通路252號","121.494176666667","24.9914666666667","6500300","中和區"
"235034","558-UM","2019/12/06 13:13:35","新北市中和區中正路271號","121.495968333333","24.9937716666667","6500300","中和區"
"235024","KED-0823","2019/12/06 13:13:33","新北市中和區員山路271-1號","121.48132","24.999415","6500300","中和區"
"235018","640-BX","2019/12/06 13:13:29","新北市中和區民享街91-6號","121.474503333333","25.0010566666667","6500300","中和區"
"235035","647-TV","2019/12/06 13:13:21","新北市中和區中山路二段492號","121.487018333333","25.0049033333333","6500300","中和區"
"235011","732-UM","2019/12/06 13:13:23","新北市中和區員山路36巷16-8號","121.48539","24.9923316666667","6500300","中和區"
"235010","733-UM","2019/12/06 13:13:18","新北市中和區中正路748號","121.485488333333","24.998475","6500300","中和區"
"235026","800-TS","2019/12/06 13:13:25","新北市中和區景平路989巷27號","121.495281666667","25.0051383333333","6500300","中和區"
"235021","801-TS","2019/12/06 13:13:32","新北市中和區員山路261號","121.481211666667","24.999045","6500300","中和區"
"235005","802-TS","2019/12/06 13:13:25","新北市中和區中正路171號","121.497798333333","24.9936683333333","6500300","中和區"
"235016","805-TS","2019/12/06 13:13:34","新北市中和區南山路273號","121.504025","24.9924766666667","6500300","中和區"
"235012","896-TW","2019/12/06 13:13:32","新北市中和區員山路36巷16-2號","121.485293333333","24.9915433333333","6500300","中和區"
"235015","157-BY","2019/12/06 13:13:36","新北市中和區信義街72號","121.511536666667","24.988155","6500300","中和區"
"235001","AAC-213","2019/12/06 13:13:31","新北市中和區景平路111巷60弄54號","121.514566666667","24.99078","6500300","中和區"
"235023","AAC-215","2019/12/06 13:13:21","新北市中和區員山路36巷16-3號","121.485023333333","24.9913283333333","6500300","中和區"
"235013","251-BX","2019/12/06 13:13:27","新北市中和區員山路36巷16-2號","121.485426666667","24.9915333333333","6500300","中和區"
"207002","749-BX","2019/12/06 13:13:17","新北市萬里區崁腳里崁腳路166號","121.645053333333","25.1558316666667","6502800","萬里區"
"207001","662-BX","2019/12/06 13:13:19","新北市萬里區萬里里瑪鋉路314號","121.688218333333","25.182185","6502800","萬里區"
"235025","KEA-2875","2019/12/06 13:13:29","新北市中和區國光街215巷24弄2-2號","121.466711666667","25.000275","6500300","中和區"
