"lineid","car","time","location","longitude","latitude","cityid","cityname"
"249005","172-UM","2019/12/06 16:43:22","新北市八里區龍米路三段47-1號","121.424935","25.1581283333333","6502300","八里區"
"249002","305-UY","2019/12/06 16:43:29","新北市八里區牛寮埔33號","121.429928333333","25.1457","6502300","八里區"
"249003","593-UM","2019/12/06 16:43:34","新北市八里區中山路二段283號","121.401565","25.1486983333333","6502300","八里區"
"231046","719-UM","2019/12/06 16:43:17","新北市新店區灣潭路5-1號","121.537386666667","24.9491133333333","6500600","新店區"
"241011","013-R5","2019/12/06 16:43:29","新北市三重區仁愛街53巷74號","121.498038333333","25.072315","6500200","三重區"
"241028","022-UY","2019/12/06 16:43:19","新北市三重區正義南路38號","121.498165","25.0610966666667","6500200","三重區"
"241008","059-VK","2019/12/06 16:43:34","新北市三重區永福街177巷17號","121.477991666667","25.0753266666667","6500200","三重區"
"241031","061-VK","2019/12/06 16:34:20","","121.486813333333","25.0612733333333","6500200","三重區"
"241015","062-VK","2019/12/06 16:43:17","新北市三重區文化北路43巷13號","121.499363333333","25.0655116666667","6500200","三重區"
"241017","063-VK","2019/12/06 16:43:22","新北市三重區中正北路25巷28號","121.493841666667","25.06326","6500200","三重區"
"241024","065-VK","2019/12/06 16:43:30","新北市三重區中正北路315巷6弄29號","121.475673333333","25.0720016666667","6500200","三重區"
"241007","066-VK","2019/12/06 16:43:29","新北市三重區三和路四段171號","121.483025","25.0788183333333","6500200","三重區"
"241002","090-VK","2019/12/06 16:43:22","新北市三重區仁義街231號","121.496495","25.0822183333333","6500200","三重區"
"241003","091-VK","2019/12/06 16:43:28","新北市三重區五華街71巷5號","121.492768333333","25.0829816666667","6500200","三重區"
"241005","742-BX","2019/12/06 16:43:33","新北市三重區仁華街62巷16號","121.483705","25.0832683333333","6500200","三重區"
"241006","262-UM","2019/12/06 16:43:34","新北市三重區車路頭街125號","121.484228333333","25.0754466666667","6500200","三重區"
"241016","266-UM","2019/12/06 16:43:13","新北市三重區大同北路113號","121.494175","25.0642966666667","6500200","三重區"
"241009","267-UM","2019/12/06 16:43:24","新北市三重區三和路四段203巷147號","121.48524","25.0802766666667","6500200","三重區"
"241018","268-UM","2019/12/06 16:43:31","新北市三重區六張街67號","121.493688333333","25.0701966666667","6500200","三重區"
"241032","269-UM","2019/12/06 16:43:19","新北市三重區新北大道一段19號","121.486601666667","25.0614","6500200","三重區"
"241013","270-UM","2019/12/06 16:43:23","新北市三重區三和路三段101巷110號","121.497593333333","25.0734466666667","6500200","三重區"
"241030","KED-0822","2019/12/06 16:43:23","新北市三重區新興路2巷6號","121.492356666667","25.0522616666667","6500200","三重區"
"241004","475-VK","2019/12/06 16:43:33","新北市三重區仁愛街387號","121.49139","25.0806583333333","6500200","三重區"
"241020","478-VK","2019/12/06 16:43:30","新北市三重區忠孝路二段34號","121.485765","25.07107","6500200","三重區"
"241026","480-VK","2019/12/06 16:43:18","新北市三重區和平街31號","121.500935","25.0624416666667","6500200","三重區"
"241014","543-UM","2019/12/06 16:43:20","新北市三重區長榮路75號","121.502615","25.0690083333333","6500200","三重區"
"241023","545-UM","2019/12/06 16:43:28","新北市三重區洛陽街60號","121.481395","25.0630183333333","6500200","三重區"
"241001","547-UM","2019/12/06 16:43:26","新北市三重區仁政街76巷15號","121.491875","25.077095","6500200","三重區"
"241019","KEA-2593","2019/12/06 16:43:20","新北市三重區力行路一段173號","121.48457","25.06942","6500200","三重區"
"241012","743-BX","2019/12/06 16:43:31","新北市三重區三和路三段101巷187號","121.499778333333","25.074045","6500200","三重區"
"241022","KED-0820","2019/12/06 16:43:33","新北市三重區中華路113號","121.483861666667","25.0634466666667","6500200","三重區"
"241025","KED-0670","2019/12/06 16:43:28","新北市三重區中正北路530巷7-2號","121.471906666667","25.070845","6500200","三重區"
"241029","942-UM","2019/12/06 16:43:36","新北市三重區集美街205號","121.491578333333","25.0544033333333","6500200","三重區"
"241033","AAC-255","2019/12/06 16:43:26","新北市三重區光華路24號","121.468963333333","25.0597566666667","6500200","三重區"
"247014","056-VK","2019/12/06 16:43:16","新北市蘆洲區中正路516巷38-5號","121.461405","25.0983483333333","6501400","蘆洲區"
"247002","001-UY","2019/12/06 16:43:17","新北市五股區成泰路三段472號","121.451746666667","25.101235","6501400","蘆洲區"
"228002","663-BX","2019/12/06 16:43:33","新北市貢寮區貢寮里朝陽街54號","121.910336666667","25.0216966666667","6502600","貢寮區"
"228003","828-UM","2019/12/06 16:43:20","新北市貢寮區貢寮里朝陽街1-2號","121.912393333333","25.0212083333333","6502600","貢寮區"
"224007","285-BY","2019/12/06 16:43:24","新北市瑞芳區中央路48巷146號","121.759156666667","25.1034183333333","6501200","瑞芳區"
"224009","275-VK","2019/12/06 16:43:33","新北市瑞芳區逢甲路17號","121.809391666667","25.1084283333333","6501200","瑞芳區"
"224005","271-BY","2019/12/06 16:43:29","新北市瑞芳區洞頂路155-8號","121.861341666667","25.1222066666667","6501200","瑞芳區"
"227002","642-TC","2019/12/06 16:43:31","新北市雙溪區長源里柑腳8號","121.80469","25.0146216666667","6502500","雙溪區"
"227001","400-TW","2019/12/06 16:43:21","新北市雙溪區牡丹里聖南31-1號","121.855626666667","25.0543383333333","6502500","雙溪區"
"251004","009-UM","2019/12/06 16:43:32","新北市淡水區中正路二段31號","121.419266666667","25.181755","6501000","淡水區"
"251008","181-VK","2019/12/06 16:43:33","新北市淡水區中正東路二段129號","121.459566666667","25.1486183333333","6501000","淡水區"
"251011","650-BX","2019/12/06 16:43:34","新北市淡水區中正路二段22巷3號","121.419911666667","25.1815966666667","6501000","淡水區"
"252001","292-VK","2019/12/06 16:43:27","新北市三芝區新庄里新庄子126-1號","121.508131666667","25.267005","6502100","三芝區"
"233002","762-BX","2019/12/06 16:43:31","新北市烏來區啦卡路70-1號","121.565386666667","24.8559283333333","6502900","烏來區"
"252002","KED-0821","2019/12/06 16:43:24","新北市三芝區茂長里陳厝坑61-4號","121.513575","25.2550066666667","6502100","三芝區"
"242032","175-VK","2019/12/06 16:43:26","新北市新莊區三和路12-21號","121.441968333333","25.0387216666667","6500500","新莊區"
"239007","AAC-297","2019/12/06 16:43:16","新北市鶯歌區二甲路13-16號","121.345121666667","24.9351633333333","6500800","鶯歌區"
"233001","KEA-2870","2019/12/06 16:43:33","新北市烏來區啦卡路70-1號","121.565103333333","24.8558516666667","6502900","烏來區"
