"lineid","car","time","location","longitude","latitude","cityid","cityname"
"234007","KED-0605","2019/12/06 18:13:16","新北市永和區博愛街45巷25弄1號","121.519033333333","25.01706","6500400","永和區"
"234026","9371-KE","2019/12/06 18:13:16","新北市永和區豫溪街28巷22號","121.515035","25.0089583333333","6500400","永和區"
"249005","172-UM","2019/12/06 18:13:21","新北市八里區荖阡坑路15號","121.401553333333","25.1400316666667","6502300","八里區"
"249001","173-UM","2019/12/06 18:13:27","新北市八里區龍米路一段446號","121.450465","25.1346716666667","6502300","八里區"
"249004","303-UY","2019/12/06 18:13:25","新北市八里區龍米路二段206巷8號","121.433076666667","25.1590266666667","6502300","八里區"
"249002","305-UY","2019/12/06 18:13:29","新北市八里區龍形一街3號","121.450748333333","25.13068","6502300","八里區"
"249003","593-UM","2019/12/06 18:13:14","新北市八里區松子腳13號","121.402941666667","25.1457916666667","6502300","八里區"
"248014","025-BX","2019/12/06 18:13:21","新北市五股區成泰路一段171巷12號","121.434465","25.0745033333333","6501500","五股區"
"248016","026-BX","2019/12/06 18:13:10","新北市五股區成泰路三段221巷14號","121.44581","25.0934416666667","6501500","五股區"
"248006","077-UY","2019/12/06 18:13:24","新北市五股區中興路一段181號","121.464255","25.0738366666667","6501500","五股區"
"248008","KED-0815","2019/12/06 18:13:18","新北市五股區更洲路32巷8弄35-9號","121.460035","25.0794366666667","6501500","五股區"
"248018","KED-0813","2019/12/06 18:13:16","新北市五股區新五路三段1號","121.444436666667","25.0887733333333","6501500","五股區"
"248010","272-BY","2019/12/06 18:13:22","新北市五股區成泰路一段189巷32弄25號","121.433218333333","25.0767","6501500","五股區"
"248004","677-BX","2019/12/06 18:13:15","新北市五股區成泰路二段156號","121.438336666667","25.0841066666667","6501500","五股區"
"248002","682-TV","2019/12/06 18:13:27","新北市五股區新五路三段1號","121.444428333333","25.08902","6501500","五股區"
"244007","080-UY","2019/12/06 18:13:29","新北市林口區林口路296號","121.385923333333","25.0855033333333","6501700","林口區"
"244013","KEA-2802","2019/12/06 18:13:19","新北市林口區中山路202號","121.388445","25.07912","6501700","林口區"
"244023","483-VK","2019/12/06 18:13:18","新北市林口區東湖路153巷135號","121.382243333333","25.073465","6501700","林口區"
"244017","485-VK","2019/12/06 18:13:19","新北市林口區八德路48巷37號","121.367305","25.0675316666667","6501700","林口區"
"244009","656-BX","2019/12/06 18:13:08","新北市林口區中華一路95號","121.379273333333","25.0856683333333","6501700","林口區"
"244011","701-TV","2019/12/06 18:13:11","新北市林口區仁愛路一段270號","121.39378","25.0760283333333","6501700","林口區"
"244025","837-TS","2019/12/06 18:13:11","新北市林口區文化北路一段299巷17-10號","121.359495","25.07304","6501700","林口區"
"244021","838-TS","2019/12/06 18:13:25","新北市林口區自強一街41號","121.398996666667","25.0777733333333","6501700","林口區"
"208001","267-VK","2019/12/06 18:13:12","新北市金山區磺港里磺港路96號","121.646988333333","25.2260933333333","6502700","金山區"
"243013","646-TV","2019/12/06 18:13:16","新北市泰山區南林路93號","121.415546666667","25.0511816666667","6501600","泰山區"
"222003","436-BY","2019/12/06 18:13:18","新北市深坑區文山路一段64號","121.623543333333","25.0005266666667","6501800","深坑區"
"222002","659-BX","2019/12/06 18:13:23","新北市深坑區文化街15號","121.620265","25.0012833333333","6501800","深坑區"
"231061","002-UM","2019/12/06 18:13:11","新北市新店區安華路28-1號","121.519625","24.9607666666667","6500600","新店區"
"231058","0293-UT","2019/12/06 18:13:27","新北市新店區安一路一段1-1號","121.519655","24.9614766666667","6500600","新店區"
"231050","KEA-2219","2019/12/06 18:13:20","新北市新店區安一路一段1-1號","121.519745","24.9612033333333","6500600","新店區"
"221031","KEA-2785","2019/12/06 18:13:12","新北市汐止區中興路181巷16弄12號","121.629563333333","25.066755","6501100","汐止區"
"231054","260-TV","2019/12/06 18:13:08","新北市新店區安一路一段1-1號","121.519176666667","24.9613216666667","6500600","新店區"
"231042","268-BY","2019/12/06 18:13:11","新北市新店區安一路一段1-1號","121.519681666667","24.961305","6500600","新店區"
"231064","278-BY","2019/12/06 18:13:17","新北市新店區安華路28-1號","121.519951666667","24.9610616666667","6500600","新店區"
"231045","355-BY","2019/12/06 18:13:18","新北市新店區安華路28-1號","121.518995","24.96093","6500600","新店區"
"231055","4716-K9","2019/12/06 18:13:13","新北市新店區安華路28-1號","121.519588333333","24.960675","6500600","新店區"
"231056","4715-K9","2019/12/06 18:13:20","新北市新店區秀山路68號","121.530911666667","24.9609916666667","6500600","新店區"
"231053","513-UM","2019/12/06 18:13:11","新北市新店區安一路一段1-1號","121.519718333333","24.96108","6500600","新店區"
"231063","641-BX","2019/12/06 18:13:19","新北市新店區安華路1-1號","121.51953","24.9603983333333","6500600","新店區"
"231048","KED-0819","2019/12/06 18:13:18","新北市新店區安一路一段1-1號","121.519893333333","24.961085","6500600","新店區"
"231046","719-UM","2019/12/06 18:13:17","新北市新店區直潭七街60號","121.532253333333","24.9399466666667","6500600","新店區"
"231057","720-UM","2019/12/06 18:13:23","新北市新店區安一路一段1-1號","121.519061666667","24.9612633333333","6500600","新店區"
"231040","898-TW","2019/12/06 18:13:14","新北市新店區安華路28-1號","121.519311666667","24.9609433333333","6500600","新店區"
"231043","899-TW","2019/12/06 18:13:15","新北市新店區安一路一段1-1號","121.519071666667","24.9609783333333","6500600","新店區"
"231066","AKT-0513","2019/12/06 18:13:13","新北市新店區安一路一段1-1號","121.519638333333","24.961535","6500600","新店區"
"241005","316-R6","2019/12/06 18:13:23","新北市三重區永安北路二段35巷35-1號","121.483318333333","25.0824883333333","6500200","三重區"
"241030","KED-0822","2019/12/06 18:13:22","新北市三重區環河南路110-1號","121.498803333333","25.0563016666667","6500200","三重區"
"241033","AAC-255","2019/12/06 18:13:26","新北市三重區中興北街42巷19-1號","121.468705","25.049425","6500200","三重區"
"235064","005-UY","2019/12/06 18:13:21","新北市中和區圓通路167巷9號","121.498003333333","24.9948583333333","6500300","中和區"
"235063","006-UY","2019/12/06 18:13:13","新北市中和區中正路589巷1號","121.485888333333","24.99429","6500300","中和區"
"235039","097-UM","2019/12/06 18:13:18","新北市中和區錦和路350-1號","121.490033333333","24.9935483333333","6500300","中和區"
"235065","098-UM","2019/12/06 18:13:21","新北市中和區中山路二段2巷45弄2號","121.502346666667","25.0070933333333","6500300","中和區"
"235040","150-BY","2019/12/06 18:13:17","新北市中和區中正路395號","121.490018333333","24.9935733333333","6500300","中和區"
"235058","151-BY","2019/12/06 18:13:15","新北市中和區圓通路433巷8號","121.488208333333","24.9876166666667","6500300","中和區"
"235055","183-VK","2019/12/06 18:13:13","新北市中和區新生街118巷6號","121.483318333333","25.0016833333333","6500300","中和區"
"235038","185-VK","2019/12/06 18:13:28","新北市中和區大智街57號","121.521098333333","24.9920916666667","6500300","中和區"
"235072","301-VK","2019/12/06 18:13:21","新北市中和區中正路466號","121.490003333333","24.994245","6500300","中和區"
"235043","352-BY","2019/12/06 18:13:15","新北市中和區中正路8號","121.50302","24.9936883333333","6500300","中和區"
"235042","KEA-2878","2019/12/06 18:13:10","新北市中和區景平路193號","121.511288333333","24.9925666666667","6500300","中和區"
"235050","4979-A6","2019/12/06 18:13:20","新北市中和區錦和路350-1號","121.490631666667","24.993585","6500300","中和區"
"235069","4980-A6","2019/12/06 18:13:15","新北市中和區中正路226號","121.496175","24.9940483333333","6500300","中和區"
"235070","558-UM","2019/12/06 18:13:18","新北市中和區圓通路196號","121.496326666667","24.994375","6500300","中和區"
"235045","565-BX","2019/12/06 18:13:27","新北市中和區南山路148號","121.504218333333","24.992215","6500300","中和區"
"235060","KED-0823","2019/12/06 18:13:27","新北市中和區員山路391號","121.481233333333","25.00283","6500300","中和區"
"235054","640-BX","2019/12/06 18:13:20","新北市中和區民享街91-12號","121.47463","25.0007116666667","6500300","中和區"
"235047","732-UM","2019/12/06 18:13:15","新北市中和區南山路479號","121.507988333333","24.9883333333333","6500300","中和區"
"235046","733-UM","2019/12/06 18:13:22","新北市中和區中正路637巷60弄61號","121.485458333333","24.9925","6500300","中和區"
"235062","800-TS","2019/12/06 18:13:23","新北市中和區景平路999巷1號","121.495546666667","25.006025","6500300","中和區"
"235057","801-TS","2019/12/06 18:13:19","新北市中和區民享街97巷19號","121.475368333333","24.9995933333333","6500300","中和區"
"235052","805-TS","2019/12/06 18:13:25","新北市中和區中正路19號","121.502813333333","24.9934733333333","6500300","中和區"
"235051","157-BY","2019/12/06 18:13:14","新北市中和區捷運路3號","121.509613333333","24.9893383333333","6500300","中和區"
"235037","AAC-213","2019/12/06 18:13:13","新北市中和區景平路111巷60弄54號","121.514571666667","24.99078","6500300","中和區"
"226004","312-R5","2019/12/06 18:13:19","新北市平溪區靜安路二段30號","121.71247","25.0192333333333","6502400","平溪區"
"235049","251-BX","2019/12/06 18:13:19","新北市中和區員山路36巷16-3號","121.484871666667","24.991305","6500300","中和區"
"228002","663-BX","2019/12/06 18:13:33","新北市貢寮區福連里馬崗街6-1號","122.0016","25.0138116666667","6502600","貢寮區"
"228001","670-TC","2019/12/06 18:13:19","新北市貢寮區真理里新港街26巷55弄2-1號","121.927406666667","25.0528766666667","6502600","貢寮區"
"228003","828-UM","2019/12/06 18:13:20","新北市貢寮區真理里美艷山街22-2號","121.92728","25.0646066666667","6502600","貢寮區"
"224006","676-BX","2019/12/06 18:13:15","新北市瑞芳區三爪子坑路106巷1-11號","121.808066666667","25.1051266666667","6501200","瑞芳區"
"224007","285-BY","2019/12/06 18:13:24","新北市瑞芳區四腳亭坑路49-1號","121.768391666667","25.1062566666667","6501200","瑞芳區"
"224009","275-VK","2019/12/06 18:13:13","新北市瑞芳區金光路139號","121.853771666667","25.1068483333333","6501200","瑞芳區"
"224008","273-VK","2019/12/06 18:13:16","新北市瑞芳區三爪子坑路1號","121.815768333333","25.108135","6501200","瑞芳區"
"224005","271-BY","2019/12/06 18:13:29","新北市瑞芳區建基路二段110-1號","121.812071666667","25.1324483333333","6501200","瑞芳區"
"227002","642-TC","2019/12/06 18:13:01","新北市雙溪區雙溪里長安街16號","121.865026666667","25.034695","6502500","雙溪區"
"227001","400-TW","2019/12/06 18:13:20","新北市雙溪區三貂里政光路4號","121.852105","25.0626116666667","6502500","雙溪區"
"253005","032-BX","2019/12/06 18:13:26","新北市石門區中央路37-5號","121.568586666667","25.2957566666667","6502200","石門區"
"253006","295-VK","2019/12/06 18:13:11","新北市石門區老梅路52巷19號","121.546406666667","25.2886116666667","6502200","石門區"
"222001","KEA-2212","2019/12/06 18:13:15","新北市深坑區北深路二段104號","121.616985","25.0033","6501800","深坑區"
"208002","KEA-2872","2019/12/06 18:13:08","新北市金山區清泉里清水路60巷4號","121.629955","25.23581","6502700","金山區"
"208003","665-BX","2019/12/06 18:13:25","新北市金山區民生路192號","121.646525","25.2225783333333","6502700","金山區"
"251004","009-UM","2019/12/06 18:13:09","新北市淡水區民族路110巷8號","121.462143333333","25.1354833333333","6501000","淡水區"
"251005","010-UM","2019/12/06 18:13:08","新北市淡水區水源街一段118號","121.447176666667","25.171855","6501000","淡水區"
"251001","011-UM","2019/12/06 18:13:23","新北市淡水區自強路100-1號","121.462491666667","25.12933","6501000","淡水區"
"251002","012-UM","2019/12/06 18:13:21","新北市淡水區中正東路一段91號","121.45308","25.1614883333333","6501000","淡水區"
"251008","181-VK","2019/12/06 18:13:13","新北市淡水區中正東路二段7號","121.458036666667","25.158815","6501000","淡水區"
"251010","413-VK","2019/12/06 18:13:24","新北市淡水區中正路二段96號","121.418293333333","25.184915","6501000","淡水區"
"251012","441-VK","2019/12/06 18:13:13","新北市淡水區北新路三段157號","121.488986666667","25.1904083333333","6501000","淡水區"
"251006","561-UM","2019/12/06 18:13:21","新北市淡水區新民街76巷2號","121.4388","25.1764616666667","6501000","淡水區"
"251009","575-R6","2019/12/06 18:13:11","新北市淡水區大忠街5巷2號","121.443195","25.1761716666667","6501000","淡水區"
"251011","650-BX","2019/12/06 18:13:15","新北市淡水區小坪頂22-2號","121.484611666667","25.15729","6501000","淡水區"
"251003","766-UM","2019/12/06 18:13:11","新北市淡水區北新路182巷56號","121.448496666667","25.1775816666667","6501000","淡水區"
"207003","681-TV","2019/12/06 18:13:28","新北市萬里區野柳里港東路151-3號","121.68869","25.2051383333333","6502800","萬里區"
"207004","291-VK","2019/12/06 18:13:24","新北市萬里區中幅里中福路132號","121.674863333333","25.1665683333333","6502800","萬里區"
"252003","249-BX","2019/12/06 18:13:09","新北市三芝區埔頭里埔頭24號","121.490995","25.2606116666667","6502100","三芝區"
"252001","292-VK","2019/12/06 18:13:27","新北市三芝區中興街二段2號","121.498445","25.2566483333333","6502100","三芝區"
"237004","KEA-2597","2019/12/06 18:13:18","新北市三峽區大埔1-3號","121.374886666667","24.8904316666667","6500900","三峽區"
"237007","153-BY","2019/12/06 18:13:14","新北市三峽區中正路二段375號","121.365165","24.9085466666667","6500900","三峽區"
"237009","210-TH","2019/12/06 18:13:29","新北市三峽區大仁路8號","121.366661666667","24.9376733333333","6500900","三峽區"
"237013","252-BX","2019/12/06 18:13:25","新北市三峽區永安街5號","121.37784","24.9300333333333","6500900","三峽區"
"237012","275-BY","2019/12/06 18:13:28","新北市三峽區民生街1巷1-41號","121.377251666667","24.9358166666667","6500900","三峽區"
"237008","302-VK","2019/12/06 18:13:28","新北市三峽區白雞64-2號","121.385498333333","24.9126883333333","6500900","三峽區"
"237014","433-BY","2019/12/06 18:13:22","新北市三峽區復興路110巷3弄10號","121.37273","24.9386366666667","6500900","三峽區"
"237006","5529-G3","2019/12/06 18:13:14","新北市三峽區溪東路178巷13弄12號","121.406233333333","24.9321683333333","6500900","三峽區"
"237011","KEA-2596","2019/12/06 18:13:12","新北市三峽區介壽路一段232號","121.378516666667","24.9302383333333","6500900","三峽區"
"237015","649-BX","2019/12/06 18:13:23","新北市三峽區紫新路23巷2號","121.422896666667","24.9211383333333","6500900","三峽區"
"237010","706-TV","2019/12/06 18:13:21","新北市三峽區民族街67號","121.36958","24.9295483333333","6500900","三峽區"
"237005","AKY-6261","2019/12/06 18:13:21","新北市三峽區民生街249號","121.370706666667","24.934695","6500900","三峽區"
"236042","KED-0685","2019/12/06 18:13:20","新北市土城區裕生路86巷2號","121.447268333333","24.98512","6501300","土城區"
"233002","762-BX","2019/12/06 18:13:11","新北市烏來區紅河12-2號","121.538938333333","24.8843033333333","6502900","烏來區"
"236074","166-UM","2019/12/06 18:13:24","新北市土城區永安街86巷1號","121.431538333333","24.9638416666667","6501300","土城區"
"236030","253-BX","2019/12/06 18:13:15","新北市土城區員福街8號","121.44176","24.9785083333333","6501300","土城區"
"236026","269-VK","2019/12/06 18:13:24","新北市土城區承天路47號","121.438815","24.9639366666667","6501300","土城區"
"236039","271-VK","2019/12/06 18:13:18","新北市土城區明德路一段369號","121.455633333333","24.9779066666667","6501300","土城區"
"236069","KEA-2877","2019/12/06 18:13:13","新北市土城區明德路一段128巷2號","121.463245","24.9790783333333","6501300","土城區"
"252002","KED-0821","2019/12/06 18:13:24","新北市三芝區中山路二段40號","121.503006666667","25.2551","6502100","三芝區"
"236020","401-BY","2019/12/06 18:13:16","新北市土城區中正路67巷14號","121.444421666667","24.976215","6501300","土城區"
"236014","752-BX","2019/12/06 18:13:10","新北市土城區學府路一段70號","121.456863333333","24.98832","6501300","土城區"
"236059","912-UM","2019/12/06 18:13:26","新北市土城區中央路四段348號","121.4134","24.9551083333333","6501300","土城區"
"236048","913-UM","2019/12/06 18:13:16","新北市土城區明德路一段365-1號","121.453588333333","24.9790483333333","6501300","土城區"
"236063","915-UM","2019/12/06 18:13:09","新北市土城區金城路一段112號","121.446746666667","24.97585","6501300","土城區"
"236055","AAC-216","2019/12/06 18:13:29","新北市土城區中華路二段92號","121.438258333333","24.974765","6501300","土城區"
"242060","986-R7","2019/12/06 18:13:27","新北市新莊區新樹路601號","121.433181666667","25.00593","6500500","新莊區"
"242005","751-BX","2019/12/06 18:13:13","新北市新莊區自立街76號","121.45438","25.04537","6500500","新莊區"
"242029","615-BX","2019/12/06 18:13:14","新北市新莊區中平路202號","121.444861666667","25.0487433333333","6500500","新莊區"
"242027","613-BX","2019/12/06 18:13:21","新北市新莊區幸福路73號","121.45693","25.04933","6500500","新莊區"
"242058","612-BX","2019/12/06 18:13:24","新北市新莊區中山路三段551號","121.412441666667","25.0269483333333","6500500","新莊區"
"242048","566-BX","2019/12/06 18:13:13","新北市新莊區萬安街47巷16號","121.42219","25.0243516666667","6500500","新莊區"
"242041","442-UM","2019/12/06 18:13:24","新北市泰山區壽山路46號","121.420386666667","25.0291116666667","6500500","新莊區"
"242044","415-TV","2019/12/06 18:13:28","新北市新莊區雙鳳路163巷2號","121.412745","25.026795","6500500","新莊區"
"242013","413-TV","2019/12/06 18:13:15","新北市新莊區新泰路357巷2-2號","121.441981666667","25.0411033333333","6500500","新莊區"
"242050","400-BY","2019/12/06 18:13:20","新北市新莊區民本街43巷19號","121.429016666667","25.0183733333333","6500500","新莊區"
"242025","362-BY","2019/12/06 18:13:17","新北市新莊區五權一路1-6號","121.457113333333","25.06513","6500500","新莊區"
"242015","132-UY","2019/12/06 18:13:25","新北市新莊區中平路152巷45號","121.446638333333","25.0474233333333","6500500","新莊區"
"242039","135-UY","2019/12/06 18:13:11","新北市新莊區民安西路38巷2號","121.427195","25.0210433333333","6500500","新莊區"
"242056","172-VK","2019/12/06 18:13:23","新北市新莊區豐年街豐2巷19號","121.447368333333","25.0308383333333","6500500","新莊區"
"242017","173-VK","2019/12/06 18:13:12","新北市新莊區中港路303號","121.452816666667","25.044515","6500500","新莊區"
"242032","175-VK","2019/12/06 18:13:26","新北市新莊區新泰路277巷12號","121.445101666667","25.040375","6500500","新莊區"
"242054","176-VK","2019/12/06 18:13:14","新北市新莊區民安西路356號","121.42733","25.0111816666667","6500500","新莊區"
"242021","KED-0687","2019/12/06 18:13:23","新北市新莊區新興街106號","121.450676666667","25.0390383333333","6500500","新莊區"
"242007","346-TH","2019/12/06 18:13:29","新北市新莊區中華路二段40號","121.454123333333","25.04558","6500500","新莊區"
"242002","347-TH","2019/12/06 18:13:15","新北市新莊區新莊路38號","121.458238333333","25.0370616666667","6500500","新莊區"
"242037","348-TH","2019/12/06 18:13:11","新北市新莊區後港一路65巷9弄7號","121.425845","25.0268466666667","6500500","新莊區"
"242009","349-TH","2019/12/06 18:13:24","新北市新莊區昌平街71巷13號","121.453705","25.0534383333333","6500500","新莊區"
"242019","351-TH","2019/12/06 18:13:08","新北市新莊區長青街37巷22弄1號","121.456326666667","25.0413033333333","6500500","新莊區"
"238023","601-UM","2019/12/06 18:13:30","新北市樹林區忠義街6號","121.409383333333","25.0149616666667","6500700","樹林區"
"238019","599-UM","2019/12/06 18:13:21","新北市樹林區中華路1號","121.424946666667","24.9835716666667","6500700","樹林區"
"238018","KEA-2217","2019/12/06 18:12:51","新北市樹林區樹新路106巷7號","121.429981666667","24.9982633333333","6500700","樹林區"
"238022","KEA-2213","2019/12/06 18:13:17","新北市樹林區太順街93號","121.416278333333","24.9779083333333","6500700","樹林區"
"238025","303-VK","2019/12/06 18:13:24","新北市樹林區保安街一段327號","121.417673333333","24.99834","6500700","樹林區"
"238017","283-BY","2019/12/06 18:13:21","新北市樹林區中正路865號","121.408881666667","25.0181916666667","6500700","樹林區"
"238014","282-BY","2019/12/06 18:13:25","新北市樹林區潭興街107巷21弄17號","121.423758333333","24.9985033333333","6500700","樹林區"
"238020","268-VK","2019/12/06 18:13:14","新北市樹林區俊興街246號","121.418103333333","25.0161533333333","6500700","樹林區"
"238026","172-UY","2019/12/06 18:13:25","新北市樹林區育德街28號","121.390445","24.9698933333333","6500700","樹林區"
"238016","169-UY","2019/12/06 18:13:16","新北市樹林區啟智街173巷10號","121.416011666667","24.9871633333333","6500700","樹林區"
"239007","AAC-297","2019/12/06 18:13:16","新北市鶯歌區尖山埔路102號","121.347248333333","24.9511583333333","6500800","鶯歌區"
"239006","891-R6","2019/12/06 18:13:11","新北市鶯歌區鶯桃路381巷2弄13號","121.33293","24.9638083333333","6500800","鶯歌區"
"239008","527-UM","2019/12/06 18:13:24","新北市鶯歌區欣欣街3號","121.336218333333","24.97792","6500800","鶯歌區"
"239005","526-UM","2019/12/06 18:13:09","新北市鶯歌區鶯桃路668巷73號","121.329966666667","24.9718283333333","6500800","鶯歌區"
"239001","417-VK","2019/12/06 18:13:17","新北市鶯歌區中正三路489號","121.321048333333","24.9339133333333","6500800","鶯歌區"
"239003","360-BY","2019/12/06 18:13:13","新北市鶯歌區永吉街46巷17號","121.335203333333","24.957415","6500800","鶯歌區"
"239002","359-BY","2019/12/06 18:13:24","新北市鶯歌區光明街94號","121.346341666667","24.9558366666667","6500800","鶯歌區"
"221036","130-UY","2019/12/06 18:13:19","新北市汐止區大同路三段116號","121.67205","25.0767583333333","6501100","汐止區"
"221015","131-UY","2019/12/06 18:13:24","新北市汐止區長江街341號","121.66707","25.081995","6501100","汐止區"
"244019","KED-0667","2019/12/06 18:13:21","新北市林口區忠孝路581巷7號","121.374883333333","25.0688966666667","6501700","林口區"
"221010","269-BY","2019/12/06 18:13:15","新北市汐止區汐萬路二段275巷3弄1號","121.645311666667","25.0887616666667","6501100","汐止區"
"221018","277-VK","2019/12/06 18:13:24","新北市汐止區招商街6號","121.666523333333","25.0686933333333","6501100","汐止區"
"221012","278-VK","2019/12/06 18:13:12","新北市汐止區保一街35巷4號","121.67483","25.0804516666667","6501100","汐止區"
"221032","280-BY","2019/12/06 18:13:29","新北市汐止區橫科路69號","121.618916666667","25.0508216666667","6501100","汐止區"
"221027","281-BY","2019/12/06 18:13:16","新北市汐止區和平街6巷3弄1號","121.663428333333","25.0712966666667","6501100","汐止區"
"221029","298-VK","2019/12/06 18:13:30","新北市汐止區樟樹二路322號","121.641436666667","25.070045","6501100","汐止區"
"221021","299-VK","2019/12/06 18:13:19","新北市汐止區復興路24號","121.655963333333","25.0638033333333","6501100","汐止區"
"221035","622-UM","2019/12/06 18:13:13","新北市汐止區新江北路23號","121.652965","25.0703683333333","6501100","汐止區"
"221025","623-UM","2019/12/06 18:13:25","新北市汐止區勤進路3巷27號","121.661066666667","25.06172","6501100","汐止區"
"221038","646-BX","2019/12/06 18:13:12","新北市汐止區環山路6號","121.657896666667","25.0600783333333","6501100","汐止區"
"221033","647-BX","2019/12/06 18:13:24","新北市汐止區宜興街40巷22弄8號","121.62271","25.041305","6501100","汐止區"
"221002","707-TV","2019/12/06 18:13:12","新北市汐止區福德一路197號","121.635531666667","25.0655583333333","6501100","汐止區"
"233001","KEA-2870","2019/12/06 18:13:12","新北市烏來區新烏路五段69號","121.547151666667","24.8747366666667","6502900","烏來區"
"220082","610-BX","2019/12/06 18:13:12","新北市板橋區華東街1-10號","121.448276666667","24.994935","6500100","板橋區"
"224002","257-TC","2019/12/06 18:13:18","新北市瑞芳區三爪子坑路149巷20號","121.811256666667","25.1065183333333","6501200","瑞芳區"
"242046","281-VK","2019/12/06 18:13:07","新北市新莊區中正路655號","121.429215","25.0301316666667","6500500","新莊區"
"242011","280-VK","2019/12/06 18:13:19","新北市新莊區中信街94巷12號","121.448445","25.0536283333333","6500500","新莊區"
"220054","741-BX","2019/12/06 18:13:14","新北市板橋區華東街1-9號","121.448173333333","24.9949916666667","6500100","板橋區"
"235061","KEA-2875","2019/12/06 18:13:26","新北市中和區民德路187號","121.468366666667","24.9992683333333","6500300","中和區"
