"lineid","car","time","location","longitude","latitude","cityid","cityname"
"234046","148-BY","2019/12/06 18:59:23","新北市永和區永元路52巷52號","121.524535","25.0007533333333","6500400","永和區"
"234081","298-R6","2019/12/06 18:59:13","新北市永和區國中路200號","121.522303333333","25.006165","6500400","永和區"
"234038","336-UY","2019/12/06 18:59:21","新北市永和區成功路二段207號","121.526588333333","24.9959483333333","6500400","永和區"
"234064","337-UY","2019/12/06 18:59:23","新北市永和區秀朗路一段138號","121.517901666667","25.0034083333333","6500400","永和區"
"234086","338-UY","2019/12/06 18:59:20","新北市永和區永利路18號","121.518043333333","25.00577","6500400","永和區"
"234070","552-UM","2019/12/06 18:59:17","新北市永和區中興街98號","121.518951666667","25.0120216666667","6500400","永和區"
"234017","745-BX","2019/12/06 18:59:22","新北市永和區永和路二段297號","121.516093333333","25.0160583333333","6500400","永和區"
"234030","746-BX","2019/12/06 18:59:24","新北市永和區秀朗路二段274號","121.525918333333","24.997985","6500400","永和區"
"234054","KEA-2590","2019/12/06 18:59:14","新北市永和區竹林路64號","121.518211666667","25.0134783333333","6500400","永和區"
"234007","KED-0605","2019/12/06 18:59:16","新北市永和區中山路一段50號","121.513288333333","25.0106283333333","6500400","永和區"
"234013","KEA-2591","2019/12/06 18:59:12","新北市永和區保福路二段2號","121.511163333333","25.0108133333333","6500400","永和區"
"234061","AAD-866","2019/12/06 18:59:19","新北市永和區福和路307號","121.516258333333","25.007095","6500400","永和區"
"234050","863-TW","2019/12/06 18:59:19","新北市永和區文化路194號","121.510711666667","25.0163016666667","6500400","永和區"
"234026","9371-KE","2019/12/06 18:59:26","新北市永和區安樂路461號","121.514256666667","25.0051533333333","6500400","永和區"
"234011","9373-KE","2019/12/06 18:59:10","新北市永和區信義路77號","121.512343333333","25.0131466666667","6500400","永和區"
"249005","172-UM","2019/12/06 18:59:21","新北市八里區長道坑1-3號","121.391966666667","25.1279233333333","6502300","八里區"
"249001","173-UM","2019/12/06 18:59:27","新北市八里區龍米路一段130號","121.453075","25.1254216666667","6502300","八里區"
"248016","026-BX","2019/12/06 18:59:25","新北市五股區成泰路三段559巷16號","121.451395","25.1026083333333","6501500","五股區"
"248006","077-UY","2019/12/06 18:59:24","新北市五股區中興路一段2號","121.46949","25.072355","6501500","五股區"
"248008","KED-0815","2019/12/06 18:59:18","新北市五股區中興路一段126號","121.4656","25.073655","6501500","五股區"
"248018","KED-0813","2019/12/06 18:59:16","新北市五股區民義路二段22巷21號","121.421308333333","25.09784","6501500","五股區"
"248012","247-BX","2019/12/06 18:59:29","新北市五股區工商路36巷16號","121.439808333333","25.0841983333333","6501500","五股區"
"248010","272-BY","2019/12/06 18:59:22","新北市五股區水碓一路23號","121.430563333333","25.0713183333333","6501500","五股區"
"248004","677-BX","2019/12/06 18:59:16","新北市五股區民義路二段42-3號","121.415998333333","25.0998083333333","6501500","五股區"
"248002","682-TV","2019/12/06 18:59:07","新北市五股區凌雲路一段107號","121.45024","25.1016733333333","6501500","五股區"
"234023","9380-KE","2019/12/06 18:59:17","新北市永和區竹林路75巷33弄21號","121.520818333333","25.01439","6500400","永和區"
"234077","969-R7","2019/12/06 18:59:11","新北市永和區中正路286巷7號","121.517676666667","24.9986616666667","6500400","永和區"
"234074","AAC-211","2019/12/06 18:59:17","新北市永和區環河東路二段98號","121.524103333333","25.01033","6500400","永和區"
"234067","AAC-212","2019/12/06 18:59:22","新北市永和區自由街62號","121.513708333333","25.00573","6500400","永和區"
"234003","AAC-295","2019/12/06 18:59:13","新北市永和區和平街32號","121.51327","25.00993","6500400","永和區"
"244013","KEA-2802","2019/12/06 18:59:19","新北市林口區麗園一街9巷1號","121.376553333333","25.0713033333333","6501700","林口區"
"244023","483-VK","2019/12/06 18:59:18","新北市林口區文化三路二段211巷95號","121.37524","25.08476","6501700","林口區"
"244017","485-VK","2019/12/06 18:59:19","新北市林口區公園路87號","121.368603333333","25.0696233333333","6501700","林口區"
"244009","656-BX","2019/12/06 18:59:28","新北市林口區林口路72號","121.389998333333","25.0795216666667","6501700","林口區"
"244011","701-TV","2019/12/06 18:59:11","新北市林口區竹林路57號","121.387601666667","25.0783166666667","6501700","林口區"
"244025","837-TS","2019/12/06 18:59:11","新北市林口區南勢街192巷13號","121.361431666667","25.0750166666667","6501700","林口區"
"208001","267-VK","2019/12/06 18:59:12","新北市金山區金包里街2號","121.640695","25.2204966666667","6502700","金山區"
"243012","AAD-798","2019/12/06 18:59:22","新北市泰山區福興三街13號","121.43445","25.0577883333333","6501600","泰山區"
"243010","297-R6","2019/12/06 18:59:19","新北市泰山區辭修路22號","121.429146666667","25.0583016666667","6501600","泰山區"
"243014","KEA-2801","2019/12/06 18:59:26","新北市泰山區泰林路二段603號","121.421391666667","25.06347","6501600","泰山區"
"243016","421-VK","2019/12/06 18:59:16","新北市泰山區明志路二段135號","121.427693333333","25.0507616666667","6501600","泰山區"
"243011","KEA-2216","2019/12/06 18:59:26","新北市泰山區明志路230號","121.427171666667","25.0482033333333","6501600","泰山區"
"243013","646-TV","2019/12/06 18:59:23","新北市泰山區明志路三段206巷1號","121.423336666667","25.0377716666667","6501600","泰山區"
"243015","680-BX","2019/12/06 18:59:17","新北市泰山區美寧街50號","121.430475","25.0644133333333","6501600","泰山區"
"222003","436-BY","2019/12/06 18:59:08","新北市深坑區深南路88巷1號","121.621448333333","25.0107733333333","6501800","深坑區"
"222002","659-BX","2019/12/06 18:59:23","新北市深坑區文山路一段33號","121.629436666667","25.0039116666667","6501800","深坑區"
"231061","002-UM","2019/12/06 18:59:11","新北市新店區安華路28-1號","121.519578333333","24.96073","6500600","新店區"
"231058","0293-UT","2019/12/06 18:59:27","新北市新店區檳榔路50號","121.541893333333","24.9633733333333","6500600","新店區"
"231044","046-UY","2019/12/06 18:59:12","新北市新店區寶中路72號","121.547835","24.9805716666667","6500600","新店區"
"231060","106-UY","2019/12/06 18:59:27","新北市新店區安華路16號","121.51685","24.9580716666667","6500600","新店區"
"231051","107-UY","2019/12/06 18:59:08","新北市新店區中正路349-1號","121.535326666667","24.9759083333333","6500600","新店區"
"231049","108-UY","2019/12/06 18:59:24","新北市新店區二十張路142-1號","121.534981666667","24.978845","6500600","新店區"
"231065","110-UY","2019/12/06 18:59:20","新北市新店區安祥路147巷70號","121.475926666667","24.9558866666667","6500600","新店區"
"231050","KEA-2219","2019/12/06 18:59:20","新北市新店區新烏路一段11巷7號","121.547318333333","24.9512983333333","6500600","新店區"
"221031","KEA-2785","2019/12/06 18:59:12","新北市汐止區福德一路300巷21號","121.630643333333","25.06408","6501100","汐止區"
"231062","256-BX","2019/12/06 18:59:09","新北市新店區安忠路102-1號","121.51041","24.955675","6500600","新店區"
"231054","260-TV","2019/12/06 18:59:29","新北市新店區北新路一段41號","121.538025","24.9592116666667","6500600","新店區"
"231042","268-BY","2019/12/06 18:59:11","新北市新店區中興路一段282號","121.545636666667","24.9686033333333","6500600","新店區"
"231064","278-BY","2019/12/06 18:59:17","新北市新店區安康路一段355號","121.51981","24.9632516666667","6500600","新店區"
"231045","355-BY","2019/12/06 18:59:18","新北市新店區安康路一段90號","121.527926666667","24.961975","6500600","新店區"
"231055","4716-K9","2019/12/06 18:59:13","新北市新店區新生街13巷17號","121.53925","24.9658333333333","6500600","新店區"
"231056","4715-K9","2019/12/06 18:59:20","新北市新店區二十張路46巷37弄21-1號","121.535811666667","24.9814766666667","6500600","新店區"
"231067","4772-VM","2019/12/06 18:59:25","新北市新店區安康路一段76號","121.528238333333","24.961885","6500600","新店區"
"231053","513-UM","2019/12/06 18:59:11","新北市新店區屈尺路12號","121.548948333333","24.92262","6500600","新店區"
"231041","619-UM","2019/12/06 18:59:13","新北市新店區安康路一段33-1號","121.532383333333","24.9604516666667","6500600","新店區"
"231063","641-BX","2019/12/06 18:59:19","新北市新店區安華路30巷1號","121.5194","24.9595816666667","6500600","新店區"
"231048","KED-0819","2019/12/06 18:59:18","新北市新店區德正街23巷8號","121.544386666667","24.9720333333333","6500600","新店區"
"231046","719-UM","2019/12/06 18:59:17","新北市新店區永業路81巷12號","121.532895","24.9457316666667","6500600","新店區"
"231057","720-UM","2019/12/06 18:59:23","新北市新店區百齡一路12號","121.553061666667","24.9324866666667","6500600","新店區"
"231059","897-TW","2019/12/06 18:59:18","新北市新店區安華路28-1號","121.519523333333","24.960715","6500600","新店區"
"231040","898-TW","2019/12/06 18:59:14","新北市新店區中央路81號","121.532326666667","24.976645","6500600","新店區"
"231043","899-TW","2019/12/06 18:59:15","新北市新店區北新路一段341號","121.541943333333","24.9688716666667","6500600","新店區"
"231066","AKT-0513","2019/12/06 18:59:13","新北市新店區安豐路22巷4號","121.501353333333","24.9562","6500600","新店區"
"241005","316-R6","2019/12/06 18:59:23","新北市三重區溪尾街293號","121.487571666667","25.08308","6500200","三重區"
"241035","KEA-2210","2019/12/06 18:59:08","新北市三重區重新路三段115巷18號","121.490008333333","25.0609583333333","6500200","三重區"
"241029","942-UM","2019/12/06 18:59:12","新北市三重區重安街1號","121.489876666667","25.0584266666667","6500200","三重區"
"235066","003-UY","2019/12/06 18:59:25","新北市中和區中山路二段131巷5弄2號","121.502835","25.002805","6500300","中和區"
"235064","005-UY","2019/12/06 18:59:14","新北市中和區泰和街38巷19號","121.49876","25.000725","6500300","中和區"
"235063","006-UY","2019/12/06 18:59:13","新北市中和區中正路530號","121.487815","24.9944716666667","6500300","中和區"
"235056","096-UM","2019/12/06 18:59:15","新北市板橋區三民路二段204-4號","121.478943333333","25.0124116666667","6500300","中和區"
"235039","097-UM","2019/12/06 18:59:18","新北市中和區立人街14巷34號","121.51943","24.99554","6500300","中和區"
"235065","098-UM","2019/12/06 18:59:28","新北市中和區福祥路135號","121.49839","25.0075583333333","6500300","中和區"
"235040","150-BY","2019/12/06 18:59:17","新北市中和區宜安路1巷20號","121.512701666667","24.9946233333333","6500300","中和區"
"235058","151-BY","2019/12/06 18:59:15","新北市中和區員山路77巷1弄1號","121.480546666667","24.9941366666667","6500300","中和區"
"235055","183-VK","2019/12/06 18:59:12","新北市中和區德光路37號","121.470511666667","25.004195","6500300","中和區"
"235038","185-VK","2019/12/06 18:59:08","新北市中和區立人街24-4號","121.518966666667","24.9941916666667","6500300","中和區"
"235067","255-BX","2019/12/06 18:59:20","新北市中和區民樂路60號","121.483876666667","25.0012433333333","6500300","中和區"
"235044","293-VK","2019/12/06 18:59:15","新北市中和區復興路280巷33弄4號","121.501416666667","24.991475","6500300","中和區"
"235072","301-VK","2019/12/06 18:59:21","新北市中和區景平路740號","121.496555","25.004125","6500300","中和區"
"235043","352-BY","2019/12/06 18:59:17","新北市中和區成功路103號","121.525975","24.991505","6500300","中和區"
"235042","KEA-2878","2019/12/06 18:59:29","新北市中和區秀朗路三段60巷46號","121.524798333333","24.9949666666667","6500300","中和區"
"235050","4979-A6","2019/12/06 18:59:20","新北市中和區忠孝街2-9號","121.509321666667","24.9829383333333","6500300","中和區"
"235069","4980-A6","2019/12/06 18:59:15","新北市中和區景平路616號","121.500645","24.9970316666667","6500300","中和區"
"235070","558-UM","2019/12/06 18:59:18","新北市中和區中和路159號","121.502761666667","24.99983","6500300","中和區"
"235045","565-BX","2019/12/06 18:59:27","新北市中和區景新街467巷20弄82號","121.514303333333","24.9874216666667","6500300","中和區"
"235060","KED-0823","2019/12/06 18:59:07","新北市中和區民享街91-12號","121.474583333333","25.0007583333333","6500300","中和區"
"235054","640-BX","2019/12/06 18:59:15","新北市中和區民德路173號","121.468565","24.9995433333333","6500300","中和區"
"235047","732-UM","2019/12/06 18:59:15","新北市中和區興南路二段77號","121.506561666667","24.9849816666667","6500300","中和區"
"235046","733-UM","2019/12/06 18:59:22","新北市中和區興南路一段129號","121.509008333333","24.9878966666667","6500300","中和區"
"235062","800-TS","2019/12/06 18:59:23","新北市中和區中山路二段530號","121.485876666667","25.0049466666667","6500300","中和區"
"235057","801-TS","2019/12/06 18:59:19","新北市中和區民利街80號","121.478126666667","24.9981833333333","6500300","中和區"
"235041","802-TS","2019/12/06 18:59:22","新北市中和區中和路260號","121.507795","24.9993166666667","6500300","中和區"
"235052","805-TS","2019/12/06 18:59:25","新北市中和區興南路二段347號","121.500171666667","24.9801316666667","6500300","中和區"
"235048","896-TW","2019/12/06 18:59:22","新北市中和區華新街109巷1-3號","121.509106666667","24.98221","6500300","中和區"
"235053","900-TW","2019/12/06 18:59:16","新北市板橋區和平路178號","121.463508333333","24.995505","6500300","中和區"
"235059","911-UM","2019/12/06 18:59:16","新北市中和區圓通路433巷8號","121.487916666667","24.9883566666667","6500300","中和區"
"235051","157-BY","2019/12/06 18:59:14","新北市中和區忠孝街11巷8號","121.510095","24.9831683333333","6500300","中和區"
"235037","AAC-213","2019/12/06 18:59:13","新北市中和區秀朗路三段60巷43號","121.524973333333","24.9948783333333","6500300","中和區"
"220065","072-UY","2019/12/06 18:59:28","新北市板橋區漢生東路340巷1號","121.471713333333","25.0074033333333","6500100","板橋區"
"220086","073-UY","2019/12/06 18:59:24","新北市板橋區中正路80巷15號","121.457365","25.01461","6500100","板橋區"
"220106","075-UY","2019/12/06 18:59:17","新北市板橋區雙十路三段10巷10號","121.472081666667","25.0307333333333","6500100","板橋區"
"220069","AAD-861","2019/12/06 18:59:13","新北市板橋區華興街67號","121.457236666667","25.00496","6500100","板橋區"
"226004","312-R5","2019/12/06 18:59:19","新北市平溪區靜安路二段358號","121.73767","25.0244516666667","6502400","平溪區"
"235049","251-BX","2019/12/06 18:59:20","新北市中和區明仁街20號","121.50652","24.995375","6500300","中和區"
"228002","663-BX","2019/12/06 18:59:13","新北市貢寮區福隆里東興街106巷25弄1號","121.946421666667","25.0182916666667","6502600","貢寮區"
"228001","670-TC","2019/12/06 18:59:19","新北市貢寮區仁理村研海街12-1號","121.923781666667","25.0517033333333","6502600","貢寮區"
"228003","828-UM","2019/12/06 18:59:20","新北市貢寮區和美里龍洞街56-2號","121.912203333333","25.11396","6502600","貢寮區"
"224006","676-BX","2019/12/06 18:59:15","新北市瑞芳區中山路139號","121.803005","25.1063933333333","6501200","瑞芳區"
"224007","285-BY","2019/12/06 18:59:24","新北市瑞芳區瑞竹路92號","121.762856666667","25.1036466666667","6501200","瑞芳區"
"224009","275-VK","2019/12/06 18:59:13","新北市瑞芳區長仁路37-1號","121.865441666667","25.11777","6501200","瑞芳區"
"224008","273-VK","2019/12/06 18:59:16","新北市瑞芳區逢甲路340-9號","121.798438333333","25.1168983333333","6501200","瑞芳區"
"224005","271-BY","2019/12/06 18:59:09","新北市瑞芳區明燈路二段66號","121.809403333333","25.1076183333333","6501200","瑞芳區"
"227002","642-TC","2019/12/06 18:59:21","新北市雙溪區平林里外平林9-6號","121.85898","25.037975","6502500","雙溪區"
"227001","400-TW","2019/12/06 18:59:20","新北市雙溪區牡丹里中正路61巷16號","121.865971666667","25.0427683333333","6502500","雙溪區"
"253005","032-BX","2019/12/06 18:59:25","新北市石門區崁子腳76-1號","121.570638333333","25.2968283333333","6502200","石門區"
"253006","295-VK","2019/12/06 18:59:11","新北市石門區八甲4-1號","121.521181666667","25.2825383333333","6502200","石門區"
"222001","KEA-2212","2019/12/06 18:59:15","新北市深坑區北深路一段300號","121.624236666667","25.0057816666667","6501800","深坑區"
"208002","KEA-2872","2019/12/06 18:59:28","新北市金山區仁愛路67巷4號","121.634563333333","25.2209583333333","6502700","金山區"
"208003","665-BX","2019/12/06 18:59:24","新北市金山區中正路149號","121.63176","25.22128","6502700","金山區"
"251001","011-UM","2019/12/06 18:59:23","新北市淡水區自強路56-1號","121.463343333333","25.127505","6501000","淡水區"
"251002","012-UM","2019/12/06 18:59:14","新北市淡水區中正東路61號","121.446921666667","25.1678266666667","6501000","淡水區"
"251008","181-VK","2019/12/06 18:59:12","新北市淡水區沙崙路129號","121.422731666667","25.18245","6501000","淡水區"
"251010","413-VK","2019/12/06 18:59:24","新北市淡水區淡海路69巷8弄3號","121.422511666667","25.1813666666667","6501000","淡水區"
"251012","441-VK","2019/12/06 18:59:13","新北市淡水區新興街111號","121.440565","25.1808483333333","6501000","淡水區"
"251007","442-VK","2019/12/06 18:59:14","新北市淡水區民生路113巷1弄38號","121.463148333333","25.1386716666667","6501000","淡水區"
"251009","575-R6","2019/12/06 18:59:13","新北市淡水區文化路16號","121.43994","25.17253","6501000","淡水區"
"251011","650-BX","2019/12/06 18:59:25","新北市淡水區鄧公路34號","121.45781","25.1688733333333","6501000","淡水區"
"251003","766-UM","2019/12/06 18:59:11","新北市淡水區中山北路一段149巷24號","121.442936666667","25.17793","6501000","淡水區"
"207003","681-TV","2019/12/06 18:59:28","新北市萬里區大鵬里頂社2-1號","121.660343333333","25.2071866666667","6502800","萬里區"
"207004","291-VK","2019/12/06 18:59:24","新北市萬里區萬里里獅頭路23號","121.693583333333","25.178205","6502800","萬里區"
"252003","249-BX","2019/12/06 18:59:29","新北市三芝區後厝里北勢子42-3號","121.47216","25.2525533333333","6502100","三芝區"
"252001","292-VK","2019/12/06 18:59:27","新北市三芝區中興街二段242號","121.501666666667","25.25312","6502100","三芝區"
"237004","KEA-2597","2019/12/06 18:59:18","新北市三峽區有木196號","121.443473333333","24.8502566666667","6500900","三峽區"
"237007","153-BY","2019/12/06 18:59:14","新北市三峽區中正路二段223號","121.366003333333","24.91297","6500900","三峽區"
"237013","252-BX","2019/12/06 18:59:25","新北市三峽區光明路69巷25號","121.376695","24.9291583333333","6500900","三峽區"
"237012","275-BY","2019/12/06 18:59:28","新北市三峽區三樹路222巷62號","121.382421666667","24.9423183333333","6500900","三峽區"
"237008","302-VK","2019/12/06 18:59:28","新北市三峽區大同路103號","121.374496666667","24.9269616666667","6500900","三峽區"
"237014","433-BY","2019/12/06 18:59:22","新北市三峽區隆恩街232號","121.35782","24.9411566666667","6500900","三峽區"
"237006","5529-G3","2019/12/06 18:59:13","新北市三峽區溪東路233巷4弄25號","121.40742","24.9339883333333","6500900","三峽區"
"237011","KEA-2596","2019/12/06 18:59:12","新北市三峽區介壽路三段245號","121.40797","24.9494683333333","6500900","三峽區"
"237015","649-BX","2019/12/06 18:59:23","新北市三峽區建安71號","121.448815","24.9261283333333","6500900","三峽區"
"237010","706-TV","2019/12/06 18:59:21","新北市三峽區復興路277號","121.366281666667","24.93888","6500900","三峽區"
"237005","AKY-6261","2019/12/06 18:59:21","新北市三峽區中山路459巷135號","121.34862","24.9330066666667","6500900","三峽區"
"236042","KED-0685","2019/12/06 18:59:20","新北市土城區學府路一段219巷9號","121.451963333333","24.9839283333333","6501300","土城區"
"233002","762-BX","2019/12/06 18:35:00","新北市烏來區啦卡路70-1號","121.565296666667","24.8559283333333","6502900","烏來區"
"236074","166-UM","2019/12/06 18:59:24","新北市土城區龍泉路10-1號","121.409553333333","24.9492483333333","6501300","土城區"
"236030","253-BX","2019/12/06 18:59:15","新北市土城區中央路二段304號","121.4403","24.9734283333333","6501300","土城區"
"236026","269-VK","2019/12/06 18:59:24","新北市土城區光明街43號","121.442155","24.9738783333333","6501300","土城區"
"236039","271-VK","2019/12/06 18:59:18","新北市土城區仁愛路4號","121.459788333333","24.9812133333333","6501300","土城區"
"236069","KEA-2877","2019/12/06 18:59:13","新北市土城區裕民路286號","121.45561","24.9818816666667","6501300","土城區"
"252002","KED-0821","2019/12/06 18:59:24","新北市三芝區中正路一段16-1號","121.503","25.2586466666667","6502100","三芝區"
"236020","401-BY","2019/12/06 18:59:15","新北市土城區延吉街168巷3號","121.468288333333","24.9855716666667","6501300","土城區"
"236014","752-BX","2019/12/06 18:59:30","新北市土城區延和路1號","121.463595","24.987585","6501300","土城區"
"236059","912-UM","2019/12/06 18:59:26","新北市土城區金城路二段234號","121.45666","24.9829966666667","6501300","土城區"
"236048","913-UM","2019/12/06 18:59:21","新北市土城區青雲路322巷2弄2號","121.458545","24.9771483333333","6501300","土城區"
"236063","915-UM","2019/12/06 18:59:09","新北市土城區金城路三段139巷11號","121.467838333333","24.98869","6501300","土城區"
"236055","AAC-216","2019/12/06 18:59:29","新北市土城區裕民路34號","121.447906666667","24.988445","6501300","土城區"
"242060","986-R7","2019/12/06 18:59:18","新北市新莊區民安路292號","121.427978333333","25.0217166666667","6500500","新莊區"
"242058","612-BX","2019/12/06 18:59:13","桃園市龜山區萬壽路一段78號","121.40827","25.01909","6500500","新莊區"
"242056","172-VK","2019/12/06 18:59:24","新北市樹林區八德街236號","121.4122","24.9704016666667","6500500","新莊區"
"242009","349-TH","2019/12/06 18:59:24","新北市新莊區三和路12-21號","121.442146666667","25.0383366666667","6500500","新莊區"
"238023","601-UM","2019/12/06 18:59:08","新北市樹林區大慶街154號","121.396813333333","25.0135233333333","6500700","樹林區"
"238019","599-UM","2019/12/06 18:59:21","新北市樹林區東陽街3號","121.412753333333","24.98221","6500700","樹林區"
"238022","KEA-2213","2019/12/06 18:59:17","新北市樹林區東興街41號","121.410738333333","24.977845","6500700","樹林區"
"238021","KEA-2539","2019/12/06 18:59:17","新北市樹林區柑園街二段282號","121.373993333333","24.9519483333333","6500700","樹林區"
"238025","303-VK","2019/12/06 18:59:19","新北市樹林區中山路三段26號","121.395463333333","24.9728383333333","6500700","樹林區"
"238017","283-BY","2019/12/06 18:59:21","新北市樹林區光興街44號","121.409893333333","25.00271","6500700","樹林區"
"238014","282-BY","2019/12/06 18:59:12","新北市樹林區潭興街107巷18號","121.424706666667","24.999375","6500700","樹林區"
"238020","268-VK","2019/12/06 18:59:14","新北市樹林區俊英街219巷47-1號","121.420576666667","25.0113833333333","6500700","樹林區"
"238026","172-UY","2019/12/06 18:59:24","新北市樹林區中和街11號","121.392086666667","24.9729133333333","6500700","樹林區"
"238016","169-UY","2019/12/06 18:59:16","新北市樹林區復興路292號","121.417338333333","24.987435","6500700","樹林區"
"239007","AAC-297","2019/12/06 18:59:15","新北市鶯歌區中正一路建德巷4號","121.36478","24.956805","6500800","鶯歌區"
"239006","891-R6","2019/12/06 18:59:11","新北市鶯歌區鶯桃路296巷53號","121.335868333333","24.9613366666667","6500800","鶯歌區"
"239008","527-UM","2019/12/06 18:59:24","新北市鶯歌區朝陽街1號","121.336295","24.9766016666667","6500800","鶯歌區"
"239005","526-UM","2019/12/06 18:59:09","新北市鶯歌區鳳吉二街38號","121.326131666667","24.9734233333333","6500800","鶯歌區"
"239001","417-VK","2019/12/06 18:59:17","新北市鶯歌區國中街171-9號","121.337463333333","24.9385316666667","6500800","鶯歌區"
"239003","360-BY","2019/12/06 18:59:13","新北市鶯歌區永和街58號","121.333338333333","24.9681416666667","6500800","鶯歌區"
"239002","359-BY","2019/12/06 18:59:24","新北市鶯歌區重慶街37號","121.351473333333","24.9525333333333","6500800","鶯歌區"
"239004","193-VK","2019/12/06 18:59:15","新北市鶯歌區中正三路156巷31號","121.333433333333","24.9397183333333","6500800","鶯歌區"
"221008","489-VK","2019/12/06 18:59:09","新北市汐止區康寧街753巷2弄8號","121.639241666667","25.0738333333333","6501100","汐止區"
"221036","130-UY","2019/12/06 18:59:19","新北市汐止區水碓街55號","121.665136666667","25.069255","6501100","汐止區"
"221015","131-UY","2019/12/06 18:59:24","新北市汐止區鄉長路一段43號","121.665321666667","25.0750416666667","6501100","汐止區"
"244019","KED-0667","2019/12/06 18:59:21","新北市林口區文化二路一段577號","121.37561","25.0784933333333","6501700","林口區"
"221032","280-BY","2019/12/06 18:59:17","新北市汐止區橫科路241-6號","121.622786666667","25.0484566666667","6501100","汐止區"
"221029","298-VK","2019/12/06 18:59:30","新北市汐止區樟樹一路228號","121.64238","25.0666133333333","6501100","汐止區"
"221035","622-UM","2019/12/06 18:59:13","新北市汐止區大同路二段298號","121.65524","25.0666083333333","6501100","汐止區"
"221002","707-TV","2019/12/06 18:59:12","新北市汐止區大同路一段2號","121.621088333333","25.0550416666667","6501100","汐止區"
"220079","145-BY","2019/12/06 18:59:21","新北市板橋區大智街71巷3弄2號","121.45339","25.0151683333333","6500100","板橋區"
"220080","200-UY","2019/12/06 18:59:09","新北市板橋區大觀路二段265巷1弄52號","121.4451","24.9979466666667","6500100","板橋區"
"220082","610-BX","2019/12/06 18:59:13","新北市板橋區溪北路134號","121.429373333333","24.98897","6500100","板橋區"
"220101","245-BX","2019/12/06 18:59:13","新北市板橋區萬板路7號","121.470348333333","25.0209166666667","6500100","板橋區"
"220083","256-TC","2019/12/06 18:59:22","新北市板橋區大觀路一段38巷156弄77號","121.443108333333","25.0068316666667","6500100","板橋區"
"224002","257-TC","2019/12/06 18:59:18","新北市平溪區新寮里五分寮10-2號","121.800733333333","25.0749983333333","6501200","瑞芳區"
"220091","267-BY","2019/12/06 18:59:27","新北市板橋區大同街8巷38號","121.477586666667","25.025965","6500100","板橋區"
"220056","276-BY","2019/12/06 18:59:21","新北市板橋區信義路106號","121.458225","24.992705","6500100","板橋區"
"220072","277-BY","2019/12/06 18:59:12","新北市樹林區樹新路106巷1號","121.430111666667","24.9976216666667","6500100","板橋區"
"220088","280-UM","2019/12/06 18:59:19","新北市板橋區文化路二段182巷7弄7號","121.472226666667","25.027295","6500100","板橋區"
"220094","283-UM","2019/12/06 18:59:29","新北市板橋區光武街157號","121.465478333333","25.029655","6500100","板橋區"
"220053","285-VK","2019/12/06 18:59:19","新北市板橋區永豐街89巷5弄1號","121.473191666667","25.0194583333333","6500100","板橋區"
"220081","287-VK","2019/12/06 18:59:19","新北市板橋區光華街15巷20號","121.45337","25.0117383333333","6500100","板橋區"
"220090","288-VK","2019/12/06 18:59:29","新北市板橋區裕民街11號","121.46226","25.029065","6500100","板橋區"
"220061","293-UM","2019/12/06 18:59:25","新北市板橋區懷仁街89號","121.477573333333","25.018275","6500100","板橋區"
"220075","303-R5","2019/12/06 18:59:19","新北市板橋區南興路56-2號","121.454336666667","25.0073483333333","6500100","板橋區"
"220062","305-R5","2019/12/06 18:59:14","新北市板橋區中山路二段176號","121.477275","25.0173633333333","6500100","板橋區"
"220092","307-R5","2019/12/06 18:59:24","新北市板橋區文化路二段225巷60弄50號","121.469116666667","25.0295916666667","6500100","板橋區"
"220098","317-R6","2019/12/06 18:59:28","新北市板橋區民生路二段226巷36號","121.471318333333","25.0221266666667","6500100","板橋區"
"220089","487-VK","2019/12/06 18:59:26","新北市板橋區文化路二段262號","121.471391666667","25.0287466666667","6500100","板橋區"
"220035","560-BX","2019/12/06 18:59:14","新北市板橋區中正路341巷35號","121.454231666667","25.0197383333333","6500100","板橋區"
"220103","561-BX","2019/12/06 18:59:23","新北市板橋區介壽街71號","121.469348333333","25.0195516666667","6500100","板橋區"
"220084","568-UM","2019/12/06 18:59:11","新北市板橋區大觀路二段142-1號","121.44265","24.9992183333333","6500100","板橋區"
"220063","609-BX","2019/12/06 18:59:15","新北市板橋區中山路二段265號","121.47766","25.0176283333333","6500100","板橋區"
"220071","630-UY","2019/12/06 18:59:25","新北市板橋區實踐路181-2號","121.464315","25.0035133333333","6500100","板橋區"
"220057","686-BX","2019/12/06 18:59:15","新北市板橋區重慶路276-3號","121.463171666667","25.00017","6500100","板橋區"
"220077","687-BX","2019/12/06 18:59:20","新北市板橋區龍興街65巷1號","121.443421666667","25.0013366666667","6500100","板橋區"
"220093","689-BX","2019/12/06 18:59:13","新北市板橋區民生路三段179號","121.465453333333","25.02725","6500100","板橋區"
"220054","741-BX","2019/12/06 18:59:14","新北市板橋區重慶路127巷18號","121.463628333333","25.0048883333333","6500100","板橋區"
"220102","KEA-2699","2019/12/06 18:59:12","新北市板橋區田單街2巷38號","121.48231","25.0276433333333","6500100","板橋區"
"220055","827-TW","2019/12/06 18:59:14","新北市板橋區中山路一段122號","121.463255","25.0106933333333","6500100","板橋區"
"220067","829-TW","2019/12/06 18:59:29","新北市板橋區三民路186巷13-1號","121.478583333333","25.0148733333333","6500100","板橋區"
"220068","830-TW","2019/12/06 18:59:18","新北市板橋區三民路一段1巷20號","121.479736666667","25.0243183333333","6500100","板橋區"
"220074","895-R6","2019/12/06 18:59:21","新北市板橋區林園街9號","121.453908333333","25.00946","6500100","板橋區"
"220073","985-R7","2019/12/06 18:59:21","新北市板橋區中正路91號","121.456426666667","25.01431","6500100","板橋區"
"220097","AAC-210","2019/12/06 18:59:27","新北市板橋區新海路70號","121.46189","25.0218116666667","6500100","板橋區"
"220064","AAC-253","2019/12/06 18:59:11","新北市板橋區漢生東路178號","121.467101666667","25.0144466666667","6500100","板橋區"
"235061","KEA-2875","2019/12/06 18:59:26","新北市中和區民有街73號","121.476536666667","25.0031433333333","6500300","中和區"
"235068","KEA-2876","2019/12/06 18:59:23","新北市中和區圓通路265巷60號","121.496271666667","24.9924533333333","6500300","中和區"
