"lineid","car","time","location","longitude","latitude","cityid","cityname"
"234046","148-BY","2019/12/06 20:13:23","新北市永和區永元路107號","121.522573333333","25.002515","6500400","永和區"
"234081","298-R6","2019/12/06 20:13:31","新北市永和區國中路109巷3弄1號","121.523873333333","25.0056066666667","6500400","永和區"
"234038","336-UY","2019/12/06 20:13:27","新北市永和區成功路一段47巷21弄2號","121.52794","25.003955","6500400","永和區"
"234064","337-UY","2019/12/06 20:13:16","新北市永和區得和路259號","121.52139","24.9999066666667","6500400","永和區"
"234086","338-UY","2019/12/06 20:13:20","新北市永和區福和路271號","121.517725","25.00742","6500400","永和區"
"234070","552-UM","2019/12/06 20:13:17","新北市永和區永亨路31號","121.519716666667","25.006175","6500400","永和區"
"234017","745-BX","2019/12/06 20:13:22","新北市永和區文化路32號","121.515051666667","25.0150466666667","6500400","永和區"
"234030","746-BX","2019/12/06 20:13:16","新北市永和區民族街81巷3號","121.51885","24.9966516666667","6500400","永和區"
"234054","KEA-2590","2019/12/06 20:13:22","新北市永和區光復街2巷14號","121.51702","25.0164866666667","6500400","永和區"
"234007","KED-0605","2019/12/06 20:13:16","新北市永和區環河西路二段229巷5號","121.501511666667","25.0099066666667","6500400","永和區"
"234013","KEA-2591","2019/12/06 20:13:12","新北市永和區保生路5巷3號","121.50607","25.007075","6500400","永和區"
"234061","AAD-866","2019/12/06 20:13:19","新北市永和區安樂路122號","121.51414","24.9999383333333","6500400","永和區"
"234042","862-TW","2019/12/06 20:13:09","新北市永和區雙和街1號","121.509841666667","25.0016783333333","6500400","永和區"
"234050","863-TW","2019/12/06 20:13:18","新北市永和區環河西路二段37號","121.507373333333","25.01564","6500400","永和區"
"249005","172-UM","2019/12/06 20:13:21","新北市八里區下罟子8-1號","121.385531666667","25.1398133333333","6502300","八里區"
"249001","173-UM","2019/12/06 20:13:27","新北市八里區中華路二段386號","121.402158333333","25.147165","6502300","八里區"
"249004","303-UY","2019/12/06 20:13:24","新北市八里區中山路一段398巷51弄1號","121.411126666667","25.1589916666667","6502300","八里區"
"249002","305-UY","2019/12/06 20:13:29","新北市八里區龍米路一段42號","121.456821666667","25.1185616666667","6502300","八里區"
"249003","593-UM","2019/12/06 20:13:25","新北市八里區中山路二段447巷7號","121.39691","25.1454816666667","6502300","八里區"
"248016","026-BX","2019/12/06 20:13:10","新北市五股區天乙路56號","121.448265","25.1044316666667","6501500","五股區"
"248008","KED-0815","2019/12/06 20:13:18","新北市五股區中興路一段1巷20號","121.469821666667","25.0708883333333","6501500","五股區"
"248012","247-BX","2019/12/06 20:13:08","新北市五股區六合街108號","121.430738333333","25.0909183333333","6501500","五股區"
"248010","272-BY","2019/12/06 20:13:22","新北市五股區成泰路一段7巷20號","121.43312","25.0669016666667","6501500","五股區"
"248004","677-BX","2019/12/06 20:13:28","新北市五股區中興路四段19號","121.439295","25.0825033333333","6501500","五股區"
"248002","682-TV","2019/12/06 20:13:07","新北市五股區成泰路三段279號","121.447175","25.0941583333333","6501500","五股區"
"234023","9380-KE","2019/12/06 20:13:26","新北市永和區復興街16巷8號","121.515636666667","25.0124766666667","6500400","永和區"
"234077","969-R7","2019/12/06 20:13:11","新北市永和區民有街3-2號","121.515915","24.9971516666667","6500400","永和區"
"234074","AAC-211","2019/12/06 20:13:16","新北市永和區竹林路191巷3號","121.520913333333","25.0095166666667","6500400","永和區"
"234067","AAC-212","2019/12/06 20:13:19","新北市永和區保平路236巷12弄4號","121.50876","25.00649","6500400","永和區"
"234003","AAC-295","2019/12/06 20:13:13","新北市永和區自強街28巷1號","121.515673333333","25.008035","6500400","永和區"
"243012","AAD-798","2019/12/06 20:13:22","新北市泰山區楓江路46巷17號","121.435796666667","25.0612633333333","6501600","泰山區"
"243010","297-R6","2019/12/06 20:13:12","新北市泰山區明志路二段214巷13號","121.426508333333","25.0490283333333","6501600","泰山區"
"243014","KEA-2801","2019/12/06 20:13:27","新北市泰山區明志路一段17號","121.433646666667","25.0657866666667","6501600","泰山區"
"243016","421-VK","2019/12/06 20:13:16","新北市泰山區明志路三段257號","121.42336","25.03733","6501600","泰山區"
"243009","KEA-2215","2019/12/06 20:13:10","新北市泰山區福泰街60號","121.434268333333","25.05913","6501600","泰山區"
"243011","KEA-2216","2019/12/06 20:13:26","新北市新莊區壽山路160巷21號","121.417455","25.03187","6501600","泰山區"
"243013","646-TV","2019/12/06 20:13:11","新北市泰山區明志路三段74巷7號","121.424398333333","25.0416983333333","6501600","泰山區"
"243015","680-BX","2019/12/06 20:13:17","新北市泰山區明志路一段497號","121.430665","25.0548916666667","6501600","泰山區"
"222003","436-BY","2019/12/06 20:13:28","新北市深坑區埔新街88號","121.619178333333","25.0023483333333","6501800","深坑區"
"222002","659-BX","2019/12/06 20:13:23","新北市深坑區萬福路57號","121.600581666667","25.0077683333333","6501800","深坑區"
"231061","002-UM","2019/12/06 20:13:11","新北市新店區安興路65巷6號","121.515973333333","24.972765","6500600","新店區"
"231058","0293-UT","2019/12/06 20:13:27","新北市新店區薏仁坑路自強巷1號","121.497648333333","24.95779","6500600","新店區"
"231044","046-UY","2019/12/06 20:13:12","新北市新店區寶慶街58巷2號","121.542075","24.986825","6500600","新店區"
"231060","106-UY","2019/12/06 20:13:27","新北市新店區安康路三段491號","121.482628333333","24.949135","6500600","新店區"
"231051","107-UY","2019/12/06 20:13:28","新北市新店區中央路192號","121.53083","24.974665","6500600","新店區"
"231049","108-UY","2019/12/06 20:13:27","新北市新店區北新路二段59巷11號","121.542403333333","24.97348","6500600","新店區"
"231065","110-UY","2019/12/06 20:13:20","新北市新店區安祥路106巷200弄6號","121.474356666667","24.9603116666667","6500600","新店區"
"231068","187-VK","2019/12/06 20:13:15","新北市新店區中興路三段200號","121.543901666667","24.98193","6500600","新店區"
"231050","KEA-2219","2019/12/06 20:13:20","新北市新店區北新路一段331號","121.541801666667","24.9685533333333","6500600","新店區"
"221031","KEA-2785","2019/12/06 20:13:12","新北市汐止區中興路214巷7弄2號","121.631446666667","25.066615","6501100","汐止區"
"231062","256-BX","2019/12/06 20:13:29","新北市新店區安康路二段71號","121.513888333333","24.963135","6500600","新店區"
"231054","260-TV","2019/12/06 20:13:29","新北市新店區檳榔路109號","121.544455","24.9615883333333","6500600","新店區"
"231042","268-BY","2019/12/06 20:13:20","新北市新店區中興路二段100巷2號","121.547365","24.9713466666667","6500600","新店區"
"231064","278-BY","2019/12/06 20:13:17","新北市新店區安民街121巷14號","121.515408333333","24.9691083333333","6500600","新店區"
"231045","355-BY","2019/12/06 20:13:23","新北市新店區北宜路一段129號","121.540753333333","24.953095","6500600","新店區"
"231055","4716-K9","2019/12/06 20:13:13","新北市新店區北新路一段297巷21號","121.540701666667","24.9679683333333","6500600","新店區"
"231056","4715-K9","2019/12/06 20:13:20","新北市新店區中正路328巷32號","121.537808333333","24.9760716666667","6500600","新店區"
"231067","4772-VM","2019/12/06 20:13:25","新北市新店區溪洲路101號","121.532603333333","24.9617233333333","6500600","新店區"
"231053","513-UM","2019/12/06 20:13:11","新北市新店區新烏路三段11號","121.552535","24.906115","6500600","新店區"
"231041","619-UM","2019/12/06 20:13:13","新北市新店區民權路123號","121.535671666667","24.982785","6500600","新店區"
"231063","641-BX","2019/12/06 20:13:19","新北市新店區黎明路11號","121.502013333333","24.9497383333333","6500600","新店區"
"231048","KED-0819","2019/12/06 20:13:18","新北市新店區永華街10號","121.54363","24.9764116666667","6500600","新店區"
"231057","720-UM","2019/12/06 20:13:28","新北市新店區梅花一路2號","121.551943333333","24.9331916666667","6500600","新店區"
"231059","897-TW","2019/12/06 20:13:30","新北市新店區安德街64號","121.510588333333","24.9619366666667","6500600","新店區"
"231040","898-TW","2019/12/06 20:13:14","新北市新店區北新路一段146號","121.543043333333","24.970485","6500600","新店區"
"231043","899-TW","2019/12/06 20:13:14","新北市新店區建國路133號","121.539288333333","24.978255","6500600","新店區"
"231066","AKT-0513","2019/12/06 20:13:13","新北市新店區安興路20號","121.51511","24.9659083333333","6500600","新店區"
"241011","013-R5","2019/12/06 20:13:14","新北市三重區龍濱路196號","121.501056666667","25.073285","6500200","三重區"
"241028","022-UY","2019/12/06 20:13:22","新北市三重區大同南路162號","121.496613333333","25.057445","6500200","三重區"
"241008","059-VK","2019/12/06 20:13:20","新北市三重區永福街213號","121.479996666667","25.0744183333333","6500200","三重區"
"241015","062-VK","2019/12/06 20:13:26","新北市三重區福德北路9號","121.502565","25.06405","6500200","三重區"
"241017","063-VK","2019/12/06 20:13:22","新北市三重區大同北路219-2號","121.491605","25.0662916666667","6500200","三重區"
"241024","065-VK","2019/12/06 20:13:18","新北市三重區中正北路165巷27號","121.479453333333","25.0704183333333","6500200","三重區"
"241007","066-VK","2019/12/06 20:13:12","新北市三重區三和路四段115號","121.48535","25.0775933333333","6500200","三重區"
"241002","090-VK","2019/12/06 20:13:22","新北市三重區仁忠街11號","121.497303333333","25.0828316666667","6500200","三重區"
"241003","091-VK","2019/12/06 20:13:26","新北市三重區仁愛街476號","121.489608333333","25.0824033333333","6500200","三重區"
"241006","262-UM","2019/12/06 20:13:13","新北市三重區車路頭街139巷14號","121.48434","25.0763183333333","6500200","三重區"
"241005","316-R6","2019/12/06 20:13:23","新北市三重區碧華街352號","121.490571666667","25.0840183333333","6500200","三重區"
"241016","266-UM","2019/12/06 20:13:12","新北市三重區大同北路54巷4號","121.49406","25.0634216666667","6500200","三重區"
"241009","267-UM","2019/12/06 20:13:24","新北市三重區三和路四段382巷97號","121.480321666667","25.0782416666667","6500200","三重區"
"241018","268-UM","2019/12/06 20:13:23","新北市三重區正義北路185號","121.496323333333","25.06785","6500200","三重區"
"241032","269-UM","2019/12/06 20:13:15","新北市三重區捷運路73號","121.482736666667","25.0554433333333","6500200","三重區"
"241013","270-UM","2019/12/06 20:13:20","新北市三重區三和路三段155號","121.491941666667","25.073795","6500200","三重區"
"241035","KEA-2210","2019/12/06 20:13:28","新北市三重區大榮街53號","121.499178333333","25.06352","6500200","三重區"
"241030","KED-0822","2019/12/06 20:13:22","新北市三重區集美街91號","121.488696666667","25.053145","6500200","三重區"
"241004","475-VK","2019/12/06 20:13:13","新北市三重區溪尾街104號","121.489573333333","25.0787933333333","6500200","三重區"
"241020","478-VK","2019/12/06 20:13:19","新北市三重區後竹圍街79號","121.489803333333","25.073115","6500200","三重區"
"241026","480-VK","2019/12/06 20:13:20","新北市三重區中央南路62-1號","121.501391666667","25.06137","6500200","三重區"
"241014","543-UM","2019/12/06 20:13:20","新北市三重區長樂街135巷2號","121.50359","25.0698716666667","6500200","三重區"
"241023","545-UM","2019/12/06 20:13:28","新北市三重區頂崁街219號","121.477375","25.0679283333333","6500200","三重區"
"241001","547-UM","2019/12/06 20:13:22","新北市三重區三和路四段91號","121.488786666667","25.0756166666667","6500200","三重區"
"241019","KEA-2593","2019/12/06 20:13:27","新北市三重區大智街184號","121.491083333333","25.0701016666667","6500200","三重區"
"241022","KED-0820","2019/12/06 20:13:10","新北市三重區中正北路36號","121.487981666667","25.0636866666667","6500200","三重區"
"241025","KED-0670","2019/12/06 20:13:11","新北市三重區中正北路314號","121.479295","25.0689733333333","6500200","三重區"
"241029","942-UM","2019/12/06 20:13:12","新北市三重區中正南路115號","121.494003333333","25.0574316666667","6500200","三重區"
"241033","AAC-255","2019/12/06 20:13:18","新北市三重區光復路一段61巷30號","121.473958333333","25.0493866666667","6500200","三重區"
"235066","003-UY","2019/12/06 20:13:25","新北市中和區水源路95號","121.507076666667","25.0034616666667","6500300","中和區"
"235039","097-UM","2019/12/06 20:13:18","新北市中和區大勇街27巷2號","121.517266666667","24.9937666666667","6500300","中和區"
"235065","098-UM","2019/12/06 20:13:21","新北市中和區永和路128巷9號","121.497645","25.0069533333333","6500300","中和區"
"235055","183-VK","2019/12/06 20:13:12","新北市五股區成泰路一段98巷77號","121.45102","25.0768933333333","6500300","中和區"
"247010","KED-0682","2019/12/06 20:13:29","新北市蘆洲區信義路188巷7號","121.479528333333","25.0845083333333","6501400","蘆洲區"
"235050","4979-A6","2019/12/06 20:13:19","新北市中和區景新街272號","121.510753333333","24.9924016666667","6500300","中和區"
"235069","4980-A6","2019/12/06 20:13:15","新北市中和區南山路127巷27弄30號","121.50345","24.998055","6500300","中和區"
"235041","802-TS","2019/12/06 20:13:21","新北市新店區吉安街43號","121.515238333333","24.96601","6500300","中和區"
"235059","911-UM","2019/12/06 20:13:16","新北市中和區圓通路403-2號","121.488935","24.9892183333333","6500300","中和區"
"235051","157-BY","2019/12/06 20:13:14","新北市中和區捷運路12號","121.509168333333","24.9899216666667","6500300","中和區"
"220065","072-UY","2019/12/06 20:13:24","新北市板橋區館前東路65號","121.46402","25.0078883333333","6500100","板橋區"
"247006","893-R6","2019/12/06 20:13:26","新北市蘆洲區永安南路二段16巷18號","121.467995","25.07783","6501400","蘆洲區"
"247020","546-UM","2019/12/06 20:13:28","新北市蘆洲區民義街108號","121.47402","25.0909866666667","6501400","蘆洲區"
"247016","341-TH","2019/12/06 20:13:24","新北市蘆洲區光華路186巷38號","121.464923333333","25.0834416666667","6501400","蘆洲區"
"247004","336-TH","2019/12/06 20:13:26","新北市蘆洲區長安街218號","121.458505","25.0845","6501400","蘆洲區"
"247024","057-VK","2019/12/06 20:13:10","新北市蘆洲區光明路102號","121.463338333333","25.08801","6501400","蘆洲區"
"247014","056-VK","2019/12/06 20:13:16","新北市蘆洲區中山二路130號","121.4717","25.0815816666667","6501400","蘆洲區"
"247022","007-UY","2019/12/06 20:13:18","新北市蘆洲區中正路297號","121.466718333333","25.088165","6501400","蘆洲區"
"247002","001-UY","2019/12/06 20:13:26","新北市蘆洲區長安街240號","121.457671666667","25.0857283333333","6501400","蘆洲區"
"222001","KEA-2212","2019/12/06 20:13:15","新北市深坑區北深路三段213號","121.60034","25.0040483333333","6501800","深坑區"
"251004","009-UM","2019/12/06 20:13:19","新北市淡水區民族路31巷39號","121.462106666667","25.136645","6501000","淡水區"
"251001","011-UM","2019/12/06 20:13:23","新北市淡水區淡金路二段15號","121.446115","25.1891916666667","6501000","淡水區"
"251002","012-UM","2019/12/06 20:13:24","新北市淡水區中正路300號","121.437405","25.172205","6501000","淡水區"
"251008","181-VK","2019/12/06 20:13:12","新北市淡水區淡海路72巷30弄18號","121.425263333333","25.1825933333333","6501000","淡水區"
"251010","413-VK","2019/12/06 20:13:23","新北市淡水區中正路二段397號","121.425616666667","25.1911516666667","6501000","淡水區"
"251012","441-VK","2019/12/06 20:13:13","新北市淡水區淡金路三段266號","121.44889","25.2067366666667","6501000","淡水區"
"251006","561-UM","2019/12/06 20:13:21","新北市淡水區北新路141巷2弄1號","121.449235","25.1793083333333","6501000","淡水區"
"251009","575-R6","2019/12/06 20:13:29","新北市淡水區清水街1-5號","121.445346666667","25.170345","6501000","淡水區"
"251011","650-BX","2019/12/06 20:13:27","新北市淡水區崁頂107號","121.43335","25.2041716666667","6501000","淡水區"
"251003","766-UM","2019/12/06 20:13:31","新北市淡水區中山北路一段229號","121.444456666667","25.1795866666667","6501000","淡水區"
"207003","681-TV","2019/12/06 20:13:08","新北市萬里區大鵬里萬里加投78-3號","121.646528333333","25.2122816666667","6502800","萬里區"
"207004","291-VK","2019/12/06 20:13:24","新北市萬里區北基里仁三街23號","121.681795","25.1762033333333","6502800","萬里區"
"252001","292-VK","2019/12/06 20:13:27","新北市三芝區中山路一段9巷12號","121.499903333333","25.2586333333333","6502100","三芝區"
"237007","153-BY","2019/12/06 20:13:14","新北市樹林區柑園街二段384巷1號","121.367903333333","24.9490183333333","6500900","三峽區"
"237006","5529-G3","2019/12/06 20:13:13","新北市三峽區嘉添159-2號","121.369068333333","24.9117933333333","6500900","三峽區"
"237015","649-BX","2019/12/06 20:13:23","新北市三峽區介壽路二段138巷2號","121.394866666667","24.9355016666667","6500900","三峽區"
"237005","AKY-6261","2019/12/06 20:13:20","新北市三峽區三樹路98巷74弄91號","121.385073333333","24.9384533333333","6500900","三峽區"
"236042","KED-0685","2019/12/06 20:13:20","新北市土城區裕民路147號","121.452126666667","24.9864716666667","6501300","土城區"
"236030","253-BX","2019/12/06 20:13:15","新北市土城區學成路179號","121.44787","24.988625","6501300","土城區"
"236026","269-VK","2019/12/06 20:13:24","新北市土城區裕生路83巷25號","121.447928333333","24.983945","6501300","土城區"
"236039","271-VK","2019/12/06 20:13:28","新北市土城區延吉街280號","121.465233333333","24.9842616666667","6501300","土城區"
"247012","KED-0683","2019/12/06 20:13:21","新北市蘆洲區中興街15巷31號","121.479951666667","25.0881483333333","6501400","蘆洲區"
"236069","KEA-2877","2019/12/06 20:13:13","新北市土城區大安路24號","121.43282","24.9663416666667","6501300","土城區"
"252002","KED-0821","2019/12/06 20:13:24","新北市三芝區淡金路二段19巷2號","121.502935","25.2593833333333","6502100","三芝區"
"236020","401-BY","2019/12/06 20:13:24","新北市土城區延吉街5巷1號","121.471906666667","24.9893533333333","6501300","土城區"
"236014","752-BX","2019/12/06 20:13:30","新北市土城區廣明街63巷20號","121.45416","24.993385","6501300","土城區"
"236059","912-UM","2019/12/06 20:13:26","新北市土城區中央路三段32號","121.438571666667","24.96906","6501300","土城區"
"236048","913-UM","2019/12/06 20:13:16","新北市土城區清水路117號","121.457358333333","24.9816983333333","6501300","土城區"
"236063","915-UM","2019/12/06 20:13:29","新北市土城區員林街5號","121.442556666667","24.978075","6501300","土城區"
"242060","986-R7","2019/12/06 20:01:18","","121.44466","25.0281816666667","6500500","新莊區"
"242005","751-BX","2019/12/06 20:13:27","新北市新莊區頭興街13巷1號","121.461613333333","25.0534866666667","6500500","新莊區"
"242029","615-BX","2019/12/06 20:13:22","新北市新莊區中原路327-1號","121.446","25.0544183333333","6500500","新莊區"
"242027","613-BX","2019/12/06 20:13:09","新北市新莊區幸福路902號","121.443048333333","25.0494","6500500","新莊區"
"242058","612-BX","2019/12/06 20:13:13","新北市新莊區八德街139號","121.423726666667","25.020015","6500500","新莊區"
"242048","566-BX","2019/12/06 20:13:13","新北市新莊區四維路182巷8號","121.42186","25.02184","6500500","新莊區"
"242041","442-UM","2019/12/06 20:13:10","新北市新莊區壽山路45號","121.414805","25.0310483333333","6500500","新莊區"
"242044","415-TV","2019/12/06 20:13:27","新北市新莊區萬壽路一段21巷23號","121.410721666667","25.0201516666667","6500500","新莊區"
"242013","413-TV","2019/12/06 20:13:25","新北市新莊區幸福路678巷3弄1號","121.450348333333","25.0496433333333","6500500","新莊區"
"242050","400-BY","2019/12/06 20:13:23","新北市新莊區民安西路172巷5號","121.425543333333","25.0159983333333","6500500","新莊區"
"242025","362-BY","2019/12/06 20:13:23","新北市新莊區五權一路12巷25弄2號","121.458021666667","25.0640016666667","6500500","新莊區"
"242023","353-BY","2019/12/06 20:13:21","新北市新莊區化成路632號","121.46608","25.0552366666667","6500500","新莊區"
"242015","132-UY","2019/12/06 20:13:27","新北市新莊區中平路26巷45號","121.446991666667","25.0434416666667","6500500","新莊區"
"242039","135-UY","2019/12/06 20:13:21","新北市新莊區龍安路499號","121.42605","25.0180533333333","6500500","新莊區"
"242056","172-VK","2019/12/06 20:13:15","新北市新莊區豐年街28巷1弄11號","121.44607","25.0318433333333","6500500","新莊區"
"242017","173-VK","2019/12/06 20:13:24","新北市新莊區中港路360號","121.452066666667","25.0469333333333","6500500","新莊區"
"242032","175-VK","2019/12/06 20:13:26","新北市新莊區公園一路10號","121.443531666667","25.03472","6500500","新莊區"
"242054","176-VK","2019/12/06 20:13:14","新北市新莊區民安西路308號","121.4264","25.01199","6500500","新莊區"
"242021","KED-0687","2019/12/06 20:13:15","新北市新莊區建中街48巷10弄11號","121.44834","25.0384816666667","6500500","新莊區"
"242007","346-TH","2019/12/06 20:13:19","新北市新莊區思源路419巷1弄1號","121.459313333333","25.052485","6500500","新莊區"
"242037","348-TH","2019/12/06 20:13:15","新北市新莊區建安街28號","121.4282","25.0252733333333","6500500","新莊區"
"242009","349-TH","2019/12/06 20:13:24","新北市新莊區昌隆街11號","121.454121666667","25.0508883333333","6500500","新莊區"
"242034","350-TH","2019/12/06 20:13:22","新北市新莊區中正路316號","121.44637","25.0349583333333","6500500","新莊區"
"242019","351-TH","2019/12/06 20:13:14","新北市新莊區民樂街78號","121.457918333333","25.04364","6500500","新莊區"
"238020","268-VK","2019/12/06 20:10:22","新北市樹林區中山路三段204號","121.386813333333","24.9682283333333","6500700","樹林區"
"221008","489-VK","2019/12/06 20:13:09","台北市內湖區康樂街125巷2號","121.619686666667","25.073475","6501100","汐止區"
"221036","130-UY","2019/12/06 20:13:18","新北市汐止區新台五路二段102號","121.662466666667","25.0660283333333","6501100","汐止區"
"221015","131-UY","2019/12/06 20:13:24","新北市汐止區建成路37巷1號","121.663656666667","25.0728316666667","6501100","汐止區"
"221010","269-BY","2019/12/06 20:13:15","新北市汐止區連峰街225巷28號","121.644015","25.0810166666667","6501100","汐止區"
"221018","277-VK","2019/12/06 20:13:19","新北市汐止區茄興街12號","121.67348","25.0671466666667","6501100","汐止區"
"221012","278-VK","2019/12/06 20:13:12","新北市汐止區大同路三段439號","121.678343333333","25.0713066666667","6501100","汐止區"
"221032","280-BY","2019/12/06 20:13:09","新北市汐止區弘道街10號","121.617001666667","25.0486","6501100","汐止區"
"221027","281-BY","2019/12/06 20:13:16","新北市汐止區大同路二段513號","121.661361666667","25.0689283333333","6501100","汐止區"
"221029","298-VK","2019/12/06 20:13:29","新北市汐止區樟樹一路119巷10弄1號","121.64126","25.06458","6501100","汐止區"
"221021","299-VK","2019/12/06 20:13:19","新北市汐止區水源路一段243號","121.654158333333","25.059965","6501100","汐止區"
"221035","622-UM","2019/12/06 20:13:13","新北市汐止區長江街39巷2號","121.655655","25.0714233333333","6501100","汐止區"
"221025","623-UM","2019/12/06 20:13:25","新北市汐止區新台五路一段173號","121.655041666667","25.062905","6501100","汐止區"
"221038","646-BX","2019/12/06 20:13:26","新北市汐止區忠孝東路482號","121.666385","25.07386","6501100","汐止區"
"221033","647-BX","2019/12/06 20:13:23","新北市汐止區東勢街201巷104號","121.633541666667","25.0429","6501100","汐止區"
"221002","707-TV","2019/12/06 20:13:12","新北市汐止區福德一路2巷2號","121.639086666667","25.0701266666667","6501100","汐止區"
"220079","145-BY","2019/12/06 20:13:17","新北市板橋區建國街52號","121.45876","25.0171366666667","6500100","板橋區"
"220082","610-BX","2019/12/06 20:13:12","新北市板橋區大觀路三段121號","121.432686666667","24.9945266666667","6500100","板橋區"
"220083","256-TC","2019/12/06 20:13:18","新北市板橋區僑中二街90巷29號","121.444763333333","25.00935","6500100","板橋區"
"224002","257-TC","2019/12/06 20:13:18","新北市瑞芳區明燈路二段89號","121.80988","25.10827","6501200","瑞芳區"
"220081","287-VK","2019/12/06 20:13:19","新北市板橋區僑中一街124巷20弄39號","121.447721666667","25.0139016666667","6500100","板橋區"
"220061","293-UM","2019/12/06 20:13:24","新北市板橋區中山路一段166號","121.46732","25.0125433333333","6500100","板橋區"
"242046","281-VK","2019/12/06 20:13:31","新北市新莊區裕民街85巷20號","121.419568333333","25.0232316666667","6500500","新莊區"
"220075","303-R5","2019/12/06 20:13:19","新北市板橋區金華街10巷17號","121.456435","25.0201616666667","6500100","板橋區"
"242011","280-VK","2019/12/06 20:13:19","新北市新莊區中信街53號","121.449646666667","25.05072","6500500","新莊區"
"220035","560-BX","2019/12/06 20:13:14","新北市板橋區新生街39號","121.456835","25.0210883333333","6500100","板橋區"
"220103","561-BX","2019/12/06 20:13:24","新北市板橋區漢生東路23巷56弄9號","121.466343333333","25.0181933333333","6500100","板橋區"
"220077","687-BX","2019/12/06 20:13:20","新北市板橋區僑中一街124巷20弄1號","121.446183333333","25.0141066666667","6500100","板橋區"
"220054","741-BX","2019/12/06 20:13:14","新北市板橋區忠孝路忠義巷9弄1-2號","121.465171666667","25.0045766666667","6500100","板橋區"
"220055","827-TW","2019/12/06 20:13:14","新北市板橋區仁愛路88號","121.460988333333","24.9996516666667","6500100","板橋區"
"220074","895-R6","2019/12/06 20:13:27","新北市板橋區明德街19號","121.459961666667","25.010705","6500100","板橋區"
"220064","AAC-253","2019/12/06 20:13:23","新北市板橋區長安街331巷55號","121.473186666667","25.013155","6500100","板橋區"
"235068","KEA-2876","2019/12/06 20:13:23","新北市中和區永和路39巷4號","121.49791","25.00507","6500300","中和區"
