"lineid","car","time","location","longitude","latitude","cityid","cityname"
"251004","009-UM","2019/12/06 21:43:15","新北市淡水區民權路80號","121.459163333333","25.13372","6501000","淡水區"
"251005","010-UM","2019/12/06 21:43:28","新北市淡水區鄧公路23巷1-5號","121.45024","25.1699466666667","6501000","淡水區"
"251001","011-UM","2019/12/06 21:43:23","新北市淡水區新市二路三段152號","121.435355","25.19428","6501000","淡水區"
"251002","012-UM","2019/12/06 21:43:14","新北市淡水區學府路190號","121.446658333333","25.1760366666667","6501000","淡水區"
"251008","181-VK","2019/12/06 21:43:12","新北市淡水區水源街二段36號","121.450135","25.1737766666667","6501000","淡水區"
"251010","413-VK","2019/12/06 21:43:23","新北市淡水區沙崙路216巷7號","121.425528333333","25.1838583333333","6501000","淡水區"
"251012","441-VK","2019/12/06 21:43:12","新北市淡水區牛埔子10-1號","121.450028333333","25.2188766666667","6501000","淡水區"
"251007","442-VK","2019/12/06 21:43:19","新北市淡水區水源街二段177巷20號","121.454346666667","25.1765866666667","6501000","淡水區"
"251006","561-UM","2019/12/06 21:40:55","新北市淡水區中正路11巷3號","121.437866666667","25.17075","6501000","淡水區"
"251011","650-BX","2019/12/06 21:43:27","新北市淡水區新民街298-1號","121.435116666667","25.1826583333333","6501000","淡水區"
"251003","766-UM","2019/12/06 21:43:11","新北市淡水區新民街278號","121.4353","25.1817233333333","6501000","淡水區"
