"lineid","car","time","location","longitude","latitude","cityid","cityname"
"251004","009-UM","2019/12/06 22:12:54","新北市淡水區民族路33號","121.462245","25.1358566666667","6501000","淡水區"
"251008","181-VK","2019/12/06 22:13:12","新北市淡水區學府路104號","121.44983","25.1717733333333","6501000","淡水區"
"251010","413-VK","2019/12/06 22:13:23","新北市淡水區沙崙路200號","121.424755","25.1839516666667","6501000","淡水區"
"251007","442-VK","2019/12/06 22:13:14","新北市淡水區北新路180號","121.449435","25.178705","6501000","淡水區"
"251011","650-BX","2019/12/06 22:13:27","新北市淡水區水碓街7號","121.443155","25.177135","6501000","淡水區"
