"lineid","car","time","location","longitude","latitude","cityid","cityname"
"232010","375-UM","2019/12/07 07:43:27","新北市坪林區厚德岡坑3號","121.731183333333","24.9403633333333","6502000","坪林區"
"244005","248-BX","2019/12/07 07:43:15","新北市林口區下福里2鄰39號","121.313028333333","25.1045916666667","6501700","林口區"
"223003","205-TH","2019/12/07 07:43:27","新北市石碇區烏塗窟3號","121.654535","24.976195","6501900","石碇區"
"223008","406-TH","2019/12/07 07:39:18","新北市石碇區靜安路一段337號","121.698808333333","25.0145666666667","6501900","石碇區"
"223001","437-BY","2019/12/07 07:43:24","新北市石碇區烏塗窟9號","121.655656666667","24.974925","6501900","石碇區"
"223004","660-BX","2019/12/07 07:43:19","新北市石碇區八分寮45-1號","121.642195","25.0132266666667","6501900","石碇區"
"223007","661-BX","2019/12/07 07:41:59","新北市石碇區靜安路一段337號","121.69879","25.0144516666667","6501900","石碇區"
"227004","282-VK","2019/12/07 07:43:12","新北市雙溪區雙溪里太平路54號","121.86483","25.0354633333333","6502500","雙溪區"
"252004","249-BX","2019/12/07 07:43:27","新北市三芝區圓山里石曹子坑53-6號","121.518131666667","25.2074283333333","6502100","三芝區"
"252007","AAC-283","2019/12/07 07:43:14","新北市三芝區車新路39號","121.486866666667","25.2658616666667","6502100","三芝區"
