"lineid","car","time","location","longitude","latitude","cityid","cityname"
"231007","189-VK","2019/07/13 10:09:40","新北市新店區新潭路三段211號","121.50487","24.9049683333333","6500600","新店區"
"231008","718-UY","2019/07/13 10:08:54","新北市新店區小坑一路35巷1號","121.530391666667","24.910135","6500600","新店區"
"227004","282-VK","2019/07/13 10:09:55","新北市雙溪區長源里盤山坑12號","121.77288","24.996035","6502500","雙溪區"
"252004","249-BX","2019/07/13 10:09:56","新北市三芝區福德里埔尾4號","121.503445","25.2468816666667","6502100","三芝區"
"252007","AAC-283","2019/07/13 10:09:52","新北市三芝區車新路87號","121.494281666667","25.2677033333333","6502100","三芝區"
"237011","078-UY","2019/07/13 10:09:39","新北市三峽區大勇路1號","121.367046666667","24.9387333333333","6500900","三峽區"
