"lineid","car","time","location","longitude","latitude","cityid","cityname"
"234044","148-BY","2019/07/13 12:59:35","新北市永和區得和路373巷16弄2號","121.525226666667","25.0001533333333","6500400","永和區"
"234005","208-UY","2019/07/13 12:59:58","新北市永和區民權路80號","121.519811666667","24.9976766666667","6500400","永和區"
"234078","298-R6","2019/07/13 12:59:40","新北市永和區永亨路70號","121.521015","25.0059066666667","6500400","永和區"
"234036","336-UY","2019/07/13 12:59:40","新北市中和區秀朗路三段38號","121.52645","24.9960033333333","6500400","永和區"
"234062","337-UY","2019/07/13 12:59:45","新北市永和區秀朗路一段140號","121.518123333333","25.0034133333333","6500400","永和區"
"234084","338-UY","2019/07/13 12:59:52","新北市永和區永寧街135巷1號","121.518178333333","25.004765","6500400","永和區"
"234068","552-UM","2019/07/13 12:59:53","新北市永和區中興街68巷5弄4號","121.518391666667","25.0116066666667","6500400","永和區"
"234015","745-BX","2019/07/13 12:59:57","新北市永和區永和路二段297號","121.515985","25.0160533333333","6500400","永和區"
"234028","746-BX","2019/07/13 12:59:44","新北市永和區得和路420號","121.526223333333","24.9989066666667","6500400","永和區"
"234052","KEA-2590","2019/07/13 12:59:58","新北市永和區竹林路66巷15-7號","121.518433333333","25.0133083333333","6500400","永和區"
"234005","KED-0605","2019/07/13 12:59:43","新北市永和區永和路二段94號","121.51504","25.0116483333333","6500400","永和區"
"234012","KEA-2591","2019/07/13 12:59:39","新北市永和區信義路17巷10號","121.513831666667","25.0116333333333","6500400","永和區"
"234060","AAD-866","2019/07/13 12:59:53","新北市永和區福和路303號","121.516363333333","25.0071166666667","6500400","永和區"
"234040","862-TW","2019/07/13 12:59:40","新北市永和區永貞路271號","121.511713333333","25.0048566666667","6500400","永和區"
"234048","863-TW","2019/07/13 12:59:47","新北市永和區文化路135巷4號","121.510815","25.01579","6500400","永和區"
"234025","9371-KE","2019/07/13 12:59:42","新北市永和區永和路一段42號","121.513053333333","25.0054883333333","6500400","永和區"
"234010","9373-KE","2019/07/13 12:59:56","新北市永和區文化路113巷21弄21號","121.5137","25.0141966666667","6500400","永和區"
"248017","KED-0813","2019/07/13 12:59:41","新北市五股區中興路二段63巷17號","121.460306666667","25.0755366666667","6501500","五股區"
"234022","9380-KE","2019/07/13 12:59:53","新北市永和區竹林路67巷20號","121.51946","25.0135616666667","6500400","永和區"
"234076","969-R7","2019/07/13 12:59:48","新北市永和區民享街4號","121.51508","24.9954733333333","6500400","永和區"
"234066","AAC-212","2019/07/13 12:59:54","新北市永和區自由街47號","121.514041666667","25.005905","6500400","永和區"
"234001","AAC-295","2019/07/13 12:59:48","新北市永和區永平路29號","121.513356666667","25.0087316666667","6500400","永和區"
"231005","046-UY","2019/07/13 12:59:50","新北市新店區安華路28-1號","121.519461666667","24.9607466666667","6500600","新店區"
"231029","106-UY","2019/07/13 12:59:38","新北市新店區安華路28-1號","121.519653333333","24.9608516666667","6500600","新店區"
"231017","KEA-2219","2019/07/13 12:59:42","新北市新店區安一路一段1-1號","121.519856666667","24.96119","6500600","新店區"
"231003","268-BY","2019/07/13 12:59:56","新北市新店區安一路一段1-1號","121.519688333333","24.9612283333333","6500600","新店區"
"231035","278-BY","2019/07/13 12:59:33","新北市新店區安一路一段1-1號","121.519783333333","24.9611216666667","6500600","新店區"
"231024","4716-K9","2019/07/13 12:59:48","新北市新店區安華路28-1號","121.519793333333","24.9606683333333","6500600","新店區"
"231020","513-UM","2019/07/13 12:59:47","新北市新店區安一路一段1-1號","121.519725","24.9611116666667","6500600","新店區"
"231002","619-UM","2019/07/13 12:59:49","新北市新店區安華路28-1號","121.519863333333","24.9609516666667","6500600","新店區"
"231010","719-UM","2019/07/13 12:59:50","新北市新店區安一路一段1-1號","121.519538333333","24.9611166666667","6500600","新店區"
"231026","720-UM","2019/07/13 12:59:52","新北市新店區安一路一段1-1號","121.51915","24.9612533333333","6500600","新店區"
"231004","899-TW","2019/07/13 12:59:42","新北市新店區安華路28-1號","121.519518333333","24.9608283333333","6500600","新店區"
"235027","006-UY","2019/07/13 12:59:55","新北市中和區員山路36巷16-3號","121.484968333333","24.9912916666667","6500300","中和區"
"235029","098-UM","2019/07/13 12:59:49","新北市中和區橋和路280號","121.496181666667","25.0067883333333","6500300","中和區"
"235022","151-BY","2019/07/13 12:59:40","新北市中和區圓通路367巷33弄45號","121.49597","24.9856883333333","6500300","中和區"
"235002","185-VK","2019/07/13 12:59:45","新北市中和區秀朗路三段10巷14弄24-3號","121.525041666667","24.99715","6500300","中和區"
"235031","255-BX","2019/07/13 12:59:55","新北市中和區中正路877巷2-2號","121.484208333333","25.004","6500300","中和區"
"235034","558-UM","2019/07/13 12:59:45","新北市中和區中正路589巷15號","121.485621666667","24.993565","6500300","中和區"
"235009","565-BX","2019/07/13 12:59:28","新北市中和區中正路637巷60弄61號","121.485506666667","24.9932933333333","6500300","中和區"
"235035","783-BX","2019/07/13 12:59:55","新北市中和區連城路270號","121.48497","24.9963716666667","6500300","中和區"
"235017","900-TW","2019/07/13 12:59:37","新北市中和區員山路36巷16-2號","121.485265","24.9913616666667","6500300","中和區"
"235015","157-BY","2019/07/13 12:59:45","新北市中和區中正路589巷15號","121.485713333333","24.9937466666667","6500300","中和區"
"235001","AAC-213","2019/07/13 12:59:40","新北市中和區景平路149號","121.513825","24.992115","6500300","中和區"
"228005","097-TW","2019/07/13 12:59:40","新北市貢寮區福隆里東興街76號","121.947748333333","25.0173983333333","6502600","貢寮區"
"228004","212-TW","2019/07/13 12:59:40","新北市貢寮區吉林里內寮街57號","121.886535","24.9868466666667","6502600","貢寮區"
"253003","6232-TK","2019/07/13 12:59:39","新北市石門區中山路36號","121.566363333333","25.2902083333333","6502200","石門區"
"253004","6251-TK","2019/07/13 12:59:40","新北市石門區中山路64-1號","121.567626666667","25.29034","6502200","石門區"
"253001","KEC-0718","2019/07/13 12:59:42","新北市石門區中央路5號","121.566166666667","25.2915133333333","6502200","石門區"
"207002","749-BX","2019/07/13 12:59:44","新北市萬里區雙興里大坪路39號","121.625088333333","25.1713716666667","6502800","萬里區"
"207001","662-BX","2019/07/13 12:59:45","新北市萬里區萬里里獅頭路23號","121.693146666667","25.1781616666667","6502800","萬里區"
"252005","AAC-283","2019/07/13 12:59:47","新北市三芝區埔坪里埔頭坑41號","121.504721666667","25.2640316666667","6502100","三芝區"
"221029","298-VK","2019/07/13 12:59:52","新北市汐止區康寧街398號","121.629718333333","25.0677766666667","6501100","汐止區"
"235032","KEA-2873","2019/07/13 12:59:48","新北市中和區員山路36巷16-3號","121.484975","24.9912666666667","6500300","中和區"
"235025","KEA-2875","2019/07/13 12:59:34","新北市中和區連城路569巷9弄24號","121.479618333333","24.9935383333333","6500300","中和區"
"235026","KEA-2876","2019/07/13 12:59:51","新北市中和區和城路一段271巷1號","121.485411666667","24.99201","6500300","中和區"
