"lineid","car","time","location","longitude","latitude","cityid","cityname"
"234044","148-BY","2019/07/13 13:49:55","新北市永和區永利路358號","121.526206666667","25.0033266666667","6500400","永和區"
"234005","208-UY","2019/07/13 13:49:38","新北市永和區秀朗路一段82-7號","121.515851666667","25.0053733333333","6500400","永和區"
"234078","298-R6","2019/07/13 13:49:40","新北市永和區福和路7巷5弄7號","121.525528333333","25.0082783333333","6500400","永和區"
"234036","336-UY","2019/07/13 13:49:40","新北市永和區民樂街57巷8號","121.528128333333","24.9985116666667","6500400","永和區"
"234062","337-UY","2019/07/13 13:49:45","新北市永和區中正路362號","121.517858333333","25.0008583333333","6500400","永和區"
"234084","338-UY","2019/07/13 13:49:52","新北市永和區中正路570號","121.517111666667","25.0063133333333","6500400","永和區"
"234068","552-UM","2019/07/13 13:49:53","新北市永和區竹林路214號","121.520748333333","25.008135","6500400","永和區"
"234015","745-BX","2019/07/13 13:49:52","新北市永和區文化路19-1號","121.515076666667","25.0149933333333","6500400","永和區"
"234028","746-BX","2019/07/13 13:49:43","新北市永和區民生路47巷2號","121.52296","24.997805","6500400","永和區"
"234052","KEA-2590","2019/07/13 13:49:58","新北市永和區竹林路39巷28弄21號","121.519841666667","25.0144483333333","6500400","永和區"
"234005","KED-0605","2019/07/13 13:49:39","新北市永和區中和路625號","121.513013333333","25.00489","6500400","永和區"
"234012","KEA-2591","2019/07/13 13:49:39","新北市永和區永平路286-1號","121.507548333333","25.0119366666667","6500400","永和區"
"234060","AAD-866","2019/07/13 13:49:53","新北市永和區中正路287號","121.517525","25.0012933333333","6500400","永和區"
"234040","862-TW","2019/07/13 13:49:39","新北市永和區中和路389巷17號","121.508071666667","25.0011366666667","6500400","永和區"
"234048","863-TW","2019/07/13 13:49:55","新北市永和區保安路109號","121.5081","25.0140433333333","6500400","永和區"
"234010","9373-KE","2019/07/13 13:49:40","新北市永和區仁愛路352巷92弄16號","121.501281666667","25.0081283333333","6500400","永和區"
"248017","KED-0813","2019/07/13 13:49:41","新北市五股區民義路二段22巷10號","121.421116666667","25.0974866666667","6501500","五股區"
"234022","9380-KE","2019/07/13 13:49:53","新北市永和區中正路700號","121.516308333333","25.0098466666667","6500400","永和區"
"234076","969-R7","2019/07/13 13:49:48","新北市永和區民權路58巷2弄14號","121.519741666667","24.99886","6500400","永和區"
"234072","AAC-211","2019/07/13 13:49:47","新北市永和區豫溪街215巷1號","121.524098333333","25.00959","6500400","永和區"
"234066","AAC-212","2019/07/13 13:49:54","新北市永和區永貞路416號","121.508878333333","25.0080466666667","6500400","永和區"
"234001","AAC-295","2019/07/13 13:49:42","新北市永和區永和路一段105號","121.513793333333","25.0077966666667","6500400","永和區"
"231030","002-UM","2019/07/13 13:49:50","新北市新店區安康路一段44號","121.53065","24.961005","6500600","新店區"
"231027","0293-UT","2019/07/13 13:49:42","新北市新店區北宜路一段105巷44號","121.540631666667","24.9558416666667","6500600","新店區"
"231005","046-UY","2019/07/13 13:49:50","新北市新店區寶中路121-1號","121.549621666667","24.9794116666667","6500600","新店區"
"231029","106-UY","2019/07/13 13:49:58","新北市新店區安康路二段125-1號","121.512461666667","24.960895","6500600","新店區"
"231018","107-UY","2019/07/13 13:49:50","新北市新店區中正路400巷22號","121.535258333333","24.9782683333333","6500600","新店區"
"231013","108-UY","2019/07/13 13:49:51","新北市新店區二十張路25巷18弄28號","121.539238333333","24.9814016666667","6500600","新店區"
"231036","110-UY","2019/07/13 13:49:52","新北市新店區安祥路147巷18號","121.475643333333","24.955995","6500600","新店區"
"231017","KEA-2219","2019/07/13 13:49:42","新北市新店區竹林路94號","121.553563333333","24.949595","6500600","新店區"
"231033","256-BX","2019/07/13 13:49:37","新北市新店區莒光路44巷21弄11-6號","121.518566666667","24.9522333333333","6500600","新店區"
"231023","260-TV","2019/07/13 13:49:39","新北市新店區國校路52號","121.538335","24.9539966666667","6500600","新店區"
"231003","268-BY","2019/07/13 13:49:56","新北市新店區中興路一段203號","121.543625","24.9656483333333","6500600","新店區"
"231035","278-BY","2019/07/13 13:49:53","新北市新店區安忠路57巷7弄3號","121.513455","24.9588516666667","6500600","新店區"
"231006","355-BY","2019/07/13 13:49:55","新北市新店區北宜路一段196-1號","121.543191666667","24.952955","6500600","新店區"
"231038","3712-VJ","2019/07/13 13:49:45","新北市新店區安華路30巷3號","121.519588333333","24.95923","6500600","新店區"
"231024","4716-K9","2019/07/13 13:49:48","新北市新店區新生街55號","121.538811666667","24.9669266666667","6500600","新店區"
"231025","4715-K9","2019/07/13 13:49:48","新北市新店區中正路331-1號","121.536083333333","24.97528","6500600","新店區"
"231020","513-UM","2019/07/13 13:49:47","新北市新店區新烏路一段130號","121.544606666667","24.9344283333333","6500600","新店區"
"231001","617-UM","2019/07/13 13:49:47","新北市新店區三民路86號","121.534378333333","24.9726583333333","6500600","新店區"
"231002","619-UM","2019/07/13 13:49:49","新北市新店區溪園路365-8號","121.523186666667","24.9805816666667","6500600","新店區"
"231034","641-BX","2019/07/13 13:49:41","新北市新店區達觀路14巷3號","121.503223333333","24.9417866666667","6500600","新店區"
"231012","718-UY","2019/07/13 13:49:53","新北市新店區德正街27巷29弄82號","121.545838333333","24.9734683333333","6500600","新店區"
"231010","719-UM","2019/07/13 13:49:10","新北市新店區三民路60巷2號","121.535518333333","24.9724683333333","6500600","新店區"
"231026","720-UM","2019/07/13 13:49:52","新北市新店區中正路327號","121.535998333333","24.9750316666667","6500600","新店區"
"231028","897-TW","2019/07/13 13:49:48","新北市新店區安和路二段232號","121.516733333333","24.9772983333333","6500600","新店區"
"231004","899-TW","2019/07/13 13:49:42","新北市新店區寶橋路132號","121.547276666667","24.9761783333333","6500600","新店區"
"231037","AKT-0513","2019/07/13 13:49:51","新北市新店區安康路三段359巷12弄4號","121.484443333333","24.9500116666667","6500600","新店區"
"235030","003-UY","2019/07/13 13:49:40","新北市中和區廣福路56巷2弄2號","121.503685","25.002135","6500300","中和區"
"235028","005-UY","2019/07/13 13:49:47","新北市中和區泰和街44巷35號","121.497976666667","25.0013416666667","6500300","中和區"
"235027","006-UY","2019/07/13 13:49:55","新北市中和區連城路319巷3弄1號","121.489245","24.9956516666667","6500300","中和區"
"235020","096-UM","2019/07/13 13:49:56","新北市中和區中正路1204號","121.480105","25.01057","6500300","中和區"
"235003","097-UM","2019/07/13 13:49:42","新北市中和區大智街57號","121.521098333333","24.9921883333333","6500300","中和區"
"235029","098-UM","2019/07/13 13:49:49","新北市中和區莊敬路33巷38弄6號","121.500973333333","25.0069433333333","6500300","中和區"
"235004","150-BY","2019/07/13 13:49:50","新北市中和區保健路48巷52號","121.50927","24.9960866666667","6500300","中和區"
"235022","151-BY","2019/07/13 13:49:40","新北市中和區連城路585號","121.47869","24.99416","6500300","中和區"
"235019","183-VK","2019/07/13 13:49:52","新北市板橋區民族路276巷1弄20號","121.470326666667","25.0062933333333","6500300","中和區"
"235002","185-VK","2019/07/13 13:49:45","新北市中和區大勇街76號","121.518193333333","24.9948216666667","6500300","中和區"
"235013","186-VK","2019/07/13 13:49:51","新北市中和區景安路177巷23號","121.506468333333","24.9944166666667","6500300","中和區"
"235031","255-BX","2019/07/13 13:49:55","新北市中和區新生街268號","121.483466666667","24.9971766666667","6500300","中和區"
"235008","293-VK","2019/07/13 13:49:51","新北市中和區中興街139號","121.49999","24.9913283333333","6500300","中和區"
"235036","301-VK","2019/07/13 13:49:42","新北市中和區中山路二段1號","121.505515","25.005975","6500300","中和區"
"235007","352-BY","2019/07/13 13:49:41","新北市中和區成功路9號","121.526246666667","24.9939783333333","6500300","中和區"
"235006","KEA-2878","2019/07/13 13:49:56","新北市中和區秀朗路三段70巷46號","121.525176666667","24.9943883333333","6500300","中和區"
"247007","KED-0682","2019/07/13 13:49:42","新北市蘆洲區集賢路269巷3號","121.481548333333","25.0836333333333","6501400","蘆洲區"
"235014","4979-A6","2019/07/13 13:49:53","新北市中和區忠孝街62巷9弄1號","121.513136666667","24.9839466666667","6500300","中和區"
"235033","4980-A6","2019/07/13 13:49:51","新北市中和區南山路81巷8弄12號","121.502526666667","24.997715","6500300","中和區"
"235034","558-UM","2019/07/13 13:49:44","新北市中和區安和路213號","121.505936666667","24.999015","6500300","中和區"
"235009","565-BX","2019/07/13 13:49:48","新北市中和區和平街58號","121.508398333333","24.9907983333333","6500300","中和區"
"235024","KED-0823","2019/07/13 13:49:50","新北市中和區民治街27巷12號","121.475575","25.0014316666667","6500300","中和區"
"235018","640-BX","2019/07/13 13:49:47","新北市中和區民享街52號","121.473993333333","25.0024583333333","6500300","中和區"
"235011","732-UM","2019/07/13 13:49:37","新北市中和區興南路二段34巷59號","121.504925","24.9853883333333","6500300","中和區"
"235010","733-UM","2019/07/13 13:49:55","新北市中和區興南路一段89號","121.509831666667","24.9888033333333","6500300","中和區"
"235035","783-BX","2019/07/13 13:49:55","新北市中和區建一路147號","121.488058333333","24.9995483333333","6500300","中和區"
"235021","801-TS","2019/07/13 13:49:52","新北市中和區民利街100巷1號","121.47739","24.99796","6500300","中和區"
"235005","802-TS","2019/07/13 13:49:48","新北市中和區永貞路251號","121.512915","25.0040383333333","6500300","中和區"
"235016","805-TS","2019/07/13 13:49:44","新北市中和區興南路二段399巷124號","121.50122","24.97548","6500300","中和區"
"235017","900-TW","2019/07/13 13:49:56","新北市中和區民德路306號","121.467245","24.9952033333333","6500300","中和區"
"235012","911-UM","2019/07/13 13:49:46","新北市中和區南山路240-6號","121.507115","24.9895066666667","6500300","中和區"
"235015","157-BY","2019/07/13 13:49:44","新北市中和區忠孝街106巷45號","121.513783333333","24.9843633333333","6500300","中和區"
"235001","AAC-213","2019/07/13 13:49:40","新北市中和區秀朗路三段10巷37弄4號","121.524091666667","24.9960616666667","6500300","中和區"
"235023","AAC-215","2019/07/13 13:49:57","新北市中和區圓通路320-1號","121.485806666667","24.9886883333333","6500300","中和區"
"220016","015-TV","2019/07/13 13:49:59","新北市板橋區大同街35巷17號","121.477273333333","25.0277933333333","6500100","板橋區"
"220065","072-UY","2019/07/13 13:49:43","新北市板橋區民族路131號","121.46745","25.0080533333333","6500100","板橋區"
"220034","073-UY","2019/07/13 13:49:45","新北市板橋區南雅西路二段145巷5號","121.45175","25.0114266666667","6500100","板橋區"
"220105","075-UY","2019/07/13 13:49:44","新北市板橋區文化路二段124巷24號","121.471133333333","25.0257266666667","6500100","板橋區"
"220017","AAD-861","2019/07/13 13:49:39","新北市板橋區華興街68號","121.457401666667","25.0049266666667","6500100","板橋區"
"220039","120-SR","2019/07/13 13:49:46","新北市板橋區四維路221號","121.4632","25.0270766666667","6500100","板橋區"
"247003","893-R6","2019/07/13 13:49:57","新北市蘆洲區中原路1-2號","121.461581666667","25.083695","6501400","蘆洲區"
"247023","337-TH","2019/07/13 13:49:43","新北市蘆洲區長榮路106號","121.461786666667","25.0840983333333","6501400","蘆洲區"
"247011","056-VK","2019/07/13 13:49:46","新北市蘆洲區中正路520巷9號","121.462578333333","25.0996666666667","6501400","蘆洲區"
"247019","007-UY","2019/07/13 13:49:53","新北市蘆洲區民族路422巷48弄28號","121.474735","25.0930383333333","6501400","蘆洲區"
"247005","002-UY","2019/07/13 13:49:47","新北市蘆洲區和平路77號","121.469318333333","25.0789966666667","6501400","蘆洲區"
"228005","097-TW","2019/07/13 13:49:40","新北市貢寮區美豐里土地公嶺10號","121.889505","25.0569283333333","6502600","貢寮區"
"228004","212-TW","2019/07/13 13:45:20","新北市貢寮區龍崗里嵩陽街10號","121.901745","25.0104016666667","6502600","貢寮區"
"253003","6232-TK","2019/07/13 13:49:39","新北市石門區中山路62-9號","121.568601666667","25.2897383333333","6502200","石門區"
"253004","6251-TK","2019/07/13 13:49:39","新北市石門區草埔尾31-1號","121.603216666667","25.26503","6502200","石門區"
"253002","637-UY","2019/07/13 13:49:46","新北市石門區尖山湖16-2號","121.562101666667","25.2437816666667","6502200","石門區"
"253001","KEC-0718","2019/07/13 13:49:42","新北市石門區八甲56號","121.524298333333","25.2732433333333","6502200","石門區"
"207002","749-BX","2019/07/13 13:49:44","新北市萬里區崁腳里崁腳路166號","121.644985","25.1557966666667","6502800","萬里區"
"207001","662-BX","2019/07/13 13:49:45","新北市萬里區磺潭里公館崙36號","121.630978333333","25.209245","6502800","萬里區"
"252005","AAC-283","2019/07/13 13:49:47","新北市三芝區圓山里二坪頂67號","121.538565","25.2348933333333","6502100","三芝區"
"236040","KED-0685","2019/07/13 13:49:49","新北市土城區城林路6巷80號","121.438468333333","24.9797133333333","6501300","土城區"
"220038","KED-0812","2019/07/13 13:49:40","新北市板橋區文化路二段464號","121.475076666667","25.0325816666667","6500100","板橋區"
"236074","166-UM","2019/07/13 13:49:48","新北市土城區中央路二段262號","121.441571666667","24.9744733333333","6501300","土城區"
"247009","KED-0683","2019/07/13 13:49:41","新北市五股區凌雲路一段21號","121.455163333333","25.0976766666667","6501400","蘆洲區"
"236068","KEA-2877","2019/07/13 13:49:42","新北市土城區城林路6巷80號","121.438041666667","24.97954","6501300","土城區"
"236017","401-BY","2019/07/13 13:49:37","新北市土城區城林路6巷80號","121.438458333333","24.979805","6501300","土城區"
"236057","912-UM","2019/07/13 13:49:54","新北市土城區中央路三段185號","121.4309","24.9651","6501300","土城區"
"236045","913-UM","2019/07/13 13:49:54","新北市土城區城林路6巷80號","121.438473333333","24.9797633333333","6501300","土城區"
"236060","915-UM","2019/07/13 13:49:41","新北市土城區城林路6巷80號","121.438605","24.9797433333333","6501300","土城區"
"236054","AAC-216","2019/07/13 13:49:45","新北市土城區城林路6巷80號","121.438473333333","24.97975","6501300","土城區"
"221010","269-BY","2019/07/13 13:49:52","新北市汐止區長青路210巷1號","121.608741666667","25.1158416666667","6501100","汐止區"
"220027","145-BY","2019/07/13 13:49:51","新北市板橋區大智街71巷28弄15號","121.45229","25.0149316666667","6500100","板橋區"
"220028","200-UY","2019/07/13 13:49:53","新北市板橋區大觀路二段265巷72弄17號","121.441723333333","24.9969466666667","6500100","板橋區"
"220030","610-BX","2019/07/13 13:49:42","新北市板橋區篤行路三段玉平巷68弄2號","121.42801","24.9861316666667","6500100","板橋區"
"220050","245-BX","2019/07/13 13:49:45","新北市板橋區莊敬路123號","121.471951666667","25.025435","6500100","板橋區"
"220040","267-BY","2019/07/13 13:49:42","新北市板橋區雙十路二段47巷57號","121.474893333333","25.0252983333333","6500100","板橋區"
"220004","276-BY","2019/07/13 13:49:39","新北市板橋區四川路一段239號","121.459975","25.002865","6500100","板橋區"
"220043","283-UM","2019/07/13 13:49:49","新北市板橋區光武街17號","121.467846666667","25.0248716666667","6500100","板橋區"
"220019","283-VK","2019/07/13 13:49:48","新北市板橋區館前東路74號","121.461473333333","25.0073383333333","6500100","板橋區"
"220001","285-VK","2019/07/13 13:49:43","新北市板橋區永豐街57號","121.47377","25.018215","6500100","板橋區"
"220031","286-VK","2019/07/13 13:49:58","新北市板橋區僑中二街108巷1號","121.445838333333","25.0072733333333","6500100","板橋區"
"220029","287-VK","2019/07/13 13:49:47","新北市板橋區南雅西路二段67號","121.452801666667","25.009975","6500100","板橋區"
"220009","295-UM","2019/07/13 13:49:44","新北市板橋區富山街109巷63弄24號","121.475276666667","25.0206283333333","6500100","板橋區"
"220023","303-R5","2019/07/13 13:49:50","新北市板橋區大觀路一段28巷90號","121.45004","25.0110466666667","6500100","板橋區"
"220010","305-R5","2019/07/13 13:49:39","新北市板橋區觀光街2號","121.472433333333","25.0153133333333","6500100","板橋區"
"220041","307-R5","2019/07/13 13:49:52","新北市板橋區文化路一段136巷8弄3號","121.46558","25.0182166666667","6500100","板橋區"
"220047","317-R6","2019/07/13 13:49:55","新北市板橋區民生路二段232-10號","121.468826666667","25.0226666666667","6500100","板橋區"
"220037","491-VK","2019/07/13 13:49:41","新北市板橋區莒光路75號","121.471686666667","25.024155","6500100","板橋區"
"220104","560-BX","2019/07/13 13:49:54","新北市板橋區中正路275巷62弄4-3號","121.453068333333","25.018085","6500100","板橋區"
"220052","561-BX","2019/07/13 13:49:39","新北市板橋區文化路一段188巷11弄54號","121.469041666667","25.0187233333333","6500100","板橋區"
"220020","568-UM","2019/07/13 13:49:56","新北市板橋區金門街17號","121.433525","24.9947983333333","6500100","板橋區"
"220011","609-BX","2019/07/13 13:49:50","新北市板橋區民生路一段72號","121.473796666667","25.0152966666667","6500100","板橋區"
"220022","630-UY","2019/07/13 13:49:47","新北市板橋區府中路21號","121.459173333333","25.0094333333333","6500100","板橋區"
"220005","686-BX","2019/07/13 13:49:51","新北市板橋區忠孝路105號","121.46272","25.0023916666667","6500100","板橋區"
"220025","687-BX","2019/07/13 13:49:47","新北市板橋區金門街79號","121.433333333333","24.9926916666667","6500100","板橋區"
"220042","689-BX","2019/07/13 13:49:44","新北市板橋區民生路三段230號","121.464658333333","25.03022","6500100","板橋區"
"220002","741-BX","2019/07/13 13:49:46","新北市板橋區館前西路15號","121.458901666667","25.0069683333333","6500100","板橋區"
"220051","KEA-2699","2019/07/13 13:49:41","新北市板橋區田單街2巷24號","121.481431666667","25.0279233333333","6500100","板橋區"
"220003","827-TW","2019/07/13 13:49:49","新北市板橋區忠孝路102號","121.461993333333","25.002005","6500100","板橋區"
"220014","829-TW","2019/07/13 13:49:47","新北市板橋區民生路二段5號","121.472856666667","25.0157766666667","6500100","板橋區"
"220021","985-R7","2019/07/13 13:49:46","新北市板橋區府中路23號","121.459136666667","25.0092766666667","6500100","板橋區"
"220046","AAC-210","2019/07/13 13:49:36","新北市板橋區陽明街166號","121.463616666667","25.0245433333333","6500100","板橋區"
"220012","AAC-253","2019/07/13 13:49:55","新北市板橋區漢生東路166號","121.46718","25.014825","6500100","板橋區"
"235032","KEA-2873","2019/07/13 13:49:48","新北市中和區圓通路162巷37弄3號","121.496468333333","24.9955666666667","6500300","中和區"
"235025","KEA-2875","2019/07/13 13:49:34","新北市中和區民有街1號","121.475603333333","25.0058783333333","6500300","中和區"
"235026","KEA-2876","2019/07/13 13:49:50","新北市中和區中山路二段340巷63號","121.492756666667","25.00486","6500300","中和區"
