"lineid","car","time","location","longitude","latitude","cityid","cityname"
"234005","208-UY","2019/07/13 14:19:58","新北市永和區環河西路二段217巷5號","121.501636666667","25.009905","6500400","永和區"
"234036","336-UY","2019/07/13 14:19:40","新北市永和區成功路一段108號","121.52686","25.0027266666667","6500400","永和區"
"234062","337-UY","2019/07/13 14:19:45","新北市永和區得和路131號","121.51914","25.0002533333333","6500400","永和區"
"234084","338-UY","2019/07/13 14:19:52","新北市永和區永和路二段237-1號","121.515693333333","25.01448","6500400","永和區"
"234068","552-UM","2019/07/13 14:19:53","新北市永和區福和路256號","121.518481666667","25.0076066666667","6500400","永和區"
"234015","745-BX","2019/07/13 14:19:57","新北市永和區仁愛路97號","121.512876666667","25.0131933333333","6500400","永和區"
"234028","746-BX","2019/07/13 14:19:44","新北市永和區民權路49巷5弄4號","121.520515","24.9973583333333","6500400","永和區"
"234052","KEA-2590","2019/07/13 14:19:38","新北市永和區光復街2巷24號","121.517563333333","25.016565","6500400","永和區"
"234005","KED-0605","2019/07/13 14:19:39","新北市永和區中正路659號","121.514805","25.0102366666667","6500400","永和區"
"234012","KEA-2591","2019/07/13 14:19:39","新北市永和區保生路24號","121.506538333333","25.007565","6500400","永和區"
"234060","AAD-866","2019/07/13 14:19:53","新北市永和區安樂路194巷17弄10號","121.516151666667","25.0014083333333","6500400","永和區"
"234078","748-BX","2019/07/13 14:19:54","新北市永和區永亨路100號","121.523201666667","25.0048083333333","6500400","永和區"
"234040","862-TW","2019/07/13 14:19:39","新北市中和區安平路176號","121.512878333333","24.9988633333333","6500400","永和區"
"234048","863-TW","2019/07/13 14:19:58","新北市永和區新生路76號","121.50751","25.01509","6500400","永和區"
"234025","9371-KE","2019/07/13 14:19:41","新北市永和區得和路42巷23號","121.51535","24.99966","6500400","永和區"
"248017","KED-0813","2019/07/13 14:19:41","新北市五股區壟路14-1號","121.415561666667","25.087055","6501500","五股區"
"234076","969-R7","2019/07/13 14:19:48","新北市永和區民族街81巷58號","121.52003","24.9965316666667","6500400","永和區"
"234072","AAC-211","2019/07/13 14:19:39","新北市永和區竹林路119巷22弄3-3號","121.522006666667","25.011655","6500400","永和區"
"234066","AAC-212","2019/07/13 14:19:54","新北市永和區保平路292巷40弄2號","121.507601666667","25.0050783333333","6500400","永和區"
"234001","AAC-295","2019/07/13 14:19:42","新北市永和區自強街32巷10號","121.51601","25.0075883333333","6500400","永和區"
"231030","002-UM","2019/07/13 14:19:50","新北市新店區安民街65巷15-1號","121.515313333333","24.9666416666667","6500600","新店區"
"231027","0293-UT","2019/07/13 14:19:42","新北市新店區光明街262號","121.54045","24.9638683333333","6500600","新店區"
"231005","046-UY","2019/07/13 14:19:50","新北市新店區中興路三段189號","121.544028333333","24.9812233333333","6500600","新店區"
"231029","106-UY","2019/07/13 14:19:58","新北市新店區安康路二段208號","121.510186666667","24.9595466666667","6500600","新店區"
"231018","107-UY","2019/07/13 14:19:50","新北市新店區中央四街69號","121.526865","24.9756166666667","6500600","新店區"
"231013","108-UY","2019/07/13 14:19:51","新北市新店區大豐路73號","121.539151666667","24.9794216666667","6500600","新店區"
"231036","110-UY","2019/07/13 14:19:52","新北市新店區安祥路109巷53號","121.47699","24.9597383333333","6500600","新店區"
"231017","KEA-2219","2019/07/13 14:19:42","新北市新店區北宜路二段382號","121.564546666667","24.9532716666667","6500600","新店區"
"231033","256-BX","2019/07/13 14:19:57","新北市新店區溪洲路123號","121.530321666667","24.9636433333333","6500600","新店區"
"231023","260-TV","2019/07/13 14:19:47","新北市新店區北宜路一段3號","121.538076666667","24.958555","6500600","新店區"
"231003","268-BY","2019/07/13 14:19:36","新北市新店區中興路一段202號","121.543641666667","24.965315","6500600","新店區"
"231035","278-BY","2019/07/13 14:19:53","新北市新店區光華街3號","121.517855","24.9689066666667","6500600","新店區"
"231006","355-BY","2019/07/13 14:19:47","新北市新店區北宜路二段417號","121.560051666667","24.9545283333333","6500600","新店區"
"231038","3712-VJ","2019/07/13 14:19:45","新北市新店區溪洲路6巷124-1號","121.533293333333","24.9634933333333","6500600","新店區"
"231020","513-UM","2019/07/13 14:19:47","新北市新店區屈尺路60號","121.54721","24.9227183333333","6500600","新店區"
"231001","617-UM","2019/07/13 14:19:47","新北市新店區北新路一段305號","121.541528333333","24.96763","6500600","新店區"
"231002","619-UM","2019/07/13 14:19:49","新北市新店區中央路151號","121.529658333333","24.9724766666667","6500600","新店區"
"231034","641-BX","2019/07/13 14:19:41","新北市新店區車子路11號","121.502871666667","24.9516333333333","6500600","新店區"
"231012","718-UY","2019/07/13 14:19:55","新北市新店區五峰路61巷2-3號","121.547695","24.9698616666667","6500600","新店區"
"231028","897-TW","2019/07/13 14:19:48","新北市新店區安和路二段199號","121.517875","24.9750816666667","6500600","新店區"
"231004","899-TW","2019/07/13 14:19:42","新北市新店區中正路157號","121.541215","24.97176","6500600","新店區"
"231037","AKT-0513","2019/07/13 14:19:50","新北市新店區安康路二段341巷1號","121.496855","24.9551133333333","6500600","新店區"
"235030","003-UY","2019/07/13 14:19:40","新北市中和區中和路104號","121.502781666667","24.999735","6500300","中和區"
"235028","005-UY","2019/07/13 14:19:47","新北市中和區南山路131-1號","121.502245","24.996595","6500300","中和區"
"235027","006-UY","2019/07/13 14:19:55","新北市中和區連城路227號","121.494053333333","24.9975616666667","6500300","中和區"
"235020","096-UM","2019/07/13 14:19:36","新北市中和區員山路581巷2-10號","121.477433333333","25.0089783333333","6500300","中和區"
"235003","097-UM","2019/07/13 14:19:45","新北市中和區秀峰街127巷8號","121.519303333333","24.9909133333333","6500300","中和區"
"235029","098-UM","2019/07/13 14:19:48","新北市中和區中山路二段2巷13弄10號","121.503261666667","25.006575","6500300","中和區"
"235004","150-BY","2019/07/13 14:19:50","新北市中和區安平路36巷59號","121.510601666667","24.9945666666667","6500300","中和區"
"235022","151-BY","2019/07/13 14:19:39","新北市中和區連城路328號","121.483255","24.9959","6500300","中和區"
"235019","183-VK","2019/07/13 14:19:52","新北市中和區中山路三段181巷18弄41號","121.472571666667","25.00512","6500300","中和區"
"235002","185-VK","2019/07/13 14:19:44","新北市中和區大仁街10巷50號","121.520333333333","24.992625","6500300","中和區"
"235013","186-VK","2019/07/13 14:19:51","新北市中和區景新街295巷3號","121.51021","24.993215","6500300","中和區"
"235031","255-BX","2019/07/13 14:19:55","新北市中和區新生街220巷4號","121.483095","24.998535","6500300","中和區"
"235008","293-VK","2019/07/13 14:19:51","新北市中和區復興路312號","121.50104","24.9903266666667","6500300","中和區"
"235036","301-VK","2019/07/13 14:19:42","新北市中和區福祥路7號","121.499413333333","25.0031816666667","6500300","中和區"
"235007","352-BY","2019/07/13 14:19:41","新北市中和區景平路396號","121.509703333333","24.9930616666667","6500300","中和區"
"235006","KEA-2878","2019/07/13 14:19:56","新北市中和區安樂路217巷35弄10號","121.513953333333","24.9977366666667","6500300","中和區"
"247013","KEA-2869","2019/07/13 14:19:51","新北市蘆洲區中山一路228號","121.472841666667","25.0806416666667","6501400","蘆洲區"
"247007","KED-0682","2019/07/13 14:19:42","新北市蘆洲區信義路37巷3號","121.47436","25.0796883333333","6501400","蘆洲區"
"235014","4979-A6","2019/07/13 14:19:53","新北市中和區景安路208巷16號","121.503275","24.991405","6500300","中和區"
"235033","4980-A6","2019/07/13 14:19:51","新北市中和區景平路736巷1弄5號","121.497253333333","25.003995","6500300","中和區"
"235034","558-UM","2019/07/13 14:19:44","新北市中和區中和路139號","121.501943333333","24.9998333333333","6500300","中和區"
"235009","565-BX","2019/07/13 14:19:48","新北市中和區景新街423巷45號","121.514556666667","24.989765","6500300","中和區"
"235024","KED-0823","2019/07/13 14:19:50","新北市中和區中山路二段523巷12號","121.481506666667","25.0044833333333","6500300","中和區"
"235018","640-BX","2019/07/13 14:19:54","新北市中和區莒光路4號","121.472075","25.004615","6500300","中和區"
"235011","732-UM","2019/07/13 14:19:57","新北市中和區景平路239巷55號","121.508758333333","24.992105","6500300","中和區"
"235010","733-UM","2019/07/13 14:19:55","新北市中和區忠孝街20巷7號","121.510608333333","24.9825266666667","6500300","中和區"
"235035","783-BX","2019/07/13 14:19:55","新北市中和區連城路336號","121.483018333333","24.9959583333333","6500300","中和區"
"235021","801-TS","2019/07/13 14:19:53","新北市中和區員山路370-1號","121.480853333333","25.0039466666667","6500300","中和區"
"235005","802-TS","2019/07/13 14:19:48","新北市中和區宜安路139號","121.509343333333","24.99839","6500300","中和區"
"235016","805-TS","2019/07/13 14:19:44","新北市中和區華新街143巷46號","121.50625","24.98007","6500300","中和區"
"235017","900-TW","2019/07/13 14:19:56","新北市中和區華順街30巷2號","121.466751666667","24.9988866666667","6500300","中和區"
"235012","911-UM","2019/07/13 14:19:46","新北市中和區華新街110號","121.508565","24.9827766666667","6500300","中和區"
"235015","157-BY","2019/07/13 14:19:24","新北市中和區和平街54巷8弄13號","121.509495","24.9915033333333","6500300","中和區"
"235001","AAC-213","2019/07/13 14:19:40","新北市中和區秀朗路三段10巷14弄18號","121.524878333333","24.996645","6500300","中和區"
"235023","AAC-215","2019/07/13 14:19:58","新北市中和區圓通路286巷7號","121.49153","24.99134","6500300","中和區"
"220016","015-TV","2019/07/13 14:19:47","新北市板橋區林森街1巷21號","121.482498333333","25.0242666666667","6500100","板橋區"
"220013","072-UY","2019/07/13 14:19:23","新北市板橋區民族路170巷2號","121.467323333333","25.0077316666667","6500100","板橋區"
"220034","073-UY","2019/07/13 14:19:45","新北市板橋區中正路236巷37號","121.457493333333","25.01931","6500100","板橋區"
"220105","075-UY","2019/07/13 14:19:53","新北市板橋區長江路三段78號","121.474223333333","25.0338583333333","6500100","板橋區"
"220017","AAD-861","2019/07/13 14:19:39","新北市板橋區大明街20巷21號","121.458766666667","25.0032683333333","6500100","板橋區"
"220039","120-SR","2019/07/13 14:19:46","新北市板橋區溪頭街74號","121.458473333333","25.0295733333333","6500100","板橋區"
"247003","893-R6","2019/07/13 14:19:57","新北市蘆洲區長安街186-1號","121.459076666667","25.083905","6501400","蘆洲區"
"247017","546-UM","2019/07/13 14:19:44","新北市蘆洲區民族路376號","121.475558333333","25.0911216666667","6501400","蘆洲區"
"247001","500-BY","2019/07/13 14:19:56","新北市蘆洲區永樂街108號","121.455911666667","25.0888133333333","6501400","蘆洲區"
"247023","337-TH","2019/07/13 14:19:43","新北市蘆洲區三民路501號","121.463528333333","25.091395","6501400","蘆洲區"
"247021","057-VK","2019/07/13 14:19:43","新北市蘆洲區中正路476巷16號","121.463191666667","25.095625","6501400","蘆洲區"
"247011","056-VK","2019/07/13 14:19:46","新北市蘆洲區民權路3巷26號","121.475101666667","25.0855316666667","6501400","蘆洲區"
"247015","053-VK","2019/07/13 14:19:53","新北市蘆洲區中正路185巷31弄2號","121.466296666667","25.0842966666667","6501400","蘆洲區"
"247019","007-UY","2019/07/13 14:19:53","新北市蘆洲區仁愛街58號","121.471721666667","25.09362","6501400","蘆洲區"
"247005","002-UY","2019/07/13 14:19:47","新北市蘆洲區長安街23巷21號","121.4634","25.078415","6501400","蘆洲區"
"228005","097-TW","2019/07/13 14:19:40","新北市貢寮區美豐里土地公嶺55號","121.894535","25.06504","6502600","貢寮區"
"228004","212-TW","2019/07/13 14:19:40","新北市貢寮區雙玉里田寮洋街26號","121.926396666667","25.0134583333333","6502600","貢寮區"
"253003","6232-TK","2019/07/13 14:19:39","新北市石門區內石門67-3號","121.576246666667","25.2579483333333","6502200","石門區"
"253004","6251-TK","2019/07/13 14:20:00","新北市石門區阿里磅90號","121.5896","25.25983","6502200","石門區"
"253002","637-UY","2019/07/13 14:19:46","新北市石門區大丘田50-4號","121.549883333333","25.2739016666667","6502200","石門區"
"253001","KEC-0718","2019/07/13 14:19:45","新北市石門區八甲15-1號","121.524335","25.2810116666667","6502200","石門區"
"207002","749-BX","2019/07/13 14:19:44","新北市萬里區溪底里瑞泉路9號","121.603205","25.1437233333333","6502800","萬里區"
"207001","662-BX","2019/07/13 14:19:45","新北市萬里區磺潭里清水18號","121.637806666667","25.1977133333333","6502800","萬里區"
"252005","AAC-283","2019/07/13 14:19:47","新北市三芝區橫山里橫山21號","121.540313333333","25.2627183333333","6502100","三芝區"
"236040","KED-0685","2019/07/13 14:19:49","新北市土城區裕生路21巷1弄2號","121.448726666667","24.987235","6501300","土城區"
"220038","KED-0812","2019/07/13 14:19:40","新北市板橋區英士路151號","121.46006","25.0241933333333","6500100","板橋區"
"236074","166-UM","2019/07/13 14:19:47","新北市土城區永安街115巷36號","121.42878","24.962915","6501300","土城區"
"236029","253-BX","2019/07/13 14:19:56","新北市土城區順風路66號","121.440383333333","24.9775733333333","6501300","土城區"
"236024","269-VK","2019/07/13 14:19:51","新北市土城區承天路67號","121.439585","24.9635783333333","6501300","土城區"
"236013","270-VK","2019/07/13 14:19:55","新北市土城區青雲路39巷7號","121.460353333333","24.9875266666667","6501300","土城區"
"236032","271-VK","2019/07/13 14:19:36","新北市土城區青雲路483巷10弄35號","121.45954","24.9724333333333","6501300","土城區"
"247009","KED-0683","2019/07/13 14:19:41","新北市蘆洲區三民路26巷33號","121.477056666667","25.0829533333333","6501400","蘆洲區"
"236068","KEA-2877","2019/07/13 14:19:42","新北市土城區明德路一段137-4號","121.465361666667","24.981095","6501300","土城區"
"236017","401-BY","2019/07/13 14:19:57","新北市土城區明德路一段92號","121.464801666667","24.9797316666667","6501300","土城區"
"236057","912-UM","2019/07/13 14:19:54","新北市土城區中央路四段466號","121.409941666667","24.9506016666667","6501300","土城區"
"236045","913-UM","2019/07/13 14:19:42","新北市土城區明德路一段355-5號","121.456941666667","24.9775483333333","6501300","土城區"
"236060","915-UM","2019/07/13 14:19:41","新北市土城區金城路三段202-3號","121.469448333333","24.9885733333333","6501300","土城區"
"236054","AAC-216","2019/07/13 14:19:46","新北市土城區中華路二段201號","121.437918333333","24.97389","6501300","土城區"
"221010","269-BY","2019/07/13 14:19:32","新北市汐止區八連路三段196號","121.615208333333","25.119255","6501100","汐止區"
"220027","145-BY","2019/07/13 14:19:54","新北市板橋區民權路202巷7弄29號","121.458831666667","25.0149566666667","6500100","板橋區"
"220028","200-UY","2019/07/13 14:07:33","新北市板橋區合安一路81號","121.44816","24.99883","6500100","板橋區"
"220030","610-BX","2019/07/13 14:19:42","新北市板橋區篤行路三段玉平巷68弄15號","121.427241666667","24.9862833333333","6500100","板橋區"
"220050","245-BX","2019/07/13 14:19:45","新北市板橋區莊敬路208巷2弄1號","121.471721666667","25.0210833333333","6500100","板橋區"
"220040","267-BY","2019/07/13 14:19:42","新北市板橋區縣民大道三段245巷1號","121.481335","25.0259233333333","6500100","板橋區"
"220004","276-BY","2019/07/13 14:19:39","新北市板橋區信義路279巷21號","121.464288333333","24.99024","6500100","板橋區"
"220043","283-UM","2019/07/13 14:19:49","新北市板橋區吳鳳路50巷77號","121.469966666667","25.0303916666667","6500100","板橋區"
"220019","283-VK","2019/07/13 14:19:48","新北市板橋區重慶路247-3號","121.46319","25.00044","6500100","板橋區"
"220001","285-VK","2019/07/13 14:19:43","新北市板橋區縣民大道三段270巷12號","121.47839","25.0230416666667","6500100","板橋區"
"220031","286-VK","2019/07/13 14:19:58","新北市板橋區龍興街73巷14-4號","121.443383333333","25.0023616666667","6500100","板橋區"
"220029","287-VK","2019/07/13 14:19:47","新北市板橋區南雅西路一段40號","121.453915","25.0045883333333","6500100","板橋區"
"220009","295-UM","2019/07/13 14:19:44","新北市板橋區成功路6巷1號","121.475675","25.0170233333333","6500100","板橋區"
"220032","296-UM","2019/07/13 14:19:51","新北市板橋區溪崑一街112號","121.429273333333","24.9887716666667","6500100","板橋區"
"220023","303-R5","2019/07/13 14:19:50","新北市板橋區南雅南路一段1巷21號","121.457048333333","25.00687","6500100","板橋區"
"220010","305-R5","2019/07/13 14:20:00","新北市板橋區三民路二段153巷5弄11號","121.480301666667","25.015075","6500100","板橋區"
"220041","307-R5","2019/07/13 14:19:52","新北市板橋區民生路二段250號","121.468308333333","25.0234966666667","6500100","板橋區"
"220047","317-R6","2019/07/13 14:19:54","新北市板橋區四維路99號","121.465665","25.0243416666667","6500100","板橋區"
"220037","491-VK","2019/07/13 14:19:41","新北市板橋區雙十路二段37-1號","121.476791666667","25.0257583333333","6500100","板橋區"
"220104","560-BX","2019/07/13 14:19:26","新北市板橋區中正路360巷53號","121.456255","25.02285","6500100","板橋區"
"220052","561-BX","2019/07/13 14:19:39","新北市板橋區陽明街23巷8弄19號","121.465253333333","25.0207166666667","6500100","板橋區"
"220020","568-UM","2019/07/13 14:19:52","新北市板橋區金門街337巷8弄1號","121.42974","24.9852233333333","6500100","板橋區"
"220011","609-BX","2019/07/13 14:19:50","新北市板橋區三民路二段142號","121.479126666667","25.0156566666667","6500100","板橋區"
"220022","630-UY","2019/07/13 14:19:47","新北市板橋區西門街9號","121.45566","25.0111433333333","6500100","板橋區"
"220005","686-BX","2019/07/13 14:19:49","新北市板橋區和平路159號","121.463635","24.995905","6500100","板橋區"
"220025","687-BX","2019/07/13 14:19:51","新北市板橋區大觀路二段315號","121.441816666667","24.9986833333333","6500100","板橋區"
"220042","689-BX","2019/07/13 14:19:44","新北市板橋區新海路358號","121.459968333333","25.0250283333333","6500100","板橋區"
"220002","741-BX","2019/07/13 14:19:26","新北市板橋區重慶路155巷19號","121.463026666667","25.0040316666667","6500100","板橋區"
"220051","KEA-2699","2019/07/13 14:19:54","新北市板橋區松柏街22巷18-3號","121.474768333333","25.0293533333333","6500100","板橋區"
"220003","827-TW","2019/07/13 14:19:49","新北市板橋區館前東路156巷44號","121.464523333333","25.006575","6500100","板橋區"
"220014","829-TW","2019/07/13 14:19:47","新北市板橋區長安街138巷1弄69號","121.474518333333","25.0107733333333","6500100","板橋區"
"220021","985-R7","2019/07/13 14:19:46","新北市板橋區中正路214號","121.455891666667","25.018275","6500100","板橋區"
"220046","AAC-210","2019/07/13 14:19:56","新北市板橋區幸福路32巷4號","121.461576666667","25.02052","6500100","板橋區"
"220012","AAC-253","2019/07/13 14:19:55","新北市板橋區館前東路2-1號","121.459485","25.006925","6500100","板橋區"
"235032","KEA-2873","2019/07/13 14:19:48","新北市中和區永和路6號","121.500008333333","25.0028116666667","6500300","中和區"
"235025","KEA-2875","2019/07/13 14:19:34","新北市中和區新生街176巷22號","121.482576666667","25.00001","6500300","中和區"
"235026","KEA-2876","2019/07/13 14:19:50","新北市中和區中山路二段375號","121.487231666667","25.004765","6500300","中和區"
