"lineid","car","time","location","longitude","latitude","cityid","cityname"
"231030","002-UM","2019/07/13 15:29:10","新北市新店區安和路三段47-1號","121.518026666667","24.9820983333333","6500600","新店區"
"231005","046-UY","2019/07/13 15:29:10","新北市新店區民權路90巷36號","121.536998333333","24.984405","6500600","新店區"
"231029","106-UY","2019/07/13 15:29:18","新北市新店區安康路三段628號","121.478863333333","24.9459133333333","6500600","新店區"
"231018","107-UY","2019/07/13 15:29:10","新北市新店區溪園路245號","121.526763333333","24.9827133333333","6500600","新店區"
"231013","108-UY","2019/07/13 15:29:10","新北市新店區永業路81巷1弄1-1號","121.529631666667","24.9494216666667","6500600","新店區"
"231036","110-UY","2019/07/13 15:29:12","新北市新店區安祥路69巷89弄1號","121.48366","24.95915","6500600","新店區"
"231039","187-VK","2019/07/13 15:29:25","新北市新店區寶元路一段87巷1號","121.543021666667","24.9853466666667","6500600","新店區"
"231017","KEA-2219","2019/07/13 15:27:22","新北市新店區明山路29號","121.564828333333","24.9567233333333","6500600","新店區"
"231033","256-BX","2019/07/13 15:29:06","新北市新店區和成街11號","121.488325","24.9479333333333","6500600","新店區"
"231023","260-TV","2019/07/13 15:29:19","新北市新店區北新路一段126巷30號","121.543565","24.9690083333333","6500600","新店區"
"231003","268-BY","2019/07/13 15:29:16","新北市新店區寶高路120巷1號","121.554585","24.9760766666667","6500600","新店區"
"231035","278-BY","2019/07/13 15:29:12","新北市新店區安民街341-1號","121.516611666667","24.9750083333333","6500600","新店區"
"231038","3712-VJ","2019/07/13 15:29:25","新北市新店區安康路一段355號","121.519921666667","24.9637966666667","6500600","新店區"
"231024","4716-K9","2019/07/13 15:29:28","新北市新店區中央一街45號","121.526958333333","24.9738933333333","6500600","新店區"
"231025","4715-K9","2019/07/13 15:29:07","新北市新店區安康路二段14號","121.516138333333","24.96379","6500600","新店區"
"231020","513-UM","2019/07/13 15:29:08","新北市新店區湖興路49號","121.561541666667","24.934665","6500600","新店區"
"231002","619-UM","2019/07/13 15:29:29","新北市新店區環河路119號","121.532938333333","24.9704016666667","6500600","新店區"
"231034","641-BX","2019/07/13 15:29:21","新北市新店區富貴街9巷2號","121.494058333333","24.949115","6500600","新店區"
"231012","718-UY","2019/07/13 15:29:13","新北市新店區寶元路一段105號","121.54563","24.9831183333333","6500600","新店區"
"231026","720-UM","2019/07/13 15:29:21","新北市新店區三民路119號","121.534791666667","24.9721466666667","6500600","新店區"
"231028","897-TW","2019/07/13 15:29:08","新北市新店區僑信路132巷1號","121.500745","24.94572","6500600","新店區"
"231004","899-TW","2019/07/13 15:29:22","新北市新店區北新路一段100號","121.542245","24.9694633333333","6500600","新店區"
"231037","AKT-0513","2019/07/13 15:29:21","新北市新店區安興路91巷21號","121.514581666667","24.9745283333333","6500600","新店區"
"241011","013-R5","2019/07/13 15:29:11","新北市三重區成功路20巷12-3號","121.490225","25.0487516666667","6500200","三重區"
"241029","060-VK","2019/07/13 15:29:22","新北市三重區成功路112-3號","121.486396666667","25.051985","6500200","三重區"
"241017","063-VK","2019/07/13 15:29:27","新北市三重區重新路四段121號","121.485201666667","25.0519633333333","6500200","三重區"
"241018","268-UM","2019/07/13 15:29:13","新北市三重區重新路四段121號","121.485268333333","25.0521333333333","6500200","三重區"
"241013","270-UM","2019/07/13 15:29:17","新北市三重區重新路四段121號","121.484711666667","25.0520183333333","6500200","三重區"
"241007","398-BY","2019/07/13 15:29:20","新北市三重區重新路四段121號","121.484981666667","25.05193","6500200","三重區"
"241020","478-VK","2019/07/13 15:29:18","新北市三重區重新路四段121號","121.484626666667","25.052445","6500200","三重區"
"241022","KED-0820","2019/07/13 15:29:11","新北市三重區重新路四段121號","121.484863333333","25.0520016666667","6500200","三重區"
"235014","4979-A6","2019/07/13 15:29:23","新北市中和區景平路385巷9弄13號","121.502213333333","24.994115","6500300","中和區"
"235033","4980-A6","2019/07/13 15:29:16","新北市中和區連城路347巷18弄34號","121.487285","24.9947616666667","6500300","中和區"
"235023","AAC-215","2019/07/13 15:29:17","新北市中和區員山路20-3號","121.483895","24.983645","6500300","中和區"
"207001","662-BX","2019/07/13 15:29:05","新北市萬里區龜吼里新墾丁路122號","121.678391666667","25.2002066666667","6502800","萬里區"
"236040","KED-0685","2019/07/13 15:29:09","新北市土城區學府路一段120巷2號","121.455418333333","24.9879033333333","6501300","土城區"
"236074","166-UM","2019/07/13 15:29:19","新北市土城區中央路四段410巷3號","121.411361666667","24.9538466666667","6501300","土城區"
"236029","253-BX","2019/07/13 15:29:16","新北市土城區日新街8巷1號","121.445296666667","24.9871766666667","6501300","土城區"
"236024","269-VK","2019/07/13 15:29:16","新北市土城區明德路二段104號","121.445308333333","24.9841483333333","6501300","土城區"
"236013","270-VK","2019/07/13 15:29:15","新北市土城區德興街137號","121.45517","24.9916433333333","6501300","土城區"
"236032","271-VK","2019/07/13 15:29:24","新北市土城區延吉街296巷1弄2號","121.464398333333","24.984535","6501300","土城區"
"236068","KEA-2877","2019/07/13 15:29:22","新北市土城區水源街32巷12號","121.441126666667","24.9758733333333","6501300","土城區"
"236017","401-BY","2019/07/13 15:29:17","新北市土城區延吉街96號","121.470541666667","24.986305","6501300","土城區"
"236057","912-UM","2019/07/13 15:29:14","新北市土城區中央路一段228號","121.444798333333","24.9852066666667","6501300","土城區"
"236045","913-UM","2019/07/13 15:29:22","新北市土城區青雲路148號","121.459045","24.9834033333333","6501300","土城區"
"236060","915-UM","2019/07/13 15:29:21","新北市土城區金城路三段33巷10號","121.465366666667","24.9871333333333","6501300","土城區"
"236054","AAC-216","2019/07/13 15:29:25","新北市土城區延和路5號","121.463705","24.9878083333333","6501300","土城區"
"221010","269-BY","2019/07/13 15:29:12","新北市汐止區八連路一段207號","121.641196666667","25.0806183333333","6501100","汐止區"
"220031","286-VK","2019/07/13 15:29:18","新北市板橋區僑中二街108巷1號","121.445808333333","25.00723","6500100","板橋區"
"235026","KEA-2876","2019/07/13 15:06:16","新北市中和區員山路36巷16-3號","121.484913333333","24.99144","6500300","中和區"
