"lineid","car","time","location","longitude","latitude","cityid","cityname"
"231030","002-UM","2019/07/13 15:39:10","新北市新店區新和街116巷2號","121.521041666667","24.986405","6500600","新店區"
"231005","046-UY","2019/07/13 15:39:10","新北市新店區建國路118號","121.539345","24.9786683333333","6500600","新店區"
"231029","106-UY","2019/07/13 15:39:18","新北市新店區安康路三段177號","121.488463333333","24.9517816666667","6500600","新店區"
"231018","107-UY","2019/07/13 15:39:10","新北市新店區溪園路43巷3-1號","121.529878333333","24.9878333333333","6500600","新店區"
"231013","108-UY","2019/07/13 15:39:10","新北市新店區永業路81巷1弄17號","121.53063","24.9503083333333","6500600","新店區"
"231036","110-UY","2019/07/13 15:39:12","新北市新店區安祥路69巷89弄29號","121.482638333333","24.9607533333333","6500600","新店區"
"231039","187-VK","2019/07/13 15:39:11","新北市新店區寶元路二段40號","121.546701666667","24.9816383333333","6500600","新店區"
"231017","KEA-2219","2019/07/13 15:39:22","新北市新店區北宜路二段82-10號","121.554468333333","24.953445","6500600","新店區"
"231033","256-BX","2019/07/13 15:39:25","新北市新店區雙城路156號","121.496136666667","24.94316","6500600","新店區"
"231023","260-TV","2019/07/13 15:39:19","新北市新店區中正路57巷6號","121.544113333333","24.9694783333333","6500600","新店區"
"231003","268-BY","2019/07/13 15:39:16","新北市新店區寶興路60巷3號","121.549863333333","24.971815","6500600","新店區"
"231035","278-BY","2019/07/13 15:39:12","新北市新店區安興路83號","121.51532","24.975365","6500600","新店區"
"231038","3712-VJ","2019/07/13 15:39:25","新北市新店區安康路二段242巷8號","121.508843333333","24.95964","6500600","新店區"
"231020","513-UM","2019/07/13 15:39:08","新北市新店區花園二路一段9號","121.556791666667","24.93234","6500600","新店區"
"231034","641-BX","2019/07/13 15:39:21","新北市新店區玫瑰路58巷34號","121.493515","24.9468333333333","6500600","新店區"
"231012","718-UY","2019/07/13 15:39:13","新北市新店區中興路三段156號","121.544493333333","24.9805316666667","6500600","新店區"
"231026","720-UM","2019/07/13 15:39:21","新北市新店區三民路51巷1弄1號","121.536798333333","24.9707466666667","6500600","新店區"
"231028","897-TW","2019/07/13 15:39:08","新北市新店區僑義路9-1號","121.500283333333","24.9517483333333","6500600","新店區"
"231037","AKT-0513","2019/07/13 15:39:10","新北市新店區安興路69號","121.515863333333","24.9747716666667","6500600","新店區"
"241011","013-R5","2019/07/13 15:39:11","新北市三重區龍濱路285號","121.501023333333","25.0734416666667","6500200","三重區"
"241029","060-VK","2019/07/13 15:39:22","新北市三重區大同南路196號","121.496738333333","25.0567466666667","6500200","三重區"
"241015","062-VK","2019/07/13 15:39:22","新北市三重區重新路四段121號","121.485275","25.0521466666667","6500200","三重區"
"241017","063-VK","2019/07/13 15:39:07","新北市三重區新北大道一段3-1號","121.490006666667","25.0613716666667","6500200","三重區"
"241024","065-VK","2019/07/13 15:39:19","新北市三重區重新路四段121號","121.484675","25.0525233333333","6500200","三重區"
"241002","090-VK","2019/07/13 15:39:25","新北市三重區重新路四段121號","121.4847","25.0519266666667","6500200","三重區"
"241016","266-UM","2019/07/13 15:39:14","新北市三重區重新路四段121號","121.485033333333","25.052","6500200","三重區"
"241018","268-UM","2019/07/13 15:39:13","新北市三重區重新路四段121號","121.485265","25.0520266666667","6500200","三重區"
"241013","270-UM","2019/07/13 15:39:17","新北市三重區正義北路322號","121.494863333333","25.070445","6500200","三重區"
"241025","271-UM","2019/07/13 15:39:18","新北市三重區重新路四段121號","121.484763333333","25.0525883333333","6500200","三重區"
"241007","398-BY","2019/07/13 15:39:20","新北市三重區重新路四段121號","121.48496","25.0519683333333","6500200","三重區"
"241020","478-VK","2019/07/13 15:39:18","新北市三重區忠孝路二段50號","121.485135","25.0702616666667","6500200","三重區"
"241019","KEA-2593","2019/07/13 15:39:16","新北市三重區頂崁街140號","121.477663333333","25.0649716666667","6500200","三重區"
"241006","AAD-863","2019/07/13 15:39:08","新北市三重區重新路四段121號","121.484581666667","25.0521316666667","6500200","三重區"
"241022","KED-0820","2019/07/13 15:39:11","新北市三重區重新路四段121號","121.484808333333","25.0520533333333","6500200","三重區"
"241005","887-TS","2019/07/13 15:39:19","新北市三重區成功路6號","121.490096666667","25.0500166666667","6500200","三重區"
"241012","941-UM","2019/07/13 15:39:10","新北市三重區自強路一段60號","121.497366666667","25.0667166666667","6500200","三重區"
"241033","AAC-255","2019/07/13 15:39:08","新北市三重區重新路五段406-1號","121.476466666667","25.0480083333333","6500200","三重區"
"235033","4980-A6","2019/07/13 15:39:16","新北市中和區員山路377號","121.480985","25.002355","6500300","中和區"
"235023","AAC-215","2019/07/13 15:39:17","新北市中和區員山路31-8號","121.480651666667","24.9876783333333","6500300","中和區"
"247024","337-TH","2019/07/13 15:39:23","新北市五股區中興路三段5號","121.449818333333","25.0801783333333","6501400","蘆洲區"
"227001","642-TC","2019/07/13 15:39:22","新北市雙溪區牡丹里中正路64號","121.865415","25.0434833333333","6502500","雙溪區"
"236040","KED-0685","2019/07/13 15:39:09","新北市土城區學享街5號","121.450786666667","24.9872116666667","6501300","土城區"
"236074","166-UM","2019/07/13 15:39:19","新北市土城區龍泉路38-1號","121.412045","24.9459283333333","6501300","土城區"
"236029","253-BX","2019/07/13 15:39:16","新北市土城區中央路一段45巷2弄2號","121.44846","24.9903133333333","6501300","土城區"
"236024","269-VK","2019/07/13 15:39:19","新北市土城區裕生路83巷33號","121.448128333333","24.9837866666667","6501300","土城區"
"236013","270-VK","2019/07/13 15:39:15","新北市板橋區德興街6號","121.453371666667","24.9946766666667","6501300","土城區"
"236017","401-BY","2019/07/13 15:39:17","新北市土城區延吉街48號","121.471716666667","24.9870183333333","6501300","土城區"
"236057","912-UM","2019/07/13 15:39:14","新北市土城區中央路一段269-5號","121.444785","24.9850283333333","6501300","土城區"
"236045","913-UM","2019/07/13 15:39:22","新北市中和區連城路631-2號","121.475565","24.9912","6501300","土城區"
"236054","AAC-216","2019/07/13 15:39:25","新北市土城區中華路一段18號","121.447655","24.9904666666667","6501300","土城區"
"221010","269-BY","2019/07/13 15:39:12","新北市汐止區汐萬路一段256巷3號","121.653355","25.0746966666667","6501100","汐止區"
"220031","286-VK","2019/07/13 15:39:18","新北市板橋區龍興街2號","121.44272","24.9993666666667","6500100","板橋區"
