"lineid","car","time","location","longitude","latitude","cityid","cityname"
"234026","9371-KE","2019/07/13 17:49:16","新北市永和區和平街109巷5號","121.510591666667","25.0096033333333","6500400","永和區"
"249005","172-UM","2019/07/13 17:49:16","新北市八里區荖阡坑路34-2號","121.402258333333","25.1310716666667","6502300","八里區"
"249001","173-UM","2019/07/13 17:49:29","新北市八里區龍米路二段147巷6號","121.442788333333","25.15061","6502300","八里區"
"249004","303-UY","2019/07/13 17:49:23","新北市八里區賢一街61號","121.419696666667","25.1578966666667","6502300","八里區"
"249002","305-UY","2019/07/13 17:49:08","新北市八里區龍形五街37巷3-1號","121.44875","25.1326183333333","6502300","八里區"
"249003","593-UM","2019/07/13 17:49:16","新北市八里區中山路二段66號","121.408671666667","25.155995","6502300","八里區"
"248004","677-BX","2019/07/13 17:49:27","新北市五股區中興路二段57-6號","121.460398333333","25.075295","6501500","五股區"
"232011","375-UM","2019/07/13 17:49:13","新北市坪林區北宜路八段208號","121.7085","24.9347616666667","6502000","坪林區"
"244007","080-UY","2019/07/13 17:49:19","新北市林口區竹林路269號","121.38953","25.0810266666667","6501700","林口區"
"244019","402-UM","2019/07/13 17:49:12","新北市林口區文化一路一段24號","121.370223333333","25.068675","6501700","林口區"
"244013","KEA-2802","2019/07/13 17:49:16","新北市林口區中山路130號","121.392191666667","25.078575","6501700","林口區"
"244023","483-VK","2019/07/13 17:49:15","新北市林口區東明二街92號","121.389538333333","25.0701933333333","6501700","林口區"
"244017","485-VK","2019/07/13 17:49:29","新北市林口區文化二路一段260巷4號","121.371203333333","25.0732933333333","6501700","林口區"
"244009","657-BX","2019/07/13 17:49:24","新北市林口區文化一路二段228號","121.384093333333","25.082605","6501700","林口區"
"244011","701-TV","2019/07/13 17:49:14","新北市林口區中正路251號","121.390736666667","25.07764","6501700","林口區"
"244025","837-TS","2019/07/13 17:49:17","新北市林口區忠孝三路一段110號","121.35941","25.0711733333333","6501700","林口區"
"244021","838-TS","2019/07/13 17:49:27","新北市林口區新寮37-1號","121.401585","25.0656616666667","6501700","林口區"
"222002","016-RS","2019/07/13 17:49:21","新北市深坑區平埔街22巷8號","121.6149","25.0009016666667","6501800","深坑區"
"222003","436-BY","2019/07/13 17:49:15","新北市深坑區阿柔洋60-1號","121.608673333333","24.9985333333333","6501800","深坑區"
"241024","065-VK","2019/07/13 17:49:19","新北市三重區車路頭街62巷18號","121.483318333333","25.0724166666667","6500200","三重區"
"241016","266-UM","2019/07/13 17:49:14","新北市三重區新北大道一段11號","121.488475","25.060565","6500200","三重區"
"241007","398-BY","2019/07/13 17:49:20","新北市蘆洲區永安南路一段178號","121.475218333333","25.0747433333333","6500200","三重區"
"241033","AAC-255","2019/07/13 17:49:08","新北市三重區重新路五段509-5號","121.472068333333","25.0467783333333","6500200","三重區"
"235063","006-UY","2019/07/13 17:49:10","新北市中和區員山路36巷16-3號","121.48504","24.9913566666667","6500300","中和區"
"235065","098-UM","2019/07/13 17:49:08","新北市中和區中正路637巷60弄61號","121.485421666667","24.9927166666667","6500300","中和區"
"235058","151-BY","2019/07/13 17:49:25","新北市中和區員山路36巷16-2號","121.48523","24.9915966666667","6500300","中和區"
"247014","KEA-2869","2019/07/13 17:49:19","新北市蘆洲區保和街69巷18號","121.469701666667","25.0852366666667","6501400","蘆洲區"
"247008","KED-0682","2019/07/13 17:49:16","新北市蘆洲區信義路35號","121.47439","25.07959","6501400","蘆洲區"
"235054","640-BX","2019/07/13 17:49:20","新北市中和區員山路36巷16-2號","121.485301666667","24.9914966666667","6500300","中和區"
"235057","801-TS","2019/07/13 17:49:14","新北市中和區員山路36巷16-3號","121.48459","24.991335","6500300","中和區"
"235037","AAC-213","2019/07/13 17:49:14","新北市中和區中正路637巷52弄1號","121.485473333333","24.9933833333333","6500300","中和區"
"247004","893-R6","2019/07/13 17:49:22","新北市蘆洲區長榮路211巷6號","121.460228333333","25.0847116666667","6501400","蘆洲區"
"247018","546-UM","2019/07/13 17:49:19","新北市蘆洲區復興路227巷2弄16號","121.480751666667","25.0903183333333","6501400","蘆洲區"
"247002","500-BY","2019/07/13 17:49:17","新北市蘆洲區永平街32巷21弄34號","121.457805","25.0924766666667","6501400","蘆洲區"
"247024","337-TH","2019/07/13 17:49:24","新北市蘆洲區光榮路65號","121.46123","25.088515","6501400","蘆洲區"
"247022","057-VK","2019/07/13 17:49:10","新北市蘆洲區中正路462號","121.46246","25.0951533333333","6501400","蘆洲區"
"247012","056-VK","2019/07/13 17:49:14","新北市蘆洲區復興路62號","121.474583333333","25.0861716666667","6501400","蘆洲區"
"247016","053-VK","2019/07/13 17:49:22","新北市蘆洲區中正路185巷23弄19號","121.467575","25.0841633333333","6501400","蘆洲區"
"247020","007-UY","2019/07/13 17:49:21","新北市蘆洲區民權路190-2號","121.472063333333","25.0906916666667","6501400","蘆洲區"
"247006","002-UY","2019/07/13 17:49:22","新北市蘆洲區長安街16號","121.464138333333","25.0790816666667","6501400","蘆洲區"
"228003","097-TW","2019/07/13 17:49:10","新北市貢寮區真理里延平街72-5號","121.925221666667","25.0582583333333","6502600","貢寮區"
"228002","663-BX","2019/07/13 17:49:26","新北市貢寮區福隆里龜壽谷街11-1號","121.95437","25.0069616666667","6502600","貢寮區"
"224006","676-BX","2019/07/13 17:49:27","新北市瑞芳區傑魚坑路183號","121.788421666667","25.1082566666667","6501200","瑞芳區"
"224009","275-VK","2019/07/13 17:49:11","新北市瑞芳區新山路183號","121.851098333333","25.1089116666667","6501200","瑞芳區"
"224008","273-VK","2019/07/13 17:49:27","新北市瑞芳區明燈路一段41號","121.821626666667","25.1070483333333","6501200","瑞芳區"
"224005","271-BY","2019/07/13 17:49:17","新北市瑞芳區籠山路26號","121.832346666667","25.123085","6501200","瑞芳區"
"227001","642-TC","2019/07/13 17:21:15","新北市雙溪區三貂里定福路1-2號","121.850711666667","25.06341","6502500","雙溪區"
"227002","400-TW","2019/07/13 17:49:22","新北市雙溪區共和里東榮街52號","121.866331666667","25.0336383333333","6502500","雙溪區"
"253006","032-BX","2019/07/13 17:49:14","新北市石門區老崩山2-1號","121.553583333333","25.2917933333333","6502200","石門區"
"208002","KEA-2872","2019/07/13 17:49:26","新北市金山區磺清路135號","121.639298333333","25.2276116666667","6502700","金山區"
"251004","009-UM","2019/07/13 17:49:25","新北市淡水區民權一街17巷2號","121.458745","25.136525","6501000","淡水區"
"251005","010-UM","2019/07/13 17:49:29","新北市淡水區學府路102巷2號","121.450428333333","25.1719883333333","6501000","淡水區"
"251002","012-UM","2019/07/13 17:49:20","新北市淡水區中山路102號","121.442433333333","25.1706433333333","6501000","淡水區"
"251015","KEA-2871","2019/07/13 17:49:08","新北市淡水區興福寮1-8號","121.48895","25.164525","6501000","淡水區"
"251016","179-VK","2019/07/13 17:49:26","新北市淡水區埤島39-15號","121.452766666667","25.1958733333333","6501000","淡水區"
"251008","181-VK","2019/07/13 17:49:09","新北市淡水區八勢路一段123巷5弄5號","121.466595","25.1563666666667","6501000","淡水區"
"251013","182-VK","2019/07/13 17:49:12","新北市淡水區口湖子1-3號","121.477481666667","25.190885","6501000","淡水區"
"251010","413-VK","2019/07/13 17:49:15","新北市淡水區淡海路271號","121.420078333333","25.187455","6501000","淡水區"
"251012","441-VK","2019/07/13 17:49:20","新北市淡水區北新路一段297號","121.463601666667","25.182025","6501000","淡水區"
"251007","442-VK","2019/07/13 17:49:25","新北市淡水區民生路16巷19號","121.461503333333","25.1374933333333","6501000","淡水區"
"251006","561-UM","2019/07/13 17:49:29","新北市淡水區大信街1巷25號","121.440256666667","25.1767483333333","6501000","淡水區"
"251009","575-R6","2019/07/13 17:49:08","新北市淡水區中山路18-1號","121.444521666667","25.1693866666667","6501000","淡水區"
"251014","577-R6","2019/07/13 17:49:19","新北市淡水區公埔子16-6號","121.481026666667","25.2245666666667","6501000","淡水區"
"251011","650-BX","2019/07/13 17:49:19","新北市淡水區小坪頂13-3號","121.48664","25.156175","6501000","淡水區"
"251003","766-UM","2019/07/13 17:49:17","新北市淡水區大忠街5巷2號","121.443138333333","25.1763","6501000","淡水區"
"207003","550-UM","2019/07/13 17:49:17","新北市萬里區野柳里東澳路66號","121.692821666667","25.20096","6502800","萬里區"
"207004","225-TW","2019/07/13 17:49:13","新北市萬里區萬里里瑪鋉路71號","121.688198333333","25.1764133333333","6502800","萬里區"
"252002","178-VK","2019/07/13 17:49:27","新北市三芝區智成街18號","121.503398333333","25.25673","6502100","三芝區"
"208001","170-UY","2019/07/13 17:49:18","新北市金山區磺清路135號","121.63936","25.2276566666667","6502700","金山區"
"237004","KEA-2597","2019/07/13 17:49:14","新北市三峽區仁愛街14號","121.368355","24.9325933333333","6500900","三峽區"
"237009","210-TH","2019/07/13 17:49:13","新北市三峽區大勇路3巷30號","121.367646666667","24.9367916666667","6500900","三峽區"
"237013","252-BX","2019/07/13 17:49:17","新北市三峽區愛國路18號","121.374141666667","24.93355","6500900","三峽區"
"237012","275-BY","2019/07/13 17:49:19","新北市三峽區文化路20號","121.373291666667","24.9359033333333","6500900","三峽區"
"237014","433-BY","2019/07/13 17:49:28","新北市三峽區復興路101巷1弄59號","121.371336666667","24.9370083333333","6500900","三峽區"
"237006","5529-G3","2019/07/13 17:49:19","新北市三峽區介壽路二段30號","121.390895","24.93524","6500900","三峽區"
"237011","KEA-2596","2019/07/13 17:49:19","新北市三峽區大同路199號","121.37094","24.92706","6500900","三峽區"
"237015","649-BX","2019/07/13 17:49:15","新北市三峽區白雞149-2號","121.400106666667","24.90551","6500900","三峽區"
"237010","706-TV","2019/07/13 17:49:23","新北市三峽區文化路216號","121.368258333333","24.935895","6500900","三峽區"
"237005","AKY-6261","2019/07/13 17:49:21","新北市三峽區中山路184巷2號","121.364085","24.9368066666667","6500900","三峽區"
"236042","KED-0685","2019/07/13 17:49:17","新北市土城區城林路6巷80號","121.438523333333","24.9795516666667","6501300","土城區"
"233002","762-BX","2019/07/13 17:49:16","新北市烏來區西羅岸路22號","121.54942","24.8673283333333","6502900","烏來區"
"236079","166-UM","2019/07/13 17:49:14","新北市土城區永寧路1號","121.430453333333","24.96473","6501300","土城區"
"236038","271-VK","2019/07/13 17:49:15","新北市土城區城林路6巷80號","121.438491666667","24.9797483333333","6501300","土城區"
"247010","KED-0683","2019/07/13 17:49:20","新北市蘆洲區信義路269號","121.47894","25.0849566666667","6501400","蘆洲區"
"236070","KEA-2877","2019/07/13 17:49:13","新北市土城區明德路二段115號","121.450443333333","24.9820816666667","6501300","土城區"
"252001","KED-0821","2019/07/13 17:49:21","新北市三芝區中興街一段8號","121.497458333333","25.2594833333333","6502100","三芝區"
"236021","401-BY","2019/07/13 17:49:15","新北市土城區城林路6巷80號","121.438818333333","24.9796333333333","6501300","土城區"
"236059","912-UM","2019/07/13 17:49:18","新北市土城區中華路二段130號","121.437661666667","24.9733283333333","6501300","土城區"
"236063","915-UM","2019/07/13 17:49:21","新北市土城區城林路6巷80號","121.438548333333","24.9796016666667","6501300","土城區"
"242039","AAC-296","2019/07/13 17:49:15","新北市新莊區民安路143號","121.425255","25.0239183333333","6500500","新莊區"
"242061","986-R7","2019/07/13 17:49:15","新北市新莊區瓊林南路220號","121.433488333333","25.0056183333333","6500500","新莊區"
"242002","751-BX","2019/07/13 17:49:10","新北市新莊區景德路174號","121.450196666667","25.0341333333333","6500500","新莊區"
"242029","615-BX","2019/07/13 17:49:22","新北市新莊區復興路一段25號","121.446166666667","25.0417316666667","6500500","新莊區"
"242027","613-BX","2019/07/13 17:49:24","新北市新莊區福壽街155號","121.457973333333","25.053335","6500500","新莊區"
"242058","612-BX","2019/07/13 17:49:23","新北市新莊區中正路726-5號","121.415853333333","25.0241833333333","6500500","新莊區"
"242046","566-BX","2019/07/13 17:49:22","新北市新莊區建國一路78號","121.434378333333","25.030405","6500500","新莊區"
"242051","497-BY","2019/07/13 17:49:24","新北市新莊區西盛街269巷26號","121.429","25.0153316666667","6500500","新莊區"
"242056","441-UM","2019/07/13 17:49:25","新北市新莊區瓊林路38巷20號","121.44704","25.0304766666667","6500500","新莊區"
"242004","440-UM","2019/07/13 17:49:08","新北市新莊區思源路177巷5弄1號","121.459243333333","25.04498","6500500","新莊區"
"242042","415-TV","2019/07/13 17:49:08","新北市泰山區貴陽街29號","121.422396666667","25.0332716666667","6500500","新莊區"
"242048","400-BY","2019/07/13 17:49:26","新北市新莊區萬安街103號","121.421026666667","25.0230266666667","6500500","新莊區"
"242025","362-BY","2019/07/13 17:49:25","新北市三重區新北大道二段25號","121.471513333333","25.0612783333333","6500500","新莊區"
"242023","353-BY","2019/07/13 17:49:15","新北市新莊區福樂街21號","121.457818333333","25.045175","6500500","新莊區"
"242013","132-UY","2019/07/13 17:49:18","新北市新莊區中誠街167號","121.448218333333","25.0473783333333","6500500","新莊區"
"242036","135-UY","2019/07/13 17:49:11","新北市新莊區建福路59巷16號","121.427545","25.027495","6500500","新莊區"
"242053","172-VK","2019/07/13 17:49:26","新北市新莊區民安西路468-1號","121.431678333333","25.0078216666667","6500500","新莊區"
"242015","173-VK","2019/07/13 17:49:13","新北市新莊區新泰路478號","121.442873333333","25.0453983333333","6500500","新莊區"
"242021","175-VK","2019/07/13 17:49:27","新北市新莊區中港路151號","121.455075","25.04096","6500500","新莊區"
"242019","KED-0687","2019/07/13 17:49:22","新北市新莊區民樂街61號","121.457908333333","25.0418266666667","6500500","新莊區"
"242011","346-TH","2019/07/13 17:49:23","新北市新莊區中港路697號","121.450721666667","25.0568183333333","6500500","新莊區"
"242034","348-TH","2019/07/13 17:49:19","新北市新莊區新莊路781號","121.441438333333","25.0326983333333","6500500","新莊區"
"242007","349-TH","2019/07/13 17:49:09","新北市新莊區福樂街108巷15號","121.457708333333","25.0482366666667","6500500","新莊區"
"242031","350-TH","2019/07/13 17:49:27","新北市新莊區新泰路321巷17號","121.44386","25.0412416666667","6500500","新莊區"
"242017","351-TH","2019/07/13 17:49:27","新北市新莊區永安街48號","121.451451666667","25.0447533333333","6500500","新莊區"
"238015","755-BX","2019/07/13 17:49:25","新北市樹林區復興路168號","121.420486666667","24.9916116666667","6500700","樹林區"
"238023","601-UM","2019/07/13 17:49:22","新北市樹林區龍興街30號","121.402755","25.01585","6500700","樹林區"
"238018","KEA-2217","2019/07/13 17:49:18","新北市樹林區樹新路76號","121.429203333333","24.9972883333333","6500700","樹林區"
"238022","KEA-2213","2019/07/13 17:49:16","新北市樹林區太順街86巷11號","121.416618333333","24.9785516666667","6500700","樹林區"
"238021","KEA-2539","2019/07/13 17:49:10","新北市樹林區田尾街35號","121.408746666667","24.9626866666667","6500700","樹林區"
"238025","303-VK","2019/07/13 17:49:26","新北市樹林區俊興街201號","121.417266666667","25.0137133333333","6500700","樹林區"
"238017","283-BY","2019/07/13 17:49:16","新北市樹林區俊德街29號","121.415338333333","25.0141","6500700","樹林區"
"238014","282-BY","2019/07/13 17:49:25","新北市樹林區中正路79號","121.426061666667","25.000255","6500700","樹林區"
"238020","268-VK","2019/07/13 17:49:20","新北市樹林區俊英街252號","121.424486666667","25.0110183333333","6500700","樹林區"
"238026","172-UY","2019/07/13 17:49:23","新北市樹林區新興街21號","121.400333333333","24.9727083333333","6500700","樹林區"
"238016","169-UY","2019/07/13 17:49:17","新北市樹林區復興路308巷1弄3號","121.416555","24.9871716666667","6500700","樹林區"
"239007","AAC-297","2019/07/13 17:49:10","新北市鶯歌區鶯桃路94巷19號","121.340376666667","24.954175","6500800","鶯歌區"
"239006","891-R6","2019/07/13 17:49:18","新北市鶯歌區鶯桃路442號","121.332938333333","24.96479","6500800","鶯歌區"
"239008","527-UM","2019/07/13 17:49:21","新北市鶯歌區大湖路700巷22弄17號","121.33384","24.97733","6500800","鶯歌區"
"239005","526-UM","2019/07/13 17:49:16","新北市鶯歌區鳳吉五街7號","121.326603333333","24.9722","6500800","鶯歌區"
"239001","417-VK","2019/07/13 17:49:12","新北市鶯歌區中正三路489號","121.321008333333","24.9339433333333","6500800","鶯歌區"
"239003","360-BY","2019/07/13 17:49:20","新北市鶯歌區永吉街46巷43號","121.33451","24.95766","6500800","鶯歌區"
"239002","359-BY","2019/07/13 17:49:20","新北市鶯歌區光明街113號","121.34431","24.9557916666667","6500800","鶯歌區"
"239004","193-VK","2019/07/13 17:49:24","新北市鶯歌區文化路142號","121.35216","24.9508683333333","6500800","鶯歌區"
"221010","269-BY","2019/07/13 17:49:26","新北市汐止區汐萬路一段391號","121.649528333333","25.0785066666667","6501100","汐止區"
"221029","298-VK","2019/07/13 17:36:53","新北市汐止區汐萬路一段256巷1號","121.651715","25.0748583333333","6501100","汐止區"
"221031","353-TW","2019/07/13 17:49:13","新北市汐止區汐萬路一段312號","121.650215","25.075575","6501100","汐止區"
"233001","KEA-2870","2019/07/13 17:49:21","新北市烏來區西羅岸路22號","121.549521666667","24.8672783333333","6502900","烏來區"
"242044","281-VK","2019/07/13 17:49:20","新北市新莊區中正路855巷10號","121.419761666667","25.027365","6500500","新莊區"
"242009","280-VK","2019/07/13 17:49:25","新北市新莊區昌明街42號","121.456356666667","25.0522066666667","6500500","新莊區"
"235062","KEA-2876","2019/07/13 17:49:24","新北市中和區員山路36巷16-3號","121.48502","24.991445","6500300","中和區"
