"lineid","car","time","location","longitude","latitude","cityid","cityname"
"234046","148-BY","2019/07/13 19:39:46","新北市永和區永元路96號","121.522558333333","25.0018266666667","6500400","永和區"
"234038","336-UY","2019/07/13 19:39:53","新北市永和區民樂街29號","121.527728333333","25.001515","6500400","永和區"
"234064","337-UY","2019/07/13 19:39:54","新北市永和區秀朗路二段24巷28弄9號","121.519575","25.0018216666667","6500400","永和區"
"234086","338-UY","2019/07/13 19:39:46","新北市永和區永亨路130號","121.524595","25.0039683333333","6500400","永和區"
"234070","552-UM","2019/07/13 19:39:42","新北市永和區永和路二段234號","121.515915","25.0143966666667","6500400","永和區"
"234017","745-BX","2019/07/13 19:39:56","新北市永和區永和路二段425巷64號","121.513621666667","25.0172933333333","6500400","永和區"
"234030","746-BX","2019/07/13 19:39:49","新北市永和區民權路1巷38號","121.522265","24.9982116666667","6500400","永和區"
"234054","KEA-2590","2019/07/13 19:39:49","新北市永和區竹林路39巷8號","121.518265","25.0144183333333","6500400","永和區"
"234007","KED-0605","2019/07/13 19:39:52","新北市永和區中和路471號","121.510163333333","25.001785","6500400","永和區"
"234013","KEA-2591","2019/07/13 19:39:48","新北市永和區永平路208號","121.509571666667","25.0101233333333","6500400","永和區"
"234061","AAD-866","2019/07/13 19:39:48","新北市永和區中正路486號","121.517423333333","25.0038083333333","6500400","永和區"
"234081","748-BX","2019/07/13 19:39:51","新北市永和區國中路104巷10號","121.524816666667","25.00704","6500400","永和區"
"234042","862-TW","2019/07/13 19:39:42","新北市永和區中和路603號","121.512313333333","25.00414","6500400","永和區"
"234050","863-TW","2019/07/13 19:39:55","新北市永和區保安路84號","121.509781666667","25.0161883333333","6500400","永和區"
"234026","9371-KE","2019/07/13 19:39:55","新北市中和區中和路382號","121.510848333333","25.002285","6500400","永和區"
"234011","9373-KE","2019/07/13 19:39:56","新北市永和區保生路55號","121.504773333333","25.01049","6500400","永和區"
"249002","305-UY","2019/07/13 19:39:40","新北市八里區頂寮二街33-1號","121.450311666667","25.125165","6502300","八里區"
"249003","593-UM","2019/07/13 19:39:46","新北市八里區華峰三街60號","121.399046666667","25.1458266666667","6502300","八里區"
"248014","025-BX","2019/07/13 19:39:42","新北市五股區五福路52巷27號","121.434491666667","25.0903666666667","6501500","五股區"
"248016","026-BX","2019/07/13 19:39:54","新北市五股區成泰路三段482號","121.451866666667","25.1014733333333","6501500","五股區"
"248008","KED-0815","2019/07/13 19:39:51","新北市五股區四維路155巷6弄4號","121.467591666667","25.0746316666667","6501500","五股區"
"248020","KED-0813","2019/07/13 19:39:51","新北市五股區中直路10-1號","121.42699","25.1114633333333","6501500","五股區"
"248012","247-BX","2019/07/13 19:39:54","新北市五股區蓬萊路6巷43號","121.435803333333","25.08035","6501500","五股區"
"248010","272-BY","2019/07/13 19:39:56","新北市五股區自強路143號","121.432033333333","25.069495","6501500","五股區"
"248004","677-BX","2019/07/13 19:39:47","新北市五股區成泰路二段114號","121.437896666667","25.0833433333333","6501500","五股區"
"248002","678-BX","2019/07/13 19:39:50","新北市五股區天乙路50巷5號","121.448928333333","25.1042933333333","6501500","五股區"
"234023","9380-KE","2019/07/13 19:39:39","新北市永和區光復街42號","121.516891666667","25.0179","6500400","永和區"
"234077","969-R7","2019/07/13 19:39:55","新北市永和區民權路1巷10號","121.520833333333","24.998335","6500400","永和區"
"234074","AAC-211","2019/07/13 19:39:41","新北市永和區竹林路225巷17號","121.521713333333","25.0086333333333","6500400","永和區"
"234067","AAC-212","2019/07/13 19:39:58","新北市永和區永貞路412號","121.508955","25.0078566666667","6500400","永和區"
"234003","AAC-295","2019/07/13 19:39:41","新北市永和區自由街69號","121.513533333333","25.00537","6500400","永和區"
"244023","483-VK","2019/07/13 19:39:55","新北市林口區文化三路一段636-1號","121.371956666667","25.0768733333333","6501700","林口區"
"243011","267-VK","2019/07/13 19:39:53","新北市泰山區台麗街24-3號","121.425948333333","25.0375316666667","6501600","泰山區"
"243010","297-R6","2019/07/13 19:39:49","新北市泰山區民生路79號","121.431751666667","25.051625","6501600","泰山區"
"243016","421-VK","2019/07/13 19:39:49","新北市泰山區德安街2號","121.41915","25.03217","6501600","泰山區"
"243012","539-UM","2019/07/13 19:39:37","新北市泰山區明志路一段501巷17號","121.431303333333","25.0546566666667","6501600","泰山區"
"243009","KEA-2215","2019/07/13 19:39:56","新北市泰山區美寧街58號","121.430875","25.0647366666667","6501600","泰山區"
"243015","680-BX","2019/07/13 19:39:47","新北市泰山區民權街23號","121.428696666667","25.05078","6501600","泰山區"
"222002","016-RS","2019/07/13 19:39:41","新北市深坑區北深路一段177號","121.63257","25.010855","6501800","深坑區"
"222003","436-BY","2019/07/13 19:39:55","新北市深坑區深南路51-1號","121.621296666667","25.0097733333333","6501800","深坑區"
"231061","002-UM","2019/07/13 19:39:40","新北市新店區安民街88巷1號","121.51663","24.9673983333333","6500600","新店區"
"231058","0293-UT","2019/07/13 19:39:50","新北市新店區寶橋路85巷19號","121.545535","24.976175","6500600","新店區"
"231044","046-UY","2019/07/13 19:39:45","新北市新店區北新路三段103號","121.541461666667","24.9821066666667","6500600","新店區"
"231060","106-UY","2019/07/13 19:39:55","新北市新店區安康路二段161號","121.510143333333","24.9593066666667","6500600","新店區"
"231051","107-UY","2019/07/13 19:39:49","新北市新店區中央四街25號","121.529023333333","24.9744","6500600","新店區"
"231049","108-UY","2019/07/13 19:39:58","新北市新店區大豐路57號","121.539855","24.9796366666667","6500600","新店區"
"231065","110-UY","2019/07/13 19:39:42","新北市新店區安祥路109巷85弄1號","121.477903333333","24.960285","6500600","新店區"
"231050","KEA-2219","2019/07/13 19:39:55","新北市新店區北宜路二段100號","121.555456666667","24.9536216666667","6500600","新店區"
"231062","256-BX","2019/07/13 19:39:58","新北市新店區合作路7號","121.533431666667","24.95771","6500600","新店區"
"231054","260-TV","2019/07/13 19:39:38","新北市新店區文中路40號","121.53969","24.9565983333333","6500600","新店區"
"231042","268-BY","2019/07/13 19:39:43","新北市新店區中興路一段202號","121.543705","24.965305","6500600","新店區"
"231064","278-BY","2019/07/13 19:39:54","新北市新店區安和路一段52巷2-1號","121.517756666667","24.96642","6500600","新店區"
"231045","355-BY","2019/07/13 19:39:46","新北市新店區北宜路二段205號","121.55302","24.9534883333333","6500600","新店區"
"231056","4715-K9","2019/07/13 19:39:58","新北市新店區民權路180-1號","121.53437","24.9828133333333","6500600","新店區"
"231067","4772-VM","2019/07/13 19:39:59","新北市新店區安和路一段1號","121.516476666667","24.9637816666667","6500600","新店區"
"231052","513-UM","2019/07/13 19:39:55","新北市新店區新烏路二段446號","121.551638333333","24.9079616666667","6500600","新店區"
"231040","617-UM","2019/07/13 19:39:50","新北市新店區北新路一段38號","121.541015","24.9659766666667","6500600","新店區"
"231041","619-UM","2019/07/13 19:39:50","新北市新店區中正路500號","121.534081666667","24.98205","6500600","新店區"
"231063","641-BX","2019/07/13 19:39:52","新北市新店區達觀路43號","121.50301","24.937945","6500600","新店區"
"231048","718-UY","2019/07/13 19:39:40","新北市新店區中興路一段254巷1號","121.544838333333","24.966805","6500600","新店區"
"231046","719-UM","2019/07/13 19:39:46","新北市新店區中正路327號","121.536196666667","24.9752116666667","6500600","新店區"
"231057","720-UM","2019/07/13 19:39:46","新北市新店區橘園一路11號","121.547911666667","24.9339566666667","6500600","新店區"
"231059","897-TW","2019/07/13 19:39:58","新北市新店區安和路三段57號","121.518013333333","24.9828116666667","6500600","新店區"
"231043","899-TW","2019/07/13 19:39:42","新北市新店區北新路二段40號","121.542888333333","24.9716683333333","6500600","新店區"
"231066","AKT-0513","2019/07/13 19:39:49","新北市新店區安康路三段355巷39號","121.484975","24.94956","6500600","新店區"
"241011","013-R5","2019/07/13 19:39:53","新北市三重區秀江街184號","121.497861666667","25.0716533333333","6500200","三重區"
"241028","022-UY","2019/07/13 19:39:53","新北市三重區中正南路155號","121.493843333333","25.05638","6500200","三重區"
"241008","059-VK","2019/07/13 19:39:54","新北市三重區永福街127號","121.478881666667","25.0770266666667","6500200","三重區"
"241029","060-VK","2019/07/13 19:39:42","新北市三重區光明路117號","121.492228333333","25.0567033333333","6500200","三重區"
"241031","061-VK","2019/07/13 19:39:40","新北市三重區重新路四段248號","121.486098333333","25.053405","6500200","三重區"
"241015","062-VK","2019/07/13 19:39:47","新北市三重區福德北路50號","121.501943333333","25.0657766666667","6500200","三重區"
"241017","063-VK","2019/07/13 19:39:47","新北市三重區大同北路184巷10號","121.491443333333","25.0655866666667","6500200","三重區"
"241023","066-VK","2019/07/13 19:39:53","新北市三重區忠孝路三段126號","121.480005","25.06365","6500200","三重區"
"241030","742-BX","2019/07/13 19:39:43","新北市三重區環河南路253號","121.49199","25.0500716666667","6500200","三重區"
"241009","267-UM","2019/07/13 19:39:45","新北市三重區三和路四段406巷10號","121.480611666667","25.079465","6500200","三重區"
"241032","269-UM","2019/07/13 19:39:57","新北市三重區重陽路一段60巷50號","121.48489","25.0581366666667","6500200","三重區"
"241013","270-UM","2019/07/13 19:39:45","新北市三重區仁賢街12號","121.495895","25.07472","6500200","三重區"
"241025","271-UM","2019/07/13 19:39:47","新北市三重區忠孝路三段84巷5號","121.480256666667","25.06433","6500200","三重區"
"241007","398-BY","2019/07/13 19:39:40","新北市三重區三和路四段125巷58號","121.486751666667","25.078485","6500200","三重區"
"241035","462-BY","2019/07/13 19:39:57","新北市三重區信義西街38號","121.498351666667","25.064805","6500200","三重區"
"241026","480-VK","2019/07/13 19:39:41","新北市三重區文化南路65巷48號","121.4987","25.0606416666667","6500200","三重區"
"241014","543-UM","2019/07/13 19:39:53","新北市三重區長壽街196號","121.504251666667","25.0690766666667","6500200","三重區"
"241019","KEA-2593","2019/07/13 19:39:45","新北市三重區六張街246號","121.48739","25.0682566666667","6500200","三重區"
"241006","AAD-863","2019/07/13 19:39:48","新北市三重區永福街218號","121.482995","25.074565","6500200","三重區"
"241022","KED-0820","2019/07/13 19:39:54","新北市三重區重陽路二段72號","121.487313333333","25.0640983333333","6500200","三重區"
"241012","941-UM","2019/07/13 19:39:49","新北市三重區仁義街6號","121.499943333333","25.075685","6500200","三重區"
"235066","003-UY","2019/07/13 19:39:40","新北市中和區中和路196巷6號","121.505135","24.9991683333333","6500300","中和區"
"235064","005-UY","2019/07/13 19:39:52","新北市中和區南華路42號","121.503733333333","24.9964833333333","6500300","中和區"
"235063","006-UY","2019/07/13 19:39:50","新北市中和區連城路263巷8弄1號","121.492385","24.9953766666667","6500300","中和區"
"235056","096-UM","2019/07/13 19:39:54","新北市中和區中山路三段114巷26弄1號","121.475801666667","25.007035","6500300","中和區"
"235039","097-UM","2019/07/13 19:39:50","新北市中和區景平路160號","121.517418333333","24.9921666666667","6500300","中和區"
"235065","098-UM","2019/07/13 19:39:48","新北市中和區永和路8巷17號","121.500601666667","25.0034933333333","6500300","中和區"
"235040","150-BY","2019/07/13 19:39:41","新北市中和區保健路44巷11號","121.509045","24.9966316666667","6500300","中和區"
"235058","151-BY","2019/07/13 19:39:45","新北市中和區員山路132巷26號","121.482461666667","24.99627","6500300","中和區"
"235055","183-VK","2019/07/13 19:39:43","新北市中和區中山路三段181巷30號","121.473096666667","25.0049516666667","6500300","中和區"
"235038","185-VK","2019/07/13 19:39:53","新北市中和區自立路141巷1號","121.522356666667","24.9935216666667","6500300","中和區"
"235049","186-VK","2019/07/13 19:39:53","新北市中和區中正路19號","121.502833333333","24.99347","6500300","中和區"
"235044","293-VK","2019/07/13 19:39:49","新北市中和區南山路421巷1弄1號","121.507351666667","24.9895166666667","6500300","中和區"
"235072","301-VK","2019/07/13 19:39:56","新北市中和區錦和路95號","121.49023","24.9956766666667","6500300","中和區"
"235043","352-BY","2019/07/13 19:39:41","新北市中和區興南路二段62號","121.506295","24.9849283333333","6500300","中和區"
"235042","KEA-2878","2019/07/13 19:39:52","新北市中和區景安路79巷37弄1號","121.507533333333","24.9964183333333","6500300","中和區"
"235070","558-UM","2019/07/13 19:39:59","新北市中和區連城路171巷38號","121.495988333333","24.9965233333333","6500300","中和區"
"235045","565-BX","2019/07/13 19:39:57","新北市中和區景新街551號","121.515065","24.9865333333333","6500300","中和區"
"235060","KED-0823","2019/07/13 19:39:44","新北市中和區新生街16巷31號","121.481918333333","25.0043716666667","6500300","中和區"
"235054","640-BX","2019/07/13 19:39:40","新北市中和區莒光路31號","121.472146666667","25.0053716666667","6500300","中和區"
"235047","732-UM","2019/07/13 19:39:57","新北市中和區景平路329巷2弄5號","121.505546666667","24.9929266666667","6500300","中和區"
"235046","733-UM","2019/07/13 19:39:55","新北市中和區景新街496巷31號","121.513481666667","24.9861983333333","6500300","中和區"
"235071","783-BX","2019/07/13 19:39:49","新北市中和區民樂路81號","121.485008333333","25.00144","6500300","中和區"
"235057","801-TS","2019/07/13 19:39:54","新北市中和區員山路214號","121.481263333333","25.0008633333333","6500300","中和區"
"235041","802-TS","2019/07/13 19:39:49","新北市中和區永貞路250號","121.514163333333","25.0037133333333","6500300","中和區"
"235052","805-TS","2019/07/13 19:39:47","新北市中和區華新街192巷11號","121.506653333333","24.9825466666667","6500300","中和區"
"235053","900-TW","2019/07/13 19:39:49","新北市中和區國光街215巷24弄1號","121.46697","25.000405","6500300","中和區"
"235048","911-UM","2019/07/13 19:39:39","新北市中和區忠孝街2-8號","121.509213333333","24.983025","6500300","中和區"
"235051","157-BY","2019/07/13 19:39:58","新北市中和區中興街132巷10號","121.499101666667","24.9919933333333","6500300","中和區"
"235037","AAC-213","2019/07/13 19:39:53","新北市中和區秀朗路三段132-1號","121.524485","24.9917816666667","6500300","中和區"
"235059","AAC-215","2019/07/13 19:39:49","新北市中和區圓通路333號","121.492018333333","24.9906183333333","6500300","中和區"
"220068","015-TV","2019/07/13 19:39:39","新北市板橋區中山路二段412巷15號","121.483356666667","25.0203816666667","6500100","板橋區"
"220065","072-UY","2019/07/13 19:39:56","新北市板橋區國泰街109-1號","121.46625","25.0059483333333","6500100","板橋區"
"220086","073-UY","2019/07/13 19:39:29","新北市板橋區中正路216巷9號","121.45633","25.0184916666667","6500100","板橋區"
"220106","075-UY","2019/07/13 19:39:50","新北市板橋區民治街61巷24號","121.48052","25.0334166666667","6500100","板橋區"
"220069","AAD-861","2019/07/13 19:39:43","新北市板橋區南雅南路二段18號","121.454628333333","25.0036383333333","6500100","板橋區"
"220090","120-SR","2019/07/13 19:39:42","新北市板橋區龍泉街54巷8弄14號","121.457463333333","25.0269566666667","6500100","板橋區"
"247004","893-R6","2019/07/13 19:39:40","新北市蘆洲區長安街102巷26號","121.462818333333","25.0820666666667","6501400","蘆洲區"
"226004","312-R5","2019/07/13 19:39:43","新北市平溪區靜安路三段392巷3號","121.78446","25.049565","6502400","平溪區"
"228003","097-TW","2019/07/13 19:39:49","新北市貢寮區真理里美艷山街15-3號","121.923728333333","25.0680183333333","6502600","貢寮區"
"228001","212-TW","2019/07/13 19:39:55","新北市貢寮區真理里延平街49號","121.924643333333","25.0556433333333","6502600","貢寮區"
"227001","642-TC","2019/07/13 19:39:41","新北市雙溪區新基里新基北街22號","121.86723","25.0389183333333","6502500","雙溪區"
"227002","400-TW","2019/07/13 19:39:42","新北市雙溪區雙溪里光復街5號","121.865485","25.035705","6502500","雙溪區"
"253003","6232-TK","2019/07/13 19:39:55","新北市石門區尖子鹿76號","121.573048333333","25.29714","6502200","石門區"
"222001","KEA-2212","2019/07/13 19:39:43","新北市深坑區深坑街142號","121.613033333333","25.0015216666667","6501800","深坑區"
"208002","KEA-2872","2019/07/13 19:39:46","新北市金山區四維路5號","121.635446666667","25.222525","6502700","金山區"
"208003","665-BX","2019/07/13 19:39:51","新北市金山區仁愛路6號","121.638571666667","25.2201133333333","6502700","金山區"
"251005","010-UM","2019/07/13 19:39:49","新北市淡水區原德路108巷2號","121.443286666667","25.1736133333333","6501000","淡水區"
"251001","011-UM","2019/07/13 19:39:56","新北市淡水區民權路13-5號","121.45976","25.141995","6501000","淡水區"
"251002","012-UM","2019/07/13 19:39:40","新北市淡水區下圭柔山91-3號","121.430855","25.2095116666667","6501000","淡水區"
"251015","KEA-2871","2019/07/13 19:39:48","新北市淡水區山子頂24-1號","121.491393333333","25.1872033333333","6501000","淡水區"
"251016","179-VK","2019/07/13 19:39:46","新北市淡水區淡金路三段350巷18號","121.450778333333","25.2083433333333","6501000","淡水區"
"251008","181-VK","2019/07/13 19:39:49","新北市淡水區中正路一段8巷1弄11號","121.428098333333","25.175665","6501000","淡水區"
"251013","182-VK","2019/07/13 19:39:52","新北市淡水區店子後10號","121.460173333333","25.2190133333333","6501000","淡水區"
"251010","413-VK","2019/07/13 19:39:55","新北市淡水區新市五路二段75號","121.431708333333","25.199245","6501000","淡水區"
"251007","442-VK","2019/07/13 19:39:45","新北市淡水區中正東路一段111巷33號","121.455428333333","25.1613866666667","6501000","淡水區"
"251006","561-UM","2019/07/13 19:39:49","新北市淡水區中山北路一段207巷56號","121.442276666667","25.17911","6501000","淡水區"
"251009","575-R6","2019/07/13 19:39:48","新北市淡水區中山北路一段184巷9號","121.445348333333","25.1786466666667","6501000","淡水區"
"251014","577-R6","2019/07/13 19:39:39","新北市淡水區桂竹圍4-1號","121.474753333333","25.2322733333333","6501000","淡水區"
"251011","650-BX","2019/07/13 19:39:45","新北市淡水區中正東路二段161巷11弄22號","121.460585","25.1457033333333","6501000","淡水區"
"207003","550-UM","2019/07/13 19:39:37","新北市萬里區大鵬里萬里加投301號","121.645373333333","25.2199616666667","6502800","萬里區"
"207004","225-TW","2019/07/13 19:39:53","新北市萬里區萬里里瑪鋉路73號","121.688323333333","25.1764333333333","6502800","萬里區"
"252002","178-VK","2019/07/13 19:39:46","新北市三芝區中正路一段18巷52號","121.50425","25.2588866666667","6502100","三芝區"
"208001","170-UY","2019/07/13 19:39:37","新北市金山區六股里下六股35-1號","121.619823333333","25.22151","6502700","金山區"
"237004","KEA-2597","2019/07/13 19:39:54","新北市三峽區有木2-2號","121.418801666667","24.86593","6500900","三峽區"
"237007","153-BY","2019/07/13 19:39:59","新北市三峽區二鬮路136巷20弄83號","121.358206666667","24.9091516666667","6500900","三峽區"
"237009","210-TH","2019/07/13 19:39:53","新北市三峽區中園街59號","121.368185","24.92585","6500900","三峽區"
"237013","252-BX","2019/07/13 19:39:56","新北市三峽區介壽路二段167號","121.394381666667","24.9359133333333","6500900","三峽區"
"237012","275-BY","2019/07/13 19:39:38","新北市三峽區民生街1號","121.374756666667","24.9351483333333","6500900","三峽區"
"237008","302-VK","2019/07/13 19:39:43","新北市三峽區永安街183號","121.373216666667","24.92684","6500900","三峽區"
"237014","433-BY","2019/07/13 19:39:47","新北市三峽區中正路二段269號","121.365915","24.91176","6500900","三峽區"
"237006","5529-G3","2019/07/13 19:39:39","新北市三峽區中正路一段336巷15弄2號","121.369948333333","24.9249283333333","6500900","三峽區"
"237011","KEA-2596","2019/07/13 19:39:39","新北市三峽區中正路一段280號","121.371691666667","24.9263366666667","6500900","三峽區"
"237015","649-BX","2019/07/13 19:39:55","新北市三峽區成福路73號","121.418583333333","24.92927","6500900","三峽區"
"237010","706-TV","2019/07/13 19:39:43","新北市三峽區復興路31號","121.373766666667","24.9365233333333","6500900","三峽區"
"237005","AKY-6261","2019/07/13 19:39:41","新北市三峽區文化路197號","121.366551666667","24.9357033333333","6500900","三峽區"
"236042","KED-0685","2019/07/13 19:39:37","新北市土城區裕民路256巷4弄2號","121.453978333333","24.9824183333333","6501300","土城區"
"220089","KED-0812","2019/07/13 19:39:57","新北市板橋區龍泉街55巷26號","121.457633333333","25.0251583333333","6500100","板橋區"
"236079","166-UM","2019/07/13 19:39:54","新北市土城區中州路27巷25號","121.413251666667","24.9571966666667","6501300","土城區"
"236030","253-BX","2019/07/13 19:39:49","新北市土城區福祥街62號","121.441655","24.981495","6501300","土城區"
"236038","271-VK","2019/07/13 19:39:55","新北市土城區青雲路281巷13弄6號","121.459878333333","24.9804733333333","6501300","土城區"
"236070","KEA-2877","2019/07/13 19:39:53","新北市土城區中正路1號","121.442163333333","24.97504","6501300","土城區"
"252001","KED-0821","2019/07/13 19:39:46","新北市三芝區公正街66號","121.499798333333","25.2574583333333","6502100","三芝區"
"236021","401-BY","2019/07/13 19:39:55","新北市土城區金城路三段198號","121.468431666667","24.9881033333333","6501300","土城區"
"236059","912-UM","2019/07/13 19:39:58","新北市土城區中央路二段49號","121.442748333333","24.9797433333333","6501300","土城區"
"236049","913-UM","2019/07/13 19:39:58","新北市土城區明德路一段137-4號","121.465401666667","24.9811416666667","6501300","土城區"
"236063","915-UM","2019/07/13 19:39:45","新北市土城區延平街71號","121.467571666667","24.9929233333333","6501300","土城區"
"236055","AAC-216","2019/07/13 19:39:55","新北市土城區學府路一段46號","121.457786666667","24.9886016666667","6501300","土城區"
"242002","751-BX","2019/07/13 19:39:46","新北市新莊區瓊林路34號","121.448876666667","25.03106","6500500","新莊區"
"242004","440-UM","2019/07/13 19:39:50","新北市新莊區化成路29巷59號","121.462491666667","25.043955","6500500","新莊區"
"242048","400-BY","2019/07/13 19:39:51","新北市新莊區民安路37巷2號","121.423805","25.02677","6500500","新莊區"
"242023","353-BY","2019/07/13 19:39:48","新北市新莊區復興路三段115號","121.464318333333","25.0445166666667","6500500","新莊區"
"242036","135-UY","2019/07/13 19:39:57","新北市新莊區民安路207巷19號","121.426813333333","25.0231733333333","6500500","新莊區"
"242034","348-TH","2019/07/13 19:39:39","新北市新莊區仁愛街4號","121.444323333333","25.0348016666667","6500500","新莊區"
"242031","350-TH","2019/07/13 19:39:42","新北市新莊區新泰路213巷38號","121.445641666667","25.0387416666667","6500500","新莊區"
"238015","755-BX","2019/07/13 19:39:45","新北市樹林區中山路一段195號","121.421198333333","24.9876683333333","6500700","樹林區"
"238023","601-UM","2019/07/13 19:39:41","新北市樹林區三福街114號","121.406628333333","25.0163066666667","6500700","樹林區"
"238019","571-TV","2019/07/13 19:39:49","新北市樹林區東陽街1號","121.412721666667","24.9823666666667","6500700","樹林區"
"238024","5061-A6","2019/07/13 19:39:50","新北市樹林區育德街78-1號","121.387925","24.9680983333333","6500700","樹林區"
"238022","KEA-2213","2019/07/13 19:39:15","新北市樹林區國凱街32-2號","121.41971","24.9786266666667","6500700","樹林區"
"238021","KEA-2539","2019/07/13 19:39:38","新北市樹林區佳園路三段147號","121.385886666667","24.9493683333333","6500700","樹林區"
"238025","303-VK","2019/07/13 19:39:46","新北市樹林區中山路二段84號","121.414838333333","24.9837733333333","6500700","樹林區"
"238017","283-BY","2019/07/13 19:39:56","新北市樹林區保安街二段195-2號","121.41403","25.003515","6500700","樹林區"
"238014","282-BY","2019/07/13 19:39:44","新北市樹林區千歲街28巷17號","121.426158333333","24.9956033333333","6500700","樹林區"
"238020","268-VK","2019/07/13 19:39:40","新北市板橋區大觀路三段59巷17弄5-1號","121.435045","24.995295","6500700","樹林區"
"238026","172-UY","2019/07/13 19:39:43","新北市樹林區佳園路二段15巷21號","121.39465","24.9629316666667","6500700","樹林區"
"238016","169-UY","2019/07/13 19:39:57","新北市樹林區東和街28號","121.402338333333","24.98161","6500700","樹林區"
"239006","891-R6","2019/07/13 19:39:58","新北市鶯歌區文化路145巷4號","121.356673333333","24.954025","6500800","鶯歌區"
"239002","359-BY","2019/07/13 19:39:40","新北市鶯歌區大湖路45號","121.342698333333","24.9619816666667","6500800","鶯歌區"
"239004","193-VK","2019/07/13 19:39:44","新北市鶯歌區二甲路83-24號","121.341358333333","24.931545","6500800","鶯歌區"
"221008","489-VK","2019/07/13 19:39:49","新北市汐止區康寧街145號","121.62187","25.0667116666667","6501100","汐止區"
"221010","269-BY","2019/07/13 19:39:46","新北市汐止區汐萬路一段312號","121.650551666667","25.075425","6501100","汐止區"
"221027","281-BY","2019/07/13 19:39:55","新北市汐止區忠孝東路9號","121.658263333333","25.0659183333333","6501100","汐止區"
"221033","297-VK","2019/07/13 19:39:57","新北市汐止區南勢街3號","121.627076666667","25.0373933333333","6501100","汐止區"
"221021","299-VK","2019/07/13 19:39:58","新北市汐止區新台五路一段177號","121.655168333333","25.0630316666667","6501100","汐止區"
"221031","353-TW","2019/07/13 19:39:53","新北市汐止區康寧街901號","121.650755","25.0752316666667","6501100","汐止區"
"221025","623-UM","2019/07/13 19:39:49","新北市汐止區福安街20巷1號","121.662613333333","25.06497","6501100","汐止區"
"221038","646-BX","2019/07/13 19:39:47","新北市汐止區忠孝東路263號","121.663101666667","25.0678816666667","6501100","汐止區"
"220079","145-BY","2019/07/13 19:39:44","新北市板橋區光正街23巷46號","121.461443333333","25.0157266666667","6500100","板橋區"
"220080","200-UY","2019/07/13 19:38:28","新北市板橋區大觀路二段7巷109-4號","121.450546666667","25.0028633333333","6500100","板橋區"
"220082","610-BX","2019/07/13 19:39:49","新北市板橋區篤行路一段34號","121.43191","24.9938183333333","6500100","板橋區"
"220101","245-BX","2019/07/13 19:39:48","新北市板橋區縣民大道三段101號","121.476223333333","25.0224566666667","6500100","板橋區"
"220091","267-BY","2019/07/13 19:39:45","新北市板橋區懷德街139巷20弄1號","121.480095","25.03079","6500100","板橋區"
"220056","276-BY","2019/07/13 19:39:55","新北市板橋區國慶路27號","121.458801666667","24.9956066666667","6500100","板橋區"
"220094","283-UM","2019/07/13 19:39:53","新北市板橋區四維路313號","121.463008333333","25.0288366666667","6500100","板橋區"
"220071","283-VK","2019/07/13 19:39:55","新北市板橋區四川路一段325巷3弄6號","121.459606666667","25.00036","6500100","板橋區"
"220053","285-VK","2019/07/13 19:39:37","新北市板橋區中山路二段148巷32號","121.47705","25.0162116666667","6500100","板橋區"
"220083","286-VK","2019/07/13 19:39:55","新北市板橋區龍興街71巷5號","121.443558333333","25.0019","6500100","板橋區"
"220081","287-VK","2019/07/13 19:39:39","新北市板橋區南雅西路一段110號","121.452503333333","25.0058716666667","6500100","板橋區"
"220061","295-UM","2019/07/13 19:39:55","新北市板橋區中山路一段283巷22號","121.47041","25.015215","6500100","板橋區"
"220084","296-UM","2019/07/13 19:39:42","新北市板橋區滿平街84巷100弄10號","121.42617","24.9864533333333","6500100","板橋區"
"220075","303-R5","2019/07/13 19:39:56","新北市板橋區中正路253巷10號","121.455215","25.0181833333333","6500100","板橋區"
"220062","305-R5","2019/07/13 19:39:53","新北市板橋區三民路二段29巷13號","121.481905","25.018145","6500100","板橋區"
"220092","307-R5","2019/07/13 19:39:43","新北市板橋區四維路259巷48號","121.46112","25.0271333333333","6500100","板橋區"
"220098","317-R6","2019/07/13 19:39:46","新北市板橋區民生路三段281巷2弄1號","121.463645","25.02993","6500100","板橋區"
"220088","491-VK","2019/07/13 19:39:43","新北市板橋區文聖街20-3號","121.476048333333","25.0316433333333","6500100","板橋區"
"220035","560-BX","2019/07/13 19:39:50","新北市板橋區中正路399巷8號","121.453731666667","25.0223583333333","6500100","板橋區"
"220103","561-BX","2019/07/13 19:39:43","新北市板橋區文化路一段435巷31弄11號","121.466861666667","25.022915","6500100","板橋區"
"220072","568-UM","2019/07/13 19:39:50","新北市板橋區金門街215巷2弄21號","121.433161666667","24.988795","6500100","板橋區"
"220063","609-BX","2019/07/13 19:39:55","新北市板橋區中山路二段391號","121.480331666667","25.01945","6500100","板橋區"
"220074","630-UY","2019/07/13 19:39:57","新北市板橋區南門街1號","121.457801666667","25.009475","6500100","板橋區"
"220057","686-BX","2019/07/13 19:39:45","新北市板橋區廣權路9號","121.46072","24.9912666666667","6500100","板橋區"
"220077","687-BX","2019/07/13 19:39:43","新北市板橋區僑中二街86號","121.446515","25.0095633333333","6500100","板橋區"
"220042","689-BX","2019/07/13 19:39:44","新北市板橋區長江路二段146-1號","121.466311666667","25.0318383333333","6500100","板橋區"
"220054","741-BX","2019/07/13 19:39:42","新北市板橋區忠孝路265號","121.467105","25.0029783333333","6500100","板橋區"
"220102","KEA-2699","2019/07/13 19:39:56","新北市板橋區松柏街31-4號","121.475228333333","25.030235","6500100","板橋區"
"220055","827-TW","2019/07/13 19:39:53","新北市板橋區國慶路149巷7-3號","121.461201666667","24.996955","6500100","板橋區"
"220067","829-TW","2019/07/13 19:39:43","新北市板橋區漢生東路193巷53號","121.471676666667","25.01167","6500100","板橋區"
"220073","985-R7","2019/07/13 19:39:52","新北市板橋區國光路49巷15號","121.458855","25.0188816666667","6500100","板橋區"
"220097","AAC-210","2019/07/13 19:39:57","新北市板橋區文化路一段185號","121.463058333333","25.01637","6500100","板橋區"
"220064","AAC-253","2019/07/13 19:39:51","新北市板橋區實踐路147號","121.464213333333","25.0045033333333","6500100","板橋區"
"235068","KEA-2873","2019/07/13 19:39:34","新北市中和區中山路二段181巷6號","121.500351666667","25.0023133333333","6500300","中和區"
"235061","KEA-2875","2019/07/13 19:39:34","新北市中和區員山路212號","121.48131","25.0008233333333","6500300","中和區"
