"lineid","car","time","location","longitude","latitude","cityid","cityname"
"234038","336-UY","2019/07/13 20:19:53","新北市永和區成功路一段82號","121.526778333333","25.0030416666667","6500400","永和區"
"234064","337-UY","2019/07/13 20:19:41","新北市永和區得和路111號","121.51848","25.00033","6500400","永和區"
"234086","338-UY","2019/07/13 20:19:46","新北市永和區永和路二段207號","121.515415","25.0138333333333","6500400","永和區"
"234070","552-UM","2019/07/13 20:19:42","新北市永和區福和路237巷1號","121.518478333333","25.0071616666667","6500400","永和區"
"234017","745-BX","2019/07/13 20:19:56","新北市永和區仁愛路30號","121.514576666667","25.0135","6500400","永和區"
"234030","746-BX","2019/07/13 20:19:56","新北市永和區民族街178巷5弄2號","121.517556666667","24.99667","6500400","永和區"
"234054","KEA-2590","2019/07/13 20:19:49","新北市永和區光復街2巷5號","121.516855","25.0166166666667","6500400","永和區"
"234013","KEA-2591","2019/07/13 20:19:48","新北市永和區保生路5巷1號","121.506175","25.0072433333333","6500400","永和區"
"234061","AAD-866","2019/07/13 20:19:48","新北市永和區得和路11號","121.51521","25.0006333333333","6500400","永和區"
"234081","748-BX","2019/07/13 20:19:51","新北市永和區福和路19巷1弄3號","121.524308333333","25.007825","6500400","永和區"
"234042","862-TW","2019/07/13 20:19:42","新北市中和區中安街168號","121.510875","24.999865","6500400","永和區"
"234050","863-TW","2019/07/13 20:19:55","新北市永和區文化路220號","121.509996666667","25.0168416666667","6500400","永和區"
"234011","9373-KE","2019/07/13 20:19:56","新北市永和區保生路55-1號","121.504486666667","25.0109","6500400","永和區"
"249005","172-UM","2019/07/13 20:19:55","新北市八里區下罟子1-5號","121.389113333333","25.1423483333333","6502300","八里區"
"249001","173-UM","2019/07/13 20:19:39","新北市八里區中華路二段538-1號","121.399028333333","25.1450683333333","6502300","八里區"
"249004","303-UY","2019/07/13 20:19:53","新北市八里區中山路一段338號","121.412553333333","25.15902","6502300","八里區"
"249002","305-UY","2019/07/13 20:19:40","新北市八里區龍米路一段470號","121.450305","25.1352366666667","6502300","八里區"
"249003","593-UM","2019/07/13 20:19:55","新北市八里區訊塘路58號","121.39782","25.1457033333333","6502300","八里區"
"248016","026-BX","2019/07/13 20:19:54","新北市五股區凌雲路一段158巷44號","121.447121666667","25.1038466666667","6501500","五股區"
"248012","247-BX","2019/07/13 20:19:55","新北市五股區中興路四段17-4號","121.43948","25.0825066666667","6501500","五股區"
"248010","272-BY","2019/07/13 20:19:46","新北市五股區成泰路一段8巷24號","121.437701666667","25.066345","6501500","五股區"
"248004","677-BX","2019/07/13 20:19:47","新北市五股區成泰路二段102號","121.437605","25.0828816666667","6501500","五股區"
"248002","678-BX","2019/07/13 20:19:50","新北市五股區成泰路三段173號","121.445305","25.091925","6501500","五股區"
"234023","9380-KE","2019/07/13 20:19:39","新北市永和區竹林路124巷49號","121.517848333333","25.01108","6500400","永和區"
"234077","969-R7","2019/07/13 20:19:55","新北市永和區中正路132號","121.514658333333","24.99589","6500400","永和區"
"234074","AAC-211","2019/07/13 20:19:41","新北市永和區豫溪街160巷4號","121.523245","25.0095083333333","6500400","永和區"
"234067","AAC-212","2019/07/13 20:19:58","新北市永和區保平路214巷1弄11號","121.50913","25.00572","6500400","永和區"
"234003","AAC-295","2019/07/13 20:19:41","新北市永和區自強街4號","121.514261666667","25.0079733333333","6500400","永和區"
"243011","267-VK","2019/07/13 20:19:53","新北市新莊區壽山路160巷21號","121.417368333333","25.0318733333333","6501600","泰山區"
"243010","297-R6","2019/07/13 20:19:49","新北市泰山區明志路二段214巷17號","121.426603333333","25.0491166666667","6501600","泰山區"
"243014","KEA-2801","2019/07/13 20:19:56","新北市泰山區泰林路二段262號","121.431628333333","25.06236","6501600","泰山區"
"243016","421-VK","2019/07/13 20:19:49","新北市泰山區明志路二段418號","121.425","25.0439466666667","6501600","泰山區"
"243012","539-UM","2019/07/13 20:19:58","新北市泰山區楓江路142-1號","121.44","25.0652816666667","6501600","泰山區"
"243009","KEA-2215","2019/07/13 20:19:56","新北市泰山區福泰街18號","121.432966666667","25.0601866666667","6501600","泰山區"
"243013","646-TV","2019/07/13 20:19:56","新北市泰山區明志路二段359巷19號","121.425996666667","25.0439083333333","6501600","泰山區"
"243015","680-BX","2019/07/13 20:19:47","新北市泰山區明志路一段260號","121.432148333333","25.0603966666667","6501600","泰山區"
"222002","016-RS","2019/07/13 20:19:48","新北市深坑區萬福路75巷38號","121.598553333333","25.0097766666667","6501800","深坑區"
"222003","436-BY","2019/07/13 20:19:55","新北市深坑區文化街98號","121.617025","25.00192","6501800","深坑區"
"231061","002-UM","2019/07/13 20:19:40","新北市新店區安興路33-1號","121.515833333333","24.9704266666667","6500600","新店區"
"231058","0293-UT","2019/07/13 20:19:40","新北市新店區薏仁坑路自強巷6號","121.496533333333","24.9584133333333","6500600","新店區"
"231044","046-UY","2019/07/13 20:19:45","新北市新店區北新路三段118號","121.541696666667","24.9815916666667","6500600","新店區"
"231060","106-UY","2019/07/13 20:19:55","新北市新店區安康路三段578-1號","121.481083333333","24.9487183333333","6500600","新店區"
"231051","107-UY","2019/07/13 20:19:49","新北市新店區中央六街76號","121.52709","24.9763166666667","6500600","新店區"
"231049","108-UY","2019/07/13 20:19:58","新北市新店區北新路二段1號","121.542703333333","24.9712466666667","6500600","新店區"
"231065","110-UY","2019/07/13 20:19:42","新北市新店區安祥路102巷32號","121.484176666667","24.9639566666667","6500600","新店區"
"231068","187-VK","2019/07/13 20:19:44","新北市新店區寶安街30號","121.541998333333","24.9823683333333","6500600","新店區"
"231050","KEA-2219","2019/07/13 20:19:55","新北市新店區博愛街9巷2號","121.540845","24.9729733333333","6500600","新店區"
"221035","KEA-2785","2019/07/13 20:19:41","新北市汐止區長江街57巷26號","121.656343333333","25.0724816666667","6501100","汐止區"
"231062","256-BX","2019/07/13 20:19:58","新北市新店區安康路二段454號","121.494433333333","24.954375","6500600","新店區"
"231054","260-TV","2019/07/13 20:19:38","新北市新店區檳榔路109號","121.544516666667","24.9615766666667","6500600","新店區"
"231042","268-BY","2019/07/13 20:19:43","新北市新店區寶橋路78巷13號","121.547363333333","24.97494","6500600","新店區"
"231064","278-BY","2019/07/13 20:19:54","新北市新店區安業街33號","121.51771","24.97704","6500600","新店區"
"231045","355-BY","2019/07/13 20:19:46","新北市新店區北宜路一段53號","121.538391666667","24.9568033333333","6500600","新店區"
"231055","4716-K9","2019/07/13 20:19:50","新北市新店區北新路一段303號","121.541388333333","24.9674283333333","6500600","新店區"
"231056","4715-K9","2019/07/13 20:19:58","新北市新店區中正路334巷9號","121.53692","24.9754683333333","6500600","新店區"
"231067","4772-VM","2019/07/13 20:19:10","新北市新店區安康路一段351-1號","121.519773333333","24.963895","6500600","新店區"
"231052","513-UM","2019/07/13 20:19:55","新北市新店區新烏路二段300號","121.548755","24.9128433333333","6500600","新店區"
"231040","617-UM","2019/07/13 20:19:50","新北市新店區中正路118號","121.542325","24.9711083333333","6500600","新店區"
"231041","619-UM","2019/07/13 20:19:54","新北市新店區民權路68號","121.538348333333","24.9830716666667","6500600","新店區"
"231063","641-BX","2019/07/13 20:19:51","新北市新店區車子路10號","121.504616666667","24.9552683333333","6500600","新店區"
"231048","718-UY","2019/07/13 20:20:00","新北市新店區永華街34號","121.544605","24.975505","6500600","新店區"
"231057","720-UM","2019/07/13 20:19:45","新北市新店區花園五路二段27號","121.554636666667","24.9345666666667","6500600","新店區"
"231059","897-TW","2019/07/13 20:19:58","新北市新店區安德街60巷35號","121.511206666667","24.963515","6500600","新店區"
"231043","899-TW","2019/07/13 20:19:42","新北市新店區民族路100號","121.539196666667","24.9782366666667","6500600","新店區"
"231066","AKT-0513","2019/07/13 20:19:49","新北市新店區柴埕路37號","121.51366","24.9656516666667","6500600","新店區"
"241011","013-R5","2019/07/13 20:19:51","新北市三重區龍門路217號","121.500268333333","25.0734633333333","6500200","三重區"
"241028","022-UY","2019/07/13 20:19:54","新北市三重區光興街73號","121.497831666667","25.0600883333333","6500200","三重區"
"241008","059-VK","2019/07/13 20:19:54","新北市三重區永福街152號","121.480318333333","25.0745466666667","6500200","三重區"
"241029","060-VK","2019/07/13 20:19:42","新北市三重區光明路114號","121.492708333333","25.05612","6500200","三重區"
"241031","061-VK","2019/07/13 20:19:40","新北市三重區三寧街15號","121.48941","25.05979","6500200","三重區"
"241015","062-VK","2019/07/13 20:19:46","新北市三重區重新路一段136號","121.500158333333","25.0627716666667","6500200","三重區"
"241017","063-VK","2019/07/13 20:19:47","新北市三重區自強路一段157號","121.493428333333","25.0671583333333","6500200","三重區"
"241024","065-VK","2019/07/13 20:19:19","新北市三重區中正北路242號","121.481895","25.0682133333333","6500200","三重區"
"241023","066-VK","2019/07/13 20:19:41","新北市三重區忠孝路三段84巷1號","121.480361666667","25.06481","6500200","三重區"
"241002","090-VK","2019/07/13 20:19:45","新北市三重區仁義街101巷40號","121.499176666667","25.0806733333333","6500200","三重區"
"241003","091-VK","2019/07/13 20:19:55","新北市三重區富華街62號","121.490411666667","25.0831083333333","6500200","三重區"
"241030","742-BX","2019/07/13 20:19:43","新北市三重區環河南路254巷53號","121.488036666667","25.0522366666667","6500200","三重區"
"241016","266-UM","2019/07/13 20:19:53","新北市三重區大同北路56號","121.494296666667","25.0636683333333","6500200","三重區"
"241009","267-UM","2019/07/13 20:19:45","新北市三重區三和路四段169號","121.483095","25.0788466666667","6500200","三重區"
"241018","268-UM","2019/07/13 20:19:53","新北市三重區自強路一段155-1號","121.493558333333","25.0671816666667","6500200","三重區"
"241032","269-UM","2019/07/13 20:19:56","新北市三重區捷運路19巷8弄8號","121.48462","25.0572816666667","6500200","三重區"
"241013","270-UM","2019/07/13 20:19:45","新北市三重區三和路三段167巷13號","121.49244","25.0741316666667","6500200","三重區"
"241025","271-UM","2019/07/13 20:19:47","新北市三重區三民街272巷14號","121.478773333333","25.067695","6500200","三重區"
"241007","398-BY","2019/07/13 20:19:50","新北市三重區溪尾街108巷54號","121.487366666667","25.0780016666667","6500200","三重區"
"241035","462-BY","2019/07/13 20:19:37","新北市三重區重新路一段137號","121.499846666667","25.063125","6500200","三重區"
"241004","475-VK","2019/07/13 20:19:41","新北市三重區慈愛街193號","121.490551666667","25.0803833333333","6500200","三重區"
"241020","478-VK","2019/07/13 20:19:47","新北市三重區三和路三段170巷17號","121.491973333333","25.07294","6500200","三重區"
"241026","480-VK","2019/07/13 20:19:42","新北市三重區重新路一段50號","121.502695","25.063795","6500200","三重區"
"241014","543-UM","2019/07/13 20:19:53","新北市三重區長榮路103號","121.503133333333","25.0691983333333","6500200","三重區"
"241001","547-UM","2019/07/13 20:19:42","新北市三重區溪尾街30-1號","121.490943333333","25.076705","6500200","三重區"
"241019","KEA-2593","2019/07/13 20:19:45","新北市三重區大智街218號","121.490191666667","25.0715333333333","6500200","三重區"
"241006","AAD-863","2019/07/13 20:19:48","新北市三重區車路頭街139巷12號","121.484265","25.0762216666667","6500200","三重區"
"241022","KED-0820","2019/07/13 20:19:54","新北市三重區新北大道一段68號","121.487068333333","25.0613966666667","6500200","三重區"
"241005","887-TS","2019/07/13 20:19:50","新北市三重區分子尾街81號","121.488988333333","25.0824566666667","6500200","三重區"
"241012","941-UM","2019/07/13 20:19:49","新北市三重區河邊北街262號","121.501711666667","25.0763783333333","6500200","三重區"
"241033","AAC-255","2019/07/13 20:19:45","新北市三重區五谷王北街50巷44號","121.475061666667","25.0513783333333","6500200","三重區"
"235066","003-UY","2019/07/13 20:19:40","新北市中和區南工路87號","121.507146666667","25.0031183333333","6500300","中和區"
"235039","097-UM","2019/07/13 20:19:50","新北市中和區大勇街29巷12-1號","121.51589","24.9945733333333","6500300","中和區"
"235065","098-UM","2019/07/13 20:19:48","新北市中和區永和路128巷9號","121.49766","25.006925","6500300","中和區"
"235055","183-VK","2019/07/13 20:19:42","新北市五股區凌雲路三段24巷22號","121.432888333333","25.1078183333333","6500300","中和區"
"247014","KEA-2869","2019/07/13 20:19:48","新北市蘆洲區中山二路137巷11號","121.472135","25.081215","6501400","蘆洲區"
"247008","KED-0682","2019/07/13 20:19:51","新北市蘆洲區集賢路236-1號","121.482113333333","25.0859","6501400","蘆洲區"
"235050","4979-A6","2019/07/13 20:19:49","新北市中和區景平路464巷2弄1-4號","121.505868333333","24.9940183333333","6500300","中和區"
"235069","4980-A6","2019/07/13 20:19:46","新北市中和區圓通路198巷2弄2號","121.4963","24.9946866666667","6500300","中和區"
"235037","AAC-213","2019/07/13 20:19:53","新北市三重區光復路二段143巷16號","121.474013333333","25.0605316666667","6500300","中和區"
"235059","AAC-215","2019/07/13 20:19:49","新北市中和區圓通路447號","121.485011666667","24.9866316666667","6500300","中和區"
"247004","893-R6","2019/07/13 20:19:40","新北市蘆洲區長安街295號","121.458026666667","25.084745","6501400","蘆洲區"
"247018","546-UM","2019/07/13 20:19:49","新北市蘆洲區民族路402號","121.474826666667","25.09143","6501400","蘆洲區"
"247024","337-TH","2019/07/13 20:19:55","新北市蘆洲區光榮路120巷8弄41號","121.464546666667","25.0878216666667","6501400","蘆洲區"
"247002","336-TH","2019/07/13 20:19:48","新北市蘆洲區長安街331巷36號","121.455853333333","25.08671","6501400","蘆洲區"
"247022","057-VK","2019/07/13 20:19:53","新北市蘆洲區三民路249號","121.468675","25.08921","6501400","蘆洲區"
"247012","056-VK","2019/07/13 20:19:56","新北市蘆洲區中興街32號","121.481008333333","25.0869666666667","6501400","蘆洲區"
"247006","002-UY","2019/07/13 20:19:48","新北市蘆洲區九芎街136號","121.464995","25.079045","6501400","蘆洲區"
"222001","KEA-2212","2019/07/13 20:19:43","新北市深坑區北深路三段235號","121.599711666667","25.0041316666667","6501800","深坑區"
"251005","010-UM","2019/07/13 20:19:49","新北市淡水區淡金路二段600號","121.446515","25.1924566666667","6501000","淡水區"
"251001","011-UM","2019/07/13 20:19:56","新北市淡水區淡金路二段15號","121.446443333333","25.1891766666667","6501000","淡水區"
"251002","012-UM","2019/07/13 20:19:40","新北市淡水區中正路232號","121.439025","25.1708133333333","6501000","淡水區"
"251015","KEA-2871","2019/07/13 20:19:48","新北市淡水區商工路143號","121.447415","25.18825","6501000","淡水區"
"251016","179-VK","2019/07/13 20:19:38","新北市淡水區番子田16-12號","121.45403","25.2309866666667","6501000","淡水區"
"251008","181-VK","2019/07/13 20:19:49","新北市淡水區淡海路180巷13號","121.42115","25.18471","6501000","淡水區"
"251013","182-VK","2019/07/13 20:19:52","新北市淡水區相公山2號","121.474925","25.2065466666667","6501000","淡水區"
"251010","413-VK","2019/07/13 20:19:55","新北市淡水區新民街一段134號","121.427491666667","25.188915","6501000","淡水區"
"251012","441-VK","2019/07/13 20:19:39","新北市淡水區下圭柔山431-1號","121.449836666667","25.2102116666667","6501000","淡水區"
"251006","561-UM","2019/07/13 20:19:49","新北市淡水區北新路141巷80弄22號","121.448038333333","25.180205","6501000","淡水區"
"251009","575-R6","2019/07/13 20:19:48","新北市淡水區清水街56巷1號","121.444188333333","25.1702766666667","6501000","淡水區"
"251014","577-R6","2019/07/13 20:19:39","新北市淡水區石頭厝2-1號","121.458103333333","25.235685","6501000","淡水區"
"251003","766-UM","2019/07/13 20:19:57","新北市淡水區中山北路一段188-5號","121.44451","25.179135","6501000","淡水區"
"207003","550-UM","2019/07/13 20:19:37","新北市萬里區大鵬里萬里加投19-12號","121.650315","25.20933","6502800","萬里區"
"207004","225-TW","2019/07/13 20:19:53","新北市萬里區北基里仁四街2號","121.682061666667","25.1753416666667","6502800","萬里區"
"252002","178-VK","2019/07/13 20:19:46","新北市三芝區中正路一段59號","121.503446666667","25.2579016666667","6502100","三芝區"
"237006","5529-G3","2019/07/13 20:19:39","新北市三峽區中正路二段60號","121.366693333333","24.9185766666667","6500900","三峽區"
"236079","166-UM","2019/07/13 20:19:54","新北市土城區德安街4巷2號","121.422218333333","24.9648716666667","6501300","土城區"
"236030","253-BX","2019/07/13 20:19:49","新北市土城區學成路128巷11號","121.449525","24.9901033333333","6501300","土城區"
"236026","269-VK","2019/07/13 20:19:57","新北市土城區裕生路67巷2弄1號","121.447478333333","24.9845716666667","6501300","土城區"
"236014","270-VK","2019/07/13 20:19:49","新北市土城區四川路3號","121.45568","24.9960183333333","6501300","土城區"
"247010","KED-0683","2019/07/13 20:19:42","新北市蘆洲區信義路222巷32弄16號","121.480486666667","25.0846333333333","6501400","蘆洲區"
"236070","KEA-2877","2019/07/13 20:19:53","新北市土城區福安街102巷5弄2號","121.41739","24.964645","6501300","土城區"
"252001","KED-0821","2019/07/13 20:19:46","新北市三芝區中山路一段31號","121.500605","25.25808","6502100","三芝區"
"236059","912-UM","2019/07/13 20:19:38","新北市土城區大安路10號","121.432748333333","24.9658983333333","6501300","土城區"
"242039","AAC-296","2019/07/13 20:19:55","新北市新莊區成功街62號","121.424428333333","25.0194966666667","6500500","新莊區"
"242061","986-R7","2019/07/13 20:19:47","新北市新莊區新樹路226號","121.433578333333","25.019805","6500500","新莊區"
"242002","751-BX","2019/07/13 20:19:46","新北市三重區重新路五段629號","121.467798333333","25.043935","6500500","新莊區"
"242029","615-BX","2019/07/13 20:19:42","新北市新莊區中原路110號","121.450541666667","25.0544066666667","6500500","新莊區"
"242027","613-BX","2019/07/13 20:19:57","新北市新莊區幸福路672號","121.450911666667","25.0492516666667","6500500","新莊區"
"242058","612-BX","2019/07/13 20:19:43","新北市新莊區八德街169號","121.423293333333","25.0191183333333","6500500","新莊區"
"242046","566-BX","2019/07/13 20:19:42","新北市新莊區裕民街132號","121.417963333333","25.02215","6500500","新莊區"
"242051","497-BY","2019/07/13 20:19:43","新北市新莊區民安西路212巷2弄1號","121.425476666667","25.014905","6500500","新莊區"
"242056","441-UM","2019/07/13 20:19:45","新北市新莊區豐年街20巷9號","121.44595","25.0324216666667","6500500","新莊區"
"242004","440-UM","2019/07/13 20:19:50","新北市新莊區頭前路2巷6號","121.468505","25.052855","6500500","新莊區"
"242042","415-TV","2019/07/13 20:19:58","新北市新莊區壽山路67號","121.409985","25.0327616666667","6500500","新莊區"
"242048","400-BY","2019/07/13 20:19:51","新北市新莊區後港一路3號","121.424098333333","25.026435","6500500","新莊區"
"242025","362-BY","2019/07/13 20:19:46","新北市新莊區五工三路70巷11號","121.459566666667","25.0651483333333","6500500","新莊區"
"242023","353-BY","2019/07/13 20:19:48","新北市新莊區化成路842號","121.464863333333","25.0604016666667","6500500","新莊區"
"242013","132-UY","2019/07/13 20:19:38","新北市新莊區幸福路710巷5弄18號","121.449201666667","25.04987","6500500","新莊區"
"242036","135-UY","2019/07/13 20:19:37","新北市新莊區後港一路56巷24弄7號","121.426391666667","25.0252","6500500","新莊區"
"242053","172-VK","2019/07/13 20:19:46","新北市新莊區民安西路261巷18號","121.426748333333","25.0130433333333","6500500","新莊區"
"242015","173-VK","2019/07/13 20:19:53","新北市新莊區中和街31巷22號","121.447168333333","25.0439033333333","6500500","新莊區"
"242021","175-VK","2019/07/13 20:19:54","新北市新莊區和興街49號","121.446495","25.0406533333333","6500500","新莊區"
"242019","KED-0687","2019/07/13 20:19:51","新北市新莊區博愛路1巷2號","121.45649","25.0427683333333","6500500","新莊區"
"242011","346-TH","2019/07/13 20:19:51","新北市新莊區中信街19號","121.451086666667","25.0507266666667","6500500","新莊區"
"242034","348-TH","2019/07/13 20:19:59","新北市新莊區建中街79號","121.4473","25.0366483333333","6500500","新莊區"
"242007","349-TH","2019/07/13 20:19:49","新北市新莊區福壽街124巷34弄11號","121.459378333333","25.050785","6500500","新莊區"
"242031","350-TH","2019/07/13 20:19:41","新北市新莊區中正路418號","121.441043333333","25.03387","6500500","新莊區"
"242017","351-TH","2019/07/13 20:19:42","新北市新莊區中港一街94號","121.449198333333","25.045385","6500500","新莊區"
"221008","489-VK","2019/07/13 20:19:49","新北市汐止區忠三街9巷30號","121.624571666667","25.0802683333333","6501100","汐止區"
"221036","130-UY","2019/07/13 20:19:40","新北市汐止區福安街59巷7號","121.664315","25.0638183333333","6501100","汐止區"
"221015","131-UY","2019/07/13 20:19:42","新北市汐止區建成路142巷19弄13號","121.661961666667","25.0739316666667","6501100","汐止區"
"221010","269-BY","2019/07/13 20:19:46","新北市汐止區八連路一段206號","121.64176","25.080845","6501100","汐止區"
"221012","278-VK","2019/07/13 20:19:48","新北市汐止區汐平路一段51號","121.682403333333","25.0705883333333","6501100","汐止區"
"221023","279-VK","2019/07/13 20:19:57","新北市汐止區明峰街298巷7弄2號","121.62491","25.0689083333333","6501100","汐止區"
"221032","280-BY","2019/07/13 20:19:54","新北市汐止區弘道街53巷1號","121.618566666667","25.0484216666667","6501100","汐止區"
"221033","297-VK","2019/07/13 20:19:38","新北市汐止區東勢街215巷2號","121.634436666667","25.0430783333333","6501100","汐止區"
"221029","298-VK","2019/07/13 20:19:53","新北市汐止區樟樹一路99巷7弄3號","121.64116","25.0635366666667","6501100","汐止區"
"221021","299-VK","2019/07/13 20:19:58","新北市汐止區水源路一段284號","121.654198333333","25.05827","6501100","汐止區"
"221031","353-TW","2019/07/13 20:19:53","新北市汐止區福德二路106號","121.63215","25.0660616666667","6501100","汐止區"
"221025","623-UM","2019/07/13 20:19:49","新北市汐止區水源路二段30號","121.654796666667","25.05734","6501100","汐止區"
"221038","646-BX","2019/07/13 20:19:46","新北市汐止區茄苳路44號","121.66594","25.0706333333333","6501100","汐止區"
"221002","707-TV","2019/07/13 20:19:42","新北市汐止區福德一路86巷25號","121.637558333333","25.068845","6501100","汐止區"
"221018","753-BX","2019/07/13 20:19:41","新北市汐止區茄苳路277號","121.672315","25.0680166666667","6501100","汐止區"
"220079","145-BY","2019/07/13 20:19:44","新北市板橋區建國街93號","121.459713333333","25.017395","6500100","板橋區"
"220080","200-UY","2019/07/13 20:19:58","新北市板橋區大觀路二段力行1巷3弄4號","121.44591","24.9992766666667","6500100","板橋區"
"220083","286-VK","2019/07/13 20:19:55","新北市板橋區僑中二街92巷9號","121.445796666667","25.0089716666667","6500100","板橋區"
"220081","287-VK","2019/07/13 20:19:49","新北市板橋區僑中一街80巷7弄17號","121.447013333333","25.012795","6500100","板橋區"
"242044","281-VK","2019/07/13 20:19:40","新北市新莊區中正路新建巷28弄71號","121.413678333333","25.0210466666667","6500500","新莊區"
"242009","280-VK","2019/07/13 20:19:48","新北市新莊區昌隆街31號","121.454961666667","25.05102","6500500","新莊區"
"220035","560-BX","2019/07/13 20:19:50","新北市板橋區新生街46號","121.456725","25.021055","6500100","板橋區"
"220074","630-UY","2019/07/13 20:19:57","新北市板橋區南雅南路一段7巷22弄8號","121.455756666667","25.0046616666667","6500100","板橋區"
"220077","687-BX","2019/07/13 20:19:43","新北市板橋區大觀路一段29巷131弄125號","121.45164","25.0055633333333","6500100","板橋區"
"220054","741-BX","2019/07/13 20:19:02","新北市板橋區成都街16號","121.460583333333","25.004815","6500100","板橋區"
"220055","827-TW","2019/07/13 20:19:53","新北市板橋區仁愛路23號","121.458933333333","24.9994883333333","6500100","板橋區"
"235068","KEA-2873","2019/07/13 20:19:34","新北市中和區福美路269號","121.49817","25.0050966666667","6500300","中和區"
