"lineid","car","time","location","longitude","latitude","cityid","cityname"
"234042","862-TW","2019/07/13 20:49:22","台北市中正區汀州路三段230巷18弄5-3號","121.53232","25.008635","6500400","永和區"
"249004","303-UY","2019/07/13 20:49:12","新北市八里區中山路一段65巷13號","121.41833","25.1593566666667","6502300","八里區"
"234023","9380-KE","2019/07/13 20:49:19","新北市永和區竹林路25巷21號","121.518225","25.0150116666667","6500400","永和區"
"234074","AAC-211","2019/07/13 20:49:21","新北市永和區環河東路二段10號","121.522158333333","25.0133566666667","6500400","永和區"
"222002","016-RS","2019/07/13 20:49:21","新北市深坑區北深路三段93巷54號","121.603578333333","25.00125","6501800","深坑區"
"222003","436-BY","2019/07/13 20:49:15","新北市深坑區阿柔洋40號","121.610305","24.9984883333333","6501800","深坑區"
"231061","002-UM","2019/07/13 20:49:20","新北市新店區新和街93巷2號","121.521058333333","24.9865","6500600","新店區"
"231058","0293-UT","2019/07/13 20:49:20","新北市新店區平等街9號","121.536953333333","24.97412","6500600","新店區"
"231044","046-UY","2019/07/13 20:49:25","新北市新店區建國路122號","121.539168333333","24.9786716666667","6500600","新店區"
"231060","106-UY","2019/07/13 20:49:15","新北市新店區安康路三段740號","121.473791666667","24.9420183333333","6500600","新店區"
"231051","107-UY","2019/07/13 20:49:10","新北市新店區民生路156巷117號","121.526756666667","24.9823666666667","6500600","新店區"
"231049","108-UY","2019/07/13 20:49:18","新北市新店區永業路81巷1弄11號","121.530181666667","24.950005","6500600","新店區"
"231065","110-UY","2019/07/13 20:49:22","新北市新店區安祥路104巷6弄34號","121.482953333333","24.9629266666667","6500600","新店區"
"231068","187-VK","2019/07/13 20:49:24","新北市新店區中興路三段228巷28號","121.544786666667","24.983495","6500600","新店區"
"231050","KEA-2219","2019/07/13 20:49:15","新北市新店區三民路20巷34號","121.538148333333","24.9713666666667","6500600","新店區"
"221035","KEA-2785","2019/07/13 20:49:21","新北市汐止區長江街101-5號","121.658693333333","25.073195","6501100","汐止區"
"231062","256-BX","2019/07/13 20:49:17","新北市新店區和成街18巷16號","121.487566666667","24.9463083333333","6500600","新店區"
"231054","260-TV","2019/07/13 20:49:18","新北市新店區五峰路26號","121.543705","24.96897","6500600","新店區"
"231042","268-BY","2019/07/13 20:49:23","新北市新店區寶高路102巷20號","121.553133333333","24.97413","6500600","新店區"
"231064","278-BY","2019/07/13 20:49:14","新北市新店區安民街365巷8號","121.516108333333","24.975755","6500600","新店區"
"231067","4772-VM","2019/07/13 20:49:10","新北市新店區安德街148巷11弄2號","121.507801666667","24.960125","6500600","新店區"
"231052","513-UM","2019/07/13 20:49:15","新北市新店區新烏路二段198巷2弄6號","121.548008333333","24.917585","6500600","新店區"
"231040","617-UM","2019/07/13 20:49:10","新北市新店區中正路266號","121.539076666667","24.973515","6500600","新店區"
"231041","619-UM","2019/07/13 20:49:10","新北市新店區中正路727號","121.533486666667","24.9912966666667","6500600","新店區"
"231063","641-BX","2019/07/13 20:49:11","新北市新店區如意街7-2號","121.495218333333","24.94859","6500600","新店區"
"231048","718-UY","2019/07/13 20:49:19","新北市新店區寶元路一段107號","121.545658333333","24.9828433333333","6500600","新店區"
"231057","720-UM","2019/07/13 20:49:25","新北市新店區新烏路一段87巷9號","121.54638","24.9421","6500600","新店區"
"231059","897-TW","2019/07/13 20:49:17","新北市新店區僑愛三路39號","121.498848333333","24.9445216666667","6500600","新店區"
"231043","899-TW","2019/07/13 20:49:22","新北市新店區建國路95號","121.540465","24.9768283333333","6500600","新店區"
"231066","AKT-0513","2019/07/13 20:49:09","新北市新店區安民街341-1號","121.516818333333","24.9748983333333","6500600","新店區"
"241011","013-R5","2019/07/13 20:49:11","新北市三重區龍濱路205巷11號","121.502686666667","25.0718683333333","6500200","三重區"
"241028","022-UY","2019/07/13 20:49:13","新北市三重區中正南路50號","121.493925","25.0598933333333","6500200","三重區"
"241008","059-VK","2019/07/13 20:49:14","新北市三重區永福街72巷11號","121.47945","25.0768","6500200","三重區"
"241029","060-VK","2019/07/13 20:49:22","新北市三重區重安街14號","121.490171666667","25.0581316666667","6500200","三重區"
"241031","061-VK","2019/07/13 20:49:20","新北市三重區重陽路一段113巷3號","121.487546666667","25.0598","6500200","三重區"
"241015","062-VK","2019/07/13 20:49:07","新北市三重區自強路一段11號","121.498721666667","25.0682883333333","6500200","三重區"
"241017","063-VK","2019/07/13 20:49:26","新北市三重區民生街40號","121.491718333333","25.066955","6500200","三重區"
"241024","065-VK","2019/07/13 20:49:19","新北市三重區國道路一段58巷15號","121.481378333333","25.072045","6500200","三重區"
"241023","066-VK","2019/07/13 20:49:21","新北市三重區忠孝路三段84巷1號","121.480325","25.0646233333333","6500200","三重區"
"241002","090-VK","2019/07/13 20:49:25","新北市三重區仁義街157巷70號","121.498473333333","25.0818583333333","6500200","三重區"
"241003","091-VK","2019/07/13 20:49:15","新北市三重區五華街141巷58號","121.493558333333","25.0867383333333","6500200","三重區"
"241030","742-BX","2019/07/13 20:49:23","新北市三重區昌隆街22號","121.492185","25.05241","6500200","三重區"
"241016","266-UM","2019/07/13 20:49:13","新北市三重區自強路一段158號","121.495971666667","25.06624","6500200","三重區"
"241009","267-UM","2019/07/13 20:49:25","新北市三重區三和路四段197號","121.482136666667","25.07928","6500200","三重區"
"241018","268-UM","2019/07/13 20:49:13","新北市三重區正義北路271號","121.495418333333","25.0700866666667","6500200","三重區"
"241032","269-UM","2019/07/13 20:49:17","新北市三重區重陽路一段120巷35號","121.48514","25.060215","6500200","三重區"
"241013","270-UM","2019/07/13 20:49:25","新北市三重區仁愛街112巷8號","121.494921666667","25.0741666666667","6500200","三重區"
"241025","271-UM","2019/07/13 20:49:27","新北市三重區貴陽街21號","121.484265","25.0618883333333","6500200","三重區"
"241007","398-BY","2019/07/13 20:49:20","新北市三重區三和路四段109號","121.486296666667","25.07701","6500200","三重區"
"241035","462-BY","2019/07/13 20:49:17","新北市三重區自強路一段60號","121.497343333333","25.0667583333333","6500200","三重區"
"241004","475-VK","2019/07/13 20:49:21","新北市三重區分子尾街21號","121.489485","25.08103","6500200","三重區"
"241020","478-VK","2019/07/13 20:49:27","新北市三重區忠孝路一段101號","121.489356666667","25.0721783333333","6500200","三重區"
"241026","480-VK","2019/07/13 20:49:21","新北市三重區文化南路7號","121.499995","25.06231","6500200","三重區"
"241014","543-UM","2019/07/13 20:49:13","新北市三重區安和路99號","121.500825","25.069725","6500200","三重區"
"241001","547-UM","2019/07/13 20:49:22","新北市三重區自強路三段97號","121.487675","25.0752233333333","6500200","三重區"
"241019","KEA-2593","2019/07/13 20:49:25","新北市三重區自強路二段74巷19號","121.487968333333","25.069925","6500200","三重區"
"241006","AAD-863","2019/07/13 20:49:28","新北市三重區車路頭街139巷12號","121.484263333333","25.07623","6500200","三重區"
"241022","KED-0820","2019/07/13 20:49:14","新北市三重區中正北路20巷12號","121.488011666667","25.062435","6500200","三重區"
"241005","887-TS","2019/07/13 20:49:10","新北市三重區五華街141巷58號","121.49337","25.086485","6500200","三重區"
"241012","941-UM","2019/07/13 20:49:09","新北市三重區仁信街29號","121.501248333333","25.0756166666667","6500200","三重區"
"241033","AAC-255","2019/07/13 20:49:25","新北市三重區光復路二段1號","121.472235","25.0533633333333","6500200","三重區"
"235055","183-VK","2019/07/13 20:49:22","新北市五股區中直路15-2號","121.423113333333","25.11106","6500300","中和區"
"247014","KEA-2869","2019/07/13 20:49:28","新北市蘆洲區復興路56號","121.472998333333","25.0855783333333","6501400","蘆洲區"
"247008","KED-0682","2019/07/13 20:49:11","新北市蘆洲區中山一路6號","121.480766666667","25.080405","6501400","蘆洲區"
"235069","4980-A6","2019/07/13 20:49:26","新北市中和區民樂路65號","121.483616666667","25.00135","6500300","中和區"
"247004","893-R6","2019/07/13 20:49:20","新北市蘆洲區長安街100號","121.461665","25.0808966666667","6501400","蘆洲區"
"247018","546-UM","2019/07/13 20:49:09","新北市蘆洲區民權路66號","121.475053333333","25.0872783333333","6501400","蘆洲區"
"247024","337-TH","2019/07/13 20:49:14","新北市蘆洲區長樂路140號","121.462106666667","25.0901533333333","6501400","蘆洲區"
"247002","336-TH","2019/07/13 20:49:08","新北市蘆洲區永康街30號","121.458658333333","25.085515","6501400","蘆洲區"
"247022","057-VK","2019/07/13 20:49:13","新北市蘆洲區水湳街54號","121.47105","25.089975","6501400","蘆洲區"
"247012","056-VK","2019/07/13 20:49:16","新北市蘆洲區中興街130巷11號","121.483093333333","25.08946","6501400","蘆洲區"
"247016","053-VK","2019/07/13 20:49:20","新北市蘆洲區中正路67號","121.470273333333","25.08267","6501400","蘆洲區"
"247020","007-UY","2019/07/13 20:49:20","新北市蘆洲區仁愛街66號","121.47155","25.0938516666667","6501400","蘆洲區"
"247006","002-UY","2019/07/13 20:49:28","新北市蘆洲區永安南路二段16巷8號","121.467751666667","25.0772383333333","6501400","蘆洲區"
"222001","KEA-2212","2019/07/13 20:49:22","新北市深坑區北深路三段129號","121.604053333333","25.002575","6501800","深坑區"
"251005","010-UM","2019/07/13 20:49:09","新北市淡水區學府路88號","121.448986666667","25.1707016666667","6501000","淡水區"
"251001","011-UM","2019/07/13 20:49:16","新北市淡水區淡金路65號","121.456131666667","25.161555","6501000","淡水區"
"251002","012-UM","2019/07/13 20:49:19","新北市淡水區鼻頭街18-5號","121.4468","25.1667216666667","6501000","淡水區"
"251015","KEA-2871","2019/07/13 20:49:28","新北市淡水區淡金路三段446號","121.450885","25.214435","6501000","淡水區"
"251016","179-VK","2019/07/13 20:49:18","新北市淡水區興仁路146號","121.451733333333","25.21977","6501000","淡水區"
"251013","182-VK","2019/07/13 20:49:12","新北市淡水區行忠路161號","121.45686","25.2003333333333","6501000","淡水區"
"251010","413-VK","2019/07/13 20:49:15","新北市淡水區沙崙路141-1號","121.42325","25.1830366666667","6501000","淡水區"
"251012","441-VK","2019/07/13 20:49:19","新北市淡水區淡金路四段514號","121.452061666667","25.2257016666667","6501000","淡水區"
"251007","442-VK","2019/07/13 20:49:25","新北市淡水區鄧公路29巷26號","121.452733333333","25.1702416666667","6501000","淡水區"
"251014","577-R6","2019/07/13 20:48:59","新北市淡水區公埔子32-8號","121.461723333333","25.2323116666667","6501000","淡水區"
"251011","650-BX","2019/07/13 20:49:25","新北市淡水區新民街一段13-1號","121.433001666667","25.1845833333333","6501000","淡水區"
"251003","766-UM","2019/07/13 20:49:17","新北市淡水區中山北路一段247巷94號","121.44221","25.1794066666667","6501000","淡水區"
"247010","KED-0683","2019/07/13 20:49:22","新北市蘆洲區鷺江街76號","121.476946666667","25.0838083333333","6501400","蘆洲區"
"242039","AAC-296","2019/07/13 20:49:15","新北市新莊區瓊林路59-38號","121.441235","25.0235616666667","6500500","新莊區"
"242002","751-BX","2019/07/13 20:49:13","新北市新莊區中港路五守新村10號","121.454701666667","25.0388","6500500","新莊區"
"242058","612-BX","2019/07/13 20:49:23","新北市新莊區四維路129-1號","121.422935","25.0226533333333","6500500","新莊區"
"242046","566-BX","2019/07/13 20:49:22","新北市新莊區中正路705號","121.425475","25.0297783333333","6500500","新莊區"
"242051","497-BY","2019/07/13 20:49:23","新北市新莊區民安西路47號","121.427448333333","25.0206783333333","6500500","新莊區"
"242056","441-UM","2019/07/13 20:49:25","新北市新莊區瓊泰路98號","121.443148333333","25.0294683333333","6500500","新莊區"
"242004","440-UM","2019/07/13 20:49:10","新北市三重區新北大道二段69號","121.468786666667","25.0612583333333","6500500","新莊區"
"242042","415-TV","2019/07/13 20:49:18","新北市新莊區天祥街35號","121.416961666667","25.0284833333333","6500500","新莊區"
"242048","400-BY","2019/07/13 20:49:11","新北市新莊區富國路156號","121.42321","25.0247183333333","6500500","新莊區"
"242013","132-UY","2019/07/13 20:49:17","新北市新莊區中和街175巷13號","121.44705","25.050705","6500500","新莊區"
"242036","135-UY","2019/07/13 20:49:25","新北市新莊區中正路531號","121.439306666667","25.0333666666667","6500500","新莊區"
"242021","175-VK","2019/07/13 20:49:14","新北市泰山區磚雅厝3號","121.442276666667","25.041915","6500500","新莊區"
"242019","KED-0687","2019/07/13 20:49:22","新北市新莊區中港路五守新村1巷5號","121.455316666667","25.03817","6500500","新莊區"
"242011","346-TH","2019/07/13 20:49:23","新北市新莊區新北大道四段217號","121.443728333333","25.05714","6500500","新莊區"
"242034","348-TH","2019/07/13 20:49:18","新北市新莊區仁愛街56號","121.444578333333","25.0370883333333","6500500","新莊區"
"242007","349-TH","2019/07/13 20:49:29","新北市新莊區思源路161號","121.459901666667","25.0446833333333","6500500","新莊區"
"242031","350-TH","2019/07/13 20:49:21","新北市新莊區中正路508巷5弄2號","121.434985","25.033885","6500500","新莊區"
"221036","130-UY","2019/07/13 20:49:21","新北市汐止區新昌路85號","121.663961666667","25.0692316666667","6501100","汐止區"
"221015","131-UY","2019/07/13 20:49:22","新北市汐止區大同路二段609號","121.66411","25.070765","6501100","汐止區"
"221012","278-VK","2019/07/13 20:49:07","新北市汐止區保新街15號","121.684043333333","25.0732266666667","6501100","汐止區"
"221023","279-VK","2019/07/13 20:49:17","新北市汐止區民族二街5巷1號","121.635123333333","25.071795","6501100","汐止區"
"221033","297-VK","2019/07/13 20:49:18","新北市汐止區合順街18巷8弄5號","121.620338333333","25.0419116666667","6501100","汐止區"
"221021","299-VK","2019/07/13 20:49:18","新北市汐止區莊敬街115號","121.655298333333","25.061025","6501100","汐止區"
"220083","286-VK","2019/07/13 20:49:15","新北市板橋區僑中二街116巷16號","121.444983333333","25.006535","6500100","板橋區"
"242044","281-VK","2019/07/13 20:49:20","新北市新莊區龍安路108號","121.41839","25.0204833333333","6500500","新莊區"
"242009","280-VK","2019/07/13 20:49:25","新北市新莊區幸福路556號","121.454756666667","25.0493066666667","6500500","新莊區"
