"lineid","car","time","location","longitude","latitude","cityid","cityname"
"232017","290-BY","2019/12/16 07:59:45","新北市坪林區坪雙路二段119號","121.754348333333","24.9650583333333","6502000","坪林區"
"232005","291-BY","2019/12/16 07:59:49","新北市坪林區九芎林25號","121.703916666667","24.9249466666667","6502000","坪林區"
"232010","375-UM","2019/12/16 07:59:40","新北市坪林區厚德岡坑8-5號","121.733158333333","24.94094","6502000","坪林區"
"232012","705-BZ","2019/12/16 07:59:39","新北市坪林區金瓜寮23-1號","121.678465","24.9115666666667","6502000","坪林區"
"232001","758-BX","2019/12/16 07:59:36","新北市坪林區坪雙路一段63號","121.71436","24.9435466666667","6502000","坪林區"
"244006","080-UY","2019/12/16 07:59:45","新北市林口區粉寮路一段77號","121.396875","25.078795","6501700","林口區"
"244001","248-BX","2019/12/16 07:59:50","新北市林口區嘉寶里1鄰18號","121.33985","25.1073966666667","6501700","林口區"
"244018","403-UM","2019/12/16 07:59:36","新北市林口區粉寮69號","121.40505","25.0908933333333","6501700","林口區"
"244012","KEA-2802","2019/12/16 07:59:42","新北市林口區粉寮69號","121.40475","25.0907883333333","6501700","林口區"
"244022","483-VK","2019/12/16 07:59:39","新北市林口區粉寮69號","121.405115","25.09082","6501700","林口區"
"244008","657-BX","2019/12/16 07:59:35","新北市林口區粉寮69號","121.405035","25.0908516666667","6501700","林口區"
"244024","837-TS","2019/12/16 07:59:44","新北市林口區粉寮路二段128號","121.404598333333","25.0906633333333","6501700","林口區"
"222004","289-BY","2019/12/16 07:59:46","新北市深坑區文化街45號","121.616891666667","25.0017116666667","6501800","深坑區"
"231008","192-VK","2019/12/16 07:59:38","新北市新店區新烏路一段107號","121.545743333333","24.9404816666667","6500600","新店區"
"223003","205-TH","2019/12/16 07:58:56","新北市石碇區樟空子9-3號","121.66678","24.9604633333333","6501900","石碇區"
"223008","406-TH","2019/12/16 07:34:08","新北市石碇區靜安路一段337號","121.698748333333","25.01458","6501900","石碇區"
"223001","592-UM","2019/12/16 07:57:50","新北市石碇區樟空子1號","121.666478333333","24.9590966666667","6501900","石碇區"
"223004","660-BX","2019/12/16 07:59:46","新北市石碇區楓子林61號","121.644923333333","25.0107883333333","6501900","石碇區"
"223007","661-BX","2019/12/16 07:41:13","新北市石碇區靜安路一段337號","121.698795","25.014435","6501900","石碇區"
"227003","030-BX","2019/12/16 07:59:36","新北市雙溪區平林里梅竹蹊16號","121.862","25.0359616666667","6502500","雙溪區"
"252006","073-UM","2019/12/16 07:59:46","新北市三芝區後厝里北勢子45-6號","121.47053","25.2500816666667","6502100","三芝區"
"252004","249-BX","2019/12/16 07:59:47","新北市三芝區店子里店子72-3號","121.507785","25.2028016666667","6502100","三芝區"
"242059","986-R7","2019/12/16 07:59:37","新北市新莊區瓊林路59-38號","121.441131666667","25.0234516666667","6500500","新莊區"
"242028","615-BX","2019/12/16 07:59:49","新北市新莊區復興路二段174號","121.458571666667","25.04423","6500500","新莊區"
"242026","613-BX","2019/12/16 07:59:42","新北市新莊區思源路77號","121.460111666667","25.0410283333333","6500500","新莊區"
"242057","612-BX","2019/12/16 07:59:41","新北市新莊區中正路400號","121.441911666667","25.034295","6500500","新莊區"
"242047","566-BX","2019/12/16 07:59:49","新北市新莊區四維路210號","121.42134","25.0201566666667","6500500","新莊區"
"242052","497-BY","2019/12/16 07:59:52","新北市新莊區瓊林南路305巷1號","121.434725","25.00558","6500500","新莊區"
"242040","442-UM","2019/12/16 07:59:42","新北市新莊區新樹路113巷26號","121.438361666667","25.0267016666667","6500500","新莊區"
"242003","441-UM","2019/12/16 07:59:37","新北市新莊區中港路293號","121.452893333333","25.0441","6500500","新莊區"
"242043","415-TV","2019/12/16 07:59:44","新北市新莊區富國路101-1號","121.421328333333","25.0255","6500500","新莊區"
"242012","413-TV","2019/12/16 07:59:46","新北市新莊區中誠街14號","121.452035","25.0482566666667","6500500","新莊區"
"242049","400-BY","2019/12/16 07:59:37","新北市新莊區新樹路449巷8弄2號","121.433143333333","25.0136383333333","6500500","新莊區"
"242024","362-BY","2019/12/16 07:59:48","新北市新莊區中港路266號","121.453205","25.0438516666667","6500500","新莊區"
"242022","353-BY","2019/12/16 07:59:43","新北市新莊區中華路一段110號","121.452408333333","25.0402216666667","6500500","新莊區"
"242014","132-UY","2019/12/16 07:59:40","新北市新莊區新泰路146號","121.447776666667","25.0372","6500500","新莊區"
"242055","172-VK","2019/12/16 07:59:50","新北市新莊區新泰路20號","121.449563333333","25.03368","6500500","新莊區"
"242016","173-VK","2019/12/16 07:59:34","新北市新莊區中港路287號","121.452818333333","25.0440533333333","6500500","新莊區"
"242030","175-VK","2019/12/16 07:59:41","新北市新莊區新泰路413巷5號","121.44317","25.0443816666667","6500500","新莊區"
"242038","176-VK","2019/12/16 07:59:42","新北市新莊區民安路286號","121.427918333333","25.021635","6500500","新莊區"
"242020","KED-0687","2019/12/16 07:59:42","新北市新莊區中正路197號","121.452828333333","25.036135","6500500","新莊區"
"242006","346-TH","2019/12/16 07:59:41","新北市新莊區自信街42號","121.454683333333","25.048255","6500500","新莊區"
"242001","347-TH","2019/12/16 07:59:47","新北市新莊區瓊林路59-28號","121.443958333333","25.0261433333333","6500500","新莊區"
"242035","348-TH","2019/12/16 07:59:45","新北市新莊區建國二路19號","121.434003333333","25.0238866666667","6500500","新莊區"
"242008","349-TH","2019/12/16 07:59:44","新北市新莊區昌德街167號","121.453573333333","25.0545233333333","6500500","新莊區"
"242033","350-TH","2019/12/16 07:59:40","新北市新莊區新莊路378號","121.449183333333","25.033495","6500500","新莊區"
"242018","351-TH","2019/12/16 07:59:47","新北市新莊區中港路39號","121.455211666667","25.037785","6500500","新莊區"
"242045","281-VK","2019/12/16 07:59:33","新北市新莊區新樹路65-5號","121.43936","25.0308166666667","6500500","新莊區"
"242010","280-VK","2019/12/16 07:59:44","新北市新莊區中港路398號","121.452188333333","25.0498","6500500","新莊區"
