"lineid","car","time","location","longitude","latitude","cityid","cityname"
"232005","291-BY","2019/12/16 08:59:48","新北市坪林區魚堀14號","121.704596666667","24.9081","6502000","坪林區"
"244006","080-UY","2019/12/16 08:59:45","新北市林口區林口路113巷6弄1號","121.388695","25.0806416666667","6501700","林口區"
"244001","248-BX","2019/12/16 08:59:50","新北市林口區嘉寶里15鄰43-2號","121.341896666667","25.10824","6501700","林口區"
"244018","403-UM","2019/12/16 08:59:36","新北市林口區文化一路一段126號","121.37538","25.0725933333333","6501700","林口區"
"244012","KEA-2802","2019/12/16 08:59:42","新北市林口區中正路514巷4弄2號","121.38197","25.0777166666667","6501700","林口區"
"244022","483-VK","2019/12/16 08:59:39","新北市林口區東湖路100號","121.385375","25.073765","6501700","林口區"
"244016","485-VK","2019/12/16 08:59:35","新北市林口區公園路45-1號","121.367458333333","25.0685366666667","6501700","林口區"
"244008","657-BX","2019/12/16 08:59:35","新北市林口區中山路502號","121.379248333333","25.082895","6501700","林口區"
"244010","701-TV","2019/12/16 08:59:45","新北市林口區中山路168-1號","121.389588333333","25.07892","6501700","林口區"
"244024","837-TS","2019/12/16 08:59:44","新北市林口區南勢六街246號","121.35597","25.0747633333333","6501700","林口區"
"244020","838-TS","2019/12/16 08:59:50","新北市林口區工六路8號","121.397913333333","25.079115","6501700","林口區"
"222004","289-BY","2019/12/16 08:59:46","新北市深坑區風格街51號","121.630376666667","25.0186766666667","6501800","深坑區"
"231007","189-VK","2019/12/16 08:59:30","新北市新店區新潭路三段236號","121.501771666667","24.9032016666667","6500600","新店區"
"231008","192-VK","2019/12/16 08:59:38","新北市新店區廣興路60巷35號","121.542566666667","24.916445","6500600","新店區"
"220047","120-SR","2019/12/16 08:59:45","新北市板橋區新站路12號","121.46641","25.0127166666667","6500100","板橋區"
"223003","205-TH","2019/12/16 08:59:36","新北市石碇區北宜路六段水底寮巷12號","121.665928333333","24.942895","6501900","石碇區"
"223008","406-TH","2019/12/16 08:59:48","新北市石碇區石汐路1號","121.678441666667","25.0341966666667","6501900","石碇區"
"223001","592-UM","2019/12/16 08:59:50","新北市石碇區北宜路六段水底寮巷12-1號","121.664846666667","24.9469783333333","6501900","石碇區"
"223004","660-BX","2019/12/16 08:59:46","新北市石碇區崩山53號","121.682418333333","24.96881","6501900","石碇區"
"223007","661-BX","2019/12/16 08:59:51","新北市石碇區碇南路二段7號","121.668645","25.03121","6501900","石碇區"
"223005","677-TV","2019/12/16 08:59:43","新北市石碇區崩山53號","121.682398333333","24.9688466666667","6501900","石碇區"
"227003","030-BX","2019/12/16 08:59:36","新北市雙溪區泰平里泰平43號","121.832495","24.97919","6502500","雙溪區"
"252006","073-UM","2019/12/16 08:59:46","新北市三芝區樂全街2號","121.48776","25.2597633333333","6502100","三芝區"
"252004","249-BX","2019/12/16 08:59:47","新北市三芝區興華里田心子32號","121.490423333333","25.199765","6502100","三芝區"
"242059","986-R7","2019/12/16 08:59:37","新北市新莊區四維路97巷26號","121.424243333333","25.02331","6500500","新莊區"
"242028","615-BX","2019/12/16 08:59:48","新北市新莊區中原路193號","121.451965","25.0542366666667","6500500","新莊區"
"242026","613-BX","2019/12/16 08:59:42","新北市新莊區立信三街73號","121.444096666667","25.05098","6500500","新莊區"
"242057","612-BX","2019/12/16 08:59:41","新北市新莊區中正路879-7號","121.417733333333","25.02615","6500500","新莊區"
"242047","566-BX","2019/12/16 08:59:49","新北市新莊區建安街90-1號","121.426028333333","25.0240833333333","6500500","新莊區"
"242052","497-BY","2019/12/16 08:59:32","新北市新莊區民安西路410巷10弄1號","121.428176666667","25.0092433333333","6500500","新莊區"
"242040","442-UM","2019/12/16 08:59:42","新北市新莊區新北大道七段462號","121.413051666667","25.0300183333333","6500500","新莊區"
"242003","441-UM","2019/12/16 08:58:48","新北市新莊區化成路45號","121.464976666667","25.0447866666667","6500500","新莊區"
"242043","415-TV","2019/12/16 08:59:44","新北市新莊區龍安路71-5號","121.415948333333","25.021935","6500500","新莊區"
"242012","413-TV","2019/12/16 08:59:46","新北市新莊區中和街186巷11號","121.447973333333","25.049805","6500500","新莊區"
"242049","400-BY","2019/12/16 08:59:38","新北市新莊區民安西路212巷8號","121.425215","25.0149166666667","6500500","新莊區"
"242024","362-BY","2019/12/16 08:59:48","新北市新莊區五工二路86巷52號","121.460883333333","25.0676033333333","6500500","新莊區"
"242022","353-BY","2019/12/16 08:59:50","新北市新莊區化成路728號","121.465651666667","25.0571633333333","6500500","新莊區"
"242014","132-UY","2019/12/16 08:59:45","新北市新莊區中平路26巷45號","121.447018333333","25.0434983333333","6500500","新莊區"
"242055","172-VK","2019/12/16 08:59:49","新北市新莊區瓊林路50-1號","121.446061666667","25.0289483333333","6500500","新莊區"
"242016","173-VK","2019/12/16 08:59:34","新北市新莊區中港三街9巷2弄2號","121.45115","25.04631","6500500","新莊區"
"242030","175-VK","2019/12/16 08:59:40","新北市新莊區新泰路213巷56號","121.444871666667","25.0385033333333","6500500","新莊區"
"242038","176-VK","2019/12/16 08:59:42","新北市新莊區民安西路107號","121.426848333333","25.0184466666667","6500500","新莊區"
"242020","KED-0687","2019/12/16 08:59:42","新北市新莊區中正路208號","121.449188333333","25.0355066666667","6500500","新莊區"
"242006","346-TH","2019/12/16 08:59:39","新北市新莊區福壽街112巷24號","121.459285","25.050665","6500500","新莊區"
"242001","347-TH","2019/12/16 08:59:47","新北市新莊區中正路70-2號","121.459325","25.0385416666667","6500500","新莊區"
"242035","348-TH","2019/12/16 08:59:52","新北市新莊區建安街15號","121.428835","25.026255","6500500","新莊區"
"242008","349-TH","2019/12/16 08:59:43","新北市新莊區昌盛街66號","121.455533333333","25.0499083333333","6500500","新莊區"
"242033","350-TH","2019/12/16 08:59:40","新北市新莊區建中街72-1號","121.447446666667","25.03691","6500500","新莊區"
"242018","351-TH","2019/12/16 08:59:47","新北市新莊區民樂街75號","121.45766","25.0422533333333","6500500","新莊區"
"233003","KEA-2870","2019/12/16 08:59:47","新北市烏來區屯鹿35-1號","121.499801666667","24.79298","6502900","烏來區"
"242045","281-VK","2019/12/16 08:59:33","新北市新莊區中正路829巷121號","121.422535","25.0279083333333","6500500","新莊區"
"242010","280-VK","2019/12/16 08:59:43","新北市新莊區中和街210號","121.447865","25.0506766666667","6500500","新莊區"
