"lineid","car","time","location","longitude","latitude","cityid","cityname"
"244022","483-VK","2019/12/16 10:43:39","新北市林口區文林五街28巷18號","121.373158333333","25.0840066666667","6501700","林口區"
"231007","189-VK","2019/12/16 10:43:30","新北市新店區新潭路一段8號","121.523115","24.94342","6500600","新店區"
"231008","192-VK","2019/12/16 10:30:18","新北市新店區成功路50巷5號","121.540371666667","24.9002516666667","6500600","新店區"
"220047","120-SR","2019/12/16 10:18:20","新北市板橋區區運路101號","121.468163333333","25.01148","6500100","板橋區"
"227003","030-BX","2019/12/16 10:43:36","新北市雙溪區泰平里溪尾寮45號","121.821178333333","24.9675266666667","6502500","雙溪區"
