"lineid","car","time","location","longitude","latitude","cityid","cityname"
"249005","172-UM","2019/12/16 16:59:20","新北市八里區渡船頭3-19號","121.433926666667","25.1517083333333","6502300","八里區"
"249001","173-UM","2019/12/16 16:59:21","新北市八里區中山路三段106號","121.391078333333","25.1422166666667","6502300","八里區"
"249004","303-UY","2019/12/16 16:59:18","新北市八里區仁愛路10號","121.413353333333","25.1619716666667","6502300","八里區"
"249002","305-UY","2019/12/16 16:59:34","新北市八里區牛寮埔22號","121.43253","25.14249","6502300","八里區"
"249003","593-UM","2019/12/16 16:59:19","新北市八里區中山路二段289號","121.40156","25.148635","6502300","八里區"
"244007","080-UY","2019/12/16 16:59:26","新北市林口區中湖53-2號","121.375348333333","25.092035","6501700","林口區"
"244019","402-UM","2019/12/16 16:59:21","新北市林口區仁愛路二段160號","121.381541666667","25.0740633333333","6501700","林口區"
"244009","657-BX","2019/12/16 16:59:15","新北市林口區粉寮路23號","121.4003","25.0827316666667","6501700","林口區"
"244011","701-TV","2019/12/16 16:59:31","新北市林口區粉寮69號","121.405003333333","25.09089","6501700","林口區"
"244025","837-TS","2019/12/16 16:59:18","新北市林口區粉寮32號","121.4033","25.0866733333333","6501700","林口區"
"244021","838-TS","2019/12/16 16:59:15","新北市林口區粉寮32號","121.40327","25.0865416666667","6501700","林口區"
"231046","719-UM","2019/12/16 16:59:14","新北市新店區灣潭路29-3號","121.539791666667","24.9387083333333","6500600","新店區"
"241011","013-R5","2019/12/16 16:59:28","新北市三重區仁愛街53巷76號","121.498053333333","25.0724933333333","6500200","三重區"
"241028","022-UY","2019/12/16 16:59:29","","121.494021666667","25.059755","6500200","三重區"
"241008","059-VK","2019/12/16 16:59:28","新北市三重區永福街179-2號","121.47891","25.0750433333333","6500200","三重區"
"241031","061-VK","2019/12/16 16:59:29","新北市三重區三寧街33號","121.48985","25.0600533333333","6500200","三重區"
"241015","062-VK","2019/12/16 16:59:24","新北市三重區長安街55號","121.50047","25.067145","6500200","三重區"
"241017","063-VK","2019/12/16 16:59:23","新北市三重區大仁街3巷29號","121.492451666667","25.0639033333333","6500200","三重區"
"241024","065-VK","2019/12/16 16:59:31","新北市三重區力行路二段28號","121.481778333333","25.0727916666667","6500200","三重區"
"241007","066-VK","2019/12/16 16:59:29","新北市三重區溪尾街126巷47號","121.488346666667","25.0791983333333","6500200","三重區"
"241002","090-VK","2019/12/16 16:59:27","新北市三重區仁義街143巷76號","121.498586666667","25.0813416666667","6500200","三重區"
"241003","091-VK","2019/12/16 16:59:14","新北市三重區碧華街394號","121.491613333333","25.0847616666667","6500200","三重區"
"241025","742-BX","2019/12/16 16:59:25","新北市三重區中正北路361-1號","121.472631666667","25.0717483333333","6500200","三重區"
"241006","262-UM","2019/12/16 16:59:30","新北市三重區車路頭街117巷54號","121.485561666667","25.075735","6500200","三重區"
"241016","266-UM","2019/12/16 16:59:23","新北市三重區大同北路104號","121.493435","25.064","6500200","三重區"
"241009","267-UM","2019/12/16 16:59:19","新北市三重區溪尾街218巷37-3號","121.486611666667","25.0810816666667","6500200","三重區"
"241018","268-UM","2019/12/16 16:59:30","","121.492691666667","25.0684266666667","6500200","三重區"
"241032","269-UM","2019/12/16 16:59:17","新北市三重區重陽路一段120巷18號","121.48592","25.060115","6500200","三重區"
"241013","270-UM","2019/12/16 16:59:22","新北市三重區仁和街20號","121.496378333333","25.0735983333333","6500200","三重區"
"241030","KED-0822","2019/12/16 16:59:32","新北市三重區昌隆街70號","121.490943333333","25.0508516666667","6500200","三重區"
"241004","475-VK","2019/12/16 16:59:28","新北市三重區五華街102號","121.492565","25.0824883333333","6500200","三重區"
"241020","478-VK","2019/12/16 16:59:25","新北市三重區後竹圍街175巷5號","121.485778333333","25.0724566666667","6500200","三重區"
"241026","480-VK","2019/12/16 16:59:15","新北市三重區光興街3號","121.500196666667","25.0604083333333","6500200","三重區"
"241014","543-UM","2019/12/16 16:59:22","新北市三重區介壽路39巷98號","121.500755","25.0705133333333","6500200","三重區"
"241023","545-UM","2019/12/16 16:59:15","新北市三重區新北大道一段252號","121.480045","25.06169","6500200","三重區"
"241001","547-UM","2019/12/16 16:59:33","新北市三重區仁愛街192巷15號","121.493576666667","25.076905","6500200","三重區"
"241019","KEA-2593","2019/12/16 16:59:29","新北市三重區三張街104號","121.487893333333","25.069915","6500200","三重區"
"241005","AAD-863","2019/12/16 16:59:26","新北市三重區永安北路二段15號","121.482335","25.0814933333333","6500200","三重區"
"241012","743-BX","2019/12/16 16:59:25","新北市三重區仁和街161號","121.499526666667","25.0746133333333","6500200","三重區"
"241022","KED-0820","2019/12/16 16:59:16","新北市三重區中華路125號","121.483658333333","25.0638666666667","6500200","三重區"
"241029","942-UM","2019/12/16 16:59:22","新北市三重區中正南路252巷5號","121.493495","25.052505","6500200","三重區"
"241033","AAC-255","2019/12/16 16:59:20","新北市三重區中興北街271號","121.469021666667","25.0605883333333","6500200","三重區"
"247016","KEA-2869","2019/12/16 16:59:28","新北市蘆洲區中正路69號","121.470383333333","25.0827733333333","6501400","蘆洲區"
"247010","KED-0682","2019/12/16 16:59:15","新北市蘆洲區信義路170號","121.479348333333","25.08385","6501400","蘆洲區"
"247006","893-R6","2019/12/16 16:59:18","新北市蘆洲區永安南路二段234號","121.460616666667","25.079665","6501400","蘆洲區"
"247020","546-UM","2019/12/16 16:59:31","新北市蘆洲區民族路422巷82弄14號","121.473943333333","25.09383","6501400","蘆洲區"
"247022","341-TH","2019/12/16 16:59:31","","121.468775","25.09174","6501400","蘆洲區"
"247004","336-TH","2019/12/16 16:59:16","新北市蘆洲區長安街110號","121.461111666667","25.0815366666667","6501400","蘆洲區"
"247024","057-VK","2019/12/16 16:59:22","新北市蘆洲區長興路255號","121.460533333333","25.087505","6501400","蘆洲區"
"247014","056-VK","2019/12/16 16:59:33","新北市蘆洲區中央路20巷14號","121.474118333333","25.08275","6501400","蘆洲區"
"247018","053-VK","2019/12/16 16:59:20","新北市蘆洲區民族路227巷12號","121.477281666667","25.0895583333333","6501400","蘆洲區"
"247008","002-UY","2019/12/16 16:59:14","新北市蘆洲區信義路59巷5弄7號","121.474996666667","25.0800983333333","6501400","蘆洲區"
"247002","001-UY","2019/12/16 16:59:22","新北市蘆洲區永平街1號","121.459171666667","25.0904966666667","6501400","蘆洲區"
"228003","097-TW","2019/12/16 16:59:14","新北市貢寮區福隆里興隆街13-5號","121.944205","25.0165566666667","6502600","貢寮區"
"228002","663-BX","2019/12/16 16:59:21","新北市貢寮區貢寮里長泰路24-2號","121.903575","25.02387","6502600","貢寮區"
"224006","676-BX","2019/12/16 16:59:25","新北市瑞芳區大寮路356-1號","121.785075","25.103255","6501200","瑞芳區"
"224007","285-BY","2019/12/16 16:59:27","新北市瑞芳區楓子瀨路18-1號","121.76872","25.103335","6501200","瑞芳區"
"224009","275-VK","2019/12/16 16:59:15","新北市瑞芳區明燈路一段1號","121.826585","25.1093066666667","6501200","瑞芳區"
"224008","273-VK","2019/12/16 16:59:29","新北市瑞芳區明燈路一段267號","121.81681","25.1085133333333","6501200","瑞芳區"
"224005","271-BY","2019/12/16 16:59:23","新北市瑞芳區南雅路1號","121.889913333333","25.1195666666667","6501200","瑞芳區"
"227002","642-TC","2019/12/16 16:59:16","新北市雙溪區上林里內平林90號","121.827738333333","25.0275316666667","6502500","雙溪區"
"227001","400-TW","2019/12/16 16:59:23","新北市雙溪區三貂里政光路6-6號","121.851638333333","25.07094","6502500","雙溪區"
"251009","008-UM","2019/12/16 16:59:19","新北市淡水區中正路二段31號","121.41952","25.1815266666667","6501000","淡水區"
"251004","009-UM","2019/12/16 16:59:30","新北市淡水區中山路27號","121.444153333333","25.1700266666667","6501000","淡水區"
"251005","010-UM","2019/12/16 16:59:27","新北市淡水區文化路63號","121.438246666667","25.1728133333333","6501000","淡水區"
"251015","KEA-2871","2019/12/16 16:59:26","新北市淡水區忠愛街5-2號","121.460678333333","25.1715616666667","6501000","淡水區"
"251016","180-VK","2019/12/16 16:59:19","新北市淡水區瓦坑5-5號","121.478033333333","25.181875","6501000","淡水區"
"251008","181-VK","2019/12/16 16:59:24","新北市淡水區樹梅坑9號","121.472753333333","25.1426416666667","6501000","淡水區"
"251013","182-VK","2019/12/16 16:59:18","新北市淡水區泉洲厝32號","121.489293333333","25.1925883333333","6501000","淡水區"
"251012","441-VK","2019/12/16 16:59:28","新北市淡水區中正路二段31號","121.419383333333","25.1816733333333","6501000","淡水區"
"251007","442-VK","2019/12/16 16:59:24","新北市淡水區中正東路二段37號","121.459125","25.1562266666667","6501000","淡水區"
"251006","561-UM","2019/12/16 16:59:29","新北市淡水區文化路65號","121.437848333333","25.1729133333333","6501000","淡水區"
"251014","577-R6","2019/12/16 16:59:18","新北市淡水區淡金路四段472巷22號","121.452483333333","25.2238766666667","6501000","淡水區"
"251011","650-BX","2019/12/16 16:59:29","新北市淡水區坪頂路50號","121.45797","25.1625183333333","6501000","淡水區"
"252001","292-VK","2019/12/16 16:59:30","新北市三芝區淡金路二段38-1號","121.50313","25.2601733333333","6502100","三芝區"
"233002","762-BX","2019/12/16 16:59:34","新北市烏來區啦卡路9巷5號","121.554563333333","24.8611716666667","6502900","烏來區"
"252002","KED-0821","2019/12/16 16:59:31","新北市三芝區忠孝街145號","121.506333333333","25.26037","6502100","三芝區"
"242004","751-BX","2019/12/16 16:59:11","新北市新莊區三和路12-21號","121.442068333333","25.0386883333333","6500500","新莊區"
"242029","615-BX","2019/12/16 16:59:21","新北市新莊區新泰路357巷3弄57號","121.4417","25.03949","6500500","新莊區"
"242027","613-BX","2019/12/16 16:59:24","新北市新莊區新泰路357巷3弄57號","121.442151666667","25.0392666666667","6500500","新莊區"
"242042","442-UM","2019/12/16 16:59:33","新北市新莊區新泰路255巷83號","121.442011666667","25.0389716666667","6500500","新莊區"
"242025","362-BY","2019/12/16 16:59:27","新北市新莊區新泰路357巷3弄57號","121.4419","25.0393133333333","6500500","新莊區"
"242031","175-VK","2019/12/16 16:59:15","新北市新莊區三和路12-21號","121.442021666667","25.0386716666667","6500500","新莊區"
"242021","KED-0687","2019/12/16 16:59:26","新北市新莊區三和路12-21號","121.442275","25.0379583333333","6500500","新莊區"
"242007","346-TH","2019/12/16 16:59:31","新北市新莊區三和路12-21號","121.442018333333","25.038285","6500500","新莊區"
"242034","350-TH","2019/12/16 16:59:20","新北市新莊區三和路12-21號","121.441881666667","25.03891","6500500","新莊區"
"242019","351-TH","2019/12/16 16:59:15","新北市新莊區新泰路357巷3弄57號","121.441958333333","25.0395116666667","6500500","新莊區"
"238023","601-UM","2019/12/16 16:59:26","新北市樹林區中正路433-2號","121.41498","25.0081416666667","6500700","樹林區"
"238019","599-UM","2019/12/16 16:59:29","","121.387595","24.9680866666667","6500700","樹林區"
"238018","KEA-2217","2019/12/16 16:59:15","新北市樹林區育德街78-1號","121.38798","24.9679533333333","6500700","樹林區"
"238025","303-VK","2019/12/16 16:59:24","新北市樹林區中正路22-1號","121.427793333333","24.999305","6500700","樹林區"
"238017","283-BY","2019/12/16 16:59:26","新北市樹林區八德街682號","121.396215","24.9689466666667","6500700","樹林區"
"238001","282-BY","2019/12/16 16:59:29","","121.427811666667","24.9994766666667","6500700","樹林區"
"239007","AAC-297","2019/12/16 16:59:31","新北市鶯歌區二甲路13-16號","121.345333333333","24.9351783333333","6500800","鶯歌區"
"239008","527-UM","2019/12/16 16:59:18","新北市鶯歌區二甲路13-16號","121.344983333333","24.9350633333333","6500800","鶯歌區"
"239005","526-UM","2019/12/16 16:59:19","新北市鶯歌區二甲路13-16號","121.345265","24.93516","6500800","鶯歌區"
"239001","417-VK","2019/12/16 16:59:27","新北市鶯歌區環河路177-7號","121.345735","24.9353983333333","6500800","鶯歌區"
"233001","KEA-2870","2019/12/16 16:59:26","新北市烏來區環山路18號","121.549311666667","24.868555","6502900","烏來區"
"242046","281-VK","2019/12/16 16:59:26","","121.442216666667","25.038295","6500500","新莊區"
"242011","280-VK","2019/12/16 16:59:32","新北市新莊區三和路12-21號","121.441991666667","25.03828","6500500","新莊區"
