"lineid","car","time","location","longitude","latitude","cityid","cityname"
"249005","172-UM","2019/12/16 17:29:15","新北市八里區荖阡坑路71號","121.406873333333","25.12629","6502300","八里區"
"249001","173-UM","2019/12/16 17:29:20","新北市八里區中華路一段5-5號","121.422226666667","25.1581383333333","6502300","八里區"
"249004","303-UY","2019/12/16 17:29:18","新北市八里區賢三街170號","121.41449","25.1567133333333","6502300","八里區"
"249002","305-UY","2019/12/16 17:29:14","新北市八里區龍米路二段115號","121.447055","25.1431783333333","6502300","八里區"
"249003","593-UM","2019/12/16 17:29:35","新北市八里區中山路二段390號","121.400665","25.1479866666667","6502300","八里區"
"232011","375-UM","2019/12/16 17:29:15","新北市坪林區鶯子瀨11-1號","121.711403333333","24.9149866666667","6502000","坪林區"
"244007","080-UY","2019/12/16 17:29:27","新北市林口區中華路225號","121.385193333333","25.0899766666667","6501700","林口區"
"244019","402-UM","2019/12/16 17:29:21","新北市林口區公園路172號","121.372615","25.0723266666667","6501700","林口區"
"244013","KEA-2802","2019/12/16 17:29:31","","121.383808333333","25.08047","6501700","林口區"
"244023","483-VK","2019/12/16 17:29:20","新北市林口區東明一街35巷2號","121.392146666667","25.07205","6501700","林口區"
"244017","485-VK","2019/12/16 17:29:22","新北市林口區文化一路一段120號","121.374121666667","25.0718833333333","6501700","林口區"
"244009","657-BX","2019/12/16 17:29:16","新北市林口區中北三街262號","121.382068333333","25.08214","6501700","林口區"
"244011","701-TV","2019/12/16 17:29:31","新北市林口區佳林路160號","121.383986666667","25.076735","6501700","林口區"
"244025","837-TS","2019/12/16 17:29:18","新北市林口區文化二路一段289-5號","121.367516666667","25.0718583333333","6501700","林口區"
"244021","838-TS","2019/12/16 17:29:35","新北市林口區粉寮1號","121.39751","25.0800116666667","6501700","林口區"
"231046","719-UM","2019/12/16 17:29:14","新北市新店區直潭路92號","121.530946666667","24.93755","6500600","新店區"
"241011","013-R5","2019/12/16 17:29:28","新北市三重區河邊北街124巷17號","121.50317","25.0713633333333","6500200","三重區"
"241015","062-VK","2019/12/16 17:29:24","新北市三重區開元街30號","121.503606666667","25.0658216666667","6500200","三重區"
"241017","063-VK","2019/12/16 17:29:24","新北市三重區中正北路25巷13號","121.492861666667","25.062445","6500200","三重區"
"241024","065-VK","2019/12/16 17:29:31","新北市三重區中正北路191巷3弄1號","121.477588333333","25.06991","6500200","三重區"
"241007","066-VK","2019/12/16 17:29:29","新北市三重區三和路四段145巷223號","121.4889","25.0795933333333","6500200","三重區"
"241002","090-VK","2019/12/16 17:29:27","新北市三重區自強路五段119號","121.496095","25.0825066666667","6500200","三重區"
"241003","091-VK","2019/12/16 17:29:34","新北市三重區集賢路87-1號","121.493641666667","25.0868333333333","6500200","三重區"
"241025","742-BX","2019/12/16 17:29:25","新北市三重區中正北路346號","121.477723333333","25.06939","6500200","三重區"
"241016","266-UM","2019/12/16 17:29:23","新北市三重區信義西街138號","121.495411666667","25.0642533333333","6500200","三重區"
"241009","267-UM","2019/12/16 17:29:19","新北市三重區慈愛街1號","121.484665","25.0785133333333","6500200","三重區"
"241018","268-UM","2019/12/16 17:29:30","新北市三重區國隆路29號","121.4926","25.0643","6500200","三重區"
"241032","269-UM","2019/12/16 17:29:23","新北市三重區名源街59號","121.482131666667","25.0593416666667","6500200","三重區"
"241030","KED-0822","2019/12/16 17:29:32","新北市三重區環河南路221巷5號","121.492235","25.0521733333333","6500200","三重區"
"241024","462-BY","2019/12/16 17:29:16","新北市三重區國道路一段58巷20號","121.4812","25.0720533333333","6500200","三重區"
"241020","478-VK","2019/12/16 17:29:25","新北市三重區忠孝路二段21號","121.486573333333","25.0713","6500200","三重區"
"241014","543-UM","2019/12/16 17:29:22","新北市三重區長壽街79-10號","121.502188333333","25.068515","6500200","三重區"
"241023","545-UM","2019/12/16 17:29:15","新北市三重區忠孝路三段50巷64號","121.48259","25.0647216666667","6500200","三重區"
"241001","547-UM","2019/12/16 17:29:33","新北市三重區碧華街213號","121.488646666667","25.08285","6500200","三重區"
"241019","KEA-2593","2019/12/16 17:29:28","新北市三重區自強路二段74巷23號","121.487955","25.0696133333333","6500200","三重區"
"241033","AAC-255","2019/12/16 17:29:20","新北市三重區興德路145-2號","121.469066666667","25.0527033333333","6500200","三重區"
"247016","KEA-2869","2019/12/16 17:29:28","新北市蘆洲區光華路22巷36號","121.468425","25.0846416666667","6501400","蘆洲區"
"247010","KED-0682","2019/12/16 17:29:21","新北市蘆洲區鷺江街1號","121.479401666667","25.0827666666667","6501400","蘆洲區"
"207004","KEE-1107","2019/12/16 17:29:20","新北市萬里區萬里里成功新村44號","121.687571666667","25.17467","6502800","萬里區"
"247006","893-R6","2019/12/16 17:29:18","新北市蘆洲區長安街46巷21號","121.463961666667","25.08026","6501400","蘆洲區"
"247022","341-TH","2019/12/16 17:29:31","新北市蘆洲區中正路314號","121.46454","25.0911583333333","6501400","蘆洲區"
"247004","336-TH","2019/12/16 17:29:16","新北市蘆洲區中原路35號","121.45999","25.082595","6501400","蘆洲區"
"247024","057-VK","2019/12/16 17:29:22","新北市蘆洲區長興路278號","121.460346666667","25.0888066666667","6501400","蘆洲區"
"247014","056-VK","2019/12/16 17:29:33","新北市蘆洲區三民路105號","121.472608333333","25.08547","6501400","蘆洲區"
"247018","053-VK","2019/12/16 17:29:20","新北市蘆洲區水湳街31號","121.471911666667","25.087845","6501400","蘆洲區"
"247008","002-UY","2019/12/16 17:29:13","新北市蘆洲區信義路34巷58號","121.475178333333","25.0779133333333","6501400","蘆洲區"
"247002","001-UY","2019/12/16 17:29:22","新北市蘆洲區永樂街38巷57弄1號","121.458376666667","25.0901","6501400","蘆洲區"
"228003","097-TW","2019/12/16 17:29:14","新北市貢寮區仁理村研海街45號","121.926483333333","25.0406366666667","6502600","貢寮區"
"228002","663-BX","2019/12/16 17:29:21","新北市貢寮區福隆里虎子山街21號","121.939133333333","25.0183433333333","6502600","貢寮區"
"228001","670-TC","2019/12/16 17:29:16","新北市貢寮區仁理村仁愛路62巷1號","121.925646666667","25.0534183333333","6502600","貢寮區"
"224010","AGQ-8101","2019/12/16 17:29:16","新北市瑞芳區逢甲路57號","121.808061666667","25.10907","6501200","瑞芳區"
"224006","676-BX","2019/12/16 17:29:25","新北市瑞芳區靜安路四段92號","121.793156666667","25.1099683333333","6501200","瑞芳區"
"224009","275-VK","2019/12/16 17:29:15","新北市瑞芳區汽車路29號","121.844511666667","25.1098383333333","6501200","瑞芳區"
"224008","273-VK","2019/12/16 17:29:29","新北市瑞芳區明燈路二段56號","121.809888333333","25.10769","6501200","瑞芳區"
"224005","271-BY","2019/12/16 17:29:23","新北市瑞芳區長仁路1號","121.871616666667","25.1233633333333","6501200","瑞芳區"
"227002","642-TC","2019/12/16 17:21:39","新北市雙溪區共和里東榮街52號","121.86636","25.0336783333333","6502500","雙溪區"
"227001","400-TW","2019/12/16 17:29:23","新北市雙溪區三貂里政光路3-1號","121.85079","25.063395","6502500","雙溪區"
"251009","008-UM","2019/12/16 17:29:19","新北市淡水區建設街1巷1號","121.438928333333","25.1729983333333","6501000","淡水區"
"251004","009-UM","2019/12/16 17:14:18","新北市淡水區中正東路二段88巷15號","121.45906","25.1504916666667","6501000","淡水區"
"251005","010-UM","2019/12/16 17:29:26","新北市淡水區鄧公路31巷1號","121.451306666667","25.1708933333333","6501000","淡水區"
"251015","KEA-2871","2019/12/16 17:29:26","新北市淡水區三空泉21號","121.468955","25.165965","6501000","淡水區"
"251016","180-VK","2019/12/16 17:29:19","新北市淡水區埤島75號","121.454506666667","25.1945233333333","6501000","淡水區"
"251008","181-VK","2019/12/16 17:29:24","新北市淡水區大同路118號","121.462751666667","25.1402016666667","6501000","淡水區"
"251013","182-VK","2019/12/16 17:29:17","新北市淡水區大竹圍5號","121.466583333333","25.1952266666667","6501000","淡水區"
"251010","413-VK","2019/12/16 17:29:18","新北市淡水區中正路二段211號","121.426201666667","25.189115","6501000","淡水區"
"251012","441-VK","2019/12/16 17:29:28","新北市淡水區北新路98號","121.44725","25.1783816666667","6501000","淡水區"
"251007","442-VK","2019/12/16 17:29:24","新北市淡水區民生路56號","121.462043333333","25.137935","6501000","淡水區"
"251006","561-UM","2019/12/16 17:29:29","新北市淡水區大仁街13號","121.442376666667","25.1750066666667","6501000","淡水區"
"251014","577-R6","2019/12/16 17:29:18","新北市淡水區公埔子18號","121.473156666667","25.226805","6501000","淡水區"
"251011","650-BX","2019/12/16 17:29:29","新北市淡水區坪頂路257號","121.470403333333","25.1622033333333","6501000","淡水區"
"251002","672-BX","2019/12/16 17:29:14","新北市淡水區中正路一段156巷1號","121.420841666667","25.17997","6501000","淡水區"
"251003","673-BX","2019/12/16 17:29:16","新北市淡水區中山路158號","121.440768333333","25.172875","6501000","淡水區"
"252001","292-VK","2019/12/16 17:29:30","新北市三芝區淡金路一段3號","121.498115","25.2596483333333","6502100","三芝區"
"237004","KEA-2597","2019/12/16 17:29:30","新北市三峽區中山路459巷135號","121.349036666667","24.9331783333333","6500900","三峽區"
"233002","762-BX","2019/12/16 17:29:14","新北市烏來區環山路108巷7-6號","121.548576666667","24.8624333333333","6502900","烏來區"
"247012","KED-0683","2019/12/16 17:29:27","新北市蘆洲區民族路30號","121.476281666667","25.08423","6501400","蘆洲區"
"252002","KED-0821","2019/12/16 17:29:31","新北市三芝區忠孝街1-14號","121.505521666667","25.2539633333333","6502100","三芝區"
"242060","986-R7","2019/12/16 17:29:21","新北市新莊區瓊林路59-38號","121.441126666667","25.02344","6500500","新莊區"
"242004","751-BX","2019/12/16 17:29:31","新北市新莊區中港路278號","121.453065","25.0440933333333","6500500","新莊區"
"242029","615-BX","2019/12/16 17:29:21","新北市新莊區復興路二段190號","121.459171666667","25.0444516666667","6500500","新莊區"
"242027","613-BX","2019/12/16 17:29:24","新北市新莊區思源路35號","121.460088333333","25.039665","6500500","新莊區"
"242058","612-BX","2019/12/16 17:29:16","新北市新莊區中正路400號","121.441951666667","25.0343216666667","6500500","新莊區"
"242048","566-BX","2019/12/16 17:29:16","新北市新莊區四維路215號","121.42166","25.0199533333333","6500500","新莊區"
"242053","497-BY","2019/12/16 17:29:15","新北市新莊區瓊林南路305巷35號","121.435973333333","25.0051616666667","6500500","新莊區"
"242042","442-UM","2019/12/16 17:29:33","新北市新莊區新樹路113巷32號","121.438843333333","25.0266416666667","6500500","新莊區"
"242044","415-TV","2019/12/16 17:29:33","新北市新莊區富國路101-1號","121.421311666667","25.025625","6500500","新莊區"
"242013","413-TV","2019/12/16 17:29:31","新北市新莊區中和街110號","121.447571666667","25.0470066666667","6500500","新莊區"
"242050","400-BY","2019/12/16 17:29:27","新北市新莊區瓊林南路73-27號","121.435113333333","25.015145","6500500","新莊區"
"242025","362-BY","2019/12/16 17:29:27","新北市新莊區中港路281號","121.453265","25.0437866666667","6500500","新莊區"
"242023","353-BY","2019/12/16 17:29:16","新北市新莊區中華路一段110號","121.452448333333","25.0402366666667","6500500","新莊區"
"242015","132-UY","2019/12/16 17:29:28","新北市新莊區新泰路146號","121.447935","25.0370716666667","6500500","新莊區"
"242056","172-VK","2019/12/16 17:29:30","新北市新莊區景德路208號","121.449116666667","25.0338066666667","6500500","新莊區"
"242017","173-VK","2019/12/16 17:29:27","新北市新莊區中港路293號","121.452923333333","25.0441283333333","6500500","新莊區"
"242031","175-VK","2019/12/16 17:29:31","新北市新莊區新泰路413巷5號","121.44322","25.0443133333333","6500500","新莊區"
"242039","176-VK","2019/12/16 17:29:28","新北市新莊區民安路274號","121.427618333333","25.0214616666667","6500500","新莊區"
"242021","KED-0687","2019/12/16 17:29:26","新北市新莊區中正路134號","121.452723333333","25.0361683333333","6500500","新莊區"
"242007","346-TH","2019/12/16 17:29:31","新北市新莊區中華路二段24號","121.453478333333","25.044875","6500500","新莊區"
"242002","347-TH","2019/12/16 17:29:28","新北市新莊區碧江街41號","121.451705","25.032925","6500500","新莊區"
"242036","348-TH","2019/12/16 17:29:26","新北市新莊區建國二路11號","121.434648333333","25.0237783333333","6500500","新莊區"
"242009","349-TH","2019/12/16 17:29:29","新北市新莊區中原路240號","121.452531666667","25.054555","6500500","新莊區"
"242034","350-TH","2019/12/16 17:29:21","新北市新莊區新莊路380號","121.449148333333","25.03344","6500500","新莊區"
"242019","351-TH","2019/12/16 17:29:15","新北市新莊區中港路20號","121.455033333333","25.0371783333333","6500500","新莊區"
"238015","755-BX","2019/12/16 17:29:31","新北市樹林區復興路3號","121.422851666667","24.9948166666667","6500700","樹林區"
"238023","601-UM","2019/12/16 17:29:26","新北市樹林區三福街114號","121.406431666667","25.0163733333333","6500700","樹林區"
"238019","599-UM","2019/12/16 17:29:29","新北市樹林區八德街118號","121.421303333333","24.9794233333333","6500700","樹林區"
"238024","5061-A6","2019/12/16 17:29:22","新北市樹林區鎮前街160號","121.424461666667","24.990065","6500700","樹林區"
"238018","KEA-2217","2019/12/16 17:29:15","","121.422433333333","24.98743","6500700","樹林區"
"238022","KEA-2213","2019/12/16 17:29:21","新北市樹林區仁愛街12巷2號","121.421911666667","24.9818683333333","6500700","樹林區"
"238021","KEA-2539","2019/12/16 17:29:35","新北市樹林區西圳街一段203巷7號","121.392981666667","24.96023","6500700","樹林區"
"238025","303-VK","2019/12/16 17:29:27","新北市樹林區保安二街二段6-9號","121.415915","25.0012783333333","6500700","樹林區"
"238017","283-BY","2019/12/16 17:29:26","新北市樹林區中正路236號","121.418108333333","25.00701","6500700","樹林區"
"238014","282-BY","2019/12/16 17:29:29","新北市樹林區保安街一段294巷31號","121.420071666667","24.9984833333333","6500700","樹林區"
"238020","268-VK","2019/12/16 17:29:23","新北市樹林區千歲街111-1號","121.429245","25.001635","6500700","樹林區"
"238026","172-UY","2019/12/16 17:29:20","新北市樹林區中山路三段39號","121.401238333333","24.975215","6500700","樹林區"
"238016","169-UY","2019/12/16 17:29:23","新北市樹林區長壽街11號","121.42396","24.9932466666667","6500700","樹林區"
"239007","AAC-297","2019/12/16 17:29:31","新北市鶯歌區行政路97-12號","121.354698333333","24.95651","6500800","鶯歌區"
"239006","891-R6","2019/12/16 17:29:31","新北市鶯歌區鳳鳴路79號","121.334146666667","24.9659366666667","6500800","鶯歌區"
"239008","527-UM","2019/12/16 17:29:23","新北市鶯歌區大湖路540號","121.337045","24.9728333333333","6500800","鶯歌區"
"239005","526-UM","2019/12/16 17:29:19","新北市鶯歌區福德一路8號","121.330251666667","24.967135","6500800","鶯歌區"
"239001","417-VK","2019/12/16 17:29:27","新北市鶯歌區尖山路233號","121.340148333333","24.943745","6500800","鶯歌區"
"239003","360-BY","2019/12/16 17:29:34","新北市鶯歌區德昌街112號","121.331963333333","24.960415","6500800","鶯歌區"
"239002","359-BY","2019/12/16 17:29:24","新北市鶯歌區南雅路432號","121.346948333333","24.9540116666667","6500800","鶯歌區"
"239004","193-VK","2019/12/16 17:29:31","新北市鶯歌區文化路324巷1-37號","121.352481666667","24.9458283333333","6500800","鶯歌區"
"221029","298-VK","2019/12/16 17:29:26","新北市汐止區康寧街901號","121.651811666667","25.07504","6501100","汐止區"
"207003","KEE-1020","2019/12/16 17:29:23","新北市萬里區龜吼里美崙路38號","121.686455","25.1846183333333","6502800","萬里區"
"233001","KEA-2870","2019/12/16 17:29:26","新北市烏來區信福路2巷2號","121.537291666667","24.8407733333333","6502900","烏來區"
"242046","281-VK","2019/12/16 17:29:26","新北市新莊區新樹路65-5號","121.439373333333","25.0308783333333","6500500","新莊區"
"242011","280-VK","2019/12/16 17:29:32","新北市新莊區幸福路602-1號","121.452273333333","25.0493583333333","6500500","新莊區"
