"lineid","car","time","location","longitude","latitude","cityid","cityname"
"234046","148-BY","2019/12/16 18:59:22","新北市永和區得和路373巷31弄9號","121.524693333333","25.0006483333333","6500400","永和區"
"234081","298-R6","2019/12/16 18:59:17","新北市永和區永亨路83號","121.521913333333","25.0057433333333","6500400","永和區"
"234038","336-UY","2019/12/16 18:59:27","新北市永和區成功路二段207號","121.526535","24.995885","6500400","永和區"
"234064","337-UY","2019/12/16 18:59:19","新北市永和區秀朗路一段140號","121.518103333333","25.0034316666667","6500400","永和區"
"234086","338-UY","2019/12/16 18:59:27","新北市永和區永利路18號","121.518038333333","25.0058","6500400","永和區"
"234070","552-UM","2019/12/16 18:59:32","新北市永和區中興街94號","121.518858333333","25.0119683333333","6500400","永和區"
"234017","745-BX","2019/12/16 18:59:22","新北市永和區永和路二段297號","121.516051666667","25.0160383333333","6500400","永和區"
"234030","746-BX","2019/12/16 18:59:31","新北市永和區四維街38號","121.52548","24.998095","6500400","永和區"
"234054","KEA-2590","2019/12/16 18:59:24","新北市永和區竹林路66巷2號","121.518221666667","25.0133566666667","6500400","永和區"
"234007","KED-0605","2019/12/16 18:59:27","新北市永和區中山路一段50號","121.513285","25.01062","6500400","永和區"
"234013","KEA-2591","2019/12/16 18:59:32","新北市永和區信義路17巷9弄1號","121.513955","25.0117383333333","6500400","永和區"
"234061","AAD-866","2019/12/16 18:59:32","新北市永和區福和路305號","121.516353333333","25.0071116666667","6500400","永和區"
"234042","862-TW","2019/12/16 18:59:28","新北市永和區永貞路308號","121.511843333333","25.00489","6500400","永和區"
"234050","863-TW","2019/12/16 18:59:27","新北市永和區文化路147號","121.510723333333","25.016195","6500400","永和區"
"234026","9371-KE","2019/12/16 18:59:37","新北市永和區安樂路461號","121.514278333333","25.0051933333333","6500400","永和區"
"234011","9373-KE","2019/12/16 18:59:31","新北市永和區仁愛路109巷9號","121.51239","25.0126383333333","6500400","永和區"
"249005","172-UM","2019/12/16 18:59:15","新北市八里區長道坑2號","121.393693333333","25.124605","6502300","八里區"
"249001","173-UM","2019/12/16 18:59:29","新北市八里區龍米路二段222號","121.432918333333","25.158395","6502300","八里區"
"249002","305-UY","2019/12/16 18:47:47","新北市八里區龍形一街33巷6-2號","121.44931","25.129485","6502300","八里區"
"249003","593-UM","2019/12/16 18:36:19","新北市八里區博物館路10-1號","121.4151","25.1639566666667","6502300","八里區"
"248016","026-BX","2019/12/16 18:59:16","新北市五股區成泰路三段543巷12弄11號","121.451318333333","25.1023933333333","6501500","五股區"
"248006","077-UY","2019/12/16 18:59:28","新北市五股區四維路117號","121.467441666667","25.07361","6501500","五股區"
"248008","KED-0815","2019/12/16 18:59:32","新北市五股區中興路一段118巷6弄1號","121.466173333333","25.07385","6501500","五股區"
"248018","KED-0813","2019/12/16 18:59:30","新北市五股區民義路二段37號","121.413215","25.1003466666667","6501500","五股區"
"248010","272-BY","2019/12/16 18:59:15","新北市五股區水碓一路23號","121.430565","25.0712966666667","6501500","五股區"
"248004","677-BX","2019/12/16 18:59:20","","121.430993333333","25.088645","6501500","五股區"
"248002","678-BX","2019/12/16 18:59:20","新北市五股區天乙路1號","121.448316666667","25.1028233333333","6501500","五股區"
"234023","9380-KE","2019/12/16 18:59:35","新北市永和區竹林路75巷47號","121.520931666667","25.0143683333333","6500400","永和區"
"234077","969-R7","2019/12/16 18:59:20","新北市永和區中正路316號","121.5178","24.9993866666667","6500400","永和區"
"234074","AAC-211","2019/12/16 18:59:28","新北市永和區環河東路二段100號","121.524111666667","25.0103116666667","6500400","永和區"
"234067","AAC-212","2019/12/16 18:59:31","新北市永和區自由街64號","121.51352","25.0056683333333","6500400","永和區"
"234003","AAC-295","2019/12/16 18:59:17","新北市永和區和平街25號","121.513305","25.00988","6500400","永和區"
"232011","375-UM","2019/12/16 18:59:15","新北市坪林區水聳淒坑19-1號","121.71272","24.9350216666667","6502000","坪林區"
"244019","402-UM","2019/12/16 18:59:21","新北市林口區仁愛路二段201-1號","121.37762","25.0744","6501700","林口區"
"244013","KEA-2802","2019/12/16 18:59:31","新北市林口區麗園一街4巷1號","121.376505","25.07132","6501700","林口區"
"244023","483-VK","2019/12/16 18:59:20","新北市林口區吉祥路178號","121.376646666667","25.0804966666667","6501700","林口區"
"244017","485-VK","2019/12/16 18:59:22","新北市林口區公園路94號","121.369585","25.070545","6501700","林口區"
"244011","701-TV","2019/12/16 18:59:31","新北市林口區竹林路59號","121.387555","25.0783933333333","6501700","林口區"
"244025","837-TS","2019/12/16 18:59:18","新北市林口區南勢街192巷7號","121.360983333333","25.0749816666667","6501700","林口區"
"208001","267-VK","2019/12/16 18:59:15","新北市金山區民生路61號","121.640733333333","25.2203933333333","6502700","金山區"
"243010","297-R6","2019/12/16 18:59:17","新北市泰山區辭修路26巷13號","121.429181666667","25.05855","6501600","泰山區"
"243014","KEA-2801","2019/12/16 18:59:28","新北市泰山區黎明路2-5號","121.420878333333","25.0626533333333","6501600","泰山區"
"243016","421-VK","2019/12/16 18:59:34","新北市泰山區明志路二段135號","121.427646666667","25.050795","6501600","泰山區"
"243011","KEA-2216","2019/12/16 18:59:19","新北市泰山區明志路230號","121.427118333333","25.0483","6501600","泰山區"
"243013","646-TV","2019/12/16 18:59:33","新北市泰山區明志路三段206巷1號","121.423318333333","25.0376883333333","6501600","泰山區"
"243015","680-BX","2019/12/16 18:59:18","新北市泰山區美寧街50號","121.430425","25.0644283333333","6501600","泰山區"
"222003","436-BY","2019/12/16 18:59:18","新北市深坑區深南路88巷1號","121.62143","25.0108133333333","6501800","深坑區"
"222002","659-BX","2019/12/16 18:59:29","新北市深坑區文山路一段31巷2號","121.629863333333","25.0033466666667","6501800","深坑區"
"231044","001-UM","2019/12/16 18:59:24","新北市新店區寶中路72號","121.547876666667","24.9806016666667","6500600","新店區"
"231061","002-UM","2019/12/16 18:59:31","新北市新店區安華路30巷1號","121.519118333333","24.959275","6500600","新店區"
"231055","0291-UT","2019/12/16 18:59:31","新北市新店區新生街10巷12號","121.540623333333","24.9664583333333","6500600","新店區"
"231058","0293-UT","2019/12/16 18:59:27","新北市新店區中正路1巷2號","121.545656666667","24.96898","6500600","新店區"
"231060","106-UY","2019/12/16 18:59:37","新北市新店區安華路16號","121.517216666667","24.95813","6500600","新店區"
"231051","107-UY","2019/12/16 18:59:26","新北市新店區中央路87號","121.532198333333","24.9763633333333","6500600","新店區"
"231049","108-UY","2019/12/16 18:59:22","新北市新店區中正路454-5號","121.534483333333","24.979085","6500600","新店區"
"231065","110-UY","2019/12/16 18:59:20","新北市新店區安祥路147巷66號","121.476013333333","24.9560466666667","6500600","新店區"
"231050","KEA-2219","2019/12/16 18:59:35","新北市新店區北宜路一段154號","121.540345","24.9535866666667","6500600","新店區"
"221031","KEA-2785","2019/12/16 18:59:24","新北市汐止區福德一路298號","121.631298333333","25.0633266666667","6501100","汐止區"
"231062","256-BX","2019/12/16 18:59:31","新北市新店區車子路115-11號","121.507948333333","24.9546916666667","6500600","新店區"
"231054","260-TV","2019/12/16 18:59:38","新北市新店區北新路一段23號","121.537936666667","24.9590933333333","6500600","新店區"
"231042","268-BY","2019/12/16 18:59:30","新北市新店區中興路二段27號","121.54601","24.9695433333333","6500600","新店區"
"231064","278-BY","2019/12/16 18:59:24","新北市新店區安康路一段266巷4號","121.51982","24.9640016666667","6500600","新店區"
"231045","355-BY","2019/12/16 18:59:19","新北市新店區安康路一段75-1號","121.53012","24.9611316666667","6500600","新店區"
"231056","4715-K9","2019/12/16 18:59:27","新北市新店區二十張路46巷37弄11號","121.536505","24.9818066666667","6500600","新店區"
"231067","4772-VM","2019/12/16 18:59:27","新北市新店區安康路一段76巷26號","121.528235","24.963225","6500600","新店區"
"231052","515-UM","2019/12/16 18:59:17","新北市新店區屈尺路12號","121.548915","24.9226","6500600","新店區"
"231040","617-UM","2019/12/16 18:59:31","新北市新店區中央路131號","121.530343333333","24.9739116666667","6500600","新店區"
"231041","619-UM","2019/12/16 18:59:15","新北市新店區秀山路14號","121.53263","24.9603183333333","6500600","新店區"
"231063","641-BX","2019/12/16 18:59:26","新北市新店區安忠路57巷11弄2號","121.51375","24.9575516666667","6500600","新店區"
"231047","718-UY","2019/12/16 18:59:23","新北市新店區北新路二段92巷8號","121.543565","24.9730766666667","6500600","新店區"
"231046","719-UM","2019/12/16 18:59:34","新北市新店區直潭二街23號","121.5355","24.9420666666667","6500600","新店區"
"231057","720-UM","2019/12/16 18:59:26","新北市新店區百齡一路12號","121.553105","24.932475","6500600","新店區"
"231059","897-TW","2019/12/16 18:59:22","新北市新店區安華路28-1號","121.51972","24.960725","6500600","新店區"
"231043","899-TW","2019/12/16 18:59:32","新北市新店區北新路一段150號","121.542566666667","24.9705633333333","6500600","新店區"
"231066","AKT-0513","2019/12/16 18:59:24","新北市新店區安豐路22巷8號","121.50117","24.9549283333333","6500600","新店區"
"241035","KEA-2210","2019/12/16 18:59:17","新北市三重區重新路四段121號","121.484961666667","25.0521666666667","6500200","三重區"
"235066","003-UY","2019/12/16 18:59:36","新北市中和區中山路二段131巷5弄3號","121.502873333333","25.0028533333333","6500300","中和區"
"235064","005-UY","2019/12/16 18:59:22","新北市中和區中和路40巷16號","121.499423333333","25.0011916666667","6500300","中和區"
"235063","006-UY","2019/12/16 18:59:17","新北市中和區連城路375號","121.487043333333","24.9962166666667","6500300","中和區"
"235056","096-UM","2019/12/16 18:59:33","新北市板橋區三民路二段210號","121.478885","25.011895","6500300","中和區"
"235039","097-UM","2019/12/16 18:59:19","新北市中和區立人街14巷36號","121.519286666667","24.9955416666667","6500300","中和區"
"235065","098-UM","2019/12/16 18:59:18","新北市中和區勝利路35巷22號","121.4991","25.0068966666667","6500300","中和區"
"235040","150-BY","2019/12/16 18:59:30","新北市中和區宜安路1巷12號","121.51302","24.9949266666667","6500300","中和區"
"235058","151-BY","2019/12/16 18:59:18","新北市中和區連城路569巷9弄8號","121.479375","24.9940533333333","6500300","中和區"
"235055","183-VK","2019/12/16 18:59:34","新北市中和區德光路12號","121.471468333333","25.0045616666667","6500300","中和區"
"235038","185-VK","2019/12/16 18:59:25","新北市中和區立人街24-4號","121.51897","24.994165","6500300","中和區"
"235067","255-BX","2019/12/16 18:59:25","新北市中和區新生街166巷14號","121.482946666667","25.00019","6500300","中和區"
"235044","293-VK","2019/12/16 18:59:28","新北市中和區中興街161巷10弄2號","121.501191666667","24.9909283333333","6500300","中和區"
"235072","301-VK","2019/12/16 18:59:23","新北市中和區福美路304號","121.49697","25.0049083333333","6500300","中和區"
"235043","352-BY","2019/12/16 18:59:27","新北市中和區秀朗路三段179號","121.524496666667","24.9905583333333","6500300","中和區"
"235042","KEA-2878","2019/12/16 18:59:24","新北市永和區成功路二段199-1號","121.526606666667","24.9961533333333","6500300","中和區"
"235050","4979-A6","2019/12/16 18:59:30","新北市中和區華新街60號","121.508075","24.9839166666667","6500300","中和區"
"235069","4980-A6","2019/12/16 18:59:33","新北市中和區圓通路109巷7號","121.500095","24.9963183333333","6500300","中和區"
"235070","558-UM","2019/12/16 18:59:16","新北市中和區連城路71號","121.497406666667","25.0011183333333","6500300","中和區"
"235045","565-BX","2019/12/16 18:59:23","新北市中和區景新街467巷35弄3號","121.514483333333","24.989045","6500300","中和區"
"235060","KED-0823","2019/12/16 18:59:31","新北市中和區中山路三段105號","121.474971666667","25.006075","6500300","中和區"
"235054","640-BX","2019/12/16 18:59:26","新北市中和區國光街109巷2弄19號","121.46901","25.0006983333333","6500300","中和區"
"235047","732-UM","2019/12/16 18:59:35","新北市中和區興南路二段97號","121.506091666667","24.9846966666667","6500300","中和區"
"235046","733-UM","2019/12/16 18:59:22","新北市中和區興南路一段129號","121.509026666667","24.98791","6500300","中和區"
"235057","801-TS","2019/12/16 18:59:23","新北市中和區民利街80號","121.478068333333","24.9981883333333","6500300","中和區"
"235041","802-TS","2019/12/16 18:59:29","新北市中和區景安路16號","121.50766","24.99881","6500300","中和區"
"235052","805-TS","2019/12/16 18:59:18","新北市中和區興南路二段347號","121.500241666667","24.9800983333333","6500300","中和區"
"235048","896-TW","2019/12/16 18:59:32","新北市中和區工專路147號","121.508378333333","24.97878","6500300","中和區"
"235053","900-TW","2019/12/16 18:59:32","新北市板橋區和平路190巷12號","121.46447","24.9951383333333","6500300","中和區"
"235051","157-BY","2019/12/16 18:59:28","新北市中和區忠孝街31巷33弄2號","121.509743333333","24.984585","6500300","中和區"
"235037","AAC-213","2019/12/16 18:59:36","新北市中和區秀朗路三段60巷9號","121.52575","24.995055","6500300","中和區"
"235059","AAC-215","2019/12/16 18:59:27","新北市中和區圓通路369巷33弄3號","121.490966666667","24.9881416666667","6500300","中和區"
"207004","KEE-1107","2019/12/16 18:59:20","新北市萬里區萬里里獅頭路23號","121.693261666667","25.1782533333333","6502800","萬里區"
"220054","015-TV","2019/12/16 18:59:30","新北市板橋區重慶路127巷14號","121.463376666667","25.0048533333333","6500100","板橋區"
"220065","072-UY","2019/12/16 18:59:22","新北市板橋區民族路287巷10號","121.471236666667","25.0071133333333","6500100","板橋區"
"220086","073-UY","2019/12/16 18:59:36","新北市板橋區中正路80巷21號","121.457606666667","25.0146716666667","6500100","板橋區"
"220106","075-UY","2019/12/16 18:59:22","新北市板橋區雙十路三段10巷1號","121.471996666667","25.0307216666667","6500100","板橋區"
"220069","AAD-861","2019/12/16 18:59:27","新北市板橋區四川路一段133號","121.459861666667","25.0045566666667","6500100","板橋區"
"226004","312-R5","2019/12/16 18:59:33","新北市平溪區靜安路二段400號","121.738843333333","25.0244333333333","6502400","平溪區"
"235049","251-BX","2019/12/16 18:59:31","新北市中和區景新街208號","121.506711666667","24.9953466666667","6500300","中和區"
"228003","097-TW","2019/12/16 18:59:14","新北市貢寮區和美里龍洞街60號","121.91424","25.1162866666667","6502600","貢寮區"
"228002","663-BX","2019/12/16 18:59:21","新北市貢寮區福隆里東興街106巷25弄1號","121.946451666667","25.0183066666667","6502600","貢寮區"
"228001","670-TC","2019/12/16 18:59:16","新北市貢寮區仁理村研海街12-1號","121.923853333333","25.0515933333333","6502600","貢寮區"
"224006","676-BX","2019/12/16 18:59:25","新北市瑞芳區中正路14號","121.808691666667","25.10701","6501200","瑞芳區"
"224007","285-BY","2019/12/16 18:59:26","新北市瑞芳區瑞竹路92號","121.762838333333","25.1036433333333","6501200","瑞芳區"
"224009","275-VK","2019/12/16 18:59:35","新北市瑞芳區山尖路13號","121.855331666667","25.112745","6501200","瑞芳區"
"224008","272-VK","2019/12/16 18:59:33","新北市瑞芳區逢甲路15號","121.809763333333","25.108675","6501200","瑞芳區"
"224005","271-BY","2019/12/16 18:59:22","新北市瑞芳區瑞濱路185號","121.818101666667","25.1136733333333","6501200","瑞芳區"
"227002","642-TC","2019/12/16 18:59:33","新北市雙溪區平林里外平林16號","121.858581666667","25.0378983333333","6502500","雙溪區"
"227001","400-TW","2019/12/16 18:59:23","新北市雙溪區牡丹里中正路58巷41號","121.866426666667","25.0419783333333","6502500","雙溪區"
"253005","032-BX","2019/12/16 18:59:15","新北市石門區中央路37-2號","121.5686","25.2951166666667","6502200","石門區"
"253006","295-VK","2019/12/16 18:59:29","新北市石門區下員坑42號","121.518015","25.277595","6502200","石門區"
"222001","KEA-2212","2019/12/16 18:59:24","新北市深坑區翠谷街17巷3弄9號","121.62535","25.006935","6501800","深坑區"
"208002","KEA-2872","2019/12/16 18:59:21","新北市金山區信義路35號","121.63549","25.21977","6502700","金山區"
"208003","665-BX","2019/12/16 18:59:35","新北市金山區中正路27號","121.63534","25.222115","6502700","金山區"
"251009","008-UM","2019/12/16 18:59:19","新北市淡水區建設街1巷1號","121.439115","25.172815","6501000","淡水區"
"251015","KEA-2871","2019/12/16 18:59:26","新北市淡水區糞箕湖60號","121.48519","25.1722866666667","6501000","淡水區"
"251016","180-VK","2019/12/16 18:59:21","新北市淡水區淡金路三段329號","121.448701666667","25.2062366666667","6501000","淡水區"
"251013","182-VK","2019/12/16 18:59:17","新北市淡水區安子內3號","121.48759","25.2156116666667","6501000","淡水區"
"251010","413-VK","2019/12/16 18:59:17","新北市淡水區中正路一段156巷51號","121.422085","25.1810783333333","6501000","淡水區"
"251012","441-VK","2019/12/16 18:59:28","新北市淡水區新春街126巷15弄17號","121.44062","25.18091","6501000","淡水區"
"251007","442-VK","2019/12/16 18:59:24","新北市淡水區民生路113巷1弄33號","121.463203333333","25.1386316666667","6501000","淡水區"
"251001","559-UM","2019/12/16 18:59:32","新北市淡水區自強路58號","121.46315","25.127505","6501000","淡水區"
"251014","577-R6","2019/12/16 18:59:18","新北市淡水區小中寮32-1號","121.491431666667","25.2261616666667","6501000","淡水區"
"251011","650-BX","2019/12/16 18:59:29","新北市淡水區鄧公路34號","121.457548333333","25.1689483333333","6501000","淡水區"
"251002","672-BX","2019/12/16 18:59:14","新北市淡水區中正東路55-8號","121.446888333333","25.1678466666667","6501000","淡水區"
"251003","673-BX","2019/12/16 18:59:16","新北市淡水區中山北路一段149巷24號","121.442911666667","25.1779966666667","6501000","淡水區"
"252003","249-BX","2019/12/16 18:59:31","新北市三芝區後厝里北勢子42-11號","121.471576666667","25.2520533333333","6502100","三芝區"
"252001","292-VK","2019/12/16 18:59:30","新北市三芝區中興街二段242號","121.501643333333","25.2531183333333","6502100","三芝區"
"237004","KEA-2597","2019/12/16 18:59:30","新北市三峽區有木145號","121.444633333333","24.8484683333333","6500900","三峽區"
"237007","153-BY","2019/12/16 18:59:32","新北市三峽區中正路二段305號","121.366041666667","24.9107316666667","6500900","三峽區"
"237013","252-BX","2019/12/16 18:59:20","新北市三峽區光明路69巷24號","121.376643333333","24.9290633333333","6500900","三峽區"
"237012","275-BY","2019/12/16 18:59:20","新北市三峽區三樹路222巷24-2號","121.3803","24.9425083333333","6500900","三峽區"
"237008","302-VK","2019/12/16 18:59:18","新北市三峽區大同路168號","121.372726666667","24.9266583333333","6500900","三峽區"
"237014","433-BY","2019/12/16 18:59:26","新北市三峽區隆恩街162號","121.365653333333","24.9436016666667","6500900","三峽區"
"237006","5529-G3","2019/12/16 18:59:33","新北市三峽區溪東路233巷4弄23號","121.407313333333","24.933965","6500900","三峽區"
"237011","KEA-2596","2019/12/16 18:59:33","新北市三峽區橫溪路14號","121.396178333333","24.9359183333333","6500900","三峽區"
"237015","649-BX","2019/12/16 18:59:19","新北市三峽區建安80-3號","121.451821666667","24.9228766666667","6500900","三峽區"
"237010","706-TV","2019/12/16 18:59:16","新北市三峽區復興路176-8號","121.370396666667","24.93847","6500900","三峽區"
"237005","AKY-6261","2019/12/16 18:58:55","新北市三峽區中山路365-1號","121.35764","24.9365216666667","6500900","三峽區"
"236042","KED-0685","2019/12/16 18:59:22","新北市土城區學府路一段189巷13號","121.452503333333","24.9845583333333","6501300","土城區"
"236078","166-UM","2019/12/16 18:59:16","新北市土城區中央路四段462號","121.410215","24.9508616666667","6501300","土城區"
"236030","253-BX","2019/12/16 18:59:31","新北市土城區中央路三段1號","121.439773333333","24.9707116666667","6501300","土城區"
"236026","269-VK","2019/12/16 18:59:25","新北市土城區光明街4號","121.44193","24.9745583333333","6501300","土城區"
"236014","270-VK","2019/12/16 18:59:30","新北市土城區立德路29巷6號","121.462113333333","24.9883816666667","6501300","土城區"
"236039","271-VK","2019/12/16 18:59:25","新北市土城區仁愛路6巷1號","121.459903333333","24.981085","6501300","土城區"
"236069","KEA-2877","2019/12/16 18:59:20","新北市土城區清水路99巷13號","121.45677","24.982365","6501300","土城區"
"252002","KED-0821","2019/12/16 18:59:31","新北市三芝區中正路一段16-1號","121.502895","25.2588016666667","6502100","三芝區"
"236020","401-BY","2019/12/16 18:59:18","新北市土城區明峰街48號","121.467695","24.986435","6501300","土城區"
"236059","912-UM","2019/12/16 18:59:19","新北市土城區金城路二段241號","121.455856666667","24.9826166666667","6501300","土城區"
"236048","913-UM","2019/12/16 18:59:33","新北市土城區青雲路322巷2弄4號","121.458076666667","24.97731","6501300","土城區"
"236063","915-UM","2019/12/16 18:59:23","新北市土城區延和路41巷2弄15號","121.466715","24.9902016666667","6501300","土城區"
"236055","AAC-216","2019/12/16 18:59:33","新北市土城區裕民路24號","121.447693333333","24.9886283333333","6501300","土城區"
"238023","601-UM","2019/12/16 18:59:26","新北市樹林區大慶街150號","121.396753333333","25.0135333333333","6500700","樹林區"
"238019","599-UM","2019/12/16 18:59:32","新北市樹林區東榮街179號","121.413715","24.9813316666667","6500700","樹林區"
"238024","5061-A6","2019/12/16 18:59:22","新北市樹林區八德街636號","121.396786666667","24.9694283333333","6500700","樹林區"
"238022","KEA-2213","2019/12/16 18:59:27","新北市樹林區東興街43號","121.410621666667","24.977665","6500700","樹林區"
"238021","KEA-2539","2019/12/16 18:59:30","新北市樹林區柑園街二段308號","121.373508333333","24.9517633333333","6500700","樹林區"
"238025","303-VK","2019/12/16 18:59:24","新北市樹林區中山路三段40號","121.394753333333","24.972585","6500700","樹林區"
"238017","283-BY","2019/12/16 18:59:25","新北市樹林區八德街1150號","121.39076","24.9684083333333","6500700","樹林區"
"238014","282-BY","2019/12/16 18:59:29","新北市樹林區潭興街143巷4號","121.425655","24.999885","6500700","樹林區"
"238020","268-VK","2019/12/16 18:59:23","新北市樹林區俊英街238號","121.42476","25.0104383333333","6500700","樹林區"
"238026","172-UY","2019/12/16 18:59:20","新北市樹林區德和街28號","121.39079","24.9763266666667","6500700","樹林區"
"238016","169-UY","2019/12/16 18:59:22","新北市樹林區文化街27號","121.419248333333","24.9876666666667","6500700","樹林區"
"239007","AAC-297","2019/12/16 18:59:30","新北市鶯歌區中正一路建德巷26號","121.364805","24.9574466666667","6500800","鶯歌區"
"239008","527-UM","2019/12/16 18:59:18","新北市鶯歌區朝陽街4號","121.336261666667","24.97659","6500800","鶯歌區"
"239005","526-UM","2019/12/16 18:59:19","新北市鶯歌區鳳吉二街138號","121.32838","24.974765","6500800","鶯歌區"
"239001","417-VK","2019/12/16 18:59:27","新北市鶯歌區國中街171-9號","121.33742","24.9384933333333","6500800","鶯歌區"
"239003","360-BY","2019/12/16 18:59:13","新北市鶯歌區永和街55號","121.332675","24.967545","6500800","鶯歌區"
"239002","359-BY","2019/12/16 18:59:24","新北市鶯歌區中山路300號","121.342833333333","24.95712","6500800","鶯歌區"
"239004","193-VK","2019/12/16 18:59:31","新北市鶯歌區中正三路156巷57號","121.33306","24.9401666666667","6500800","鶯歌區"
"221008","489-VK","2019/12/16 18:59:32","新北市汐止區康寧街582號","121.634976666667","25.06986","6501100","汐止區"
"221036","130-UY","2019/12/16 18:59:25","新北市汐止區水碓街55號","121.665155","25.06925","6501100","汐止區"
"221015","131-UY","2019/12/16 18:59:24","新北市汐止區鄉長路一段281號","121.66844","25.07868","6501100","汐止區"
"221032","280-BY","2019/12/16 18:59:30","新北市汐止區橫科路121巷52弄3號","121.622646666667","25.0508733333333","6501100","汐止區"
"221029","298-VK","2019/12/16 18:59:26","新北市汐止區樟樹一路228號","121.64219","25.0666133333333","6501100","汐止區"
"207003","KEE-1020","2019/12/16 18:59:31","新北市萬里區野柳里八斗60號","121.672","25.201185","6502800","萬里區"
"221035","622-UM","2019/12/16 18:59:20","新北市汐止區大同路二段278號","121.654913333333","25.0661883333333","6501100","汐止區"
"221002","707-TV","2019/12/16 18:59:20","新北市汐止區大同路一段2號","121.62105","25.05503","6501100","汐止區"
"220079","145-BY","2019/12/16 18:59:18","新北市板橋區大智街71巷28弄2號","121.453086666667","25.0146366666667","6500100","板橋區"
"220080","200-UY","2019/12/16 18:59:25","新北市板橋區大觀路二段265巷1弄28-2號","121.444156666667","24.998295","6500100","板橋區"
"220082","610-BX","2019/12/16 18:59:28","新北市板橋區滿平街118號","121.428448333333","24.98846","6500100","板橋區"
"220101","245-BX","2019/12/16 18:59:20","新北市板橋區莊敬路208巷2弄6號","121.471676666667","25.02167","6500100","板橋區"
"224002","257-TC","2019/12/16 18:59:25","新北市瑞芳區八分寮路21號","121.793313333333","25.08381","6501200","瑞芳區"
"220056","276-BY","2019/12/16 18:59:32","新北市板橋區信義路148號","121.4589","24.9919283333333","6500100","板橋區"
"220072","277-BY","2019/12/16 18:59:25","新北市板橋區溪北路160號","121.430645","24.9881933333333","6500100","板橋區"
"220071","283-VK","2019/12/16 18:59:23","新北市板橋區重慶路245巷70號","121.465611666667","25.0009733333333","6500100","板橋區"
"220094","285-UM","2019/12/16 18:59:25","新北市板橋區光武街151號","121.465481666667","25.02944","6500100","板橋區"
"220053","285-VK","2019/12/16 18:59:32","新北市板橋區太和街5巷20號","121.473101666667","25.0196866666667","6500100","板橋區"
"220083","286-VK","2019/12/16 18:59:35","新北市板橋區大觀路一段38巷156弄67號","121.442196666667","25.0069883333333","6500100","板橋區"
"220081","287-VK","2019/12/16 18:59:34","新北市板橋區南雅西路二段100號","121.452408333333","25.011745","6500100","板橋區"
"220061","293-UM","2019/12/16 18:59:28","新北市板橋區懷仁街77巷12號","121.47775","25.0187033333333","6500100","板橋區"
"220092","295-UM","2019/12/16 18:59:30","新北市板橋區文化路二段225巷60弄44號","121.469145","25.02946","6500100","板橋區"
"220084","296-UM","2019/12/16 18:59:19","新北市板橋區龍興街32號","121.443023333333","25.0004533333333","6500100","板橋區"
"220075","303-R5","2019/12/16 18:59:15","新北市板橋區福德街2巷2號","121.45615","25.009265","6500100","板橋區"
"220062","305-R5","2019/12/16 18:59:31","新北市板橋區民享街56號","121.47617","25.0151466666667","6500100","板橋區"
"220098","317-R6","2019/12/16 18:59:32","新北市板橋區民生路二段226巷20號","121.47094","25.0218966666667","6500100","板橋區"
"220089","487-VK","2019/12/16 18:59:24","新北市板橋區文化路二段13號","121.468666666667","25.024355","6500100","板橋區"
"220088","491-VK","2019/12/16 18:59:27","新北市板橋區文化路二段182巷7弄9號","121.472215","25.0273466666667","6500100","板橋區"
"220035","560-BX","2019/12/16 18:59:28","新北市板橋區中正路277號","121.455573333333","25.0189433333333","6500100","板橋區"
"220103","561-BX","2019/12/16 18:59:33","新北市板橋區介壽街47號","121.468846666667","25.0197183333333","6500100","板橋區"
"220063","609-BX","2019/12/16 18:59:21","新北市板橋區中山路二段244號","121.478521666667","25.018215","6500100","板橋區"
"220091","637-BX","2019/12/16 18:59:30","新北市板橋區大同街8巷54號","121.477916666667","25.0262","6500100","板橋區"
"220057","686-BX","2019/12/16 18:59:23","新北市板橋區重慶路290號","121.463593333333","24.99897","6500100","板橋區"
"220077","687-BX","2019/12/16 18:59:19","新北市板橋區龍興街65巷1號","121.443441666667","25.0013516666667","6500100","板橋區"
"220093","689-BX","2019/12/16 18:59:31","新北市板橋區民生路三段153號","121.46581","25.0265966666667","6500100","板橋區"
"220102","KEA-2699","2019/12/16 18:59:27","新北市板橋區田單街2巷38號","121.481988333333","25.0275416666667","6500100","板橋區"
"220055","827-TW","2019/12/16 18:59:19","新北市板橋區中山路一段144號","121.463553333333","25.0112333333333","6500100","板橋區"
"220090","829-TW","2019/12/16 18:59:27","新北市板橋區裕民街49號","121.461313333333","25.0285283333333","6500100","板橋區"
"220068","830-TW","2019/12/16 18:59:31","新北市板橋區三民路一段1巷18號","121.47967","25.0242783333333","6500100","板橋區"
"220067","831-TW","2019/12/16 18:59:20","新北市板橋區民享街116巷1號","121.478165","25.01572","6500100","板橋區"
"220074","895-R6","2019/12/16 18:59:25","新北市板橋區後菜園街54號","121.456063333333","25.01011","6500100","板橋區"
"220073","985-R7","2019/12/16 18:59:19","新北市板橋區中正路163-1號","121.456553333333","25.0161616666667","6500100","板橋區"
"220097","AAC-210","2019/12/16 18:59:15","新北市板橋區新海路135巷2號","121.459948333333","25.022925","6500100","板橋區"
"220064","AAC-253","2019/12/16 18:59:28","新北市板橋區板新路14號","121.474531666667","25.0132266666667","6500100","板橋區"
"235061","KEA-2875","2019/12/16 18:59:23","新北市中和區民治街130巷7號","121.474901666667","25.0025916666667","6500300","中和區"
"235068","KEA-2876","2019/12/16 18:59:16","新北市中和區圓通路291巷2號","121.495243333333","24.992585","6500300","中和區"
