"lineid","car","time","location","longitude","latitude","cityid","cityname"
"244002","248-BX","2019/12/17 07:29:34","新北市林口區頂福里71-100號","121.345188333333","25.0843116666667","6501700","林口區"
"222005","289-BY","2019/12/17 07:29:37","新北市深坑區文化街39巷13號","121.618963333333","25.001105","6501800","深坑區"
"223003","205-TH","2019/12/17 07:27:54","新北市石碇區蓬菜寮17號","121.64902","24.9720866666667","6501900","石碇區"
"223008","406-TH","2019/12/17 07:29:42","新北市石碇區南勢坑8號","121.703998333333","24.99469","6501900","石碇區"
"223001","592-UM","2019/12/17 07:29:29","新北市石碇區中楒子腳3號","121.638255","24.971955","6501900","石碇區"
"223004","660-BX","2019/12/17 07:29:43","新北市石碇區新興坑33號","121.647111666667","25.01546","6501900","石碇區"
"223007","661-BX","2019/12/17 07:29:21","新北市石碇區大溪墘11號","121.694976666667","25.0082166666667","6501900","石碇區"
"227004","282-VK","2019/12/17 07:29:32","新北市雙溪區牡丹里自強路18號","121.86531","25.0393583333333","6502500","雙溪區"
"252004","249-BX","2019/12/17 07:29:35","新北市三芝區錫板里棟板頭37-2號","121.503126666667","25.2291683333333","6502100","三芝區"
"252007","AAC-283","2019/12/17 07:29:43","新北市三芝區埔頭里埔頭27-2號","121.49711","25.259775","6502100","三芝區"
