"lineid","car","time","location","longitude","latitude","cityid","cityname"
"235030","003-UY","2019/07/09 11:59:37","新北市中和區員山路36巷16-3號","121.484845","24.9912483333333","6500300","中和區"
"235028","005-UY","2019/07/09 11:47:52","新北市中和區員山路36巷16-3號","121.484915","24.9914333333333","6500300","中和區"
"235026","800-TS","2019/07/09 11:46:33","新北市中和區員山路36巷16-3號","121.48497","24.991415","6500300","中和區"
"228004","212-TW","2019/07/09 11:59:33","新北市貢寮區貢寮里朝陽街1-2號","121.912256666667","25.021285","6502600","貢寮區"
"228005","828-UM","2019/07/09 11:59:23","新北市貢寮區貢寮里朝陽街1-2號","121.912371666667","25.0212466666667","6502600","貢寮區"
"227004","282-VK","2019/07/09 11:59:31","新北市雙溪區魚行里魚杭1號","121.883808333333","25.026555","6502500","雙溪區"
"207002","749-BX","2019/07/09 11:59:43","新北市萬里區萬里里成功新村67號","121.689641666667","25.174235","6502800","萬里區"
"207001","662-BX","2019/07/09 11:59:44","新北市萬里區萬里里獅頭路15-2號","121.696215","25.1798783333333","6502800","萬里區"
