"lineid","car","time","location","longitude","latitude","cityid","cityname"
"234044","148-BY","2019/07/09 14:09:39","新北市永和區得和路402號","121.525556666667","24.9991816666667","6500400","永和區"
"234078","298-R6","2019/07/09 14:09:34","新北市永和區國中路53號","121.52454","25.0061283333333","6500400","永和區"
"234036","336-UY","2019/07/09 14:09:44","新北市永和區成功路一段47巷19號","121.527711666667","25.0038916666667","6500400","永和區"
"234062","337-UY","2019/07/09 14:09:38","新北市永和區永利路152號","121.522471666667","25.0027233333333","6500400","永和區"
"234084","338-UY","2019/07/09 14:09:28","新北市永和區中正路652號","121.516848333333","25.0084483333333","6500400","永和區"
"234068","552-UM","2019/07/09 14:09:25","新北市永和區永貞路10巷8號","121.52043","25.00732","6500400","永和區"
"234015","745-BX","2019/07/09 14:09:42","新北市永和區仁愛路51號","121.513758333333","25.0133033333333","6500400","永和區"
"234028","746-BX","2019/07/09 14:09:27","新北市永和區民權路51號","121.52009","24.9971316666667","6500400","永和區"
"234052","KEA-2590","2019/07/09 14:09:41","新北市永和區博愛街20巷2號","121.51772","25.0158016666667","6500400","永和區"
"234005","KED-0605","2019/07/09 14:09:35","新北市中和區中和路232號","121.506795","24.999535","6500400","永和區"
"234012","KEA-2591","2019/07/09 14:09:25","新北市永和區永貞路431號","121.506928333333","25.0098733333333","6500400","永和區"
"234060","748-BX","2019/07/09 14:09:39","新北市中和區安樂路241號","121.514128333333","24.9993683333333","6500400","永和區"
"234040","862-TW","2019/07/09 14:09:41","新北市永和區雙和街52巷1號","121.508906666667","25.00334","6500400","永和區"
"234048","863-TW","2019/07/09 14:09:31","新北市永和區環河西路二段17號","121.50777","25.016025","6500400","永和區"
"234025","9371-KE","2019/07/09 14:09:26","新北市永和區安樂路274號","121.514731666667","25.0042166666667","6500400","永和區"
"234010","9373-KE","2019/07/09 14:09:30","新北市永和區仁愛路352巷124號","121.50015","25.0085266666667","6500400","永和區"
"248017","KED-0813","2019/07/09 14:09:34","新北市五股區民義路一段295號","121.424898333333","25.0934483333333","6501500","五股區"
"234022","9380-KE","2019/07/09 14:09:26","新北市永和區博愛街32巷17-1號","121.518851666667","25.0152316666667","6500400","永和區"
"234076","969-R7","2019/07/09 14:09:33","新北市永和區民有街75巷8號","121.518356666667","24.9961833333333","6500400","永和區"
"234072","AAC-211","2019/07/09 14:09:27","新北市永和區竹林路201巷22弄1號","121.52206","25.0093916666667","6500400","永和區"
"234066","AAC-212","2019/07/09 14:09:31","新北市永和區保平路214巷1弄11號","121.50909","25.005785","6500400","永和區"
"234001","AAC-295","2019/07/09 14:09:42","新北市永和區中正路579號","121.51658","25.0088933333333","6500400","永和區"
"244002","248-BX","2019/07/09 13:55:36","","121.352315","25.07027","6501700","林口區"
"231030","002-UM","2019/07/09 14:09:40","新北市新店區安興路7-1號","121.514953333333","24.9685233333333","6500600","新店區"
"231027","0293-UT","2019/07/09 14:09:26","新北市新店區中興路一段24號","121.538645","24.958285","6500600","新店區"
"231005","046-UY","2019/07/09 14:09:42","新北市新店區中興路三段295號","121.542233333333","24.9849783333333","6500600","新店區"
"231029","106-UY","2019/07/09 14:09:25","新北市新店區安康路二段149-1號","121.510883333333","24.9597133333333","6500600","新店區"
"231018","107-UY","2019/07/09 14:09:39","新北市新店區中央路133巷27弄22號","121.532281666667","24.9739016666667","6500600","新店區"
"231013","108-UY","2019/07/09 14:09:30","新北市新店區北新路三段65巷34弄28號","121.540071666667","24.981955","6500600","新店區"
"231036","110-UY","2019/07/09 14:09:27","新北市新店區安祥路109巷1弄95號","121.478908333333","24.9602983333333","6500600","新店區"
"231032","256-BX","2019/07/09 14:09:40","新北市新店區太平路27號","121.533751666667","24.9582866666667","6500600","新店區"
"231023","260-TV","2019/07/09 14:09:39","新北市新店區文中路40號","121.539653333333","24.956575","6500600","新店區"
"231003","268-BY","2019/07/09 14:09:37","新北市新店區中興路一段94號","121.540098333333","24.9606016666667","6500600","新店區"
"231035","278-BY","2019/07/09 14:09:37","新北市新店區安和路一段52巷2-1號","121.517691666667","24.9664033333333","6500600","新店區"
"231015","AAD-862","2019/07/09 14:09:25","新北市新店區北宜路二段150-2號","121.558065","24.9540533333333","6500600","新店區"
"231006","355-BY","2019/07/09 14:09:24","新北市新店區北宜路二段207號","121.553118333333","24.9533416666667","6500600","新店區"
"231038","3712-VJ","2019/07/09 14:09:35","新北市新店區溪洲路121號","121.531231666667","24.9629966666667","6500600","新店區"
"231024","4716-K9","2019/07/09 14:09:39","新北市新店區中央路183-1號","121.53604","24.96889","6500600","新店區"
"231025","4715-K9","2019/07/09 14:09:26","新北市新店區自立街23號","121.537678333333","24.9793783333333","6500600","新店區"
"231020","513-UM","2019/07/09 14:09:35","新北市新店區屈尺路75號","121.545565","24.9227383333333","6500600","新店區"
"231002","619-UM","2019/07/09 14:09:29","新北市新店區中正路487號","121.533793333333","24.982145","6500600","新店區"
"231034","641-BX","2019/07/09 14:09:34","新北市新店區車子路22-2號","121.504593333333","24.953605","6500600","新店區"
"231012","KED-0819","2019/07/09 14:09:24","新北市新店區五峰路63巷8弄36號","121.54764","24.969155","6500600","新店區"
"231026","720-UM","2019/07/09 14:09:31","新北市新店區安康路一段140號","121.52652","24.962865","6500600","新店區"
"231028","897-TW","2019/07/09 14:09:30","新北市新店區安和路三段153號","121.516588333333","24.985665","6500600","新店區"
"231001","898-TW","2019/07/09 14:09:41","新北市新店區中華路66號","121.539228333333","24.969075","6500600","新店區"
"231004","899-TW","2019/07/09 14:09:45","新北市新店區北新路二段173號","121.542751666667","24.9766416666667","6500600","新店區"
"231037","AKT-0513","2019/07/09 14:09:25","新北市新店區安康路三段165巷2弄10號","121.489155","24.9513316666667","6500600","新店區"
"235030","003-UY","2019/07/09 14:09:42","新北市中和區中和路102號","121.502726666667","24.9997533333333","6500300","中和區"
"235028","005-UY","2019/07/09 14:09:27","新北市中和區連城路4號","121.499213333333","25.0023133333333","6500300","中和區"
"235027","006-UY","2019/07/09 14:09:30","新北市中和區連城路249巷26弄2號","121.494468333333","24.9956116666667","6500300","中和區"
"235020","096-UM","2019/07/09 14:09:37","新北市中和區中山路二段598號","121.481956666667","25.0052833333333","6500300","中和區"
"235003","097-UM","2019/07/09 14:09:34","新北市中和區秀峰街103巷6弄12號","121.519721666667","24.99002","6500300","中和區"
"235029","098-UM","2019/07/09 14:09:40","新北市中和區中山路二段64巷12弄4號","121.503825","25.00523","6500300","中和區"
"235004","150-BY","2019/07/09 14:09:39","新北市中和區保健路44巷23號","121.508956666667","24.9965616666667","6500300","中和區"
"235022","151-BY","2019/07/09 14:09:23","新北市中和區中正路637巷60弄61號","121.485453333333","24.9932266666667","6500300","中和區"
"235019","183-VK","2019/07/09 14:09:39","新北市中和區莒光路3巷11號","121.472216666667","25.0060566666667","6500300","中和區"
"235002","185-VK","2019/07/09 14:09:43","新北市中和區大仁街20巷53號","121.519608333333","24.9932916666667","6500300","中和區"
"235013","186-VK","2019/07/09 14:09:41","新北市中和區景新街243號","121.508275","24.9943516666667","6500300","中和區"
"235031","255-BX","2019/07/09 14:09:42","新北市中和區連城路459號","121.484325","24.9962316666667","6500300","中和區"
"235008","293-VK","2019/07/09 14:09:37","新北市中和區中興街214號","121.49949","24.9899883333333","6500300","中和區"
"235036","301-VK","2019/07/09 14:09:36","新北市中和區福美路298-1號","121.497443333333","25.0050133333333","6500300","中和區"
"235007","352-BY","2019/07/09 14:09:26","新北市中和區景平路182號","121.51621","24.99232","6500300","中和區"
"235006","KEA-2878","2019/07/09 14:09:25","新北市中和區自強路11號","121.520203333333","24.9934816666667","6500300","中和區"
"247013","KEA-2869","2019/07/09 14:09:33","新北市蘆洲區忠孝路57號","121.471351666667","25.0867066666667","6501400","蘆洲區"
"247007","KED-0682","2019/07/09 14:09:34","新北市蘆洲區中山一路230號","121.472916666667","25.0803833333333","6501400","蘆洲區"
"235014","4979-A6","2019/07/09 14:09:44","新北市中和區復興路263巷9弄9號","121.503193333333","24.98983","6500300","中和區"
"235033","4980-A6","2019/07/09 14:09:29","新北市中和區中和路167號","121.502896666667","25.00015","6500300","中和區"
"235034","558-UM","2019/07/09 14:09:35","新北市中和區連城路47巷8號","121.497948333333","25.001495","6500300","中和區"
"235009","565-BX","2019/07/09 14:09:30","新北市中和區景新街423巷35弄19號","121.513866666667","24.9904616666667","6500300","中和區"
"235024","KED-0823","2019/07/09 14:09:26","新北市中和區中山路三段93號","121.475363333333","25.0059816666667","6500300","中和區"
"235018","640-BX","2019/07/09 14:09:30","新北市中和區國光街112巷18弄19號","121.47057","25.001975","6500300","中和區"
"235011","732-UM","2019/07/09 14:09:39","新北市中和區興南路一段50號","121.51094","24.99053","6500300","中和區"
"235010","733-UM","2019/07/09 14:09:40","新北市中和區華新街115號","121.507258333333","24.9821116666667","6500300","中和區"
"235035","783-BX","2019/07/09 14:09:33","新北市中和區中山路二段476-9號","121.48868","25.006155","6500300","中和區"
"235021","801-TS","2019/07/09 14:09:42","新北市中和區員山路423巷15號","121.48039","25.0028216666667","6500300","中和區"
"235005","802-TS","2019/07/09 14:09:38","新北市中和區宜安路118巷18號","121.510805","24.9986316666667","6500300","中和區"
"235016","805-TS","2019/07/09 14:09:41","新北市中和區興南路二段142巷19弄38號","121.502608333333","24.983515","6500300","中和區"
"235017","900-TW","2019/07/09 14:09:34","新北市中和區華安街30巷16-1號","121.466858333333","24.9973583333333","6500300","中和區"
"235012","911-UM","2019/07/09 14:09:43","新北市中和區華新街109巷11弄2-1號","121.50826","24.9800233333333","6500300","中和區"
"235015","157-BY","2019/07/09 14:09:38","新北市中和區和平街2巷4弄1號","121.510018333333","24.9906766666667","6500300","中和區"
"235001","AAC-213","2019/07/09 14:09:39","新北市中和區秀朗路三段10巷37弄6號","121.523878333333","24.995745","6500300","中和區"
"235023","AAC-215","2019/07/09 14:09:29","新北市中和區圓通路294巷17-5號","121.488615","24.9904633333333","6500300","中和區"
"220016","015-TV","2019/07/09 14:09:30","新北市板橋區翠華街6巷53號","121.48143","25.0246616666667","6500100","板橋區"
"220013","072-UY","2019/07/09 14:09:38","新北市板橋區民族路219巷1號","121.469466666667","25.007635","6500100","板橋區"
"220034","073-UY","2019/07/09 14:09:40","新北市板橋區中正路236巷17號","121.456668333333","25.0191483333333","6500100","板橋區"
"220105","075-UY","2019/07/09 14:09:26","新北市板橋區長江路二段280-1號","121.46998","25.0327983333333","6500100","板橋區"
"220017","AAD-861","2019/07/09 14:09:41","新北市板橋區華興街44號","121.458473333333","25.00476","6500100","板橋區"
"220047","120-SR","2019/07/09 14:09:25","新北市板橋區民有街18號","121.466185","25.0249816666667","6500100","板橋區"
"247003","893-R6","2019/07/09 14:09:41","新北市蘆洲區長安街209號","121.459825","25.08217","6501400","蘆洲區"
"247017","546-UM","2019/07/09 14:09:40","新北市蘆洲區民族路227巷18號","121.476895","25.0892383333333","6501400","蘆洲區"
"247023","337-TH","2019/07/09 14:09:39","新北市蘆洲區光明路132號","121.463943333333","25.0883916666667","6501400","蘆洲區"
"247001","336-TH","2019/07/09 14:09:44","新北市蘆洲區永平街65號","121.457268333333","25.0915966666667","6501400","蘆洲區"
"247021","057-VK","2019/07/09 14:09:28","新北市蘆洲區保和街22號","121.470683333333","25.0865633333333","6501400","蘆洲區"
"247011","056-VK","2019/07/09 14:09:23","新北市蘆洲區信義路317號","121.478363333333","25.0864533333333","6501400","蘆洲區"
"247015","053-VK","2019/07/09 14:09:24","新北市蘆洲區光華路46巷23號","121.468178333333","25.08368","6501400","蘆洲區"
"247019","007-UY","2019/07/09 14:09:37","新北市蘆洲區仁愛街36巷18號","121.472765","25.0935783333333","6501400","蘆洲區"
"247005","002-UY","2019/07/09 14:09:24","新北市蘆洲區九芎街39號","121.46811","25.0785633333333","6501400","蘆洲區"
"228004","212-TW","2019/07/09 14:09:33","新北市貢寮區雙玉里德心街9-1號","121.91848","25.0159766666667","6502600","貢寮區"
"228005","828-UM","2019/07/09 14:09:43","新北市貢寮區美豐里土地公嶺10-5號","121.892208333333","25.05686","6502600","貢寮區"
"207002","749-BX","2019/07/09 14:09:43","新北市萬里區溪底里富士坪路19號","121.624411666667","25.1486233333333","6502800","萬里區"
"207001","662-BX","2019/07/09 14:09:44","新北市萬里區磺潭里清水18-2號","121.638606666667","25.1984033333333","6502800","萬里區"
"252005","AAC-283","2019/07/09 14:09:29","新北市三芝區橫山里橫山21號","121.539841666667","25.2627483333333","6502100","三芝區"
"236040","KED-0685","2019/07/09 14:09:28","新北市土城區城林路6巷80號","121.438535","24.97971","6501300","土城區"
"220038","KED-0812","2019/07/09 14:09:42","新北市板橋區文化路一段339號","121.466503333333","25.0206883333333","6500100","板橋區"
"236029","253-BX","2019/07/09 14:09:35","新北市土城區興城路79號","121.439851666667","24.9707766666667","6501300","土城區"
"236024","269-VK","2019/07/09 14:09:36","新北市土城區承天路26號","121.439561666667","24.963275","6501300","土城區"
"236013","270-VK","2019/07/09 14:09:40","新北市土城區青雲路39巷7號","121.460286666667","24.9875516666667","6501300","土城區"
"236032","271-VK","2019/07/09 14:09:25","新北市土城區青雲路449號","121.45881","24.974925","6501300","土城區"
"247009","KED-0683","2019/07/09 14:09:30","新北市蘆洲區三民路50號","121.475476666667","25.0832033333333","6501400","蘆洲區"
"236065","KEA-2877","2019/07/09 14:09:29","新北市土城區明德路一段280-1號","121.457588333333","24.977425","6501300","土城區"
"236017","401-BY","2019/07/09 14:09:36","新北市土城區城林路6巷80號","121.43852","24.9798133333333","6501300","土城區"
"236060","752-BX","2019/07/09 14:09:27","新北市土城區金城路二段386號","121.463465","24.9856516666667","6501300","土城區"
"236057","912-UM","2019/07/09 14:09:37","新北市土城區中央路四段133-1號","121.416038333333","24.9574533333333","6501300","土城區"
"236045","913-UM","2019/07/09 14:09:35","新北市土城區中正路69號","121.444676666667","24.9756216666667","6501300","土城區"
"236054","AAC-216","2019/07/09 14:09:39","新北市土城區中華路二段92號","121.43822","24.97477","6501300","土城區"
"221029","298-VK","2019/07/09 14:09:40","新北市新店區寶興路63巷31號","121.551991666667","24.97188","6501100","汐止區"
"220027","145-BY","2019/07/09 14:09:24","新北市板橋區中正路43號","121.45628","25.013385","6500100","板橋區"
"220028","200-UY","2019/07/09 14:09:33","新北市板橋區大觀路二段力行1巷3弄2號","121.445348333333","24.9991333333333","6500100","板橋區"
"220030","610-BX","2019/07/09 14:09:45","新北市板橋區溪崑二街16號","121.428795","24.991615","6500100","板橋區"
"220050","245-BX","2019/07/09 14:09:29","新北市板橋區雙十路二段149號","121.474765","25.0281333333333","6500100","板橋區"
"220004","276-BY","2019/07/09 14:09:37","新北市板橋區信義路74巷1弄7號","121.45742","24.9929266666667","6500100","板橋區"
"220020","277-BY","2019/07/09 14:09:41","新北市板橋區金門街328-1號","121.428378333333","24.9847833333333","6500100","板橋區"
"220043","283-UM","2019/07/09 14:09:43","新北市板橋區吳鳳路19-7號","121.467016666667","25.03093","6500100","板橋區"
"220019","283-VK","2019/07/09 14:09:31","新北市板橋區忠孝路154巷34-2號","121.46412","25.0016333333333","6500100","板橋區"
"220001","285-VK","2019/07/09 14:09:41","新北市板橋區懷仁街25巷18號","121.47697","25.019955","6500100","板橋區"
"220031","286-VK","2019/07/09 14:09:42","新北市板橋區大觀路二段174巷176弄10號","121.44262","25.00328","6500100","板橋區"
"220029","287-VK","2019/07/09 14:09:35","新北市板橋區南雅西路二段156巷53號","121.452416666667","25.0127083333333","6500100","板橋區"
"220039","288-VK","2019/07/09 14:09:40","新北市板橋區長江路一段106巷11號","121.460025","25.0290916666667","6500100","板橋區"
"220009","295-UM","2019/07/09 14:09:40","新北市板橋區中山路二段318巷20弄44號","121.481358333333","25.0188516666667","6500100","板橋區"
"220032","296-UM","2019/07/09 14:09:40","新北市板橋區篤行路一段16號","121.431268333333","24.995485","6500100","板橋區"
"220023","303-R5","2019/07/09 14:09:44","新北市板橋區大智街25巷28號","121.454255","25.0148633333333","6500100","板橋區"
"220010","305-R5","2019/07/09 14:09:40","新北市板橋區三民路二段居仁巷1弄55-1號","121.48119","25.0136066666667","6500100","板橋區"
"220041","307-R5","2019/07/09 14:09:42","新北市板橋區松江街72巷31號","121.469665","25.0279183333333","6500100","板橋區"
"220037","491-VK","2019/07/09 14:09:25","新北市板橋區文化路二段182巷1弄30號","121.472015","25.0282666666667","6500100","板橋區"
"220104","560-BX","2019/07/09 14:09:40","新北市板橋區中正路399巷3號","121.453885","25.0221483333333","6500100","板橋區"
"220052","561-BX","2019/07/09 14:09:26","新北市板橋區文化路一段216號","121.46646","25.0203583333333","6500100","板橋區"
"220011","609-BX","2019/07/09 14:09:33","新北市板橋區三民路二段202-6號","121.478995","25.0144116666667","6500100","板橋區"
"220040","637-BX","2019/07/09 14:09:35","新北市板橋區縣民大道三段223號","121.480596666667","25.0254133333333","6500100","板橋區"
"220005","686-BX","2019/07/09 14:09:32","新北市板橋區國慶路189號","121.462855","24.99639","6500100","板橋區"
"220025","687-BX","2019/07/09 14:09:28","新北市板橋區龍興街65巷2號","121.443683333333","25.0014816666667","6500100","板橋區"
"220042","689-BX","2019/07/09 14:09:38","新北市板橋區新海路5-1號","121.462693333333","25.02048","6500100","板橋區"
"220002","741-BX","2019/07/09 14:09:43","新北市板橋區館前東路100-2號","121.462895","25.0071433333333","6500100","板橋區"
"220051","KEA-2699","2019/07/09 14:09:28","新北市板橋區田單街49巷1弄25號","121.48249","25.0291433333333","6500100","板橋區"
"220003","827-TW","2019/07/09 14:09:25","新北市板橋區新民街7巷1號","121.46369","25.009825","6500100","板橋區"
"220014","829-TW","2019/07/09 14:09:33","新北市板橋區民享街116巷1弄2號","121.477946666667","25.0158016666667","6500100","板橋區"
"220022","895-R6","2019/07/09 14:09:40","新北市板橋區林園街41號","121.453738333333","25.0099966666667","6500100","板橋區"
"220021","985-R7","2019/07/09 14:09:40","新北市板橋區民權路216號","121.458811666667","25.0140983333333","6500100","板橋區"
"220046","AAC-210","2019/07/09 14:09:37","新北市板橋區幸福路60巷41號","121.460465","25.0211766666667","6500100","板橋區"
"220012","AAC-253","2019/07/09 14:09:37","新北市板橋區漢生東路83巷2號","121.466983333333","25.0158066666667","6500100","板橋區"
"235032","KEA-2873","2019/07/09 14:09:30","新北市中和區景平路483號","121.500275","24.9975233333333","6500300","中和區"
"235025","KEA-2875","2019/07/09 14:09:34","新北市中和區員山路143巷34弄2號","121.479573333333","24.9956866666667","6500300","中和區"
"235026","KEA-2876","2019/07/09 14:09:18","新北市中和區中山路二段340巷49號","121.493125","25.00424","6500300","中和區"
