"lineid","car","time","location","longitude","latitude","cityid","cityname"
"234062","337-UY","2019/07/09 14:39:38","新北市永和區環河西路二段247號","121.49993","25.009435","6500400","永和區"
"234068","552-UM","2019/07/09 14:39:45","新北市永和區環河西路二段215號","121.501301666667","25.0105666666667","6500400","永和區"
"234028","746-BX","2019/07/09 14:39:27","新北市中和區中正路76號","121.500663333333","24.99367","6500400","永和區"
"234040","862-TW","2019/07/09 14:39:41","新北市永和區光復街33巷7號","121.515661666667","25.0181066666667","6500400","永和區"
"234025","9371-KE","2019/07/09 14:39:26","新北市永和區雙和街9號","121.509638333333","25.001745","6500400","永和區"
"248017","KED-0813","2019/07/09 14:39:34","新北市五股區外寮路13-1號","121.424928333333","25.0812783333333","6501500","五股區"
"234072","AAC-211","2019/07/09 14:39:39","新北市永和區環河東路二段54號","121.523306666667","25.0116316666667","6500400","永和區"
"244002","248-BX","2019/07/09 14:39:24","新北市林口區寶林路42號","121.384916666667","25.0842683333333","6501700","林口區"
"231030","002-UM","2019/07/09 14:39:40","新北市新店區安民街135號","121.516445","24.96933","6500600","新店區"
"231027","0293-UT","2019/07/09 14:39:26","新北市新店區寶橋路85巷23號","121.545323333333","24.9762733333333","6500600","新店區"
"231005","046-UY","2019/07/09 14:39:22","新北市新店區復興路76號","121.537493333333","24.986855","6500600","新店區"
"231029","106-UY","2019/07/09 14:39:25","新北市新店區安康路三段230號","121.488073333333","24.9518366666667","6500600","新店區"
"231018","107-UY","2019/07/09 14:39:39","新北市新店區中央五街30號","121.528876666667","24.9746016666667","6500600","新店區"
"231013","108-UY","2019/07/09 14:39:30","新北市新店區民族路16-1號","121.541156666667","24.9788383333333","6500600","新店區"
"231036","110-UY","2019/07/09 14:39:27","新北市新店區安祥路106巷238號","121.47352","24.9595833333333","6500600","新店區"
"231032","256-BX","2019/07/09 14:39:29","新北市新店區安業街285號","121.526643333333","24.9680633333333","6500600","新店區"
"231023","260-TV","2019/07/09 14:39:39","新北市新店區檳榔路109號","121.544451666667","24.961615","6500600","新店區"
"231003","268-BY","2019/07/09 14:39:37","新北市新店區中興路二段192號","121.54828","24.9734333333333","6500600","新店區"
"231035","278-BY","2019/07/09 14:39:38","新北市新店區安德街2號","121.51227","24.9627","6500600","新店區"
"231015","AAD-862","2019/07/09 14:39:45","新北市新店區北宜路三段221號","121.592386666667","24.9532366666667","6500600","新店區"
"231006","355-BY","2019/07/09 14:39:24","新北市新店區北宜路二段155號","121.551993333333","24.9532183333333","6500600","新店區"
"231038","3712-VJ","2019/07/09 14:39:35","新北市新店區安華路28-1號","121.519658333333","24.96089","6500600","新店區"
"231020","513-UM","2019/07/09 14:39:35","新北市新店區桂山路71巷2號","121.566633333333","24.9003983333333","6500600","新店區"
"231002","619-UM","2019/07/09 14:39:32","新北市新店區中正路468號","121.533933333333","24.9794833333333","6500600","新店區"
"231034","641-BX","2019/07/09 14:39:41","新北市新店區黎明路51巷1號","121.50202","24.9493683333333","6500600","新店區"
"231012","KED-0819","2019/07/09 14:39:24","新北市新店區寶橋路48號","121.545768333333","24.9751483333333","6500600","新店區"
"231028","897-TW","2019/07/09 14:39:29","新北市新店區安德街84號","121.510015","24.961505","6500600","新店區"
"231001","898-TW","2019/07/09 14:39:41","新北市新店區中正路45號","121.544826666667","24.9699033333333","6500600","新店區"
"231004","899-TW","2019/07/09 14:39:39","新北市新店區中正路324號","121.536991666667","24.97477","6500600","新店區"
"231037","AKT-0513","2019/07/09 14:39:25","新北市新店區柴埕路2-2號","121.514438333333","24.9659483333333","6500600","新店區"
"235030","003-UY","2019/07/09 14:39:42","新北市中和區安和路209號","121.505896666667","24.99881","6500300","中和區"
"235027","006-UY","2019/07/09 14:39:30","新北市中和區連城路174巷21-1號","121.492373333333","24.99855","6500300","中和區"
"235020","096-UM","2019/07/09 14:39:37","新北市中和區中山路三段114巷21號","121.475556666667","25.0080283333333","6500300","中和區"
"235003","097-UM","2019/07/09 14:39:34","新北市中和區安平路208號","121.513585","24.9996466666667","6500300","中和區"
"235029","098-UM","2019/07/09 14:39:40","新北市中和區永和路56號","121.499268333333","25.0042366666667","6500300","中和區"
"235004","150-BY","2019/07/09 14:39:36","新北市中和區宜安路20號","121.513243333333","24.99569","6500300","中和區"
"235022","151-BY","2019/07/09 14:39:43","新北市中和區員山路150巷2弄43號","121.481986666667","24.9975416666667","6500300","中和區"
"235019","183-VK","2019/07/09 14:39:39","新北市中和區德光路84號","121.468971666667","25.003635","6500300","中和區"
"235002","185-VK","2019/07/09 14:39:43","新北市永和區民生路46巷48號","121.521196666667","24.99629","6500300","中和區"
"235013","186-VK","2019/07/09 14:39:30","新北市中和區景平路522號","121.503235","24.99399","6500300","中和區"
"235031","255-BX","2019/07/09 14:39:42","新北市中和區中正路751巷3弄12號","121.484281666667","24.9993216666667","6500300","中和區"
"235008","293-VK","2019/07/09 14:39:37","新北市中和區興南路一段113號","121.50923","24.9879883333333","6500300","中和區"
"235036","301-VK","2019/07/09 14:39:36","新北市中和區保平路362巷11號","121.505763333333","25.0039866666667","6500300","中和區"
"235007","352-BY","2019/07/09 14:39:26","新北市中和區景平路474號","121.505435","24.9935933333333","6500300","中和區"
"235006","KEA-2878","2019/07/09 14:39:45","新北市中和區宜安路171號","121.508398333333","24.9990366666667","6500300","中和區"
"247013","KEA-2869","2019/07/09 14:39:33","新北市蘆洲區成功路132號","121.47219","25.0827816666667","6501400","蘆洲區"
"247007","KED-0682","2019/07/09 14:39:34","新北市蘆洲區成功路21號","121.473236666667","25.0791933333333","6501400","蘆洲區"
"235034","558-UM","2019/07/09 14:39:35","新北市中和區連城路127巷35號","121.497446666667","24.997075","6500300","中和區"
"235024","KED-0823","2019/07/09 14:39:28","新北市中和區中山路二段497號","121.482456666667","25.0050366666667","6500300","中和區"
"235018","640-BX","2019/07/09 14:39:30","新北市中和區中山路三段197號","121.472295","25.0064233333333","6500300","中和區"
"235011","732-UM","2019/07/09 14:39:23","新北市中和區和平街5號","121.509601666667","24.99012","6500300","中和區"
"235010","733-UM","2019/07/09 14:39:40","新北市中和區景新街496巷8弄2號","121.513563333333","24.9869233333333","6500300","中和區"
"235035","783-BX","2019/07/09 14:39:33","新北市中和區連城路248號","121.48734","24.9965583333333","6500300","中和區"
"235005","802-TS","2019/07/09 14:39:38","新北市中和區宜安路118巷16號","121.510755","24.9985783333333","6500300","中和區"
"235016","805-TS","2019/07/09 14:39:41","新北市中和區華新街192巷13號","121.50659","24.9826566666667","6500300","中和區"
"235017","900-TW","2019/07/09 14:39:34","新北市中和區國光街215巷4弄2號","121.466318333333","25.0018666666667","6500300","中和區"
"235012","911-UM","2019/07/09 14:39:43","新北市中和區四維街24巷1號","121.512675","24.98758","6500300","中和區"
"235015","157-BY","2019/07/09 14:39:38","新北市中和區復興路301巷16號","121.501605","24.9895533333333","6500300","中和區"
"235001","AAC-213","2019/07/09 14:39:38","新北市中和區自立路193號","121.524351666667","24.9913033333333","6500300","中和區"
"235023","AAC-215","2019/07/09 14:39:29","新北市中和區圓通路305巷7弄1號","121.493721666667","24.98998","6500300","中和區"
"220016","015-TV","2019/07/09 14:39:30","新北市板橋區中山路二段412巷16-1號","121.483318333333","25.0202166666667","6500100","板橋區"
"220013","072-UY","2019/07/09 14:39:38","新北市板橋區國泰街111巷15號","121.466163333333","25.0060166666667","6500100","板橋區"
"220034","073-UY","2019/07/09 14:39:40","新北市板橋區中正路250巷57號","121.457926666667","25.0197766666667","6500100","板橋區"
"220105","075-UY","2019/07/09 14:39:26","新北市板橋區民治街57巷28號","121.48021","25.0338516666667","6500100","板橋區"
"220017","AAD-861","2019/07/09 14:39:41","新北市板橋區貴興路77號","121.456843333333","25.0030233333333","6500100","板橋區"
"220047","120-SR","2019/07/09 14:39:45","新北市板橋區民生路三段281巷2弄18號","121.463366666667","25.0305716666667","6500100","板橋區"
"247003","893-R6","2019/07/09 14:39:40","新北市五股區更洲路47-1號","121.456733333333","25.0793533333333","6501400","蘆洲區"
"247023","337-TH","2019/07/09 14:39:39","新北市蘆洲區正和街63巷22號","121.469291666667","25.080545","6501400","蘆洲區"
"247001","336-TH","2019/07/09 14:39:24","新北市蘆洲區長安街274巷3號","121.45778","25.08706","6501400","蘆洲區"
"247011","056-VK","2019/07/09 14:39:43","新北市蘆洲區集賢路224巷37弄1號","121.480731666667","25.0879716666667","6501400","蘆洲區"
"247015","053-VK","2019/07/09 14:39:44","新北市蘆洲區正和街56號","121.469026666667","25.08142","6501400","蘆洲區"
"247019","007-UY","2019/07/09 14:39:36","新北市蘆洲區民義街68巷21號","121.474028333333","25.0899066666667","6501400","蘆洲區"
"247005","002-UY","2019/07/09 14:39:44","新北市蘆洲區中華街65號","121.462328333333","25.0807633333333","6501400","蘆洲區"
"228004","212-TW","2019/07/09 14:39:33","新北市貢寮區福隆里龜壽谷街31-3號","121.9465","25.01463","6502600","貢寮區"
"228005","828-UM","2019/07/09 14:39:23","新北市貢寮區美豐里雞母嶺街6-6號","121.902081666667","25.064225","6502600","貢寮區"
"207002","749-BX","2019/07/09 14:38:22","新北市萬里區溪底里溪底路14號","121.61494","25.1506833333333","6502800","萬里區"
"207001","662-BX","2019/07/09 14:39:44","新北市萬里區雙興里豐稟路27-2號","121.641141666667","25.188435","6502800","萬里區"
"252005","AAC-283","2019/07/09 14:39:29","新北市三芝區埔坪里埔頭坑142-1號","121.512291666667","25.2481716666667","6502100","三芝區"
"236040","KED-0685","2019/07/09 14:39:28","新北市土城區裕民路92巷18號","121.449813333333","24.9863733333333","6501300","土城區"
"220038","KED-0812","2019/07/09 14:39:22","新北市板橋區龍泉街108巷7-1號","121.456448333333","25.02451","6500100","板橋區"
"236029","253-BX","2019/07/09 14:39:35","新北市土城區中華路二段100號","121.438155","24.9743733333333","6501300","土城區"
"236024","269-VK","2019/07/09 14:39:36","新北市土城區忠義路47-1號","121.440751666667","24.9694633333333","6501300","土城區"
"236013","270-VK","2019/07/09 14:39:41","新北市土城區清水路234巷15弄3號","121.461708333333","24.9822283333333","6501300","土城區"
"236032","271-VK","2019/07/09 14:39:45","新北市土城區明德路一段247巷21號","121.463165","24.977445","6501300","土城區"
"236065","KEA-2877","2019/07/09 14:39:29","新北市土城區永豐路340巷8-1號","121.474203333333","24.9768616666667","6501300","土城區"
"236017","401-BY","2019/07/09 14:39:36","新北市土城區延吉街250號","121.466541666667","24.9847083333333","6501300","土城區"
"236060","752-BX","2019/07/09 14:39:27","新北市土城區延壽路13巷19號","121.469881666667","24.99133","6501300","土城區"
"236057","912-UM","2019/07/09 14:39:37","新北市土城區中央路三段155號","121.432058333333","24.9654366666667","6501300","土城區"
"236045","913-UM","2019/07/09 14:39:35","新北市土城區金城路三段1號","121.464193333333","24.9860833333333","6501300","土城區"
"236054","AAC-216","2019/07/09 14:39:39","新北市土城區裕民路22號","121.44765","24.9886183333333","6501300","土城區"
"220027","145-BY","2019/07/09 14:39:30","新北市板橋區民權路202巷13弄34號","121.458656666667","25.0163633333333","6500100","板橋區"
"220028","200-UY","2019/07/09 14:39:46","新北市板橋區大觀路二段37巷252號","121.449851666667","25.0021483333333","6500100","板橋區"
"220030","610-BX","2019/07/09 14:39:39","新北市板橋區大觀路三段133巷12號","121.433236666667","24.99371","6500100","板橋區"
"220050","245-BX","2019/07/09 14:39:29","新北市板橋區縣民大道三段93巷30弄2號","121.475055","25.0226916666667","6500100","板橋區"
"220004","276-BY","2019/07/09 14:39:37","新北市板橋區國慶路18號","121.459478333333","24.9951433333333","6500100","板橋區"
"220020","277-BY","2019/07/09 14:39:41","新北市板橋區金門街253巷7號","121.432591666667","24.9885366666667","6500100","板橋區"
"220043","283-UM","2019/07/09 14:39:23","新北市板橋區長江路二段146-1號","121.466341666667","25.03172","6500100","板橋區"
"220019","283-VK","2019/07/09 14:39:31","新北市板橋區信義路52-2號","121.457111666667","24.9942016666667","6500100","板橋區"
"220001","285-VK","2019/07/09 14:39:41","新北市板橋區民享街137巷2號","121.477265","25.016635","6500100","板橋區"
"220031","286-VK","2019/07/09 14:39:38","新北市板橋區龍興街63巷50號","121.441988333333","25.0018083333333","6500100","板橋區"
"220029","287-VK","2019/07/09 14:39:41","新北市板橋區大觀路一段75巷3號","121.44747","25.0044883333333","6500100","板橋區"
"220039","288-VK","2019/07/09 14:39:40","新北市板橋區龍泉街90巷16號","121.45612","25.02497","6500100","板橋區"
"220009","295-UM","2019/07/09 14:39:28","新北市板橋區觀光街3巷1號","121.4719","25.01584","6500100","板橋區"
"220032","296-UM","2019/07/09 14:39:40","新北市板橋區溪崑二街136號","121.425943333333","24.9876716666667","6500100","板橋區"
"220023","303-R5","2019/07/09 14:39:43","新北市板橋區中正路275巷93號","121.45086","25.01811","6500100","板橋區"
"220010","305-R5","2019/07/09 14:39:34","新北市板橋區三民路二段21巷14號","121.480206666667","25.0180233333333","6500100","板橋區"
"220041","307-R5","2019/07/09 14:39:36","新北市板橋區四維路269巷94弄17號","121.459273333333","25.0270233333333","6500100","板橋區"
"220037","491-VK","2019/07/09 14:39:42","新北市板橋區文化路二段410巷2號","121.473803333333","25.0315483333333","6500100","板橋區"
"220104","560-BX","2019/07/09 14:39:40","新北市板橋區中正路375巷14弄3號","121.453926666667","25.0209433333333","6500100","板橋區"
"220052","561-BX","2019/07/09 14:39:39","新北市板橋區自由路20號","121.465601666667","25.0225766666667","6500100","板橋區"
"220011","609-BX","2019/07/09 14:39:33","新北市板橋區三民路一段3巷30號","121.480073333333","25.02367","6500100","板橋區"
"220040","637-BX","2019/07/09 14:39:38","新北市板橋區懷德街201巷20號","121.48177","25.0296383333333","6500100","板橋區"
"220005","686-BX","2019/07/09 14:39:32","新北市板橋區廣權路35號","121.462653333333","24.9917866666667","6500100","板橋區"
"220025","687-BX","2019/07/09 14:39:40","新北市板橋區僑中二街108巷2號","121.445745","25.0073766666667","6500100","板橋區"
"220042","689-BX","2019/07/09 14:39:38","新北市板橋區長江路二段149號","121.465795","25.0318366666667","6500100","板橋區"
"220002","741-BX","2019/07/09 14:39:43","新北市板橋區忠孝路233號","121.465888333333","25.0029333333333","6500100","板橋區"
"220051","KEA-2699","2019/07/09 14:39:30","新北市板橋區仁化街3-1號","121.47461","25.0317283333333","6500100","板橋區"
"220003","827-TW","2019/07/09 14:39:25","新北市板橋區重慶路293-1號","121.46332","24.9990583333333","6500100","板橋區"
"220014","829-TW","2019/07/09 14:39:34","新北市板橋區長安街251巷40號","121.471888333333","25.0113516666667","6500100","板橋區"
"220022","895-R6","2019/07/09 14:39:40","新北市板橋區館前西路153號","121.45614","25.0079833333333","6500100","板橋區"
"220021","985-R7","2019/07/09 14:39:40","新北市板橋區瑞安街46巷3號","121.455291666667","25.0221933333333","6500100","板橋區"
"220046","AAC-210","2019/07/09 14:39:37","新北市板橋區文化路一段31號","121.460191666667","25.0129316666667","6500100","板橋區"
"220012","AAC-253","2019/07/09 14:39:37","新北市板橋區民族路70號","121.462733333333","25.0093516666667","6500100","板橋區"
"235032","KEA-2873","2019/07/09 14:39:30","新北市中和區永和路39巷10號","121.497575","25.0050033333333","6500300","中和區"
"235026","KEA-2876","2019/07/09 14:39:18","新北市中和區中山路二段472號","121.488276666667","25.0045083333333","6500300","中和區"
