"lineid","car","time","location","longitude","latitude","cityid","cityname"
"234028","746-BX","2019/07/09 14:59:27","新北市八里區荖阡坑路34-2號","121.401506666667","25.1300366666667","6500400","永和區"
"248017","KED-0813","2019/07/09 14:59:34","新北市五股區登林路108號","121.427033333333","25.0707433333333","6501500","五股區"
"244002","248-BX","2019/07/09 14:59:41","新北市林口區竹林路450號","121.38817","25.0851383333333","6501700","林口區"
"231030","002-UM","2019/07/09 14:59:40","新北市新店區安興路96-2號","121.515033333333","24.9765583333333","6500600","新店區"
"231005","046-UY","2019/07/09 14:59:42","新北市新店區復興路44-1號","121.538636666667","24.9867666666667","6500600","新店區"
"231029","106-UY","2019/07/09 14:59:25","新北市新店區錦秀路11巷92弄1號","121.480286666667","24.9427233333333","6500600","新店區"
"231018","107-UY","2019/07/09 14:59:39","新北市新店區中央路113號","121.530866666667","24.9745866666667","6500600","新店區"
"231013","108-UY","2019/07/09 14:59:30","新北市新店區光明街165號","121.539521666667","24.9625966666667","6500600","新店區"
"231036","110-UY","2019/07/09 14:59:39","新北市新店區安祥路102巷46弄5號","121.484933333333","24.9642666666667","6500600","新店區"
"231039","187-VK","2019/07/09 14:59:42","新北市新店區中興路二段188號","121.548228333333","24.97303","6500600","新店區"
"231032","256-BX","2019/07/09 14:59:29","新北市新店區安康路三段148號","121.490441666667","24.9517833333333","6500600","新店區"
"231023","260-TV","2019/07/09 14:59:39","新北市新店區檳榔路109號","121.544468333333","24.961545","6500600","新店區"
"231003","268-BY","2019/07/09 14:59:37","新北市新店區中興路二段85號","121.547176666667","24.9710983333333","6500600","新店區"
"231035","278-BY","2019/07/09 14:59:37","新北市新店區安業街1-1號","121.516683333333","24.9787433333333","6500600","新店區"
"231015","AAD-862","2019/07/09 14:59:44","新北市新店區北宜路三段132號","121.584038333333","24.95001","6500600","新店區"
"231006","355-BY","2019/07/09 14:59:44","新北市新店區新坡一街111號","121.547568333333","24.96374","6500600","新店區"
"231038","3712-VJ","2019/07/09 14:59:35","新北市新店區安華路28-1號","121.5197","24.960785","6500600","新店區"
"231024","4716-K9","2019/07/09 14:59:39","新北市新店區力行路36號","121.538971666667","24.9649766666667","6500600","新店區"
"231025","4715-K9","2019/07/09 14:59:26","新北市新店區建國路218-2號","121.538021666667","24.9812333333333","6500600","新店區"
"231020","513-UM","2019/07/09 14:59:35","新北市新店區桂山路2-1號","121.55607","24.904285","6500600","新店區"
"231002","619-UM","2019/07/09 14:59:29","新北市新店區民權路115號","121.536213333333","24.9828816666667","6500600","新店區"
"231034","641-BX","2019/07/09 14:59:41","新北市新店區玫瑰路4-1號","121.493643333333","24.9514016666667","6500600","新店區"
"231012","KED-0819","2019/07/09 14:59:24","新北市新店區中興路三段205巷4號","121.543356666667","24.98167","6500600","新店區"
"231026","720-UM","2019/07/09 14:59:32","新北市新店區中正路122號","121.542286666667","24.97124","6500600","新店區"
"231028","897-TW","2019/07/09 14:59:29","新北市新店區安豐路3號","121.501866666667","24.9573416666667","6500600","新店區"
"231001","898-TW","2019/07/09 14:59:41","新北市新店區中正路276號","121.538881666667","24.97376","6500600","新店區"
"231004","899-TW","2019/07/09 14:59:45","新北市新店區民族路12號","121.54156","24.9788833333333","6500600","新店區"
"231037","AKT-0513","2019/07/09 14:59:45","新北市新店區安興路81號","121.51564","24.97525","6500600","新店區"
"241013","270-UM","2019/07/09 14:59:38","新北市三重區重新路四段121號","121.485098333333","25.05197","6500200","三重區"
"235030","003-UY","2019/07/09 14:59:42","新北市中和區中山路二段3巷28號","121.506718333333","25.0053083333333","6500300","中和區"
"235020","096-UM","2019/07/09 14:59:37","新北市中和區中山路三段168號","121.472933333333","25.0065716666667","6500300","中和區"
"235003","097-UM","2019/07/09 14:59:34","新北市中和區安平路192號","121.513298333333","24.999065","6500300","中和區"
"235029","098-UM","2019/07/09 14:59:40","新北市中和區福美路314號","121.496718333333","25.00497","6500300","中和區"
"235004","150-BY","2019/07/09 14:59:43","新北市中和區景安路77號","121.506391666667","24.9973383333333","6500300","中和區"
"235022","151-BY","2019/07/09 14:59:43","新北市中和區建一路253號","121.488071666667","24.9967116666667","6500300","中和區"
"235031","255-BX","2019/07/09 14:59:42","新北市五股區芳洲九路36號","121.447786666667","25.08783","6500300","中和區"
"235008","293-VK","2019/07/09 14:59:37","新北市中和區中興街116號","121.500115","24.993055","6500300","中和區"
"235036","301-VK","2019/07/09 14:59:36","新北市中和區景平路668號","121.49706","25.0008416666667","6500300","中和區"
"235007","352-BY","2019/07/09 14:59:32","新北市中和區興南路二段159巷25號","121.50536","24.982995","6500300","中和區"
"235014","4979-A6","2019/07/09 14:59:40","新北市中和區景平路390號","121.510436666667","24.9928583333333","6500300","中和區"
"235033","4980-A6","2019/07/09 14:59:29","新北市中和區景平路477號","121.500198333333","24.9972016666667","6500300","中和區"
"235034","558-UM","2019/07/09 14:59:35","新北市中和區圓通路208號","121.49606","24.9940866666667","6500300","中和區"
"235018","640-BX","2019/07/09 14:59:30","新北市中和區員山路36巷16-3號","121.484555","24.9912716666667","6500300","中和區"
"235010","733-UM","2019/07/09 14:59:41","新北市中和區忠孝街31巷45號","121.509683333333","24.9853066666667","6500300","中和區"
"235035","783-BX","2019/07/09 14:59:33","新北市中和區建康路11號","121.486005","25.0003566666667","6500300","中和區"
"235012","911-UM","2019/07/09 14:59:23","新北市中和區興南路二段33號","121.507723333333","24.9858516666667","6500300","中和區"
"235015","157-BY","2019/07/09 14:59:37","新北市中和區捷運路59號","121.509148333333","24.98965","6500300","中和區"
"235001","AAC-213","2019/07/09 14:59:38","新北市中和區立人街11號","121.521646666667","24.9939966666667","6500300","中和區"
"235023","AAC-215","2019/07/09 14:59:29","新北市中和區圓通路365號","121.491376666667","24.9897083333333","6500300","中和區"
"220016","015-TV","2019/07/09 14:59:30","新北市板橋區中山路二段394號","121.48252","25.020685","6500100","板橋區"
"220013","072-UY","2019/07/09 14:59:38","新北市中和區中山路三段229巷45號","121.46935","25.0055733333333","6500100","板橋區"
"220034","073-UY","2019/07/09 14:59:40","新北市板橋區中正路11號","121.456078333333","25.0122033333333","6500100","板橋區"
"220105","075-UY","2019/07/09 14:59:26","新北市板橋區民治街126巷5號","121.477768333333","25.0313033333333","6500100","板橋區"
"220017","AAD-861","2019/07/09 14:59:41","新北市板橋區板城路319號","121.451953333333","25.00088","6500100","板橋區"
"220047","120-SR","2019/07/09 14:59:45","新北市板橋區新海路385巷24號","121.457963333333","25.0255966666667","6500100","板橋區"
"228004","212-TW","2019/07/09 14:59:33","新北市貢寮區雙玉里田寮洋街25-4號","121.93102","25.017865","6502600","貢寮區"
"207002","749-BX","2019/07/09 14:59:43","新北市萬里區崁腳里崁腳路75-1號","121.647258333333","25.16163","6502800","萬里區"
"207001","662-BX","2019/07/09 14:59:44","新北市萬里區雙興里二坪路11號","121.646158333333","25.1750266666667","6502800","萬里區"
"236040","KED-0685","2019/07/09 14:59:43","新北市土城區學士路19號","121.453351666667","24.9826933333333","6501300","土城區"
"220038","KED-0812","2019/07/09 14:59:42","新北市板橋區互助街52號","121.461538333333","25.0268733333333","6500100","板橋區"
"236029","253-BX","2019/07/09 14:59:35","新北市土城區中央路二段150號","121.441871666667","24.9769266666667","6501300","土城區"
"236024","269-VK","2019/07/09 14:59:36","新北市土城區中正路74巷3弄1號","121.444743333333","24.9749533333333","6501300","土城區"
"236013","270-VK","2019/07/09 14:59:40","新北市土城區永豐路13巷3號","121.461646666667","24.9888833333333","6501300","土城區"
"236032","271-VK","2019/07/09 14:59:29","新北市土城區清水路137號","121.458203333333","24.9816466666667","6501300","土城區"
"236065","KEA-2877","2019/07/09 14:59:43","新北市土城區裕生路86巷2號","121.447288333333","24.9851616666667","6501300","土城區"
"236017","401-BY","2019/07/09 14:59:36","新北市土城區延吉街217巷1弄2號","121.468635","24.9849466666667","6501300","土城區"
"236060","752-BX","2019/07/09 14:58:47","新北市土城區金城路三段93巷19號","121.466725","24.9883283333333","6501300","土城區"
"236057","912-UM","2019/07/09 14:59:37","新北市土城區金城路二段260號","121.45766","24.983625","6501300","土城區"
"236045","913-UM","2019/07/09 14:59:35","新北市土城區明德路一段365-1號","121.45367","24.9791166666667","6501300","土城區"
"236054","AAC-216","2019/07/09 14:59:40","新北市土城區學成路66號","121.451771666667","24.9879383333333","6501300","土城區"
"221032","280-BY","2019/07/09 14:59:42","新北市汐止區橫科路119號","121.620106666667","25.0502633333333","6501100","汐止區"
"220027","145-BY","2019/07/09 14:59:23","新北市板橋區復興街20號","121.457886666667","25.0173266666667","6500100","板橋區"
"220028","200-UY","2019/07/09 14:59:34","新北市板橋區大觀路二段153巷6號","121.446021666667","25.0006133333333","6500100","板橋區"
"220030","610-BX","2019/07/09 14:59:38","新北市板橋區存德街9號","121.430053333333","24.99197","6500100","板橋區"
"220050","245-BX","2019/07/09 14:59:29","新北市板橋區雙十路二段47巷4弄2號","121.475518333333","25.026005","6500100","板橋區"
"220004","276-BY","2019/07/09 14:59:37","新北市板橋區德興街37巷1號","121.45373","24.993845","6500100","板橋區"
"220020","277-BY","2019/07/09 14:59:21","新北市板橋區金門街109巷21號","121.43367","24.99164","6500100","板橋區"
"220043","283-UM","2019/07/09 14:59:43","新北市板橋區文化路一段383號","121.467081666667","25.0217","6500100","板橋區"
"220019","283-VK","2019/07/09 14:59:31","新北市板橋區五權街19-4號","121.464191666667","24.99441","6500100","板橋區"
"220001","285-VK","2019/07/09 14:59:43","新北市板橋區永豐街121號","121.474496666667","25.0196516666667","6500100","板橋區"
"220031","286-VK","2019/07/09 14:59:41","新北市板橋區僑中二街48巷8號","121.445981666667","25.0104233333333","6500100","板橋區"
"220029","287-VK","2019/07/09 14:59:35","新北市板橋區僑中一街80巷3弄1號","121.447625","25.0120833333333","6500100","板橋區"
"220009","295-UM","2019/07/09 14:59:28","新北市板橋區四川路一段257號","121.459705","25.00237","6500100","板橋區"
"220032","296-UM","2019/07/09 14:59:40","新北市板橋區溪崑二街134號","121.42594","24.987815","6500100","板橋區"
"220023","303-R5","2019/07/09 14:59:43","新北市板橋區中正路229號","121.45586","25.0178133333333","6500100","板橋區"
"220010","305-R5","2019/07/09 14:59:34","新北市板橋區光復街177號","121.484961666667","25.0208133333333","6500100","板橋區"
"220041","307-R5","2019/07/09 14:59:27","","121.462185","25.0152566666667","6500100","板橋區"
"220037","491-VK","2019/07/09 14:59:25","新北市板橋區大同街95號","121.480153333333","25.02839","6500100","板橋區"
"220104","560-BX","2019/07/09 14:59:40","新北市板橋區新生街31號","121.456433333333","25.0212833333333","6500100","板橋區"
"220052","561-BX","2019/07/09 14:59:42","新北市板橋區漢生東路23巷44號","121.46596","25.0179","6500100","板橋區"
"220011","609-BX","2019/07/09 14:59:33","新北市板橋區中山路二段318巷4號","121.480181666667","25.0192633333333","6500100","板橋區"
"220040","637-BX","2019/07/09 14:59:35","新北市板橋區懷德街174巷24-1號","121.478401666667","25.0293066666667","6500100","板橋區"
"220005","686-BX","2019/07/09 14:59:32","新北市土城區廣興街38號","121.45348","24.99146","6500100","板橋區"
"220025","687-BX","2019/07/09 14:59:28","新北市板橋區僑中一街150號","121.444725","25.0120416666667","6500100","板橋區"
"220042","689-BX","2019/07/09 14:59:38","新北市板橋區長江路二段190號","121.467236666667","25.0321083333333","6500100","板橋區"
"220002","741-BX","2019/07/09 14:59:43","新北市板橋區忠孝路201巷99號","121.464578333333","25.0050916666667","6500100","板橋區"
"220051","KEA-2699","2019/07/09 14:59:28","新北市板橋區莒光路135號","121.4731","25.0240233333333","6500100","板橋區"
"220003","827-TW","2019/07/09 14:59:25","新北市板橋區仁愛路76巷3弄1號","121.460671666667","24.9992616666667","6500100","板橋區"
"220014","829-TW","2019/07/09 14:59:34","新北市板橋區中山路一段206巷109號","121.472783333333","25.01368","6500100","板橋區"
"220022","895-R6","2019/07/09 14:59:43","新北市板橋區文化路一段48號","121.460075","25.0117366666667","6500100","板橋區"
"220021","985-R7","2019/07/09 14:59:40","新北市板橋區南雅西路二段151號","121.452163333333","25.0119416666667","6500100","板橋區"
"220046","AAC-210","2019/07/09 14:59:37","新北市板橋區光正街45巷6弄8號","121.461366666667","25.0170583333333","6500100","板橋區"
"220012","AAC-253","2019/07/09 14:59:37","新北市板橋區民族路294號","121.470418333333","25.0067466666667","6500100","板橋區"
"235032","KEA-2873","2019/07/09 14:59:30","新北市中和區連城路96號","121.496555","25.0002416666667","6500300","中和區"
"235026","KEA-2876","2019/07/09 14:59:18","新北市中和區中山路二段365號","121.487713333333","25.0047616666667","6500300","中和區"
