"lineid","car","time","location","longitude","latitude","cityid","cityname"
"248017","KED-0813","2019/07/09 15:09:34","新北市五股區登林路99-2號","121.415183333333","25.0757216666667","6501500","五股區"
"244002","248-BX","2019/07/09 15:09:41","新北市林口區粉寮路二段160巷28號","121.405153333333","25.0907816666667","6501700","林口區"
"231030","002-UM","2019/07/09 15:09:40","新北市新店區安民街341-1號","121.516901666667","24.9749133333333","6500600","新店區"
"231005","046-UY","2019/07/09 15:09:42","新北市新店區北新路三段179號","121.540951666667","24.9841916666667","6500600","新店區"
"231029","106-UY","2019/07/09 15:09:25","新北市新店區錦秀路13號","121.479405","24.94481","6500600","新店區"
"231018","107-UY","2019/07/09 15:09:39","新北市新店區溪園路447號","121.524681666667","24.977705","6500600","新店區"
"231036","110-UY","2019/07/09 15:09:27","新北市新店區安祥路104巷11弄14號","121.48108","24.9637083333333","6500600","新店區"
"231039","187-VK","2019/07/09 15:09:42","新北市新店區寶安街12號","121.542218333333","24.9814716666667","6500600","新店區"
"231032","256-BX","2019/07/09 15:09:29","新北市新店區安泰路60巷63號","121.484093333333","24.9451183333333","6500600","新店區"
"231023","260-TV","2019/07/09 15:09:39","新北市新店區檳榔路109號","121.544495","24.961545","6500600","新店區"
"231003","268-BY","2019/07/09 15:09:37","新北市新店區寶橋路221號","121.549373333333","24.977555","6500600","新店區"
"231035","278-BY","2019/07/09 15:09:37","新北市新店區安和路三段110巷9號","121.517515","24.98575","6500600","新店區"
"231015","AAD-862","2019/07/09 15:09:25","新北市新店區銀河路58號","121.576743333333","24.957485","6500600","新店區"
"231006","355-BY","2019/07/09 15:09:24","新北市新店區新坡一街60-3號","121.550065","24.9628583333333","6500600","新店區"
"231038","3712-VJ","2019/07/09 15:09:35","新北市新店區安華路28-1號","121.519756666667","24.9607916666667","6500600","新店區"
"231024","4716-K9","2019/07/09 15:09:39","新北市新店區北新路一段297巷37號","121.540318333333","24.9684616666667","6500600","新店區"
"231025","4715-K9","2019/07/09 15:09:26","新北市新店區中央路151號","121.529291666667","24.9723166666667","6500600","新店區"
"231020","513-UM","2019/07/09 15:09:35","新北市新店區新烏路二段132號","121.549621666667","24.9197733333333","6500600","新店區"
"231002","619-UM","2019/07/09 15:09:29","新北市新店區中正路537號","121.53346","24.9860316666667","6500600","新店區"
"231034","641-BX","2019/07/09 15:09:41","新北市新店區玫瑰路4-1號","121.49364","24.9513983333333","6500600","新店區"
"231012","KED-0819","2019/07/09 15:09:44","新北市新店區寶元路一段61號","121.542146666667","24.9858283333333","6500600","新店區"
"231026","720-UM","2019/07/09 15:09:32","新北市新店區建興街9巷1號","121.53985","24.97637","6500600","新店區"
"231028","897-TW","2019/07/09 15:09:29","新北市新店區僑信路76號","121.499651666667","24.94849","6500600","新店區"
"231001","898-TW","2019/07/09 15:09:41","新北市新店區中正路268號","121.539033333333","24.9736033333333","6500600","新店區"
"231004","899-TW","2019/07/09 15:09:39","新北市新店區建國路40號","121.540511666667","24.9747183333333","6500600","新店區"
"231037","AKT-0513","2019/07/09 15:09:25","新北市新店區安興路81號","121.515603333333","24.97532","6500600","新店區"
"241013","270-UM","2019/07/09 15:09:38","新北市三重區重新路四段121號","121.485183333333","25.05199","6500200","三重區"
"241020","478-VK","2019/07/09 15:09:41","新北市三重區重新路四段121號","121.484313333333","25.0528333333333","6500200","三重區"
"235030","003-UY","2019/07/09 15:09:43","新北市中和區光華街85號","121.506911666667","25.0026516666667","6500300","中和區"
"235004","150-BY","2019/07/09 15:09:36","新北市中和區保健路8巷19號","121.507718333333","24.997715","6500300","中和區"
"235031","255-BX","2019/07/09 15:09:42","新北市八里區中山路三段112號","121.388121666667","25.146825","6500300","中和區"
"235007","352-BY","2019/07/09 15:09:26","新北市中和區興南路二段159巷7號","121.505361666667","24.9831516666667","6500300","中和區"
"235014","4979-A6","2019/07/09 15:09:41","新北市中和區景新街312號","121.511521666667","24.99173","6500300","中和區"
"235033","4980-A6","2019/07/09 15:09:29","新北市中和區景新街64巷11弄1號","121.503996666667","24.99845","6500300","中和區"
"235034","558-UM","2019/07/09 15:09:35","新北市中和區中正路578號","121.486226666667","24.9948","6500300","中和區"
"235054","640-BX","2019/07/09 15:09:30","新北市中和區員山路36巷16-2號","121.485188333333","24.99151","6500300","中和區"
"235035","783-BX","2019/07/09 15:09:33","新北市中和區立德街321號","121.48201","25.0103816666667","6500300","中和區"
"235012","911-UM","2019/07/09 15:09:43","新北市中和區興南路一段20-1號","121.511186666667","24.9910483333333","6500300","中和區"
"235023","AAC-215","2019/07/09 15:09:29","新北市中和區圓通路335巷33弄11號","121.493186666667","24.98927","6500300","中和區"
"220013","072-UY","2019/07/09 15:09:42","新北市板橋區區運路24號","121.465616666667","25.0093566666667","6500100","板橋區"
"220034","073-UY","2019/07/09 15:09:40","新北市板橋區南雅西路二段7巷25號","121.45192","25.0095016666667","6500100","板橋區"
"228004","212-TW","2019/07/09 15:09:33","新北市貢寮區雙玉里田寮洋街20號","121.92304","25.0240083333333","6502600","貢寮區"
"207002","749-BX","2019/07/09 15:09:43","新北市萬里區崁腳里內中福路66號","121.655336666667","25.1668616666667","6502800","萬里區"
"207001","662-BX","2019/07/09 15:09:24","新北市萬里區雙興里麗水路8號","121.649893333333","25.1873033333333","6502800","萬里區"
"236040","KED-0685","2019/07/09 15:09:28","新北市土城區金城路二段245巷50號","121.455245","24.9835016666667","6501300","土城區"
"220038","KED-0812","2019/07/09 15:09:22","新北市板橋區四維路177巷4弄8號","121.463766666667","25.0263433333333","6500100","板橋區"
"236029","253-BX","2019/07/09 15:09:35","新北市土城區福祥街101巷9號","121.44139","24.981625","6501300","土城區"
"236024","269-VK","2019/07/09 15:09:36","新北市土城區中央路二段149巷12號","121.442646666667","24.9766416666667","6501300","土城區"
"236013","270-VK","2019/07/09 15:09:40","新北市土城區學府路一段23巷23號","121.457766666667","24.9870516666667","6501300","土城區"
"236065","KEA-2877","2019/07/09 15:09:29","新北市土城區學成路136號","121.449025","24.9895716666667","6501300","土城區"
"236017","401-BY","2019/07/09 15:09:36","新北市土城區金城路三段200-11號","121.469303333333","24.9875116666667","6501300","土城區"
"236060","752-BX","2019/07/09 15:09:27","新北市土城區延平街38號","121.4681","24.9919933333333","6501300","土城區"
"236057","912-UM","2019/07/09 15:09:37","新北市土城區金城路一段72號","121.44372","24.9725466666667","6501300","土城區"
"236045","913-UM","2019/07/09 15:09:44","新北市土城區清水路237號","121.461338333333","24.98303","6501300","土城區"
"236054","AAC-216","2019/07/09 15:09:39","新北市土城區學府路一段276號","121.450333333333","24.9833333333333","6501300","土城區"
"221032","280-BY","2019/07/09 15:09:42","新北市汐止區橫科路407巷30弄28-2號","121.627513333333","25.0484416666667","6501100","汐止區"
"220027","145-BY","2019/07/09 15:09:44","新北市板橋區建國街48號","121.45866","25.0170933333333","6500100","板橋區"
"220028","200-UY","2019/07/09 15:09:33","新北市板橋區大觀路二段155號","121.445663333333","25.00068","6500100","板橋區"
"220030","610-BX","2019/07/09 15:09:38","新北市板橋區篤行路二段116-3號","121.431258333333","24.9909283333333","6500100","板橋區"
"220020","277-BY","2019/07/09 15:09:41","新北市板橋區篤行路二段153號","121.429576666667","24.9879766666667","6500100","板橋區"
"220031","286-VK","2019/07/09 15:09:25","新北市板橋區僑中二街90巷12號","121.4458","25.00933","6500100","板橋區"
"220029","287-VK","2019/07/09 15:09:15","新北市板橋區僑中一街124巷18弄27號","121.44728","25.01371","6500100","板橋區"
"220023","303-R5","2019/07/09 15:09:43","新北市板橋區金華街10巷48弄71號","121.459593333333","25.02033","6500100","板橋區"
"220010","305-R5","2019/07/09 15:09:33","新北市板橋區中山路二段494號","121.485455","25.0221066666667","6500100","板橋區"
"220037","491-VK","2019/07/09 15:09:25","新北市板橋區民治街53-1號","121.479338333333","25.0335416666667","6500100","板橋區"
"220104","560-BX","2019/07/09 15:09:40","新北市板橋區新生街39號","121.456866666667","25.0211066666667","6500100","板橋區"
"220011","609-BX","2019/07/09 15:09:33","新北市板橋區三民路一段143號","121.479216666667","25.0198566666667","6500100","板橋區"
"220005","686-BX","2019/07/09 15:09:32","新北市板橋區四川路二段130巷47號","121.449665","24.9947366666667","6500100","板橋區"
"220025","687-BX","2019/07/09 15:09:28","新北市板橋區僑中一街124巷69號","121.446676666667","25.0171983333333","6500100","板橋區"
"220042","689-BX","2019/07/09 15:09:38","新北市板橋區長江路一段6-3號","121.457791666667","25.02855","6500100","板橋區"
"220002","741-BX","2019/07/09 15:09:43","新北市板橋區忠孝路忠義巷9弄84號","121.465106666667","25.0055483333333","6500100","板橋區"
"220051","KEA-2699","2019/07/09 15:09:28","新北市板橋區莒光路79巷2-1號","121.47199","25.024305","6500100","板橋區"
"220003","827-TW","2019/07/09 15:09:45","新北市板橋區重慶路308巷18號","121.46364","24.9975766666667","6500100","板橋區"
"220022","895-R6","2019/07/09 15:09:40","新北市板橋區府中路16號","121.460161666667","25.0097166666667","6500100","板橋區"
"220012","AAC-253","2019/07/09 15:09:42","新北市板橋區長安街48巷1號","121.46827","25.0090383333333","6500100","板橋區"
