"lineid","car","time","location","longitude","latitude","cityid","cityname"
"234026","9371-KE","2019/07/09 17:49:28","新北市永和區和平街95巷4弄8號","121.510976666667","25.00968","6500400","永和區"
"249005","172-UM","2019/07/09 17:49:30","新北市八里區荖阡坑路34-2號","121.40255","25.130625","6502300","八里區"
"249001","173-UM","2019/07/09 17:49:29","新北市八里區龍米路二段108-1號","121.443746666667","25.1495983333333","6502300","八里區"
"249004","303-UY","2019/07/09 17:49:26","新北市八里區中華路一段309巷19-13號","121.417255","25.153395","6502300","八里區"
"249002","305-UY","2019/07/09 17:49:29","新北市八里區龍形五街37巷3-1號","121.448761666667","25.1325966666667","6502300","八里區"
"249003","593-UM","2019/07/09 17:49:31","新北市八里區文昌一街16號","121.410201666667","25.1562433333333","6502300","八里區"
"248016","026-BX","2019/07/09 17:49:38","新北市五股區中興路二段83巷26-6號","121.460111666667","25.0751166666667","6501500","五股區"
"248004","677-BX","2019/07/09 17:49:37","新北市五股區中興路二段37巷26號","121.460363333333","25.0749116666667","6501500","五股區"
"232011","375-UM","2019/07/09 17:49:22","新北市坪林區北宜路八段208號","121.708498333333","24.9347533333333","6502000","坪林區"
"244007","080-UY","2019/07/09 17:49:33","新北市林口區林口路131號","121.388723333333","25.0811083333333","6501700","林口區"
"244019","402-UM","2019/07/09 17:49:24","新北市林口區忠孝路542巷11弄12號","121.37396","25.0670716666667","6501700","林口區"
"244013","KEA-2802","2019/07/09 17:49:41","新北市林口區林口路46-2號","121.391248333333","25.07862","6501700","林口區"
"244023","483-VK","2019/07/09 17:49:39","新北市林口區興林路366號","121.388936666667","25.0692633333333","6501700","林口區"
"244017","485-VK","2019/07/09 17:49:32","新北市林口區文化二路一段230巷3號","121.370233333333","25.072075","6501700","林口區"
"244009","656-BX","2019/07/09 17:49:41","新北市林口區竹林路582巷16-1號","121.386113333333","25.083365","6501700","林口區"
"244011","701-TV","2019/07/09 17:49:27","新北市林口區中正路248號","121.389863333333","25.07775","6501700","林口區"
"244025","837-TS","2019/07/09 17:49:23","新北市林口區忠孝三路一段110號","121.359666666667","25.07143","6501700","林口區"
"244021","838-TS","2019/07/09 17:49:32","新北市林口區新寮32號","121.400431666667","25.06597","6501700","林口區"
"222002","016-RS","2019/07/09 17:49:25","新北市深坑區平埔街22巷17弄1號","121.61488","25.0008883333333","6501800","深坑區"
"222003","436-BY","2019/07/09 17:49:41","新北市深坑區阿柔洋60-1號","121.608618333333","24.9985133333333","6501800","深坑區"
"241024","065-VK","2019/07/09 17:49:29","新北市三重區車路頭街62巷14號","121.48344","25.07243","6500200","三重區"
"241005","262-UM","2019/07/09 17:49:29","新北市三重區溪尾街279號","121.487495","25.082395","6500200","三重區"
"241016","266-UM","2019/07/09 17:46:45","新北市三重區集美街10號","121.488725","25.0560766666667","6500200","三重區"
"241033","AAC-255","2019/07/09 17:49:41","新北市三重區光復路一段13號","121.47211","25.0472416666667","6500200","三重區"
"235066","003-UY","2019/07/09 17:49:27","新北市中和區員山路36巷16-3號","121.485088333333","24.9912933333333","6500300","中和區"
"235064","005-UY","2019/07/09 17:49:31","新北市中和區員山路36巷16-3號","121.484895","24.9913","6500300","中和區"
"235063","006-UY","2019/07/09 17:49:39","新北市中和區員山路36巷16-3號","121.485055","24.991275","6500300","中和區"
"235058","151-BY","2019/07/09 17:49:39","新北市中和區員山路36巷16-2號","121.485251666667","24.9916533333333","6500300","中和區"
"247014","KEA-2869","2019/07/09 17:49:32","新北市蘆洲區保和街69巷19號","121.469705","25.0854883333333","6501400","蘆洲區"
"247008","KED-0682","2019/07/09 17:49:26","新北市蘆洲區信義路29號","121.474111666667","25.07931","6501400","蘆洲區"
"235045","565-BX","2019/07/09 17:49:26","新北市中和區員山路36巷13號","121.484196666667","24.9909266666667","6500300","中和區"
"235054","640-BX","2019/07/09 17:49:29","新北市中和區員山路36巷16-2號","121.48529","24.99165","6500300","中和區"
"235037","AAC-213","2019/07/09 17:49:30","新北市中和區錦和路350-1號","121.49013","24.9935866666667","6500300","中和區"
"247004","893-R6","2019/07/09 17:49:24","新北市蘆洲區長榮路211巷5號","121.460503333333","25.084785","6501400","蘆洲區"
"247018","546-UM","2019/07/09 17:49:40","新北市蘆洲區復興路227巷2弄16號","121.480743333333","25.09032","6501400","蘆洲區"
"247023","337-TH","2019/07/09 17:49:29","新北市蘆洲區長樂路233巷3號","121.461226666667","25.0899016666667","6501400","蘆洲區"
"247002","336-TH","2019/07/09 17:49:34","新北市蘆洲區永平街32巷21弄22號","121.458315","25.0921316666667","6501400","蘆洲區"
"247022","057-VK","2019/07/09 17:49:24","新北市蘆洲區中正路507號","121.461601666667","25.0971683333333","6501400","蘆洲區"
"247012","056-VK","2019/07/09 17:49:29","新北市蘆洲區復興路103號","121.476835","25.0876733333333","6501400","蘆洲區"
"247016","053-VK","2019/07/09 17:49:36","新北市蘆洲區中正路185巷23弄22號","121.46746","25.0840833333333","6501400","蘆洲區"
"247020","007-UY","2019/07/09 17:49:38","新北市蘆洲區民義街71巷31號","121.472066666667","25.0911633333333","6501400","蘆洲區"
"247006","002-UY","2019/07/09 17:49:21","新北市蘆洲區九芎街110號","121.465385","25.0794483333333","6501400","蘆洲區"
"228002","097-TW","2019/07/09 17:49:26","新北市貢寮區福隆里外隆林街14-1號","121.959165","25.0036683333333","6502600","貢寮區"
"228001","212-TW","2019/07/09 17:49:25","新北市貢寮區仁理村仁愛路95-1號","121.927688333333","25.05546","6502600","貢寮區"
"228003","828-UM","2019/07/09 17:49:33","新北市貢寮區真理里美艷山街13-1號","121.928386666667","25.06067","6502600","貢寮區"
"224006","676-BX","2019/07/09 17:49:29","新北市瑞芳區瑞興新村22巷2號","121.788383333333","25.10828","6501200","瑞芳區"
"224009","275-VK","2019/07/09 17:49:39","新北市瑞芳區山尖路173號","121.852558333333","25.1116416666667","6501200","瑞芳區"
"224008","273-VK","2019/07/09 17:49:31","新北市瑞芳區明燈路一段6號","121.823098333333","25.1074016666667","6501200","瑞芳區"
"224005","271-BY","2019/07/09 17:49:43","新北市瑞芳區瑞濱路32-6號","121.823558333333","25.1210066666667","6501200","瑞芳區"
"227001","642-TC","2019/07/09 17:20:17","新北市雙溪區三貂里定福路1-2號","121.85072","25.0633966666667","6502500","雙溪區"
"227002","400-TW","2019/07/09 17:38:39","新北市雙溪區共和里東榮街52號","121.86633","25.0336166666667","6502500","雙溪區"
"253006","032-BX","2019/07/09 17:49:27","新北市石門區老崩山2-1號","121.554601666667","25.2918883333333","6502200","石門區"
"208003","665-BX","2019/07/09 17:49:28","新北市金山區磺清路135號","121.639368333333","25.2277433333333","6502700","金山區"
"251004","009-UM","2019/07/09 17:49:38","新北市淡水區民權一街17巷2號","121.458701666667","25.13651","6501000","淡水區"
"251002","012-UM","2019/07/09 17:49:35","新北市淡水區中山路96巷2號","121.442508333333","25.1708516666667","6501000","淡水區"
"251015","KEA-2871","2019/07/09 17:49:34","新北市淡水區興福寮1-8號","121.489396666667","25.16485","6501000","淡水區"
"251016","179-VK","2019/07/09 17:49:36","新北市淡水區埤島39-15號","121.452803333333","25.195965","6501000","淡水區"
"251013","180-VK","2019/07/09 17:49:35","新北市淡水區泉洲厝31號","121.479583333333","25.1910116666667","6501000","淡水區"
"251008","181-VK","2019/07/09 17:49:41","新北市淡水區八勢路一段123巷7弄6號","121.465785","25.1571516666667","6501000","淡水區"
"251010","413-VK","2019/07/09 17:49:26","新北市淡水區淡海路252號","121.420126666667","25.1869016666667","6501000","淡水區"
"251012","441-VK","2019/07/09 17:49:41","新北市淡水區北新路一段605號","121.471221666667","25.1843316666667","6501000","淡水區"
"251007","442-VK","2019/07/09 17:49:25","新北市淡水區民生路16巷12號","121.461246666667","25.13744","6501000","淡水區"
"251005","443-VK","2019/07/09 17:49:34","新北市淡水區學府路102巷5-1號","121.450545","25.1720016666667","6501000","淡水區"
"251006","561-UM","2019/07/09 17:49:24","新北市淡水區中山北路一段45巷18號","121.440951666667","25.1758716666667","6501000","淡水區"
"251009","575-R6","2019/07/09 17:49:32","新北市淡水區長興街16-3號","121.443971666667","25.1707733333333","6501000","淡水區"
"251014","577-R6","2019/07/09 17:49:34","新北市淡水區公埔子16-6號","121.481041666667","25.2245366666667","6501000","淡水區"
"251011","650-BX","2019/07/09 17:49:32","新北市淡水區小坪頂13-3號","121.486641666667","25.1561733333333","6501000","淡水區"
"251003","673-BX","2019/07/09 17:49:26","新北市淡水區大仁街69號","121.443043333333","25.1763266666667","6501000","淡水區"
"207003","550-UM","2019/07/09 17:49:25","新北市萬里區野柳里東澳路66號","121.692686666667","25.2008983333333","6502800","萬里區"
"207004","225-TW","2019/07/09 17:49:43","新北市萬里區萬里里瑪鋉頂街61號","121.688376666667","25.180455","6502800","萬里區"
"252002","178-VK","2019/07/09 17:49:38","新北市三芝區智成街33號","121.50392","25.25652","6502100","三芝區"
"208001","170-UY","2019/07/09 17:49:38","新北市金山區磺清路135號","121.639516666667","25.227835","6502700","金山區"
"237004","KEA-2597","2019/07/09 17:49:37","新北市三峽區中山路51-1號","121.36794","24.9346566666667","6500900","三峽區"
"237009","210-TH","2019/07/09 17:49:39","新北市三峽區大勇路3巷29號","121.367703333333","24.9367583333333","6500900","三峽區"
"237013","252-BX","2019/07/09 17:49:40","新北市三峽區愛國路32-25號","121.374445","24.9331983333333","6500900","三峽區"
"237012","275-BY","2019/07/09 17:49:40","新北市三峽區文化路2號","121.373406666667","24.935505","6500900","三峽區"
"237008","302-VK","2019/07/09 17:49:25","新北市三峽區中正路一段524號","121.369365","24.9200533333333","6500900","三峽區"
"237014","433-BY","2019/07/09 17:49:40","新北市三峽區文化路120巷2號","121.371058333333","24.9364333333333","6500900","三峽區"
"237006","5529-G3","2019/07/09 17:49:40","新北市三峽區介壽路二段38巷10-3號","121.391586666667","24.93507","6500900","三峽區"
"237011","KEA-2596","2019/07/09 17:49:43","新北市三峽區光明路71號","121.376141666667","24.9286083333333","6500900","三峽區"
"237015","649-BX","2019/07/09 17:49:32","新北市三峽區白雞149-2號","121.4002","24.905335","6500900","三峽區"
"237010","706-TV","2019/07/09 17:49:25","新北市三峽區文化路216號","121.368253333333","24.9358966666667","6500900","三峽區"
"237005","AKY-6261","2019/07/09 17:49:21","新北市三峽區中山路270號","121.361505","24.9377366666667","6500900","三峽區"
"236042","KED-0685","2019/07/09 17:49:37","新北市土城區城林路6巷80號","121.438536666667","24.9797","6501300","土城區"
"236030","253-BX","2019/07/09 17:49:35","新北市土城區城林路6巷80號","121.438565","24.9795733333333","6501300","土城區"
"236014","270-VK","2019/07/09 17:49:29","新北市土城區城林路6巷80號","121.438468333333","24.9795516666667","6501300","土城區"
"236038","271-VK","2019/07/09 17:49:32","新北市土城區城林路6巷80號","121.438588333333","24.979555","6501300","土城區"
"247010","KED-0683","2019/07/09 17:49:21","新北市蘆洲區信義路212號","121.47899","25.0849566666667","6501400","蘆洲區"
"236070","KEA-2877","2019/07/09 17:49:33","新北市土城區青雲路322巷28號","121.457495","24.9747216666667","6501300","土城區"
"252001","KED-0821","2019/07/09 17:49:44","新北市三芝區中興街一段12號","121.497441666667","25.2592","6502100","三芝區"
"236021","401-BY","2019/07/09 17:49:39","新北市土城區城林路6巷80號","121.438826666667","24.9796216666667","6501300","土城區"
"236063","752-BX","2019/07/09 17:49:34","新北市土城區城林路6巷80號","121.438676666667","24.9796483333333","6501300","土城區"
"236049","913-UM","2019/07/09 17:49:32","新北市土城區城林路6巷80號","121.438666666667","24.979625","6501300","土城區"
"236059","970-R7","2019/07/09 17:49:36","新北市土城區中華路二段174號","121.437475","24.9719116666667","6501300","土城區"
"236055","AAC-216","2019/07/09 17:49:44","新北市土城區城林路6巷80號","121.438498333333","24.9795583333333","6501300","土城區"
"242039","AAC-296","2019/07/09 17:49:36","新北市新莊區民安路183號","121.42589","25.023025","6500500","新莊區"
"242061","986-R7","2019/07/09 17:49:33","新北市新莊區瓊林南路235號","121.434745","25.0083866666667","6500500","新莊區"
"242002","751-BX","2019/07/09 17:49:33","新北市新莊區景德路140號","121.451061666667","25.03412","6500500","新莊區"
"242029","615-BX","2019/07/09 17:49:41","新北市新莊區新泰路330號","121.444975","25.0419116666667","6500500","新莊區"
"242027","613-BX","2019/07/09 17:49:41","新北市新莊區福壽街148號","121.457958333333","25.0521883333333","6500500","新莊區"
"242058","612-BX","2019/07/09 17:49:42","新北市新莊區中正路704號","121.417216666667","25.0254116666667","6500500","新莊區"
"242046","566-BX","2019/07/09 17:49:39","新北市新莊區福營路97巷15號","121.434901666667","25.0317883333333","6500500","新莊區"
"242051","497-BY","2019/07/09 17:49:37","新北市新莊區西盛街232巷20號","121.427258333333","25.0164283333333","6500500","新莊區"
"242056","441-UM","2019/07/09 17:49:32","新北市新莊區瓊林路38巷23號","121.447173333333","25.03046","6500500","新莊區"
"242005","440-UM","2019/07/09 17:49:37","新北市新莊區思源路177巷8號","121.459381666667","25.0454533333333","6500500","新莊區"
"242042","415-TV","2019/07/09 17:49:26","新北市新莊區中正路614巷6弄4號","121.425671666667","25.0307","6500500","新莊區"
"242011","413-TV","2019/07/09 17:49:34","新北市新莊區中港路713號","121.450576666667","25.0572316666667","6500500","新莊區"
"242048","400-BY","2019/07/09 17:49:41","新北市新莊區萬安街99巷1號","121.421125","25.023255","6500500","新莊區"
"242025","362-BY","2019/07/09 17:49:25","新北市三重區新北大道二段137號","121.465928333333","25.06124","6500500","新莊區"
"242023","353-BY","2019/07/09 17:49:29","新北市新莊區福樂街20號","121.45786","25.0451333333333","6500500","新莊區"
"242013","132-UY","2019/07/09 17:49:30","新北市新莊區中誠街167號","121.448168333333","25.04733","6500500","新莊區"
"242037","135-UY","2019/07/09 17:49:34","新北市新莊區後港一路96號","121.427748333333","25.02677","6500500","新莊區"
"242054","172-VK","2019/07/09 17:49:30","新北市新莊區民安西路468-1號","121.431758333333","25.007985","6500500","新莊區"
"242015","173-VK","2019/07/09 17:49:27","新北市新莊區新泰路440號","121.44331","25.044695","6500500","新莊區"
"242021","175-VK","2019/07/09 17:49:30","新北市新莊區中港路143號","121.455151666667","25.0407016666667","6500500","新莊區"
"242019","KED-0687","2019/07/09 17:49:28","新北市新莊區長青街35巷1號","121.45675","25.0421433333333","6500500","新莊區"
"242032","346-TH","2019/07/09 17:49:26","新北市新莊區新泰路321巷19號","121.443785","25.04123","6500500","新莊區"
"242044","347-TH","2019/07/09 17:49:40","新北市新莊區中正路855巷8號","121.419706666667","25.0273666666667","6500500","新莊區"
"242034","348-TH","2019/07/09 17:49:23","新北市新莊區新莊路692號","121.440688333333","25.0327833333333","6500500","新莊區"
"242007","349-TH","2019/07/09 17:49:35","新北市新莊區福樂街108巷9號","121.457591666667","25.04812","6500500","新莊區"
"242017","351-TH","2019/07/09 17:49:33","新北市新莊區永安街36號","121.451691666667","25.0447666666667","6500500","新莊區"
"238015","755-BX","2019/07/09 17:49:33","新北市樹林區復興路186號","121.420106666667","24.9912266666667","6500700","樹林區"
"238023","601-UM","2019/07/09 17:49:37","新北市樹林區龍興街31巷10號","121.403465","25.016025","6500700","樹林區"
"238019","599-UM","2019/07/09 17:49:32","新北市樹林區太順街25號","121.419216666667","24.9798433333333","6500700","樹林區"
"238018","KEA-2217","2019/07/09 17:49:42","新北市樹林區樹新路81號","121.427555","24.9952933333333","6500700","樹林區"
"238022","KEA-2213","2019/07/09 17:49:30","新北市樹林區太順街86巷21號","121.416508333333","24.978215","6500700","樹林區"
"238021","KEA-2539","2019/07/09 17:49:28","新北市樹林區柑園街一段1-9號","121.405773333333","24.9618016666667","6500700","樹林區"
"238025","303-VK","2019/07/09 17:49:22","新北市樹林區三俊街81巷2號","121.415726666667","25.0154316666667","6500700","樹林區"
"238017","283-BY","2019/07/09 17:49:35","新北市樹林區三德街12號","121.413406666667","25.0129183333333","6500700","樹林區"
"238014","282-BY","2019/07/09 17:49:32","新北市樹林區大安路145巷9號","121.4225","24.9965983333333","6500700","樹林區"
"238020","268-VK","2019/07/09 17:49:29","新北市樹林區俊英街210號","121.425203333333","25.009405","6500700","樹林區"
"238026","172-UY","2019/07/09 17:49:40","新北市樹林區新興街19巷11號","121.400721666667","24.9731133333333","6500700","樹林區"
"238016","169-UY","2019/07/09 17:49:25","新北市樹林區復興路308巷1弄4號","121.416493333333","24.98719","6500700","樹林區"
"239007","AAC-297","2019/07/09 17:49:38","新北市鶯歌區永樂街36號","121.34157","24.9539866666667","6500800","鶯歌區"
"239006","891-R6","2019/07/09 17:49:40","新北市鶯歌區鶯桃路413巷44號","121.330715","24.9634216666667","6500800","鶯歌區"
"239008","527-UM","2019/07/09 17:49:41","新北市鶯歌區大湖路642號","121.33399","24.9755966666667","6500800","鶯歌區"
"239001","417-VK","2019/07/09 17:49:32","新北市鶯歌區中正三路447-1號","121.323186666667","24.9344866666667","6500800","鶯歌區"
"239003","360-BY","2019/07/09 17:49:29","新北市鶯歌區永吉街45號","121.33549","24.9571016666667","6500800","鶯歌區"
"239002","359-BY","2019/07/09 17:49:37","新北市鶯歌區光明街126號","121.345675","24.9558816666667","6500800","鶯歌區"
"239004","193-VK","2019/07/09 17:49:41","新北市鶯歌區文化路136巷9號","121.351555","24.9509833333333","6500800","鶯歌區"
"221010","269-BY","2019/07/09 17:49:34","新北市汐止區汐萬路二段54號","121.649613333333","25.0819683333333","6501100","汐止區"
"221029","298-VK","2019/07/09 17:49:29","新北市汐止區康寧街901號","121.651531666667","25.0749616666667","6501100","汐止區"
"221031","353-TW","2019/07/09 17:49:31","新北市汐止區汐萬路一段312號","121.650685","25.0753766666667","6501100","汐止區"
"233001","KEA-2870","2019/07/09 17:49:32","新北市烏來區環山路62號","121.548286666667","24.8645033333333","6502900","烏來區"
"242009","280-VK","2019/07/09 17:49:24","新北市新莊區昌明街72號","121.45527","25.05214","6500500","新莊區"
"235061","KEA-2875","2019/07/09 17:49:39","新北市中和區員山路36巷16-2號","121.485296666667","24.9916566666667","6500300","中和區"
