"lineid","car","time","location","longitude","latitude","cityid","cityname"
"234046","148-BY","2019/07/09 18:59:33","新北市永和區永元路52巷52號","121.524583333333","25.0007383333333","6500400","永和區"
"234081","298-R6","2019/07/09 18:59:38","新北市永和區國中路156號","121.522618333333","25.0067416666667","6500400","永和區"
"234038","336-UY","2019/07/09 18:59:41","新北市永和區成功路二段207號","121.526555","24.9959466666667","6500400","永和區"
"234064","337-UY","2019/07/09 18:59:23","新北市永和區秀朗路一段146號","121.518136666667","25.003315","6500400","永和區"
"234086","338-UY","2019/07/09 18:59:20","新北市永和區永利路18號","121.518023333333","25.005925","6500400","永和區"
"234070","552-UM","2019/07/09 18:59:36","新北市永和區竹林路125-1號","121.520031666667","25.0112166666667","6500400","永和區"
"234017","745-BX","2019/07/09 18:59:21","新北市永和區永和路二段297號","121.516035","25.0160666666667","6500400","永和區"
"234030","746-BX","2019/07/09 18:59:22","新北市永和區得和路392號","121.525263333333","24.9992566666667","6500400","永和區"
"234054","KEA-2590","2019/07/09 18:59:24","新北市永和區竹林路66巷2號","121.518253333333","25.01332","6500400","永和區"
"234007","KED-0605","2019/07/09 18:59:39","新北市永和區中山路一段50號","121.513293333333","25.0106416666667","6500400","永和區"
"234013","KEA-2591","2019/07/09 18:59:25","新北市永和區中山路一段60巷2號","121.51302","25.0109","6500400","永和區"
"234061","AAD-866","2019/07/09 18:59:33","新北市永和區福和路307號","121.516195","25.0072233333333","6500400","永和區"
"234042","862-TW","2019/07/09 18:59:27","新北市永和區永貞路310號","121.511793333333","25.0049016666667","6500400","永和區"
"234050","863-TW","2019/07/09 18:59:36","新北市永和區文化路163號","121.510246666667","25.0165016666667","6500400","永和區"
"234026","9371-KE","2019/07/09 18:59:28","新北市永和區安樂路451號","121.514338333333","25.0049783333333","6500400","永和區"
"234011","9373-KE","2019/07/09 18:59:23","新北市永和區仁愛路141巷3弄9號","121.511976666667","25.0124866666667","6500400","永和區"
"249005","172-UM","2019/07/09 18:59:30","新北市八里區長道坑6號","121.397663333333","25.1235383333333","6502300","八里區"
"249001","173-UM","2019/07/09 18:59:29","新北市八里區龍米路二段228-1號","121.432748333333","25.158425","6502300","八里區"
"249002","305-UY","2019/07/09 18:59:29","新北市八里區龍形一街33巷6-2號","121.44929","25.1294533333333","6502300","八里區"
"248016","026-BX","2019/07/09 18:59:38","新北市五股區成泰路三段577巷50號","121.450743333333","25.1031933333333","6501500","五股區"
"248006","077-UY","2019/07/09 18:59:35","新北市五股區四維路181號","121.467971666667","25.07525","6501500","五股區"
"248020","KED-0813","2019/07/09 18:59:28","新北市五股區凌雲路三段57號","121.425293333333","25.1250166666667","6501500","五股區"
"248012","247-BX","2019/07/09 18:59:26","新北市五股區中興路四段48巷19號","121.438558333333","25.08355","6501500","五股區"
"248004","677-BX","2019/07/09 18:59:37","新北市五股區民義路二段42-1號","121.415333333333","25.100215","6501500","五股區"
"248002","678-BX","2019/07/09 18:59:33","新北市五股區凌雲路一段156巷1號","121.448935","25.1026116666667","6501500","五股區"
"248010","682-TV","2019/07/09 18:59:32","新北市五股區水碓七路1號","121.4281","25.07134","6501500","五股區"
"234023","9380-KE","2019/07/09 18:59:23","新北市永和區竹林路75巷17號","121.520025","25.01404","6500400","永和區"
"234077","969-R7","2019/07/09 18:59:31","新北市永和區中正路286巷7號","121.517701666667","24.9986566666667","6500400","永和區"
"234074","AAC-211","2019/07/09 18:59:30","新北市永和區環河東路二段100號","121.524108333333","25.01032","6500400","永和區"
"234067","AAC-212","2019/07/09 18:59:37","新北市永和區自由街58號","121.513705","25.005875","6500400","永和區"
"234003","AAC-295","2019/07/09 18:59:38","新北市永和區和平街34號","121.513143333333","25.010005","6500400","永和區"
"232011","375-UM","2019/07/09 18:59:22","新北市坪林區水聳淒坑19-1號","121.712278333333","24.934695","6502000","坪林區"
"244019","402-UM","2019/07/09 18:59:24","新北市林口區麗園一街15號","121.377031666667","25.0692216666667","6501700","林口區"
"244013","KEA-2802","2019/07/09 18:59:41","新北市林口區麗園二街1巷5號","121.37775","25.0702266666667","6501700","林口區"
"244023","483-VK","2019/07/09 18:59:39","新北市林口區文化三路二段166號","121.375971666667","25.0822583333333","6501700","林口區"
"244017","485-VK","2019/07/09 18:59:32","新北市林口區公園路90號","121.36946","25.0705216666667","6501700","林口區"
"244011","701-TV","2019/07/09 18:59:28","新北市林口區中興街3-1號","121.388991666667","25.0776816666667","6501700","林口區"
"244025","837-TS","2019/07/09 18:59:23","新北市林口區南勢街192巷13號","121.361401666667","25.0750516666667","6501700","林口區"
"243012","AAD-798","2019/07/09 18:59:32","新北市泰山區福興三街13號","121.43441","25.057785","6501600","泰山區"
"243010","297-R6","2019/07/09 18:59:26","新北市泰山區辭修路24號","121.42904","25.0581216666667","6501600","泰山區"
"243014","KEA-2801","2019/07/09 18:59:25","新北市泰山區黎明路2-5號","121.420758333333","25.0626683333333","6501600","泰山區"
"243016","421-VK","2019/07/09 18:59:34","新北市泰山區明志路二段137號","121.427601666667","25.0507033333333","6501600","泰山區"
"243011","KEA-2216","2019/07/09 18:59:38","新北市泰山區明志路二段246號","121.42702","25.0477916666667","6501600","泰山區"
"243015","680-BX","2019/07/09 18:59:38","新北市泰山區美寧街48號","121.43053","25.0643716666667","6501600","泰山區"
"222002","016-RS","2019/07/09 18:59:25","新北市深坑區文山路一段33號","121.629456666667","25.003865","6501800","深坑區"
"222003","436-BY","2019/07/09 18:59:41","新北市深坑區深南路88巷1號","121.621413333333","25.0108216666667","6501800","深坑區"
"231061","002-UM","2019/07/09 18:59:28","新北市新店區安華路28-1號","121.51963","24.9606966666667","6500600","新店區"
"231058","0293-UT","2019/07/09 18:59:31","新北市新店區中興路一段203號","121.543638333333","24.9654933333333","6500600","新店區"
"231044","046-UY","2019/07/09 18:59:29","新北市新店區寶中路72號","121.547878333333","24.9806","6500600","新店區"
"231060","106-UY","2019/07/09 18:59:27","新北市新店區安華路30巷1號","121.519426666667","24.959625","6500600","新店區"
"231051","107-UY","2019/07/09 18:59:26","新北市新店區中央路15號","121.533336666667","24.9783333333333","6500600","新店區"
"231049","108-UY","2019/07/09 18:59:20","新北市新店區中正路454-5號","121.534478333333","24.9790566666667","6500600","新店區"
"231065","110-UY","2019/07/09 18:59:31","新北市新店區安祥路188號","121.47689","24.9551483333333","6500600","新店區"
"231050","KEA-2219","2019/07/09 18:59:39","新北市新店區新烏路一段9-1號","121.547275","24.9514783333333","6500600","新店區"
"221035","KEA-2785","2019/07/09 18:59:36","新北市汐止區大同路二段298號","121.655248333333","25.06651","6501100","汐止區"
"231062","256-BX","2019/07/09 18:59:39","新北市新店區安康路二段330號","121.504166666667","24.957875","6500600","新店區"
"231054","260-TV","2019/07/09 18:59:40","新北市新店區光明街53號","121.538508333333","24.9602816666667","6500600","新店區"
"231042","268-BY","2019/07/09 18:59:30","新北市新店區中正路11號","121.54548","24.9693216666667","6500600","新店區"
"231064","278-BY","2019/07/09 18:59:32","新北市新店區安一路一段1-1號","121.519673333333","24.9614","6500600","新店區"
"231045","355-BY","2019/07/09 18:59:31","新北市新店區安康路一段33-1號","121.532175","24.9605016666667","6500600","新店區"
"231055","4716-K9","2019/07/09 18:59:42","新北市新店區新生街13巷7號","121.539718333333","24.96596","6500600","新店區"
"231056","4715-K9","2019/07/09 18:59:31","新北市新店區二十張路46巷37弄43號","121.53552","24.9812616666667","6500600","新店區"
"231067","4772-VM","2019/07/09 18:59:39","新北市新店區安康路一段220號","121.523821666667","24.9635066666667","6500600","新店區"
"231053","513-UM","2019/07/09 18:59:30","新北市新店區湖子內路59-2號","121.540983333333","24.9296616666667","6500600","新店區"
"231041","619-UM","2019/07/09 18:59:30","新北市新店區秀山路20號","121.532568333333","24.9603233333333","6500600","新店區"
"231063","641-BX","2019/07/09 18:59:22","新北市新店區安華路16號","121.517425","24.9580683333333","6500600","新店區"
"231048","KED-0819","2019/07/09 18:59:34","新北市新店區德正街23巷10號","121.544515","24.9721116666667","6500600","新店區"
"231046","719-UM","2019/07/09 18:59:35","新北市新店區直潭二街23號","121.5355","24.94207","6500600","新店區"
"231057","720-UM","2019/07/09 18:59:23","新北市新店區百齡一路12號","121.553046666667","24.93251","6500600","新店區"
"231059","897-TW","2019/07/09 18:59:28","新北市新店區安華路28-1號","121.51974","24.9605233333333","6500600","新店區"
"231040","898-TW","2019/07/09 18:59:29","新北市新店區中央路216號","121.529918333333","24.9732883333333","6500600","新店區"
"231043","899-TW","2019/07/09 18:59:35","新北市新店區北新路一段142號","121.542471666667","24.9705483333333","6500600","新店區"
"231066","AKT-0513","2019/07/09 18:59:40","新北市新店區安豐路22巷1號","121.50135","24.956135","6500600","新店區"
"241029","060-VK","2019/07/09 18:59:30","新北市三重區重安街1號","121.490155","25.0581133333333","6500200","三重區"
"241035","462-BY","2019/07/09 18:59:32","新北市三重區重新路四段121號","121.48488","25.0520283333333","6500200","三重區"
"235066","003-UY","2019/07/09 18:59:26","新北市中和區光華街33號","121.505081666667","25.003935","6500300","中和區"
"235064","005-UY","2019/07/09 18:59:31","新北市中和區泰和街30巷12號","121.499175","25.0008933333333","6500300","中和區"
"235063","006-UY","2019/07/09 18:59:39","新北市中和區中正路570號","121.48644","24.9947716666667","6500300","中和區"
"235056","096-UM","2019/07/09 18:59:29","新北市板橋區三民路二段204號","121.478838333333","25.01219","6500300","中和區"
"235039","097-UM","2019/07/09 18:59:33","新北市永和區民有街28號","121.516965","24.9962533333333","6500300","中和區"
"235065","098-UM","2019/07/09 18:59:31","新北市中和區福祥路158號","121.498481666667","25.00769","6500300","中和區"
"235040","150-BY","2019/07/09 18:59:38","新北市中和區宜安路21號","121.51283","24.9958066666667","6500300","中和區"
"235058","151-BY","2019/07/09 18:59:39","新北市中和區連城路569巷9弄5號","121.479525","24.9940933333333","6500300","中和區"
"235055","183-VK","2019/07/09 18:59:38","新北市中和區德光路77巷1號","121.46955","25.0034483333333","6500300","中和區"
"235038","185-VK","2019/07/09 18:59:39","新北市中和區大仁街20巷25弄19號","121.518536666667","24.9935666666667","6500300","中和區"
"235049","186-VK","2019/07/09 18:59:25","新北市中和區景安路141號","121.505583333333","24.9954866666667","6500300","中和區"
"235067","255-BX","2019/07/09 18:59:21","新北市中和區新生街166巷9號","121.483141666667","25.0001733333333","6500300","中和區"
"235044","293-VK","2019/07/09 18:59:27","新北市中和區中興街161巷1弄1號","121.500143333333","24.9908933333333","6500300","中和區"
"235072","301-VK","2019/07/09 18:59:27","新北市中和區中山路二段248號","121.497683333333","25.002515","6500300","中和區"
"235043","352-BY","2019/07/09 18:59:34","新北市中和區成功路23號","121.526225","24.99361","6500300","中和區"
"235042","KEA-2878","2019/07/09 18:59:27","新北市中和區秀朗路三段22巷16號","121.525648333333","24.9962533333333","6500300","中和區"
"235050","4979-A6","2019/07/09 18:59:26","新北市中和區忠孝街58巷16弄3號","121.512133333333","24.98303","6500300","中和區"
"235069","4980-A6","2019/07/09 18:59:41","新北市中和區景平路616號","121.500665","24.9970083333333","6500300","中和區"
"235070","558-UM","2019/07/09 18:59:39","新北市中和區中和路116號","121.503076666667","24.9996283333333","6500300","中和區"
"235045","565-BX","2019/07/09 18:59:26","新北市中和區景新街467巷20弄128號","121.515001666667","24.9872016666667","6500300","中和區"
"235060","KED-0823","2019/07/09 18:59:34","新北市中和區民治街11巷2號","121.475228333333","25.00426","6500300","中和區"
"235054","640-BX","2019/07/09 18:59:29","新北市中和區民德路137號","121.468755","25.000615","6500300","中和區"
"235047","732-UM","2019/07/09 18:59:31","新北市中和區興南路二段54巷9弄1號","121.506186666667","24.9853566666667","6500300","中和區"
"235046","733-UM","2019/07/09 18:59:41","新北市中和區興南路二段35號","121.50765","24.98582","6500300","中和區"
"235057","801-TS","2019/07/09 18:59:39","新北市中和區民利街68巷5弄13號","121.477393333333","24.9986533333333","6500300","中和區"
"235041","802-TS","2019/07/09 18:59:21","新北市中和區景安路51號","121.507341666667","24.9982916666667","6500300","中和區"
"235052","805-TS","2019/07/09 18:59:24","新北市中和區興南路二段176號","121.503651666667","24.9824583333333","6500300","中和區"
"235053","900-TW","2019/07/09 18:59:32","新北市板橋區和平路190巷14號","121.464546666667","24.995015","6500300","中和區"
"235048","911-UM","2019/07/09 18:59:33","新北市中和區華新街143巷71弄13號","121.508263333333","24.9788683333333","6500300","中和區"
"235051","157-BY","2019/07/09 18:59:25","新北市中和區忠孝街19巷8號","121.510108333333","24.98317","6500300","中和區"
"235037","AAC-213","2019/07/09 18:59:30","新北市中和區秀朗路三段60巷48號","121.524711666667","24.994865","6500300","中和區"
"235059","AAC-215","2019/07/09 18:59:29","新北市中和區圓通路367巷20弄29號","121.49128","24.988245","6500300","中和區"
"220068","015-TV","2019/07/09 18:59:40","新北市板橋區三民路一段31巷59號","121.480993333333","25.023065","6500100","板橋區"
"220065","072-UY","2019/07/09 18:59:37","新北市板橋區民族路287巷1號","121.471135","25.0070133333333","6500100","板橋區"
"220086","073-UY","2019/07/09 18:59:35","新北市板橋區大智街29號","121.45486","25.01511","6500100","板橋區"
"220106","075-UY","2019/07/09 18:59:33","新北市板橋區文化路二段294號","121.471771666667","25.0294066666667","6500100","板橋區"
"220069","AAD-861","2019/07/09 18:59:32","新北市板橋區四川路一段131號","121.459883333333","25.004645","6500100","板橋區"
"220098","120-SR","2019/07/09 18:59:32","新北市板橋區民生路二段226巷32號","121.471223333333","25.02206","6500100","板橋區"
"226004","312-R5","2019/07/09 18:59:24","新北市平溪區平溪里平溪街22號","121.738783333333","25.0253533333333","6502400","平溪區"
"228002","097-TW","2019/07/09 18:59:26","新北市貢寮區福隆里東興街106巷25弄1號","121.946353333333","25.0182883333333","6502600","貢寮區"
"228001","212-TW","2019/07/09 18:59:24","新北市貢寮區仁理村仁義街8號","121.92377","25.051945","6502600","貢寮區"
"228003","828-UM","2019/07/09 18:59:33","新北市貢寮區和美里龍洞街56-2號","121.912231666667","25.11402","6502600","貢寮區"
"224006","676-BX","2019/07/09 18:59:29","新北市瑞芳區東和路31號","121.80501","25.1060616666667","6501200","瑞芳區"
"224007","285-BY","2019/07/09 18:59:26","新北市瑞芳區中央路48巷7-1號","121.761616666667","25.102915","6501200","瑞芳區"
"224009","275-VK","2019/07/09 18:59:39","新北市瑞芳區長仁路40號","121.863316666667","25.118055","6501200","瑞芳區"
"224008","273-VK","2019/07/09 18:59:31","新北市瑞芳區逢甲路410號","121.801451666667","25.1173616666667","6501200","瑞芳區"
"224005","271-BY","2019/07/09 18:59:23","新北市瑞芳區阿美家園7號","121.819588333333","25.1140533333333","6501200","瑞芳區"
"227001","642-TC","2019/07/09 18:59:27","新北市雙溪區牡丹里中正路60號","121.866113333333","25.0423766666667","6502500","雙溪區"
"227002","400-TW","2019/07/09 18:59:22","新北市雙溪區平林里外平林9-5號","121.859135","25.03799","6502500","雙溪區"
"253006","032-BX","2019/07/09 18:59:27","新北市石門區八甲4-6號","121.521406666667","25.282245","6502200","石門區"
"253005","295-VK","2019/07/09 18:59:25","新北市石門區中央路6號","121.56647","25.2914033333333","6502200","石門區"
"222001","KEA-2212","2019/07/09 18:59:24","新北市深坑區北深路一段300號","121.62432","25.00564","6501800","深坑區"
"208002","KEA-2872","2019/07/09 18:59:39","新北市金山區信義路28號","121.63545","25.2198","6502700","金山區"
"208003","665-BX","2019/07/09 18:59:37","新北市金山區中正路85號","121.633411666667","25.22164","6502700","金山區"
"251001","011-UM","2019/07/09 18:59:30","新北市淡水區自強路60號","121.463173333333","25.12762","6501000","淡水區"
"251002","012-UM","2019/07/09 18:59:34","新北市淡水區中正東路49號","121.4467","25.16791","6501000","淡水區"
"251015","KEA-2871","2019/07/09 18:59:34","新北市淡水區糞箕湖60號","121.485181666667","25.1723183333333","6501000","淡水區"
"251016","179-VK","2019/07/09 18:59:35","新北市淡水區淡金路三段333號","121.448833333333","25.20631","6501000","淡水區"
"251013","180-VK","2019/07/09 18:59:35","新北市淡水區安子內3號","121.487705","25.21553","6501000","淡水區"
"251010","413-VK","2019/07/09 18:59:26","新北市淡水區淡海路85號","121.42281","25.1816483333333","6501000","淡水區"
"251012","441-VK","2019/07/09 18:59:24","新北市淡水區新春街126巷15弄17號","121.440618333333","25.1809316666667","6501000","淡水區"
"251007","442-VK","2019/07/09 18:59:25","新北市淡水區民生路113巷1弄37號","121.46311","25.138605","6501000","淡水區"
"251009","575-R6","2019/07/09 18:59:31","新北市淡水區建設街1巷1號","121.439113333333","25.17278","6501000","淡水區"
"251014","577-R6","2019/07/09 18:59:34","新北市淡水區小中寮32-1號","121.491893333333","25.2260616666667","6501000","淡水區"
"251011","650-BX","2019/07/09 18:59:32","新北市淡水區鄧公路30巷2弄20號","121.453121666667","25.1690733333333","6501000","淡水區"
"251003","673-BX","2019/07/09 18:59:26","新北市淡水區中山北路一段149巷24號","121.44291","25.178","6501000","淡水區"
"207003","550-UM","2019/07/09 18:59:25","新北市萬里區大鵬里頂社23號","121.657006666667","25.210415","6502800","萬里區"
"207004","225-TW","2019/07/09 18:59:22","新北市萬里區萬里里獅頭路23號","121.693231666667","25.17826","6502800","萬里區"
"252002","178-VK","2019/07/09 18:59:18","新北市三芝區中正路一段44號","121.503428333333","25.2581783333333","6502100","三芝區"
"252003","249-BX","2019/07/09 18:59:39","新北市三芝區後厝里北勢子42-11號","121.471468333333","25.251985","6502100","三芝區"
"208001","170-UY","2019/07/09 18:59:38","新北市金山區民生路51巷1-2號","121.641881666667","25.2196666666667","6502700","金山區"
"237004","KEA-2597","2019/07/09 18:59:37","新北市三峽區有木205-1號","121.438993333333","24.85161","6500900","三峽區"
"237007","153-BY","2019/07/09 18:59:39","新北市三峽區中正路二段167號","121.366058333333","24.91489","6500900","三峽區"
"237013","252-BX","2019/07/09 18:59:39","新北市三峽區光明路69巷25號","121.376593333333","24.9291366666667","6500900","三峽區"
"237012","275-BY","2019/07/09 18:59:39","新北市三峽區三樹路224號","121.379113333333","24.9426483333333","6500900","三峽區"
"237008","302-VK","2019/07/09 18:59:25","新北市三峽區大同路174巷15號","121.372711666667","24.9274233333333","6500900","三峽區"
"237014","433-BY","2019/07/09 18:59:39","新北市三峽區隆恩街168-5號","121.363228333333","24.943485","6500900","三峽區"
"237006","5529-G3","2019/07/09 18:59:39","新北市三峽區溪東路233巷1-1號","121.406776666667","24.9332083333333","6500900","三峽區"
"237011","KEA-2596","2019/07/09 18:59:33","新北市三峽區介壽路三段138號","121.400723333333","24.94297","6500900","三峽區"
"237015","649-BX","2019/07/09 18:59:32","新北市三峽區建安80-3號","121.452438333333","24.9227183333333","6500900","三峽區"
"237010","706-TV","2019/07/09 18:59:25","新北市三峽區復興路174巷4號","121.370671666667","24.9388483333333","6500900","三峽區"
"237005","AKY-6261","2019/07/09 18:59:41","新北市三峽區中山路459巷135號","121.348645","24.93293","6500900","三峽區"
"236042","KED-0685","2019/07/09 18:59:37","新北市土城區學府路一段276號","121.450165","24.9833533333333","6501300","土城區"
"220089","KED-0812","2019/07/09 18:59:37","新北市板橋區文化路二段169號","121.470375","25.02745","6500100","板橋區"
"236030","253-BX","2019/07/09 18:59:35","新北市土城區中央路二段392-1號","121.439723333333","24.970875","6501300","土城區"
"236026","269-VK","2019/07/09 18:59:40","新北市土城區光明街4號","121.441876666667","24.9745283333333","6501300","土城區"
"236014","270-VK","2019/07/09 18:59:29","新北市土城區立德路45號","121.46263","24.9881283333333","6501300","土城區"
"236038","271-VK","2019/07/09 18:59:37","新北市土城區仁愛路20-2號","121.460946666667","24.9800833333333","6501300","土城區"
"236070","KEA-2877","2019/07/09 18:59:33","新北市土城區金城路二段221號","121.454996666667","24.9819933333333","6501300","土城區"
"252001","KED-0821","2019/07/09 18:59:23","新北市三芝區中興街二段260號","121.501815","25.2529583333333","6502100","三芝區"
"236021","401-BY","2019/07/09 18:59:39","新北市土城區延吉街168巷2弄4號","121.468365","24.98568","6501300","土城區"
"236063","752-BX","2019/07/09 18:57:54","新北市土城區延和路108巷2弄2號","121.467075","24.9896266666667","6501300","土城區"
"236049","913-UM","2019/07/09 18:59:32","新北市土城區青雲路322巷2弄4號","121.458265","24.9772583333333","6501300","土城區"
"236059","970-R7","2019/07/09 18:59:36","新北市土城區金城路二段206號","121.455193333333","24.981975","6501300","土城區"
"236055","AAC-216","2019/07/09 18:59:44","新北市土城區學成路179號","121.447886666667","24.9886116666667","6501300","土城區"
"242056","441-UM","2019/07/09 18:59:32","新北市樹林區中山路三段214號","121.379855","24.9675916666667","6500500","新莊區"
"238023","601-UM","2019/07/09 18:59:36","新北市樹林區大慶街88號","121.396063333333","25.0139583333333","6500700","樹林區"
"238019","599-UM","2019/07/09 18:59:26","新北市樹林區東榮街147巷2弄2號","121.414533333333","24.9814916666667","6500700","樹林區"
"238022","KEA-2213","2019/07/09 18:59:20","新北市樹林區中山路二段151巷14弄1號","121.407953333333","24.9777433333333","6500700","樹林區"
"238021","KEA-2539","2019/07/09 18:59:40","新北市樹林區柑園街二段290號","121.373848333333","24.9518966666667","6500700","樹林區"
"238025","303-VK","2019/07/09 18:59:42","新北市樹林區民和街32號","121.384745","24.9687566666667","6500700","樹林區"
"238017","283-BY","2019/07/09 18:59:35","新北市樹林區光興街50號","121.409803333333","25.0027333333333","6500700","樹林區"
"238014","282-BY","2019/07/09 18:59:32","新北市樹林區中正路22-1號","121.427683333333","24.99938","6500700","樹林區"
"238020","268-VK","2019/07/09 18:59:29","新北市樹林區俊英街219巷47-1號","121.420561666667","25.0113533333333","6500700","樹林區"
"238026","172-UY","2019/07/09 18:59:40","新北市樹林區中和街46號","121.389188333333","24.9738833333333","6500700","樹林區"
"238016","169-UY","2019/07/09 18:59:24","新北市樹林區文化街27號","121.419011666667","24.9876566666667","6500700","樹林區"
"239007","AAC-297","2019/07/09 18:59:38","新北市鶯歌區中山路138巷23號","121.351875","24.96041","6500800","鶯歌區"
"239006","891-R6","2019/07/09 18:59:40","新北市鶯歌區鶯桃路91巷42弄2號","121.336876666667","24.95207","6500800","鶯歌區"
"239008","527-UM","2019/07/09 18:59:41","新北市鶯歌區國際二路18巷36號","121.338046666667","24.97568","6500800","鶯歌區"
"239005","526-UM","2019/07/09 18:59:36","新北市鶯歌區永和街249號","121.337043333333","24.9722483333333","6500800","鶯歌區"
"239001","417-VK","2019/07/09 18:59:32","新北市鶯歌區永安街8號","121.338028333333","24.955535","6500800","鶯歌區"
"239003","360-BY","2019/07/09 18:59:29","新北市鶯歌區鶯桃路660號","121.329235","24.9692283333333","6500800","鶯歌區"
"239002","359-BY","2019/07/09 18:59:37","新北市鶯歌區中山路111號","121.350173333333","24.9568183333333","6500800","鶯歌區"
"239004","193-VK","2019/07/09 18:59:20","新北市鶯歌區中正三路318巷32號","121.32659","24.9373816666667","6500800","鶯歌區"
"221008","489-VK","2019/07/09 18:59:40","新北市汐止區康寧街582號","121.634978333333","25.069835","6501100","汐止區"
"221036","130-UY","2019/07/09 18:59:26","新北市汐止區水碓街63號","121.6651","25.0684866666667","6501100","汐止區"
"221015","131-UY","2019/07/09 18:59:23","新北市汐止區鄉長路一段55巷14號","121.665061666667","25.0762933333333","6501100","汐止區"
"221032","280-BY","2019/07/09 18:59:23","新北市汐止區橫科路407巷30弄28-5號","121.627546666667","25.0486616666667","6501100","汐止區"
"221029","298-VK","2019/07/09 18:59:29","新北市汐止區樟樹一路228號","121.642408333333","25.06661","6501100","汐止區"
"221031","353-TW","2019/07/09 18:59:31","新北市汐止區福德一路300巷30號","121.630548333333","25.0643566666667","6501100","汐止區"
"221002","707-TV","2019/07/09 18:59:33","新北市汐止區大同路一段2號","121.62086","25.0549883333333","6501100","汐止區"
"220079","145-BY","2019/07/09 18:59:26","新北市板橋區大智街71巷8弄2號","121.453453333333","25.0152266666667","6500100","板橋區"
"220080","200-UY","2019/07/09 18:59:38","新北市板橋區大觀路二段力行1巷103號","121.445056666667","24.99799","6500100","板橋區"
"220082","610-BX","2019/07/09 18:59:25","新北市板橋區溪北路142號","121.429946666667","24.988555","6500100","板橋區"
"220101","245-BX","2019/07/09 18:59:44","新北市板橋區民生路二段188號","121.470156666667","25.0207183333333","6500100","板橋區"
"220056","276-BY","2019/07/09 18:59:38","新北市板橋區信義路116號","121.45832","24.992535","6500100","板橋區"
"220072","277-BY","2019/07/09 18:59:28","新北市樹林區樹新路205-3號","121.429606666667","24.9978933333333","6500100","板橋區"
"220094","283-UM","2019/07/09 18:59:43","新北市板橋區光武街151號","121.46552","25.029465","6500100","板橋區"
"220071","283-VK","2019/07/09 18:59:38","新北市板橋區重慶路245巷67弄6號","121.465608333333","25.0013466666667","6500100","板橋區"
"220053","285-VK","2019/07/09 18:59:37","新北市板橋區太和街5巷20號","121.473101666667","25.0197933333333","6500100","板橋區"
"220083","286-VK","2019/07/09 18:59:25","新北市板橋區大觀路一段38巷156弄105號","121.443278333333","25.0076633333333","6500100","板橋區"
"220081","287-VK","2019/07/09 18:59:40","新北市板橋區南雅西路二段141號","121.452286666667","25.0116383333333","6500100","板橋區"
"220090","288-VK","2019/07/09 18:59:29","新北市板橋區裕民街54號","121.461465","25.0286516666667","6500100","板橋區"
"220061","295-UM","2019/07/09 18:59:36","新北市板橋區中山路二段295巷17號","121.477848333333","25.01874","6500100","板橋區"
"220084","296-UM","2019/07/09 18:59:39","新北市板橋區龍興街61號","121.443101666667","25.0013233333333","6500100","板橋區"
"220075","303-R5","2019/07/09 18:59:40","新北市板橋區茶館街15號","121.456668333333","25.0105983333333","6500100","板橋區"
"220062","305-R5","2019/07/09 18:59:38","新北市板橋區民享街132號","121.477985","25.016345","6500100","板橋區"
"220092","307-R5","2019/07/09 18:59:41","新北市板橋區文化路二段225巷60弄62號","121.469088333333","25.02983","6500100","板橋區"
"220088","491-VK","2019/07/09 18:59:25","新北市板橋區雙十路二段47巷50號","121.474846666667","25.0255633333333","6500100","板橋區"
"220035","560-BX","2019/07/09 18:59:34","新北市板橋區中正路244號","121.45557","25.019105","6500100","板橋區"
"220103","561-BX","2019/07/09 18:59:24","新北市板橋區介壽街66號","121.469275","25.01947","6500100","板橋區"
"220063","609-BX","2019/07/09 18:59:30","新北市板橋區三民路二段75號","121.479393333333","25.016835","6500100","板橋區"
"220091","637-BX","2019/07/09 18:59:33","新北市板橋區大同街18號","121.477616666667","25.0268883333333","6500100","板橋區"
"220057","686-BX","2019/07/09 18:59:33","新北市板橋區重慶路307號","121.46385","24.998695","6500100","板橋區"
"220077","687-BX","2019/07/09 18:59:38","新北市板橋區龍興街48號","121.443211666667","25.0009333333333","6500100","板橋區"
"220093","689-BX","2019/07/09 18:59:25","新北市板橋區民生路三段179號","121.465646666667","25.0273833333333","6500100","板橋區"
"220054","741-BX","2019/07/09 18:59:28","新北市板橋區重慶路127巷20號","121.463716666667","25.0048883333333","6500100","板橋區"
"220102","KEA-2699","2019/07/09 18:59:14","新北市板橋區田單街2巷38號","121.482253333333","25.02768","6500100","板橋區"
"220055","827-TW","2019/07/09 18:59:40","新北市板橋區中山路一段140號","121.463561666667","25.0108783333333","6500100","板橋區"
"220067","829-TW","2019/07/09 18:59:38","新北市板橋區三民路二段154巷11號","121.478713333333","25.0149716666667","6500100","板橋區"
"220074","895-R6","2019/07/09 18:59:33","新北市板橋區西門街59號","121.45452","25.0092383333333","6500100","板橋區"
"220073","985-R7","2019/07/09 18:59:37","新北市板橋區中正路163-1號","121.456565","25.01632","6500100","板橋區"
"220097","AAC-210","2019/07/09 18:59:33","新北市板橋區新海路135巷4號","121.459758333333","25.0228433333333","6500100","板橋區"
"220064","AAC-253","2019/07/09 18:59:42","新北市板橋區板新路139號","121.470323333333","25.0154533333333","6500100","板橋區"
"235068","KEA-2873","2019/07/09 18:59:26","新北市中和區圓通路162巷3號","121.497118333333","24.9953166666667","6500300","中和區"
"235061","KEA-2875","2019/07/09 18:59:39","新北市中和區中山路三段87號","121.475656666667","25.005875","6500300","中和區"
"235062","KEA-2876","2019/07/09 18:59:17","新北市中和區中山路二段403號","121.486256666667","25.0048433333333","6500300","中和區"
