"lineid","car","time","location","longitude","latitude","cityid","cityname"
"234046","148-BY","2019/07/09 19:29:33","新北市永和區秀朗路二段180號","121.526463333333","25.0011583333333","6500400","永和區"
"234081","298-R6","2019/07/09 19:29:38","新北市永和區環河東路三段50號","121.52682","25.0063033333333","6500400","永和區"
"234038","336-UY","2019/07/09 19:29:41","新北市永和區民樂街38號","121.527515","25.0006983333333","6500400","永和區"
"234064","337-UY","2019/07/09 19:29:43","新北市永和區中正路368巷1弄73號","121.520303333333","25.0008366666667","6500400","永和區"
"234086","338-UY","2019/07/09 19:29:40","新北市永和區成功路一段18巷20號","121.526153333333","25.00518","6500400","永和區"
"234070","552-UM","2019/07/09 19:29:36","新北市永和區警光街12號","121.519711666667","25.0095466666667","6500400","永和區"
"234017","745-BX","2019/07/09 19:29:41","新北市永和區環河西路一段51巷2號","121.513691666667","25.0181933333333","6500400","永和區"
"234030","746-BX","2019/07/09 19:29:21","新北市永和區民生路69號","121.522638333333","24.9972733333333","6500400","永和區"
"234054","KEA-2590","2019/07/09 19:29:44","新北市永和區復興街19巷7號","121.516083333333","25.013125","6500400","永和區"
"234007","KED-0605","2019/07/09 19:29:39","新北市永和區永和路一段102號","121.51333","25.0070866666667","6500400","永和區"
"234013","KEA-2591","2019/07/09 19:29:25","新北市永和區中山路一段138-1號","121.510296666667","25.0098416666667","6500400","永和區"
"234061","AAD-866","2019/07/09 19:29:40","新北市永和區中正路514號","121.517301666667","25.00473","6500400","永和區"
"234042","862-TW","2019/07/09 19:29:27","新北市永和區中和路519巷2號","121.510938333333","25.002875","6500400","永和區"
"234050","863-TW","2019/07/09 19:29:36","新北市永和區信義路111號","121.512305","25.01467","6500400","永和區"
"234026","9371-KE","2019/07/09 19:29:28","新北市中和區安樂路215號","121.51427","24.998845","6500400","永和區"
"234011","9373-KE","2019/07/09 19:29:23","新北市永和區保福路二段163巷13弄16號","121.50922","25.0141983333333","6500400","永和區"
"249003","593-UM","2019/07/09 19:29:41","新北市八里區商港一路22號","121.397173333333","25.147745","6502300","八里區"
"248014","025-BX","2019/07/09 19:29:32","新北市五股區民義路一段172巷11號","121.433511666667","25.08809","6501500","五股區"
"248016","026-BX","2019/07/09 19:29:38","新北市五股區成洲五路12號","121.452265","25.1016216666667","6501500","五股區"
"248008","KED-0815","2019/07/09 19:29:42","新北市五股區中興路二段37巷25-1號","121.46052","25.0744833333333","6501500","五股區"
"248020","KED-0813","2019/07/09 19:29:28","新北市五股區凌雲路三段41號","121.429368333333","25.1184833333333","6501500","五股區"
"248012","247-BX","2019/07/09 19:29:26","新北市五股區成泰路二段91巷21號","121.437441666667","25.0842466666667","6501500","五股區"
"248004","677-BX","2019/07/09 19:29:37","新北市五股區工商路151號","121.434953333333","25.0865566666667","6501500","五股區"
"248002","678-BX","2019/07/09 19:29:33","新北市五股區凌雲路一段158巷6號","121.447783333333","25.1029733333333","6501500","五股區"
"234023","9380-KE","2019/07/09 19:29:43","新北市永和區竹林路91巷45號","121.521286666667","25.0129216666667","6500400","永和區"
"234077","969-R7","2019/07/09 19:29:31","新北市永和區民權路58巷3號","121.51951","24.9982866666667","6500400","永和區"
"234074","AAC-211","2019/07/09 19:29:30","新北市永和區福和路8巷1號","121.524885","25.008935","6500400","永和區"
"234067","AAC-212","2019/07/09 19:29:36","新北市永和區保平路115號","121.510776666667","25.0065783333333","6500400","永和區"
"234003","AAC-295","2019/07/09 19:29:38","新北市永和區福和路353號","121.514623333333","25.0073033333333","6500400","永和區"
"244023","483-VK","2019/07/09 19:29:39","新北市林口區文化三路一段617巷90號","121.370193333333","25.0780366666667","6501700","林口區"
"243012","AAD-798","2019/07/09 19:29:32","新北市泰山區仁義路220巷8號","121.432956666667","25.05377","6501600","泰山區"
"243010","297-R6","2019/07/09 19:29:26","新北市泰山區民生路17巷56號","121.429268333333","25.0511566666667","6501600","泰山區"
"243014","KEA-2801","2019/07/09 19:29:25","新北市泰山區中港西路446號","121.433786666667","25.0535466666667","6501600","泰山區"
"243016","421-VK","2019/07/09 19:29:15","新北市泰山區明志路三段354號","121.420923333333","25.0350033333333","6501600","泰山區"
"243009","KEA-2215","2019/07/09 19:29:31","新北市泰山區明志路一段16號","121.433611666667","25.06582","6501600","泰山區"
"243011","KEA-2216","2019/07/09 19:29:38","新北市三重區新北大道六段50-1號","121.429311666667","25.0401416666667","6501600","泰山區"
"243013","646-TV","2019/07/09 19:29:28","新北市泰山區明志路三段145巷5弄21號","121.425676666667","25.0408983333333","6501600","泰山區"
"243015","680-BX","2019/07/09 19:29:38","新北市泰山區明志路二段85號","121.428626666667","25.052175","6501600","泰山區"
"222002","016-RS","2019/07/09 19:29:24","新北市深坑區北深路一段177號","121.632615","25.0108466666667","6501800","深坑區"
"222003","436-BY","2019/07/09 19:29:41","新北市深坑區深南路88巷1號","121.621221666667","25.0112116666667","6501800","深坑區"
"231061","002-UM","2019/07/09 19:29:28","新北市新店區安康路一段266巷4號","121.520051666667","24.96405","6500600","新店區"
"231058","0293-UT","2019/07/09 19:29:31","新北市新店區北新路二段228巷13號","121.543421666667","24.9771183333333","6500600","新店區"
"231044","046-UY","2019/07/09 19:29:40","新北市新店區中興路三段197號","121.543871666667","24.9814733333333","6500600","新店區"
"231060","106-UY","2019/07/09 19:29:27","新北市新店區安康路二段12號","121.516253333333","24.9637566666667","6500600","新店區"
"231051","107-UY","2019/07/09 19:29:26","新北市新店區中央五街26號","121.529121666667","24.974575","6500600","新店區"
"231049","108-UY","2019/07/09 19:29:40","新北市新店區北新路三段105巷11號","121.540641666667","24.982015","6500600","新店區"
"231065","110-UY","2019/07/09 19:29:31","新北市新店區安祥路109巷1弄29號","121.476613333333","24.96011","6500600","新店區"
"231050","KEA-2219","2019/07/09 19:29:39","新北市新店區竹林路94號","121.553881666667","24.950235","6500600","新店區"
"231062","256-BX","2019/07/09 19:29:39","新北市新店區安康路一段135號","121.527776666667","24.9618183333333","6500600","新店區"
"231054","260-TV","2019/07/09 19:29:40","新北市新店區文中路40號","121.539663333333","24.9565683333333","6500600","新店區"
"231042","268-BY","2019/07/09 19:29:30","新北市新店區中興路一段110號","121.541058333333","24.9620016666667","6500600","新店區"
"231064","278-BY","2019/07/09 19:29:32","新北市新店區安康路二段85巷18號","121.513701666667","24.9622116666667","6500600","新店區"
"231045","355-BY","2019/07/09 19:29:31","新北市新店區北宜路二段207號","121.553103333333","24.9532733333333","6500600","新店區"
"231056","4715-K9","2019/07/09 19:29:31","新北市新店區柴埕路59號","121.513555","24.964925","6500600","新店區"
"231053","513-UM","2019/07/09 19:29:30","新北市新店區新烏路二段196號","121.54786","24.917265","6500600","新店區"
"231041","619-UM","2019/07/09 19:29:30","新北市新店區中正路654號","121.534078333333","24.9893916666667","6500600","新店區"
"231063","641-BX","2019/07/09 19:29:22","新北市新店區達觀路14巷3號","121.503201666667","24.9417816666667","6500600","新店區"
"231048","KED-0819","2019/07/09 19:29:41","新北市新店區五峰路70巷11號","121.546173333333","24.96762","6500600","新店區"
"231046","719-UM","2019/07/09 19:29:35","新北市新店區北新路一段14號","121.540865","24.9655866666667","6500600","新店區"
"231057","720-UM","2019/07/09 19:29:43","新北市新店區花園一路三段57號","121.549498333333","24.9329433333333","6500600","新店區"
"231059","897-TW","2019/07/09 19:29:28","新北市新店區安和路三段21巷3號","121.517273333333","24.980885","6500600","新店區"
"231040","898-TW","2019/07/09 19:29:29","新北市新店區中華路66號","121.539223333333","24.9690883333333","6500600","新店區"
"231043","899-TW","2019/07/09 19:29:35","新北市新店區北新路二段228巷1號","121.542895","24.9777916666667","6500600","新店區"
"231066","AKT-0513","2019/07/09 19:29:40","新北市新店區安康路三段359巷12弄25號","121.484028333333","24.949385","6500600","新店區"
"241028","022-UY","2019/07/09 19:29:35","新北市三重區中寮街31號","121.492626666667","25.058885","6500200","三重區"
"241008","059-VK","2019/07/09 19:29:33","新北市三重區永福街135巷32弄8號","121.47708","25.0767933333333","6500200","三重區"
"241029","060-VK","2019/07/09 19:29:30","新北市三重區泉州街84巷18號","121.495775","25.0542666666667","6500200","三重區"
"241031","061-VK","2019/07/09 19:29:31","新北市三重區集美街100號","121.488593333333","25.05414","6500200","三重區"
"241017","063-VK","2019/07/09 19:29:28","新北市三重區國隆路2巷1號","121.493643333333","25.0635066666667","6500200","三重區"
"241022","066-VK","2019/07/09 19:29:40","新北市三重區三民街167號","121.483395","25.064845","6500200","三重區"
"241030","742-BX","2019/07/09 19:29:41","新北市三重區環河南路254巷17號","121.490323333333","25.0510566666667","6500200","三重區"
"241009","267-UM","2019/07/09 19:29:43","新北市三重區仁美街123號","121.485675","25.0813383333333","6500200","三重區"
"241032","269-UM","2019/07/09 19:29:25","新北市三重區三陽路62號","121.48406","25.0588033333333","6500200","三重區"
"241013","270-UM","2019/07/09 19:29:28","新北市三重區仁愛街101號","121.495681666667","25.07393","6500200","三重區"
"241023","271-UM","2019/07/09 19:29:34","新北市三重區頂崁街99號","121.47795","25.06383","6500200","三重區"
"241007","398-BY","2019/07/09 19:29:41","新北市三重區溪尾街126巷18號","121.488886666667","25.0792016666667","6500200","三重區"
"241035","462-BY","2019/07/09 19:29:32","新北市三重區信義西街1巷11號","121.498021666667","25.065095","6500200","三重區"
"241020","478-VK","2019/07/09 19:29:42","新北市三重區三和路四段20巷22號","121.490075","25.0737516666667","6500200","三重區"
"241026","480-VK","2019/07/09 19:29:40","新北市三重區文化南路47巷7號","121.499821666667","25.0613816666667","6500200","三重區"
"241006","AAD-863","2019/07/09 19:29:29","新北市三重區車路頭街90號","121.484325","25.0741366666667","6500200","三重區"
"241025","887-TS","2019/07/09 19:29:31","新北市三重區頂崁街210巷28弄11號","121.475821666667","25.0670933333333","6500200","三重區"
"241012","941-UM","2019/07/09 19:29:27","新北市三重區河邊北街262號","121.501675","25.0764283333333","6500200","三重區"
"235066","003-UY","2019/07/09 19:29:32","新北市中和區景新街86號","121.504685","24.9987366666667","6500300","中和區"
"235064","005-UY","2019/07/09 19:29:31","新北市中和區南山路127巷9號","121.502776666667","24.997335","6500300","中和區"
"235063","006-UY","2019/07/09 19:29:39","新北市中和區連城路203巷10弄2號","121.49494","24.9973433333333","6500300","中和區"
"235056","096-UM","2019/07/09 19:29:29","新北市中和區員山路581巷31弄22號","121.47656","25.010405","6500300","中和區"
"235039","097-UM","2019/07/09 19:29:33","新北市中和區秀峰街64號","121.520688333333","24.9903966666667","6500300","中和區"
"235065","098-UM","2019/07/09 19:29:30","新北市中和區莊敬路21號","121.500048333333","25.004525","6500300","中和區"
"235040","150-BY","2019/07/09 19:29:38","新北市中和區景安路79巷37弄2號","121.507591666667","24.996415","6500300","中和區"
"235058","151-BY","2019/07/09 19:29:39","新北市中和區連城路330號","121.483171666667","24.995965","6500300","中和區"
"235055","183-VK","2019/07/09 19:29:37","新北市中和區民享街27巷1號","121.47405","25.00478","6500300","中和區"
"235038","185-VK","2019/07/09 19:29:39","新北市中和區自立路141巷1號","121.522295","24.9935583333333","6500300","中和區"
"235049","186-VK","2019/07/09 19:29:25","新北市中和區景新街273巷32號","121.51075","24.994205","6500300","中和區"
"235067","255-BX","2019/07/09 19:29:28","新北市中和區連城路340巷8弄1號","121.48278","24.9963033333333","6500300","中和區"
"235044","293-VK","2019/07/09 19:29:27","新北市中和區捷運路85號","121.508306666667","24.9900716666667","6500300","中和區"
"235072","301-VK","2019/07/09 19:29:27","新北市中和區連城路265巷10弄1號","121.491715","24.995265","6500300","中和區"
"235043","352-BY","2019/07/09 19:29:34","新北市中和區南山路179號","121.502771666667","24.9951683333333","6500300","中和區"
"235042","KEA-2878","2019/07/09 19:29:27","新北市中和區中和路262巷43弄4號","121.509765","24.99968","6500300","中和區"
"235070","558-UM","2019/07/09 19:29:39","新北市中和區景平路559號","121.498276666667","24.9997366666667","6500300","中和區"
"235045","565-BX","2019/07/09 19:29:25","新北市中和區景新街383巷25號","121.512848333333","24.990505","6500300","中和區"
"235060","KED-0823","2019/07/09 19:29:14","新北市中和區員山路266巷35號","121.482756666667","25.0019366666667","6500300","中和區"
"235054","640-BX","2019/07/09 19:29:29","新北市中和區莒光路101號","121.472488333333","25.0029066666667","6500300","中和區"
"235047","732-UM","2019/07/09 19:29:31","新北市中和區景平路241巷34號","121.508628333333","24.9924433333333","6500300","中和區"
"235046","733-UM","2019/07/09 19:29:35","新北市中和區興南路一段105巷20弄35號","121.510536666667","24.9848583333333","6500300","中和區"
"235071","783-BX","2019/07/09 19:29:40","新北市中和區新生街282號","121.483708333333","24.9967366666667","6500300","中和區"
"235057","801-TS","2019/07/09 19:29:41","新北市中和區員山路202號","121.481406666667","25.0006283333333","6500300","中和區"
"235041","802-TS","2019/07/09 19:29:21","新北市中和區中和路400巷14弄1號","121.511698333333","25.0020766666667","6500300","中和區"
"235052","805-TS","2019/07/09 19:29:24","新北市中和區華新街143巷67弄31號","121.50748","24.9792083333333","6500300","中和區"
"235053","900-TW","2019/07/09 19:29:32","新北市中和區民德路188號","121.468136666667","24.9989466666667","6500300","中和區"
"235048","911-UM","2019/07/09 19:29:33","新北市中和區忠孝街113巷1號","121.512491666667","24.9873216666667","6500300","中和區"
"235051","157-BY","2019/07/09 19:29:25","新北市中和區景新街132巷1號","121.505113333333","24.9978333333333","6500300","中和區"
"235037","AAC-213","2019/07/09 19:29:30","新北市中和區秀朗路三段50巷7-1號","121.52582","24.9954166666667","6500300","中和區"
"235059","AAC-215","2019/07/09 19:29:29","新北市中和區圓通路252巷27號","121.492758333333","24.99176","6500300","中和區"
"220068","015-TV","2019/07/09 19:29:40","新北市板橋區萬安街100號","121.483806666667","25.0242133333333","6500100","板橋區"
"220065","072-UY","2019/07/09 19:29:36","新北市板橋區國泰街75巷28弄52號","121.46766","25.0049066666667","6500100","板橋區"
"220086","073-UY","2019/07/09 19:29:35","新北市板橋區中正路216巷93號","121.458661666667","25.0191616666667","6500100","板橋區"
"220106","075-UY","2019/07/09 19:29:32","新北市板橋區雙十路三段9號","121.471766666667","25.0302533333333","6500100","板橋區"
"220069","AAD-861","2019/07/09 19:29:32","新北市板橋區南雅南路二段18號","121.45446","25.00349","6500100","板橋區"
"220098","120-SR","2019/07/09 19:29:32","新北市板橋區四維路204號","121.464223333333","25.0272733333333","6500100","板橋區"
"247004","893-R6","2019/07/09 19:29:37","新北市蘆洲區長安街223號","121.459706666667","25.0825583333333","6501400","蘆洲區"
"247024","337-TH","2019/07/09 19:29:42","新北市五股區中興路三段163號","121.449386666667","25.0808","6501400","蘆洲區"
"226004","312-R5","2019/07/09 19:29:24","新北市平溪區十分里十分街172號","121.778433333333","25.0437616666667","6502400","平溪區"
"228001","212-TW","2019/07/09 19:29:24","新北市貢寮區真理里延平街68號","121.925405","25.0573683333333","6502600","貢寮區"
"228003","828-UM","2019/07/09 19:29:33","新北市貢寮區和美里和美街19-2號","121.912781666667","25.0825883333333","6502600","貢寮區"
"224008","273-VK","2019/07/09 19:29:31","新北市瑞芳區一坑路205號","121.801508333333","25.1091066666667","6501200","瑞芳區"
"227001","642-TC","2019/07/09 19:29:27","新北市雙溪區新基里新基北街43號","121.868198333333","25.0397116666667","6502500","雙溪區"
"227002","400-TW","2019/07/09 19:29:42","新北市雙溪區雙溪里光復街3號","121.865151666667","25.0355183333333","6502500","雙溪區"
"222001","KEA-2212","2019/07/09 19:29:24","新北市深坑區深坑街10號","121.61593","25.0028816666667","6501800","深坑區"
"208002","KEA-2872","2019/07/09 19:29:39","新北市金山區仁愛路78巷2號","121.634681666667","25.2214616666667","6502700","金山區"
"208003","665-BX","2019/07/09 19:29:28","新北市金山區中山路263巷14號","121.636351666667","25.22161","6502700","金山區"
"251001","011-UM","2019/07/09 19:29:30","新北市淡水區民權路177號","121.459821666667","25.13554","6501000","淡水區"
"251002","012-UM","2019/07/09 19:29:34","新北市淡水區沙崙路181巷2號","121.42448","25.18383","6501000","淡水區"
"251015","KEA-2871","2019/07/09 19:29:33","新北市淡水區山子頂24-1號","121.491363333333","25.1871516666667","6501000","淡水區"
"251016","179-VK","2019/07/09 19:29:35","新北市淡水區淡金路三段350巷18號","121.45074","25.2083583333333","6501000","淡水區"
"251013","180-VK","2019/07/09 19:29:15","新北市淡水區安子內18號","121.472461666667","25.2189216666667","6501000","淡水區"
"251008","181-VK","2019/07/09 19:29:27","新北市淡水區中正路一段33號","121.425916666667","25.1765216666667","6501000","淡水區"
"251010","413-VK","2019/07/09 19:29:06","新北市淡水區中正路二段142-1號","121.42208","25.187485","6501000","淡水區"
"251007","442-VK","2019/07/09 19:29:25","新北市淡水區紅樹林路250號","121.461113333333","25.155535","6501000","淡水區"
"251005","443-VK","2019/07/09 19:29:34","新北市淡水區水源街一段47巷31號","121.443953333333","25.1732266666667","6501000","淡水區"
"251006","561-UM","2019/07/09 19:29:24","新北市淡水區大義街54號","121.441605","25.1783816666667","6501000","淡水區"
"251009","575-R6","2019/07/09 19:29:31","新北市淡水區中正路28號","121.444341666667","25.1690866666667","6501000","淡水區"
"251014","577-R6","2019/07/09 19:29:34","新北市淡水區小中寮19-7號","121.484728333333","25.2296216666667","6501000","淡水區"
"251003","673-BX","2019/07/09 19:29:26","新北市淡水區濱海路一段53號","121.443771666667","25.1894","6501000","淡水區"
"207003","550-UM","2019/07/09 19:29:26","新北市萬里區大鵬里萬里加投249號","121.644308333333","25.215575","6502800","萬里區"
"207004","225-TW","2019/07/09 19:29:22","新北市萬里區萬里里瑪鋉路79號","121.688378333333","25.1765266666667","6502800","萬里區"
"252002","178-VK","2019/07/09 19:29:38","新北市三芝區淡金路二段18-1號","121.502695","25.2595083333333","6502100","三芝區"
"208001","170-UY","2019/07/09 19:29:38","新北市金山區中正路149-1號","121.631551666667","25.221405","6502700","金山區"
"237004","KEA-2597","2019/07/09 19:00:48","新北市三峽區有木205-1號","121.439053333333","24.8515066666667","6500900","三峽區"
"237007","153-BY","2019/07/09 19:29:39","新北市三峽區二鬮路136巷20弄69號","121.357655","24.9094666666667","6500900","三峽區"
"237009","210-TH","2019/07/09 19:29:39","新北市三峽區中山路11號","121.369636666667","24.9342683333333","6500900","三峽區"
"237013","252-BX","2019/07/09 19:29:40","新北市三峽區介壽路一段311巷5號","121.381231666667","24.930705","6500900","三峽區"
"237012","275-BY","2019/07/09 19:29:39","新北市三峽區三樹路98巷169號","121.384446666667","24.9393183333333","6500900","三峽區"
"237008","302-VK","2019/07/09 19:29:25","新北市三峽區永安街165號","121.373231666667","24.9274116666667","6500900","三峽區"
"237014","433-BY","2019/07/09 19:29:39","新北市三峽區中山路67巷32號","121.366901666667","24.9342683333333","6500900","三峽區"
"237006","5529-G3","2019/07/09 19:29:39","新北市三峽區中正路一段336巷15弄2號","121.369955","24.924945","6500900","三峽區"
"237011","KEA-2596","2019/07/09 19:29:33","新北市三峽區介壽路二段91-3號","121.391851666667","24.935505","6500900","三峽區"
"237015","649-BX","2019/07/09 19:29:32","新北市三峽區建安34號","121.446698333333","24.9275516666667","6500900","三峽區"
"237010","706-TV","2019/07/09 19:29:25","新北市三峽區復興路235號","121.368305","24.9389516666667","6500900","三峽區"
"237005","AKY-6261","2019/07/09 19:29:21","新北市三峽區復興路367巷1弄12號","121.364146666667","24.9377333333333","6500900","三峽區"
"236042","KED-0685","2019/07/09 19:29:37","新北市土城區學府路一段239號","121.450406666667","24.98337","6501300","土城區"
"220089","KED-0812","2019/07/09 19:29:37","新北市板橋區龍泉街108巷104號","121.455273333333","25.0255666666667","6500100","板橋區"
"236070","KEA-2877","2019/07/09 19:29:41","新北市土城區裕民路185巷36弄2號","121.454676666667","24.9846416666667","6501300","土城區"
"252001","KED-0821","2019/07/09 19:29:23","新北市三芝區長勤街62號","121.500156666667","25.256035","6502100","三芝區"
"236021","401-BY","2019/07/09 19:29:39","新北市土城區明峰街83號","121.468966666667","24.9873983333333","6501300","土城區"
"236049","913-UM","2019/07/09 19:29:42","新北市土城區清水路144號","121.458956666667","24.9814533333333","6501300","土城區"
"236059","970-R7","2019/07/09 19:29:36","新北市土城區中央路二段63號","121.442696666667","24.9789666666667","6501300","土城區"
"242002","751-BX","2019/07/09 19:29:33","新北市新莊區新泰路255巷83號","121.442546666667","25.0386516666667","6500500","新莊區"
"242056","441-UM","2019/07/09 19:29:32","新北市新莊區瓊林南路77-41號","121.437668333333","25.0124966666667","6500500","新莊區"
"238015","755-BX","2019/07/09 19:29:35","新北市樹林區育英街53號","121.420763333333","24.9892616666667","6500700","樹林區"
"238023","601-UM","2019/07/09 19:29:36","新北市樹林區三福街75號","121.40746","25.0163983333333","6500700","樹林區"
"238019","599-UM","2019/07/09 19:29:26","新北市樹林區鎮前街367巷3號","121.416336666667","24.9835233333333","6500700","樹林區"
"238024","5061-A6","2019/07/09 19:29:21","新北市樹林區中山路三段155巷12號","121.39604","24.9724966666667","6500700","樹林區"
"238018","KEA-2217","2019/07/09 19:29:42","新北市樹林區中華路16號","121.421018333333","24.9822116666667","6500700","樹林區"
"238022","KEA-2213","2019/07/09 19:18:50","新北市樹林區國凱街74號","121.420965","24.9791483333333","6500700","樹林區"
"238021","KEA-2539","2019/07/09 19:29:28","新北市樹林區佳園路三段217號","121.38513","24.9463816666667","6500700","樹林區"
"238025","303-VK","2019/07/09 19:29:22","新北市樹林區中山路一段62號","121.423608333333","24.9918716666667","6500700","樹林區"
"238017","283-BY","2019/07/09 19:29:35","新北市樹林區光興街155巷4號","121.407586666667","25.00351","6500700","樹林區"
"238014","282-BY","2019/07/09 19:29:32","新北市樹林區保安二街64巷29號","121.424505","24.9966883333333","6500700","樹林區"
"238020","268-VK","2019/07/09 19:29:29","新北市樹林區俊英街105-1號","121.42498","25.00965","6500700","樹林區"
"238026","172-UY","2019/07/09 19:29:40","新北市樹林區佳園路三段26號","121.387945","24.9540666666667","6500700","樹林區"
"238016","169-UY","2019/07/09 19:29:43","新北市樹林區復興路443號","121.413666666667","24.9841516666667","6500700","樹林區"
"239007","AAC-297","2019/07/09 19:29:38","新北市鶯歌區大湖路358號","121.346318333333","24.9725716666667","6500800","鶯歌區"
"239006","891-R6","2019/07/09 19:29:40","新北市鶯歌區文化路62-1號","121.356136666667","24.9545833333333","6500800","鶯歌區"
"239001","417-VK","2019/07/09 19:29:32","新北市鶯歌區正義新村5號","121.34319","24.949465","6500800","鶯歌區"
"239003","360-BY","2019/07/09 19:29:29","新北市鶯歌區建國路46號","121.355878333333","24.9557433333333","6500800","鶯歌區"
"239002","359-BY","2019/07/09 19:29:37","新北市鶯歌區大湖路159號","121.34416","24.9669583333333","6500800","鶯歌區"
"239004","193-VK","2019/07/09 19:29:41","新北市鶯歌區二甲路65號","121.334656666667","24.9331783333333","6500800","鶯歌區"
"221008","489-VK","2019/07/09 19:29:40","新北市汐止區康寧街235號","121.623971666667","25.0668516666667","6501100","汐止區"
"221032","280-BY","2019/07/09 19:29:23","新北市汐止區汐萬路一段256巷3號","121.65261","25.0745416666667","6501100","汐止區"
"221027","281-BY","2019/07/09 19:29:25","新北市汐止區忠孝東路9號","121.658268333333","25.0659083333333","6501100","汐止區"
"221021","299-VK","2019/07/09 19:29:42","新北市汐止區汐萬路一段244-1號","121.651506666667","25.0733616666667","6501100","汐止區"
"221031","353-TW","2019/07/09 19:29:31","新北市汐止區康寧街901號","121.650766666667","25.07531","6501100","汐止區"
"221025","623-UM","2019/07/09 19:29:39","新北市汐止區秀峰路57號","121.659801666667","25.0649466666667","6501100","汐止區"
"221002","707-TV","2019/07/09 19:29:33","新北市汐止區大同路一段329號","121.63825","25.059315","6501100","汐止區"
"220079","145-BY","2019/07/09 19:29:38","新北市板橋區民權路202巷14弄15號","121.461331666667","25.0158433333333","6500100","板橋區"
"220080","200-UY","2019/07/09 19:29:38","新北市板橋區大觀路二段21號","121.447015","25.0032683333333","6500100","板橋區"
"220082","610-BX","2019/07/09 19:29:25","新北市板橋區金門街355-1號","121.42864","24.9849966666667","6500100","板橋區"
"220101","245-BX","2019/07/09 19:29:39","新北市板橋區萬板路48號","121.47197","25.022805","6500100","板橋區"
"220056","276-BY","2019/07/09 19:29:38","新北市板橋區信義路243號","121.460145","24.9909333333333","6500100","板橋區"
"220072","277-BY","2019/07/09 19:29:39","新北市板橋區金門街226號","121.430855","24.9875716666667","6500100","板橋區"
"220094","283-UM","2019/07/09 19:29:27","新北市板橋區松江街109巷1號","121.469061666667","25.0305","6500100","板橋區"
"220071","283-VK","2019/07/09 19:29:38","新北市板橋區忠孝路48巷9弄19號","121.46212","25.0002683333333","6500100","板橋區"
"220053","285-VK","2019/07/09 19:29:37","新北市板橋區富山街53巷1弄104號","121.477766666667","25.0198133333333","6500100","板橋區"
"220083","286-VK","2019/07/09 19:29:25","新北市板橋區龍興街95巷1號","121.444035","25.0023483333333","6500100","板橋區"
"220081","287-VK","2019/07/09 19:29:35","新北市板橋區南雅西路一段10巷7弄1號","121.454586666667","25.0045483333333","6500100","板橋區"
"220090","288-VK","2019/07/09 19:29:29","新北市板橋區長江路一段48巷6弄2號","121.45917","25.0284466666667","6500100","板橋區"
"220061","295-UM","2019/07/09 19:29:37","新北市板橋區中山路一段265巷36弄2號","121.469176666667","25.0150683333333","6500100","板橋區"
"220084","296-UM","2019/07/09 19:29:39","新北市板橋區篤行路三段玉平巷6-2號","121.428988333333","24.987575","6500100","板橋區"
"220075","303-R5","2019/07/09 19:29:40","新北市板橋區中正路275巷93號","121.450805","25.0181066666667","6500100","板橋區"
"220062","305-R5","2019/07/09 19:29:38","新北市板橋區三民路二段153巷2弄2號","121.479565","25.0149316666667","6500100","板橋區"
"220092","307-R5","2019/07/09 19:29:21","新北市板橋區陽明街88號","121.464285","25.0228883333333","6500100","板橋區"
"220088","491-VK","2019/07/09 19:29:25","新北市板橋區文化路二段488號","121.475321666667","25.0331633333333","6500100","板橋區"
"220035","560-BX","2019/07/09 19:29:33","新北市板橋區中正路433巷25號","121.453263333333","25.0236216666667","6500100","板橋區"
"220103","561-BX","2019/07/09 19:29:24","新北市板橋區陽明街29巷36號","121.463596666667","25.0227416666667","6500100","板橋區"
"220063","609-BX","2019/07/09 19:29:42","新北市板橋區三民路一段31巷87弄13號","121.481463333333","25.0234133333333","6500100","板橋區"
"220022","630-UY","2019/07/09 19:29:33","新北市板橋區中正路自強新村28號","121.455043333333","25.0139916666667","6500100","板橋區"
"220091","637-BX","2019/07/09 19:29:33","新北市板橋區文聖街149巷25號","121.479525","25.02862","6500100","板橋區"
"220057","686-BX","2019/07/09 19:29:33","新北市板橋區和平路61號","121.461151666667","24.9946166666667","6500100","板橋區"
"220077","687-BX","2019/07/09 19:29:34","新北市板橋區僑中二街90巷1號","121.446383333333","25.0090516666667","6500100","板橋區"
"220093","689-BX","2019/07/09 19:29:35","新北市板橋區長江路一段38號","121.458401666667","25.0290233333333","6500100","板橋區"
"220054","741-BX","2019/07/09 19:29:30","新北市板橋區光明街21號","121.460588333333","25.00261","6500100","板橋區"
"220102","KEA-2699","2019/07/09 19:29:37","新北市板橋區雙十路二段46巷19號","121.476246666667","25.0282766666667","6500100","板橋區"
"220055","827-TW","2019/07/09 19:29:20","新北市板橋區重慶路278巷15號","121.462406666667","24.99959","6500100","板橋區"
"220067","829-TW","2019/07/09 19:29:38","新北市板橋區漢生東路330-1號","121.471813333333","25.0077816666667","6500100","板橋區"
"220074","895-R6","2019/07/09 19:29:33","新北市板橋區府中路129號","121.455961666667","25.0095833333333","6500100","板橋區"
"220073","985-R7","2019/07/09 19:29:33","新北市板橋區新生街13號","121.455431666667","25.021355","6500100","板橋區"
"220097","AAC-210","2019/07/09 19:29:44","新北市板橋區文化路一段285巷2弄1號","121.464643333333","25.0191783333333","6500100","板橋區"
"220064","AAC-253","2019/07/09 19:29:42","新北市板橋區重慶路10號","121.460753333333","25.008035","6500100","板橋區"
"235068","KEA-2873","2019/07/09 19:29:26","新北市中和區景平路483號","121.500308333333","24.9975183333333","6500300","中和區"
"235061","KEA-2875","2019/07/09 19:29:39","新北市中和區民利街14巷3-3號","121.4806","24.9995783333333","6500300","中和區"
