"lineid","car","time","location","longitude","latitude","cityid","cityname"
"234046","148-BY","2019/07/09 19:59:33","新北市永和區成功路一段40號","121.527033333333","25.0044783333333","6500400","永和區"
"234081","298-R6","2019/07/09 19:59:39","新北市永和區國中路2號","121.524111666667","25.0041733333333","6500400","永和區"
"234038","336-UY","2019/07/09 19:59:41","新北市永和區成功路二段119號","121.52677","24.9984716666667","6500400","永和區"
"234064","337-UY","2019/07/09 19:59:42","新北市永和區中正路412巷20弄27號","121.519106666667","25.0012866666667","6500400","永和區"
"234086","338-UY","2019/07/09 19:59:37","新北市永和區福和路96號","121.52237","25.0080416666667","6500400","永和區"
"234070","552-UM","2019/07/09 19:59:36","新北市永和區國光路14號","121.519091666667","25.0084066666667","6500400","永和區"
"234017","745-BX","2019/07/09 19:59:41","新北市永和區文化路63號","121.514036666667","25.0150266666667","6500400","永和區"
"234030","746-BX","2019/07/09 19:59:41","新北市永和區民生路22巷16號","121.521683333333","24.9971983333333","6500400","永和區"
"234054","KEA-2590","2019/07/09 19:59:24","新北市永和區環河東路一段122號","121.520573333333","25.0154866666667","6500400","永和區"
"234007","KED-0605","2019/07/09 19:59:39","新北市永和區保生路22巷21號","121.507255","25.0083033333333","6500400","永和區"
"234013","KEA-2591","2019/07/09 19:59:25","新北市永和區保生路55號","121.50474","25.010585","6500400","永和區"
"234061","AAD-866","2019/07/09 19:59:32","新北市永和區得和路68號","121.516285","24.999845","6500400","永和區"
"234042","862-TW","2019/07/09 19:59:27","新北市永和區中和路335巷18弄2號","121.507616666667","25.0001933333333","6500400","永和區"
"234050","863-TW","2019/07/09 19:59:36","新北市永和區保安路250號","121.5063","25.012585","6500400","永和區"
"234026","9371-KE","2019/07/09 19:59:28","新北市永和區水源街21巷14弄4號","121.511388333333","25.0038566666667","6500400","永和區"
"249005","172-UM","2019/07/09 19:59:30","新北市八里區楓林路2-9號","121.38598","25.1323083333333","6502300","八里區"
"249001","173-UM","2019/07/09 19:59:29","新北市八里區中華路二段310號","121.403801666667","25.14836","6502300","八里區"
"249004","303-UY","2019/07/09 19:59:24","新北市八里區中華路一段333-1號","121.413111666667","25.15405","6502300","八里區"
"249002","305-UY","2019/07/09 19:59:29","新北市八里區頂寮一街42號","121.450526666667","25.1239716666667","6502300","八里區"
"249003","593-UM","2019/07/09 19:59:41","新北市八里區中華路二段361-5號","121.398473333333","25.1445116666667","6502300","八里區"
"248016","026-BX","2019/07/09 19:59:38","新北市五股區成泰路三段577巷80弄7號","121.449533333333","25.10431","6501500","五股區"
"248008","KED-0815","2019/07/09 19:59:42","新北市五股區四維路155巷36弄23號","121.466828333333","25.0751083333333","6501500","五股區"
"248020","KED-0813","2019/07/09 19:59:28","新北市五股區凌雲路三段38號","121.431118333333","25.1082133333333","6501500","五股區"
"248012","247-BX","2019/07/09 19:59:26","新北市五股區民義路一段109號","121.434036666667","25.0864666666667","6501500","五股區"
"248004","677-BX","2019/07/09 19:59:25","新北市五股區成泰路一段34巷7號","121.43537","25.0680983333333","6501500","五股區"
"248002","678-BX","2019/07/09 19:59:33","新北市五股區成泰路三段521號","121.451498333333","25.100645","6501500","五股區"
"248010","682-TV","2019/07/09 19:59:32","新北市五股區登林路104號","121.427208333333","25.07058","6501500","五股區"
"234023","9380-KE","2019/07/09 19:59:23","新北市永和區中正路702巷18號","121.516503333333","25.010505","6500400","永和區"
"234077","969-R7","2019/07/09 19:59:31","新北市永和區民有街28號","121.516875","24.9963216666667","6500400","永和區"
"234074","AAC-211","2019/07/09 19:59:30","新北市永和區豫溪街215巷25號","121.523551666667","25.0102966666667","6500400","永和區"
"234067","AAC-212","2019/07/09 19:59:36","新北市永和區中山路一段242號","121.507815","25.008025","6500400","永和區"
"234003","AAC-295","2019/07/09 19:59:38","新北市永和區中正路708號","121.516096666667","25.0099366666667","6500400","永和區"
"243012","AAD-798","2019/07/09 19:59:32","新北市泰山區全興路20號","121.4323","25.058915","6501600","泰山區"
"243010","297-R6","2019/07/09 19:59:25","新北市泰山區民生路7號","121.429653333333","25.0526833333333","6501600","泰山區"
"243016","421-VK","2019/07/09 19:59:34","新北市泰山區明志路三段409號","121.421226666667","25.03402","6501600","泰山區"
"243009","KEA-2215","2019/07/09 19:59:31","新北市泰山區楓江路16巷13號","121.434011666667","25.0617916666667","6501600","泰山區"
"243011","KEA-2216","2019/07/09 19:59:38","新北市泰山區工專路65號","121.422118333333","25.04042","6501600","泰山區"
"222002","016-RS","2019/07/09 19:59:24","新北市深坑區北深路二段81巷8弄2號","121.618313333333","25.0031033333333","6501800","深坑區"
"222003","436-BY","2019/07/09 19:59:20","新北市深坑區埔新街14號","121.620683333333","25.0039266666667","6501800","深坑區"
"231061","002-UM","2019/07/09 19:59:37","新北市新店區安民街341號","121.51714","24.975035","6500600","新店區"
"231044","046-UY","2019/07/09 19:59:29","新北市新店區建國路299號","121.537155","24.9869616666667","6500600","新店區"
"231060","106-UY","2019/07/09 19:59:27","新北市新店區安康路二段337-1號","121.497916666667","24.95575","6500600","新店區"
"231051","107-UY","2019/07/09 19:59:25","新北市新店區中央二街7-3號","121.529161666667","24.9732066666667","6500600","新店區"
"231049","108-UY","2019/07/09 19:59:40","新北市新店區民族路9號","121.541715","24.97876","6500600","新店區"
"231065","110-UY","2019/07/09 19:59:31","新北市新店區安祥路106巷10號","121.478716666667","24.9626416666667","6500600","新店區"
"231068","187-VK","2019/07/09 19:59:25","新北市新店區安康路一段266巷4號","121.520101666667","24.96467","6500600","新店區"
"231050","KEA-2219","2019/07/09 19:59:39","新北市新店區北宜路二段579巷1號","121.565681666667","24.9537233333333","6500600","新店區"
"221035","KEA-2785","2019/07/09 19:59:36","新北市汐止區長江街11號","121.65472","25.07118","6501100","汐止區"
"231062","256-BX","2019/07/09 19:59:39","新北市新店區華潭街51號","121.528865","24.9540466666667","6500600","新店區"
"231054","260-TV","2019/07/09 19:59:40","新北市新店區中興路一段100號","121.540275","24.9607966666667","6500600","新店區"
"231042","268-BY","2019/07/09 19:59:30","新北市新店區中興路一段290號","121.54587","24.96905","6500600","新店區"
"231064","278-BY","2019/07/09 19:59:32","新北市新店區安光路10-1號","121.513768333333","24.9641233333333","6500600","新店區"
"231045","355-BY","2019/07/09 19:59:31","新北市新店區北宜路二段212號","121.559418333333","24.9543933333333","6500600","新店區"
"231055","4716-K9","2019/07/09 19:59:41","新北市新店區力行路30號","121.539178333333","24.964705","6500600","新店區"
"231056","4715-K9","2019/07/09 19:59:31","新北市新店區中正路128巷17號","121.542505","24.9724783333333","6500600","新店區"
"231067","4772-VM","2019/07/09 19:59:39","新北市新店區秀山路11巷22號","121.531581666667","24.95888","6500600","新店區"
"231053","513-UM","2019/07/09 19:59:30","新北市新店區新烏路三段251號","121.546596666667","24.8957883333333","6500600","新店區"
"231041","619-UM","2019/07/09 19:59:30","新北市新店區中央路13號","121.533263333333","24.9784333333333","6500600","新店區"
"231063","641-BX","2019/07/09 19:59:42","新北市新店區車子路11號","121.503058333333","24.9519616666667","6500600","新店區"
"231048","KED-0819","2019/07/09 19:59:34","新北市新店區寶宏路38號","121.549403333333","24.9754583333333","6500600","新店區"
"231057","720-UM","2019/07/09 19:59:43","新北市新店區花園二路一段11號","121.555456666667","24.9325083333333","6500600","新店區"
"231059","897-TW","2019/07/09 19:59:28","新北市新店區安和路二段95號","121.5186","24.96944","6500600","新店區"
"231040","898-TW","2019/07/09 19:59:29","新北市新店區中正路75巷71號","121.543156666667","24.968755","6500600","新店區"
"231043","899-TW","2019/07/09 19:59:35","新北市新店區中正路263-3號","121.538351666667","24.9737166666667","6500600","新店區"
"231066","AKT-0513","2019/07/09 19:59:40","新北市新店區安康路二段341巷28號","121.497088333333","24.95457","6500600","新店區"
"241011","013-R5","2019/07/09 19:59:25","新北市三重區三和路二段220號","121.49791","25.0694633333333","6500200","三重區"
"241028","022-UY","2019/07/09 19:59:35","新北市三重區中正南路83號","121.494255","25.0584483333333","6500200","三重區"
"241008","059-VK","2019/07/09 19:59:24","新北市三重區永福街179巷28號","121.47803","25.074735","6500200","三重區"
"241029","060-VK","2019/07/09 19:59:30","新北市三重區重新路三段204號","121.490166666667","25.0583333333333","6500200","三重區"
"241031","061-VK","2019/07/09 19:59:31","新北市三重區重新路四段144巷23號","121.487071666667","25.0552783333333","6500200","三重區"
"241015","062-VK","2019/07/09 19:59:33","新北市三重區三和路二段8號","121.50113","25.066915","6500200","三重區"
"241017","063-VK","2019/07/09 19:59:28","新北市三重區自強路一段314號","121.491181666667","25.0685433333333","6500200","三重區"
"241024","065-VK","2019/07/09 19:59:29","新北市三重區大勇街42號","121.481186666667","25.071655","6500200","三重區"
"241022","066-VK","2019/07/09 19:59:39","新北市三重區新北大道一段11號","121.488621666667","25.0606266666667","6500200","三重區"
"241003","091-VK","2019/07/09 19:59:27","新北市三重區五華街130號","121.491553333333","25.0834966666667","6500200","三重區"
"241030","742-BX","2019/07/09 19:59:44","新北市三重區成功路189號","121.485888333333","25.0530966666667","6500200","三重區"
"241005","262-UM","2019/07/09 19:59:29","新北市三重區溪尾街325巷32號","121.488658333333","25.0833583333333","6500200","三重區"
"241016","266-UM","2019/07/09 19:59:25","新北市三重區正義北路36巷23號","121.496498333333","25.063405","6500200","三重區"
"241009","267-UM","2019/07/09 19:59:35","新北市三重區三和路四段388-2號","121.482065","25.0791416666667","6500200","三重區"
"241018","268-UM","2019/07/09 19:59:33","新北市三重區正義北路244巷47號","121.494436666667","25.0678733333333","6500200","三重區"
"241032","269-UM","2019/07/09 19:59:25","新北市三重區朝陽街23號","121.483653333333","25.05655","6500200","三重區"
"241013","270-UM","2019/07/09 19:59:28","新北市三重區三和路三段125巷30號","121.493683333333","25.0737416666667","6500200","三重區"
"241023","271-UM","2019/07/09 19:59:14","新北市三重區頂崁街168號","121.477603333333","25.0658816666667","6500200","三重區"
"241007","398-BY","2019/07/09 19:59:21","新北市三重區三和路四段163巷163號","121.488455","25.0800766666667","6500200","三重區"
"241035","462-BY","2019/07/09 19:59:32","新北市三重區大榮街9號","121.498258333333","25.0630816666667","6500200","三重區"
"241004","475-VK","2019/07/09 19:59:39","新北市三重區五華街80號","121.49321","25.0821266666667","6500200","三重區"
"241020","478-VK","2019/07/09 19:59:22","新北市三重區忠孝路一段101號","121.489456666667","25.07218","6500200","三重區"
"241026","480-VK","2019/07/09 19:59:40","新北市三重區福德南路19號","121.502478333333","25.0630133333333","6500200","三重區"
"241014","543-UM","2019/07/09 19:59:35","新北市三重區長樂街1號","121.49938","25.0689883333333","6500200","三重區"
"241001","547-UM","2019/07/09 19:59:31","新北市三重區福隆路2號","121.489663333333","25.0772783333333","6500200","三重區"
"241019","KEA-2593","2019/07/09 19:59:29","新北市三重區自強路二段20-1號","121.489653333333","25.0691866666667","6500200","三重區"
"241006","AAD-863","2019/07/09 19:59:29","新北市三重區力行路二段138-1號","121.482375","25.07563","6500200","三重區"
"241025","887-TS","2019/07/09 19:59:31","新北市三重區頂崁街210巷38號","121.475501666667","25.0680483333333","6500200","三重區"
"241012","941-UM","2019/07/09 19:59:27","新北市三重區仁厚街7號","121.499278333333","25.0760583333333","6500200","三重區"
"241033","AAC-255","2019/07/09 19:59:39","新北市三重區中興北街103號","121.46971","25.0484183333333","6500200","三重區"
"235066","003-UY","2019/07/09 19:59:26","新北市中和區中山路二段57號","121.504311666667","25.00486","6500300","中和區"
"235039","097-UM","2019/07/09 19:59:33","新北市中和區景平路278巷16弄8號","121.514268333333","24.9935966666667","6500300","中和區"
"235065","098-UM","2019/07/09 19:59:30","新北市中和區莊敬路2號","121.499438333333","25.0041366666667","6500300","中和區"
"235040","150-BY","2019/07/09 19:59:38","新北市中和區保健路10巷3弄1號","121.507808333333","24.99774","6500300","中和區"
"235058","151-BY","2019/07/09 19:59:39","新北市中和區員山路148巷15號","121.481916666667","24.9971283333333","6500300","中和區"
"235055","183-VK","2019/07/09 19:59:37","新北市中和區中山路三段206號","121.47161","25.0064433333333","6500300","中和區"
"235049","186-VK","2019/07/09 19:59:25","新北市中和區景平路396-1號","121.509825","24.9931916666667","6500300","中和區"
"235067","255-BX","2019/07/09 19:59:21","新北市中和區員山路148巷23弄30號","121.482265","24.9979433333333","6500300","中和區"
"235044","293-VK","2019/07/09 19:59:39","新北市中和區中正路65巷1弄2號","121.501325","24.9931433333333","6500300","中和區"
"235043","352-BY","2019/07/09 19:59:34","新北市中和區興南路二段159巷18號","121.505298333333","24.983025","6500300","中和區"
"247014","KEA-2869","2019/07/09 19:59:42","新北市蘆洲區成功路195號","121.471058333333","25.0839616666667","6501400","蘆洲區"
"247008","KED-0682","2019/07/09 19:59:29","新北市蘆洲區信義路109號","121.478248333333","25.08014","6501400","蘆洲區"
"235050","4979-A6","2019/07/09 19:59:26","新北市中和區景平路241巷64弄16號","121.507358333333","24.99248","6500300","中和區"
"235070","558-UM","2019/07/09 19:59:39","新北市中和區中正路440號","121.491041666667","24.9942566666667","6500300","中和區"
"235054","640-BX","2019/07/09 19:59:29","新北市五股區成洲五路38號","121.453561666667","25.101395","6500300","中和區"
"235047","732-UM","2019/07/09 19:59:31","新北市中和區和平街75號","121.505561666667","24.9920483333333","6500300","中和區"
"235046","733-UM","2019/07/09 19:59:35","新北市中和區興南路一段105巷20弄9號","121.510293333333","24.9854266666667","6500300","中和區"
"235052","805-TS","2019/07/09 19:59:44","新北市中和區忠孝街3號","121.509485","24.9829516666667","6500300","中和區"
"235048","911-UM","2019/07/09 19:59:33","新北市中和區興南路一段20-2號","121.511278333333","24.9911283333333","6500300","中和區"
"235051","157-BY","2019/07/09 19:59:25","新北市中和區景安路247巷16號","121.504348333333","24.9905566666667","6500300","中和區"
"235037","AAC-213","2019/07/09 19:59:30","新北市中和區自強路64號","121.520008333333","24.9943466666667","6500300","中和區"
"235059","AAC-215","2019/07/09 19:59:29","新北市中和區圓通路335巷5弄15號","121.493515","24.990125","6500300","中和區"
"220068","015-TV","2019/07/09 19:59:39","新北市板橋區中山路二段497號","121.482671666667","25.02097","6500100","板橋區"
"220065","072-UY","2019/07/09 19:59:35","新北市板橋區民族路129巷15號","121.467565","25.0084983333333","6500100","板橋區"
"220086","073-UY","2019/07/09 19:59:35","新北市板橋區中正路170號","121.456411666667","25.0171966666667","6500100","板橋區"
"220106","075-UY","2019/07/09 19:59:32","新北市板橋區懷德街66巷20號","121.476925","25.032005","6500100","板橋區"
"220069","AAD-861","2019/07/09 19:59:32","新北市板橋區貴興路111號","121.455803333333","25.0025866666667","6500100","板橋區"
"220098","120-SR","2019/07/09 19:59:32","新北市板橋區新海路385巷8號","121.458556666667","25.025825","6500100","板橋區"
"247004","893-R6","2019/07/09 19:59:37","新北市蘆洲區長安街263號","121.458743333333","25.0838383333333","6501400","蘆洲區"
"247018","546-UM","2019/07/09 19:59:33","新北市蘆洲區民族路290巷13號","121.478553333333","25.08989","6501400","蘆洲區"
"247002","500-BY","2019/07/09 19:59:41","新北市蘆洲區長安街276號","121.457356666667","25.0870433333333","6501400","蘆洲區"
"247024","337-TH","2019/07/09 19:59:42","新北市蘆洲區光榮路120巷8弄20號","121.46428","25.08772","6501400","蘆洲區"
"247022","057-VK","2019/07/09 19:59:40","新北市蘆洲區中正路176號","121.46729","25.0878133333333","6501400","蘆洲區"
"247016","053-VK","2019/07/09 19:59:18","新北市蘆洲區中正路96號","121.469996666667","25.0838616666667","6501400","蘆洲區"
"247020","007-UY","2019/07/09 19:59:39","新北市蘆洲區民義街53號","121.472838333333","25.0897533333333","6501400","蘆洲區"
"247006","002-UY","2019/07/09 19:59:24","新北市蘆洲區九芎街139巷12號","121.465866666667","25.0790466666667","6501400","蘆洲區"
"226004","312-R5","2019/07/09 19:59:24","新北市平溪區十分里十分街116號","121.776903333333","25.0430983333333","6502400","平溪區"
"228003","828-UM","2019/07/09 19:59:32","新北市貢寮區仁理村仁和路186號","121.923401666667","25.0523633333333","6502600","貢寮區"
"227001","642-TC","2019/07/09 19:59:27","新北市雙溪區新基里新基南街25號","121.866286666667","25.038105","6502500","雙溪區"
"227002","400-TW","2019/07/09 19:59:42","新北市雙溪區雙溪里太平路81號","121.865398333333","25.0361566666667","6502500","雙溪區"
"222001","KEA-2212","2019/07/09 19:59:24","新北市深坑區北深路三段164號","121.60233","25.0034166666667","6501800","深坑區"
"208002","KEA-2872","2019/07/09 19:59:39","新北市金山區環金路19號","121.640618333333","25.21761","6502700","金山區"
"208003","665-BX","2019/07/09 19:59:28","新北市金山區永興里忠義路1號","121.63309","25.2585466666667","6502700","金山區"
"251004","009-UM","2019/07/09 19:59:28","新北市淡水區民權路173巷15號","121.46067","25.135735","6501000","淡水區"
"251001","011-UM","2019/07/09 19:59:30","新北市淡水區淡金路一段166-7號","121.453736666667","25.180195","6501000","淡水區"
"251002","012-UM","2019/07/09 19:59:34","新北市淡水區沙崙路161號","121.423903333333","25.1834183333333","6501000","淡水區"
"251015","KEA-2871","2019/07/09 19:59:40","新北市三芝區楓林路1號","121.49315","25.194295","6501000","淡水區"
"251016","179-VK","2019/07/09 19:59:35","新北市淡水區淡金路四段660號","121.452516666667","25.231915","6501000","淡水區"
"251013","180-VK","2019/07/09 19:59:35","新北市淡水區下圭柔山63-7號","121.451871666667","25.2061716666667","6501000","淡水區"
"251008","181-VK","2019/07/09 19:59:41","新北市淡水區淡海路63巷3號","121.422776666667","25.18074","6501000","淡水區"
"251012","441-VK","2019/07/09 19:59:44","新北市淡水區下圭柔山93-3號","121.435988333333","25.2090916666667","6501000","淡水區"
"251005","443-VK","2019/07/09 19:59:34","新北市淡水區學府路136巷6號","121.450795","25.1729433333333","6501000","淡水區"
"251006","561-UM","2019/07/09 19:59:24","新北市淡水區大忠街5巷3號","121.44353","25.1769216666667","6501000","淡水區"
"251009","575-R6","2019/07/09 19:59:31","新北市淡水區英專路21巷11號","121.445073333333","25.1696483333333","6501000","淡水區"
"251014","577-R6","2019/07/09 19:59:34","新北市淡水區石頭厝2-1號","121.4581","25.23574","6501000","淡水區"
"251011","650-BX","2019/07/09 19:59:32","新北市淡水區淡金路二段507號","121.447051666667","25.189725","6501000","淡水區"
"207003","550-UM","2019/07/09 19:59:24","新北市萬里區磺潭里公館崙5號","121.641925","25.2142233333333","6502800","萬里區"
"207004","225-TW","2019/07/09 19:59:42","新北市萬里區北基里忠二街35號","121.685678333333","25.1757633333333","6502800","萬里區"
"252002","178-VK","2019/07/09 19:59:38","新北市三芝區三民街39巷36號","121.505418333333","25.25757","6502100","三芝區"
"237004","KEA-2597","2019/07/09 19:59:40","新北市三峽區添福261號","121.375455","24.893955","6500900","三峽區"
"237009","210-TH","2019/07/09 19:59:39","新北市三峽區民權街183號","121.367855","24.9296866666667","6500900","三峽區"
"237012","275-BY","2019/07/09 19:59:39","新北市三峽區中華路89號","121.371678333333","24.92957","6500900","三峽區"
"237008","302-VK","2019/07/09 19:59:25","新北市三峽區中正路一段174巷3號","121.371988333333","24.92866","6500900","三峽區"
"237014","433-BY","2019/07/09 19:59:39","新北市三峽區嘉添185-1號","121.370035","24.9119183333333","6500900","三峽區"
"237006","5529-G3","2019/07/09 19:59:39","新北市三峽區中正路二段9號","121.367216666667","24.9194633333333","6500900","三峽區"
"237015","649-BX","2019/07/09 19:59:32","新北市三峽區介壽路二段138巷1弄13-1號","121.396338333333","24.93383","6500900","三峽區"
"237005","AKY-6261","2019/07/09 19:59:41","新北市三峽區民生街1巷19-15號","121.379643333333","24.936155","6500900","三峽區"
"236042","KED-0685","2019/07/09 19:59:39","新北市土城區學府路一段120巷15號","121.454941666667","24.988255","6501300","土城區"
"220089","KED-0812","2019/07/09 19:59:37","新北市板橋區四維路133號","121.465083333333","25.0252316666667","6500100","板橋區"
"236030","253-BX","2019/07/09 19:59:35","新北市土城區中華路一段197-1號","121.443566666667","24.9850933333333","6501300","土城區"
"236026","269-VK","2019/07/09 19:59:40","新北市土城區中央路二段89號","121.442361666667","24.978125","6501300","土城區"
"236014","270-VK","2019/07/09 19:59:29","新北市土城區廣福街133號","121.456105","24.9932783333333","6501300","土城區"
"236038","271-VK","2019/07/09 19:59:30","新北市土城區國際路36巷2號","121.465926666667","24.979295","6501300","土城區"
"247010","KED-0683","2019/07/09 19:59:36","新北市三重區集賢路188號","121.483825","25.0879316666667","6501400","蘆洲區"
"236070","KEA-2877","2019/07/09 19:59:33","新北市土城區忠義路77號","121.443206666667","24.9648333333333","6501300","土城區"
"252001","KED-0821","2019/07/09 19:59:43","新北市三芝區公正街66號","121.499826666667","25.257435","6502100","三芝區"
"236021","401-BY","2019/07/09 19:59:39","新北市土城區延吉街54號","121.471628333333","24.9869383333333","6501300","土城區"
"236063","752-BX","2019/07/09 19:59:34","新北市土城區金城路三段73巷11弄1號","121.466241666667","24.98797","6501300","土城區"
"236049","913-UM","2019/07/09 19:59:32","新北市土城區金城路三段135號","121.468116666667","24.9880416666667","6501300","土城區"
"236059","970-R7","2019/07/09 19:59:36","新北市土城區中央路一段273號","121.444725","24.9847983333333","6501300","土城區"
"236055","AAC-216","2019/07/09 19:59:24","新北市土城區學府路一段39號","121.457796666667","24.9883466666667","6501300","土城區"
"242039","AAC-296","2019/07/09 19:59:36","新北市新莊區民安路287-3號","121.428891666667","25.0229883333333","6500500","新莊區"
"242061","986-R7","2019/07/09 19:59:37","新北市新莊區瓊林路瓊英巷7號","121.4434","25.027455","6500500","新莊區"
"242002","751-BX","2019/07/09 19:59:33","新北市新莊區中正路170號","121.450888333333","25.0358516666667","6500500","新莊區"
"242029","615-BX","2019/07/09 19:59:41","新北市新莊區中榮街89號","121.44521","25.0527666666667","6500500","新莊區"
"242058","612-BX","2019/07/09 19:59:32","新北市新莊區八德街97號","121.424298333333","25.0213566666667","6500500","新莊區"
"242051","497-BY","2019/07/09 19:59:37","新北市新莊區西盛街149號","121.428295","25.0182083333333","6500500","新莊區"
"242056","441-UM","2019/07/09 19:59:31","新北市新莊區中正路347巷17弄4號","121.447348333333","25.034315","6500500","新莊區"
"242005","440-UM","2019/07/09 19:59:29","新北市新莊區化成路314巷4號","121.466405","25.04829","6500500","新莊區"
"242011","413-TV","2019/07/09 19:59:34","新北市新莊區中港路531巷68號","121.450565","25.0515466666667","6500500","新莊區"
"242048","400-BY","2019/07/09 19:59:41","新北市新莊區四維路10號","121.423858333333","25.0252283333333","6500500","新莊區"
"242025","362-BY","2019/07/09 19:59:40","新北市新莊區五工二路78巷9號","121.460236666667","25.0665633333333","6500500","新莊區"
"242023","353-BY","2019/07/09 19:59:40","新北市新莊區化成路380-1號","121.465911666667","25.0500516666667","6500500","新莊區"
"242013","132-UY","2019/07/09 19:59:40","新北市新莊區中港路417巷18號","121.451523333333","25.0475816666667","6500500","新莊區"
"242037","135-UY","2019/07/09 19:59:29","新北市新莊區建安街23號","121.429018333333","25.0260216666667","6500500","新莊區"
"242054","172-VK","2019/07/09 19:59:30","新北市新莊區西盛街427號","121.427245","25.0121333333333","6500500","新莊區"
"242015","173-VK","2019/07/09 19:59:36","新北市新莊區復興路一段47巷6號","121.446916666667","25.042545","6500500","新莊區"
"242021","175-VK","2019/07/09 19:59:33","新北市新莊區建中街16巷27號","121.449091666667","25.0387083333333","6500500","新莊區"
"242019","KED-0687","2019/07/09 19:59:30","新北市新莊區民生街15巷14號","121.455291666667","25.04262","6500500","新莊區"
"242032","346-TH","2019/07/09 19:59:26","新北市新莊區中正路354號","121.443941666667","25.0343716666667","6500500","新莊區"
"242034","348-TH","2019/07/09 19:59:23","新北市新莊區建中街72號","121.447536666667","25.0369466666667","6500500","新莊區"
"242007","349-TH","2019/07/09 19:59:35","新北市新莊區思源路585號","121.459796666667","25.059395","6500500","新莊區"
"242017","351-TH","2019/07/09 19:59:27","新北市新莊區中安街1號","121.452793333333","25.0452266666667","6500500","新莊區"
"238017","283-BY","2019/07/09 19:59:34","新北市樹林區保安街一段402號","121.416991666667","24.9991733333333","6500700","樹林區"
"239001","417-VK","2019/07/09 19:59:32","新北市鶯歌區二甲路12-2號","121.34584","24.9349166666667","6500800","鶯歌區"
"221008","489-VK","2019/07/09 19:59:40","新北市汐止區康寧街141巷39弄1號","121.621143333333","25.06751","6501100","汐止區"
"221015","131-UY","2019/07/09 19:59:22","新北市汐止區橋東街9號","121.666665","25.075925","6501100","汐止區"
"221010","269-BY","2019/07/09 19:59:27","新北市汐止區汐萬路一段403號","121.649363333333","25.0792166666667","6501100","汐止區"
"221012","278-VK","2019/07/09 19:59:26","新北市汐止區保長路273巷1號","121.68107","25.0740766666667","6501100","汐止區"
"221023","279-VK","2019/07/09 19:59:39","新北市汐止區民族三街42號","121.629601666667","25.0701133333333","6501100","汐止區"
"221027","281-BY","2019/07/09 19:59:25","新北市汐止區中正路97號","121.660955","25.0693966666667","6501100","汐止區"
"221033","297-VK","2019/07/09 19:59:28","新北市汐止區東勢街190巷1號","121.633856666667","25.0417566666667","6501100","汐止區"
"221029","298-VK","2019/07/09 19:59:29","新北市汐止區樟樹一路137巷26號","121.641036666667","25.0658733333333","6501100","汐止區"
"221021","299-VK","2019/07/09 19:59:42","新北市汐止區水源路一段172號","121.655128333333","25.0620566666667","6501100","汐止區"
"221031","353-TW","2019/07/09 19:59:31","新北市汐止區福德二路55巷6弄11號","121.634645","25.0665166666667","6501100","汐止區"
"221025","623-UM","2019/07/09 19:59:39","新北市汐止區秀峰路109巷26弄7號","121.66117","25.0634233333333","6501100","汐止區"
"221038","646-BX","2019/07/09 19:59:40","新北市汐止區忠孝東路480號","121.666286666667","25.07381","6501100","汐止區"
"220079","145-BY","2019/07/09 19:59:26","新北市板橋區建國街3-1號","121.457175","25.0169766666667","6500100","板橋區"
"220080","200-UY","2019/07/09 19:59:37","新北市板橋區大觀路二段79巷29號","121.447385","25.0019283333333","6500100","板橋區"
"220082","610-BX","2019/07/09 19:59:41","新北市板橋區溪北路74號","121.427948333333","24.989475","6500100","板橋區"
"220101","245-BX","2019/07/09 19:59:24","新北市板橋區莒光路171巷1弄18-4號","121.474503333333","25.024645","6500100","板橋區"
"224002","257-TC","2019/07/09 19:59:21","新北市瑞芳區三爪子坑路335號","121.81876","25.1051233333333","6501200","瑞芳區"
"220056","276-BY","2019/07/09 19:59:38","新北市板橋區德興街37巷5號","121.453798333333","24.993885","6500100","板橋區"
"220072","277-BY","2019/07/09 19:59:41","新北市板橋區篤行路二段77巷8號","121.432066666667","24.9917566666667","6500100","板橋區"
"220094","283-UM","2019/07/09 19:59:27","新北市板橋區文化路一段371號","121.466906666667","25.021505","6500100","板橋區"
"220071","283-VK","2019/07/09 19:59:38","新北市板橋區五權街32巷25號","121.463956666667","24.9927183333333","6500100","板橋區"
"220053","285-VK","2019/07/09 19:59:37","新北市板橋區懷仁街58號","121.476918333333","25.0189016666667","6500100","板橋區"
"220083","286-VK","2019/07/09 19:59:25","新北市板橋區僑中二街10巷2號","121.446985","25.01099","6500100","板橋區"
"220081","287-VK","2019/07/09 19:59:26","新北市板橋區大觀路一段28巷107號","121.449946666667","25.012065","6500100","板橋區"
"220090","288-VK","2019/07/09 19:59:29","新北市板橋區新海路72巷5弄7號","121.461953333333","25.0224016666667","6500100","板橋區"
"220061","295-UM","2019/07/09 19:59:36","新北市板橋區中山路二段23號","121.472458333333","25.0151566666667","6500100","板橋區"
"220084","296-UM","2019/07/09 19:59:39","新北市板橋區滿平街2巷9號","121.425861666667","24.9898033333333","6500100","板橋區"
"220075","303-R5","2019/07/09 19:59:40","新北市板橋區中正路277號","121.455593333333","25.0189233333333","6500100","板橋區"
"220062","305-R5","2019/07/09 19:59:38","新北市板橋區光復街97號","121.483883333333","25.0189483333333","6500100","板橋區"
"220092","307-R5","2019/07/09 19:59:41","新北市板橋區文化路一段45巷16號","121.460388333333","25.0138916666667","6500100","板橋區"
"220088","491-VK","2019/07/09 19:59:30","新北市板橋區民治街53-1號","121.479296666667","25.0335616666667","6500100","板橋區"
"220035","560-BX","2019/07/09 19:59:34","新北市板橋區金華街49號","121.456756666667","25.0205566666667","6500100","板橋區"
"220103","561-BX","2019/07/09 19:59:38","新北市板橋區漢生東路35號","121.465363333333","25.0168516666667","6500100","板橋區"
"220063","609-BX","2019/07/09 19:59:42","新北市板橋區中山路二段123號","121.47495","25.01635","6500100","板橋區"
"220022","630-UY","2019/07/09 19:59:33","新北市板橋區大東街31號","121.456598333333","25.0087816666667","6500100","板橋區"
"220091","637-BX","2019/07/09 19:59:42","新北市板橋區文聖街89巷27號","121.47848","25.0304766666667","6500100","板橋區"
"220057","686-BX","2019/07/09 19:59:33","新北市板橋區四川路二段102號","121.450806666667","24.9941183333333","6500100","板橋區"
"220077","687-BX","2019/07/09 19:59:34","新北市板橋區僑中一街150號","121.444701666667","25.011915","6500100","板橋區"
"220093","689-BX","2019/07/09 19:59:44","新北市板橋區吳鳳路91-1號","121.466776666667","25.031965","6500100","板橋區"
"220054","741-BX","2019/07/09 19:59:32","新北市板橋區忠孝路201巷99號","121.464566666667","25.0050483333333","6500100","板橋區"
"220102","KEA-2699","2019/07/09 19:59:34","新北市板橋區莒光路28巷15號","121.469878333333","25.02365","6500100","板橋區"
"220055","827-TW","2019/07/09 19:59:40","新北市板橋區仁愛路62巷15弄2號","121.460033333333","24.9983566666667","6500100","板橋區"
"220067","829-TW","2019/07/09 19:59:38","新北市板橋區漢生東路193巷19-4號","121.470761666667","25.012105","6500100","板橋區"
"220074","895-R6","2019/07/09 19:47:33","新北市板橋區華東街1-10號","121.448668333333","24.994945","6500100","板橋區"
"220073","985-R7","2019/07/09 19:59:29","新北市板橋區大仁街75號","121.453918333333","25.01613","6500100","板橋區"
"220097","AAC-210","2019/07/09 19:59:44","新北市板橋區建國街125號","121.46089","25.0176283333333","6500100","板橋區"
"220064","AAC-253","2019/07/09 19:59:38","新北市板橋區民族路182號","121.467928333333","25.0076966666667","6500100","板橋區"
"235068","KEA-2873","2019/07/09 19:59:26","新北市中和區福祥路85巷1號","121.498923333333","25.0057233333333","6500300","中和區"
