"lineid","car","time","location","longitude","latitude","cityid","cityname"
"234046","148-BY","2019/07/09 20:09:33","新北市永和區得和路376號","121.524626666667","24.9992216666667","6500400","永和區"
"234081","298-R6","2019/07/09 20:09:38","新北市永和區永亨路110號","121.523676666667","25.0044916666667","6500400","永和區"
"234038","336-UY","2019/07/09 20:09:40","新北市永和區成功路一段47巷6號","121.527335","25.004025","6500400","永和區"
"234064","337-UY","2019/07/09 20:09:22","新北市永和區秀朗路二段35巷6號","121.521716666667","25.0026666666667","6500400","永和區"
"234086","338-UY","2019/07/09 20:09:40","新北市永和區中正路525號","121.516848333333","25.0075966666667","6500400","永和區"
"234070","552-UM","2019/07/09 20:09:36","新北市永和區福和路183巷1號","121.519998333333","25.0072566666667","6500400","永和區"
"234017","745-BX","2019/07/09 20:09:21","新北市永和區文化路91號","121.513345","25.01525","6500400","永和區"
"234030","746-BX","2019/07/09 20:09:21","新北市永和區民權路49巷31號","121.52175","24.9976233333333","6500400","永和區"
"234054","KEA-2590","2019/07/09 20:09:24","新北市永和區博愛街20巷2號","121.517818333333","25.0158166666667","6500400","永和區"
"234007","KED-0605","2019/07/09 20:09:39","新北市永和區環河西路二段229巷5號","121.501538333333","25.0098983333333","6500400","永和區"
"234013","KEA-2591","2019/07/09 20:09:25","新北市永和區永貞路435號","121.506856666667","25.0098733333333","6500400","永和區"
"234061","AAD-866","2019/07/09 20:09:32","新北市永和區安樂路100巷28號","121.515516666667","24.9988","6500400","永和區"
"234042","862-TW","2019/07/09 20:09:33","新北市永和區雙和街16巷15號","121.509898333333","25.0024766666667","6500400","永和區"
"234050","863-TW","2019/07/09 20:09:36","新北市永和區永平路372號","121.505766666667","25.0138933333333","6500400","永和區"
"249005","172-UM","2019/07/09 20:09:30","新北市八里區下罟子58-6號","121.389336666667","25.1386933333333","6502300","八里區"
"249001","173-UM","2019/07/09 20:09:29","新北市八里區中華路二段249-1號","121.403936666667","25.1482616666667","6502300","八里區"
"249004","303-UY","2019/07/09 20:09:24","新北市八里區中山路一段195號","121.41182","25.1581833333333","6502300","八里區"
"249002","305-UY","2019/07/09 20:09:29","新北市五股區成泰路四段45-2號","121.456621666667","25.11161","6502300","八里區"
"249003","593-UM","2019/07/09 20:09:41","新北市八里區中山路二段540巷9弄21號","121.396688333333","25.1465833333333","6502300","八里區"
"248016","026-BX","2019/07/09 20:09:38","新北市五股區成泰路三段577巷80弄74號","121.448576666667","25.1046383333333","6501500","五股區"
"248008","KED-0815","2019/07/09 20:09:42","新北市五股區中興路一段1巷12弄1號","121.469351666667","25.0714383333333","6501500","五股區"
"248020","KED-0813","2019/07/09 20:09:28","新北市五股區凌雲路二段10號","121.445621666667","25.102465","6501500","五股區"
"248012","247-BX","2019/07/09 20:09:26","新北市五股區六合街70號","121.431878333333","25.09008","6501500","五股區"
"248004","677-BX","2019/07/09 20:09:37","新北市五股區成泰路一段239-9號","121.436791666667","25.0806583333333","6501500","五股區"
"248002","678-BX","2019/07/09 20:09:33","新北市五股區成泰路三段311-2號","121.447855","25.0949033333333","6501500","五股區"
"248010","682-TV","2019/07/09 20:09:32","新北市五股區成泰路一段7巷11號","121.43306","25.0668016666667","6501500","五股區"
"234023","9380-KE","2019/07/09 20:09:31","新北市永和區中正路654巷26號","121.517681666667","25.00857","6500400","永和區"
"234077","969-R7","2019/07/09 20:09:40","新北市永和區智光街115號","121.51559","24.9961333333333","6500400","永和區"
"234074","AAC-211","2019/07/09 20:09:36","新北市永和區豫溪街155號","121.52132","25.0104316666667","6500400","永和區"
"234067","AAC-212","2019/07/09 20:09:36","新北市永和區保平路214巷10弄2號","121.509308333333","25.0064266666667","6500400","永和區"
"234003","AAC-295","2019/07/09 20:09:38","新北市永和區中正路626號","121.517083333333","25.0079133333333","6500400","永和區"
"243012","AAD-798","2019/07/09 20:09:32","新北市泰山區楓江路21號","121.434045","25.0624133333333","6501600","泰山區"
"243010","297-R6","2019/07/09 20:09:25","新北市泰山區明志路二段136巷19號","121.426096666667","25.0518383333333","6501600","泰山區"
"243016","421-VK","2019/07/09 20:09:34","新北市泰山區明志路三段409號","121.421223333333","25.034035","6501600","泰山區"
"243009","KEA-2215","2019/07/09 20:09:31","新北市泰山區泰林路二段142巷6號","121.434726666667","25.0600933333333","6501600","泰山區"
"243011","KEA-2216","2019/07/09 20:09:38","新北市泰山區明志路三段531巷5號","121.42083","25.029905","6501600","泰山區"
"243015","680-BX","2019/07/09 20:09:43","新北市泰山區明志路二段62號","121.429056666667","25.0527366666667","6501600","泰山區"
"222002","016-RS","2019/07/09 20:09:24","新北市深坑區北深路三段170號","121.60234","25.0036833333333","6501800","深坑區"
"222003","436-BY","2019/07/09 20:09:40","新北市深坑區埔新街62號","121.620086666667","25.002565","6501800","深坑區"
"231061","002-UM","2019/07/09 20:09:28","新北市新店區安興路32號","121.515538333333","24.9699883333333","6500600","新店區"
"231044","046-UY","2019/07/09 20:09:29","新北市新店區寶慶街66號","121.542041666667","24.9869033333333","6500600","新店區"
"231060","106-UY","2019/07/09 20:09:27","新北市新店區安康路三段230-1號","121.488013333333","24.9518216666667","6500600","新店區"
"231051","107-UY","2019/07/09 20:09:25","新北市新店區中央路196號","121.530721666667","24.9744966666667","6500600","新店區"
"231049","108-UY","2019/07/09 20:09:40","新北市新店區北新路二段139巷5號","121.542253333333","24.975495","6500600","新店區"
"231065","110-UY","2019/07/09 20:09:31","新北市新店區安祥路106巷163號","121.473636666667","24.9592366666667","6500600","新店區"
"231068","187-VK","2019/07/09 20:09:25","新北市新店區中興路三段200號","121.543916666667","24.9819283333333","6500600","新店區"
"231050","KEA-2219","2019/07/09 20:09:39","新北市新店區北新路一段53號","121.5382","24.9597216666667","6500600","新店區"
"221035","KEA-2785","2019/07/09 20:09:36","新北市汐止區長江街39巷21號","121.655325","25.0720416666667","6501100","汐止區"
"231062","256-BX","2019/07/09 20:09:39","新北市新店區安康路一段222-1號","121.522826666667","24.9636933333333","6500600","新店區"
"231054","260-TV","2019/07/09 20:09:40","新北市新店區檳榔路17-1號","121.541458333333","24.9640933333333","6500600","新店區"
"231042","268-BY","2019/07/09 20:09:40","新北市新店區中興路二段69號","121.546785","24.970765","6500600","新店區"
"231064","278-BY","2019/07/09 20:09:32","新北市新店區安德街20號","121.512375","24.96314","6500600","新店區"
"231045","355-BY","2019/07/09 20:09:31","新北市新店區北宜路二段51號","121.548953333333","24.95145","6500600","新店區"
"231055","4716-K9","2019/07/09 20:09:37","新北市新店區中華路42巷40號","121.541438333333","24.9693133333333","6500600","新店區"
"231056","4715-K9","2019/07/09 20:09:31","新北市新店區中正路273號","121.537688333333","24.974325","6500600","新店區"
"231067","4772-VM","2019/07/09 20:09:39","新北市新店區溪洲路6巷88號","121.533156666667","24.964","6500600","新店區"
"231053","513-UM","2019/07/09 20:09:30","新北市新店區新烏路三段寶島巷2弄3號","121.552033333333","24.8986033333333","6500600","新店區"
"231041","619-UM","2019/07/09 20:09:30","新北市新店區中正路460號","121.533968333333","24.9793016666667","6500600","新店區"
"231063","641-BX","2019/07/09 20:09:42","新北市新店區黎明路55巷2號","121.502403333333","24.9481416666667","6500600","新店區"
"231048","KED-0819","2019/07/09 20:09:34","新北市新店區寶橋路75號","121.545755","24.9751783333333","6500600","新店區"
"231057","720-UM","2019/07/09 20:09:43","新北市新店區百齡一路12號","121.553106666667","24.9324416666667","6500600","新店區"
"231059","897-TW","2019/07/09 20:09:28","新北市新店區安成街2巷1號","121.510901666667","24.9602533333333","6500600","新店區"
"231040","898-TW","2019/07/09 20:09:29","新北市新店區中正路27號","121.545285","24.9695666666667","6500600","新店區"
"231043","899-TW","2019/07/09 20:09:35","新北市新店區民族路160巷23號","121.536688333333","24.9762283333333","6500600","新店區"
"231066","AKT-0513","2019/07/09 20:09:21","新北市新店區安康路二段320巷15弄2號","121.504056666667","24.9596116666667","6500600","新店區"
"241011","013-R5","2019/07/09 20:09:25","新北市三重區秀江街247號","121.496086666667","25.071635","6500200","三重區"
"241028","022-UY","2019/07/09 20:09:35","新北市三重區大同南路151-3號","121.49668","25.05709","6500200","三重區"
"241008","059-VK","2019/07/09 20:09:24","新北市三重區永福街197巷6號","121.478936666667","25.0744716666667","6500200","三重區"
"241029","060-VK","2019/07/09 20:09:30","新北市三重區光明路32巷14號","121.491715","25.0586766666667","6500200","三重區"
"241031","061-VK","2019/07/09 20:09:31","新北市三重區過圳街19號","121.488795","25.0603616666667","6500200","三重區"
"241015","062-VK","2019/07/09 20:09:33","新北市三重區福德北路39號","121.502366666667","25.0648066666667","6500200","三重區"
"241017","063-VK","2019/07/09 20:09:28","新北市三重區長壽西街159號","121.492866666667","25.0664716666667","6500200","三重區"
"241024","065-VK","2019/07/09 20:09:29","新北市三重區後竹圍街277巷2號","121.481436666667","25.0704283333333","6500200","三重區"
"241022","066-VK","2019/07/09 20:09:40","新北市三重區重陽路二段3號","121.486885","25.06178","6500200","三重區"
"241003","091-VK","2019/07/09 20:09:27","新北市三重區仁愛街457號","121.489783333333","25.081845","6500200","三重區"
"241030","742-BX","2019/07/09 20:09:35","新北市三重區集美街75巷33號","121.48776","25.0528333333333","6500200","三重區"
"241005","262-UM","2019/07/09 20:09:28","新北市三重區溪尾街327號","121.488548333333","25.0846933333333","6500200","三重區"
"241016","266-UM","2019/07/09 20:09:25","新北市三重區大同北路54巷4號","121.494066666667","25.0633233333333","6500200","三重區"
"241009","267-UM","2019/07/09 20:09:23","新北市三重區三和路四段382巷153號","121.478936666667","25.0781133333333","6500200","三重區"
"241018","268-UM","2019/07/09 20:09:39","新北市三重區正義北路256巷146號","121.493118333333","25.0676983333333","6500200","三重區"
"241032","269-UM","2019/07/09 20:09:25","新北市三重區捷運路73號","121.482893333333","25.0554783333333","6500200","三重區"
"241013","270-UM","2019/07/09 20:09:28","新北市三重區三和路三段139巷38號","121.493988333333","25.0741716666667","6500200","三重區"
"241023","271-UM","2019/07/09 20:09:34","新北市三重區三民街316號","121.476785","25.0689216666667","6500200","三重區"
"241007","398-BY","2019/07/09 20:09:21","新北市三重區三和路四段111-13號","121.486815","25.077705","6500200","三重區"
"241035","462-BY","2019/07/09 20:09:32","新北市三重區平安街1號","121.498998333333","25.0643183333333","6500200","三重區"
"241004","475-VK","2019/07/09 20:09:38","新北市三重區自強路四段84號","121.490798333333","25.0792233333333","6500200","三重區"
"241020","478-VK","2019/07/09 20:09:42","新北市三重區三和路三段186-3號","121.491911666667","25.0733733333333","6500200","三重區"
"241026","480-VK","2019/07/09 20:09:40","新北市三重區福德南路65巷2號","121.50245","25.0603466666667","6500200","三重區"
"241014","543-UM","2019/07/09 20:09:35","新北市三重區長樂街118號","121.501783333333","25.069635","6500200","三重區"
"241001","547-UM","2019/07/09 20:09:31","新北市三重區三和路四段91號","121.488888333333","25.0757216666667","6500200","三重區"
"241019","KEA-2593","2019/07/09 20:09:29","新北市三重區自強路二段47巷25號","121.489961666667","25.0698266666667","6500200","三重區"
"241006","AAD-863","2019/07/09 20:09:40","新北市三重區車路頭街135號","121.484018333333","25.0760166666667","6500200","三重區"
"241025","887-TS","2019/07/09 20:09:31","新北市三重區中正北路235號","121.475771666667","25.0707683333333","6500200","三重區"
"241012","941-UM","2019/07/09 20:09:27","新北市三重區仁愛街125巷99號","121.498566666667","25.07625","6500200","三重區"
"241033","AAC-255","2019/07/09 20:09:39","新北市三重區光復路一段61巷23號","121.473393333333","25.0491483333333","6500200","三重區"
"235066","003-UY","2019/07/09 20:09:26","新北市中和區水源路127巷2弄2號","121.508071666667","25.004045","6500300","中和區"
"235039","097-UM","2019/07/09 20:09:33","新北市中和區大勇街48號","121.517425","24.9938483333333","6500300","中和區"
"235065","098-UM","2019/07/09 20:09:40","新北市中和區永和路82號","121.497531666667","25.0051","6500300","中和區"
"235040","150-BY","2019/07/09 20:09:38","新北市中和區保健路39巷9號","121.50915","24.9979183333333","6500300","中和區"
"235055","183-VK","2019/07/09 20:09:37","新北市板橋區民生路三段170-6號","121.465316666667","25.0285316666667","6500300","中和區"
"235067","255-BX","2019/07/09 20:09:41","新北市板橋區民生路二段89-2號","121.471796666667","25.01774","6500300","中和區"
"247014","KEA-2869","2019/07/09 20:09:22","新北市蘆洲區成功路60號","121.472483333333","25.0803966666667","6501400","蘆洲區"
"247008","KED-0682","2019/07/09 20:09:39","新北市蘆洲區中山一路166號","121.474568333333","25.0813166666667","6501400","蘆洲區"
"235050","4979-A6","2019/07/09 20:09:26","新北市中和區安樂路66號","121.512178333333","24.99327","6500300","中和區"
"235069","4980-A6","2019/07/09 20:09:40","新北市中和區景新街132巷8-4號","121.504663333333","24.998155","6500300","中和區"
"235059","AAC-215","2019/07/09 20:09:29","新北市中和區圓通路335巷37弄12號","121.493678333333","24.98888","6500300","中和區"
"220065","072-UY","2019/07/09 20:09:36","新北市板橋區民族路87號","121.466088333333","25.00838","6500100","板橋區"
"220086","073-UY","2019/07/09 20:09:35","新北市板橋區林園街7-1號","121.453966666667","25.00916","6500100","板橋區"
"247004","893-R6","2019/07/09 20:09:37","新北市蘆洲區長安街285巷23號","121.457236666667","25.0840016666667","6501400","蘆洲區"
"247018","546-UM","2019/07/09 20:09:33","新北市蘆洲區民族路314巷24號","121.477835","25.0904316666667","6501400","蘆洲區"
"247002","500-BY","2019/07/09 20:09:41","新北市蘆洲區長榮路269巷32號","121.459485","25.085945","6501400","蘆洲區"
"247024","337-TH","2019/07/09 20:09:38","新北市蘆洲區光榮路120巷9號","121.465316666667","25.0886783333333","6501400","蘆洲區"
"247022","057-VK","2019/07/09 20:09:30","新北市蘆洲區三民路171巷2號","121.470765","25.0870333333333","6501400","蘆洲區"
"247012","056-VK","2019/07/09 20:09:31","新北市蘆洲區民族路252-1號","121.479186666667","25.0887633333333","6501400","蘆洲區"
"247016","053-VK","2019/07/09 20:09:38","新北市蘆洲區光華路165號","121.465156666667","25.08201","6501400","蘆洲區"
"247020","007-UY","2019/07/09 20:09:39","新北市蘆洲區民義街68巷16號","121.473721666667","25.0893883333333","6501400","蘆洲區"
"247006","002-UY","2019/07/09 20:09:44","新北市蘆洲區中山二路266號","121.46904","25.0785333333333","6501400","蘆洲區"
"226004","312-R5","2019/07/09 20:09:24","新北市平溪區十分里十分街311號","121.775171666667","25.0434833333333","6502400","平溪區"
"222001","KEA-2212","2019/07/09 20:08:24","新北市深坑區北深路三段208號","121.601283333333","25.0037933333333","6501800","深坑區"
"251004","009-UM","2019/07/09 20:09:28","新北市淡水區民族路29巷24號","121.461676666667","25.1368566666667","6501000","淡水區"
"251001","011-UM","2019/07/09 20:09:30","新北市淡水區淡金路二段15號","121.446441666667","25.1891766666667","6501000","淡水區"
"251002","012-UM","2019/07/09 20:09:34","新北市淡水區中正路334號","121.435733333333","25.173145","6501000","淡水區"
"251015","KEA-2871","2019/07/09 20:09:33","新北市淡水區泉洲厝25-3號","121.484445","25.1897283333333","6501000","淡水區"
"251016","179-VK","2019/07/09 20:09:35","新北市淡水區番子田25-5號","121.456456666667","25.2296333333333","6501000","淡水區"
"251013","180-VK","2019/07/09 20:09:35","新北市淡水區奎柔山路596號","121.469615","25.20528","6501000","淡水區"
"251008","181-VK","2019/07/09 20:09:41","新北市淡水區淡海路72巷30弄4號","121.42451","25.1824033333333","6501000","淡水區"
"251010","413-VK","2019/07/09 20:09:26","新北市淡水區後洲路一段157號","121.427865","25.1980233333333","6501000","淡水區"
"251012","441-VK","2019/07/09 20:09:23","新北市淡水區淡金路三段224號","121.448915","25.2048066666667","6501000","淡水區"
"251005","443-VK","2019/07/09 20:09:34","新北市淡水區學府路136巷52號","121.452435","25.17256","6501000","淡水區"
"251006","561-UM","2019/07/09 20:09:42","新北市淡水區北新路141巷27號","121.448356666667","25.1795066666667","6501000","淡水區"
"251009","575-R6","2019/07/09 20:09:31","新北市淡水區博愛街14號","121.446105","25.1698333333333","6501000","淡水區"
"251014","577-R6","2019/07/09 20:09:34","新北市淡水區石頭厝2-1號","121.45812","25.23572","6501000","淡水區"
"251011","650-BX","2019/07/09 20:09:32","新北市淡水區崁頂57-7號","121.442736666667","25.1973383333333","6501000","淡水區"
"251003","673-BX","2019/07/09 20:09:26","新北市淡水區新市一路二段252號","121.443836666667","25.1828966666667","6501000","淡水區"
"207003","550-UM","2019/07/09 20:09:24","新北市萬里區大鵬里萬里加投186號","121.642811666667","25.2156466666667","6502800","萬里區"
"207004","225-TW","2019/07/09 20:09:34","新北市萬里區北基里大勇路16號","121.68207","25.1766766666667","6502800","萬里區"
"252002","178-VK","2019/07/09 20:09:38","新北市三芝區三民街3號","121.504091666667","25.2578616666667","6502100","三芝區"
"237004","KEA-2597","2019/07/09 20:09:39","新北市三峽區添福2-8號","121.371725","24.9065866666667","6500900","三峽區"
"237012","275-BY","2019/07/09 20:09:39","新北市三峽區中華路74-5號","121.371516666667","24.929145","6500900","三峽區"
"237006","5529-G3","2019/07/09 20:09:39","新北市三峽區中正路二段295號","121.366068333333","24.9107566666667","6500900","三峽區"
"237015","649-BX","2019/07/09 20:09:32","新北市三峽區介壽路二段138巷1弄98-4號","121.39876","24.9323183333333","6500900","三峽區"
"236042","KED-0685","2019/07/09 20:09:37","新北市土城區學享街52-1號","121.452045","24.9867283333333","6501300","土城區"
"236030","253-BX","2019/07/09 20:09:35","新北市土城區中央路一段118巷1弄11號","121.4459","24.987805","6501300","土城區"
"236026","269-VK","2019/07/09 20:09:39","新北市土城區中央路二段293號","121.444595","24.984195","6501300","土城區"
"236014","270-VK","2019/07/09 20:09:35","新北市土城區德興街121號","121.45473","24.9921233333333","6501300","土城區"
"236038","271-VK","2019/07/09 20:09:30","新北市土城區延吉街373巷10號","121.46384","24.98332","6501300","土城區"
"247010","KED-0683","2019/07/09 20:09:36","新北市蘆洲區中山一路74巷55號","121.479955","25.0815066666667","6501400","蘆洲區"
"236070","KEA-2877","2019/07/09 20:09:33","新北市土城區中央路三段147巷2弄16號","121.431945","24.9648666666667","6501300","土城區"
"252001","KED-0821","2019/07/09 20:09:23","新北市三芝區公正街66號","121.49979","25.2574583333333","6502100","三芝區"
"236021","401-BY","2019/07/09 20:09:39","新北市土城區延吉街9號","121.472158333333","24.9889933333333","6501300","土城區"
"236049","913-UM","2019/07/09 20:09:33","新北市土城區清水路306號","121.462766666667","24.9840566666667","6501300","土城區"
"236059","970-R7","2019/07/09 20:09:39","新北市土城區光明街11號","121.442103333333","24.97467","6501300","土城區"
"236055","AAC-216","2019/07/09 20:09:24","新北市土城區中華路一段164巷5號","121.441585","24.98337","6501300","土城區"
"242039","AAC-296","2019/07/09 20:09:36","新北市新莊區民安西路110號","121.426881666667","25.018915","6500500","新莊區"
"242061","986-R7","2019/07/09 20:09:37","新北市新莊區瓊林南路1號","121.43866","25.0207433333333","6500500","新莊區"
"242002","751-BX","2019/07/09 20:09:36","新北市新莊區思源路23號","121.460076666667","25.0387716666667","6500500","新莊區"
"242029","615-BX","2019/07/09 20:09:41","新北市新莊區中原路263號","121.448405","25.0544683333333","6500500","新莊區"
"242027","613-BX","2019/07/09 20:09:42","新北市新莊區中平路377巷18號","121.444098333333","25.052865","6500500","新莊區"
"242058","612-BX","2019/07/09 20:09:32","新北市新莊區八德街147號","121.423576666667","25.0197416666667","6500500","新莊區"
"242046","566-BX","2019/07/09 20:09:39","新北市新莊區裕民街55巷1號","121.41938","25.0240566666667","6500500","新莊區"
"242051","497-BY","2019/07/09 20:09:37","新北市新莊區民安西路172巷2弄2號","121.425831666667","25.0160033333333","6500500","新莊區"
"242056","441-UM","2019/07/09 20:09:31","新北市新莊區新莊路649巷15弄13號","121.445558333333","25.03163","6500500","新莊區"
"242005","440-UM","2019/07/09 20:09:31","新北市新莊區頭興街112號","121.462365","25.0537466666667","6500500","新莊區"
"242042","415-TV","2019/07/09 20:09:41","新北市新莊區青山路一段179號","121.400415","25.0301916666667","6500500","新莊區"
"242011","413-TV","2019/07/09 20:09:35","新北市新莊區中和街218巷8號","121.448378333333","25.0508066666667","6500500","新莊區"
"242048","400-BY","2019/07/09 20:09:41","新北市新莊區四維路152巷27號","121.422038333333","25.0225183333333","6500500","新莊區"
"242025","362-BY","2019/07/09 20:09:25","新北市新莊區五工三路78巷15號","121.459435","25.0656083333333","6500500","新莊區"
"242023","353-BY","2019/07/09 20:09:28","新北市新莊區化成路548號","121.466288333333","25.0537033333333","6500500","新莊區"
"242013","132-UY","2019/07/09 20:09:20","新北市新莊區幸福路670巷2弄11號","121.451595","25.0495833333333","6500500","新莊區"
"242037","135-UY","2019/07/09 20:09:29","新北市新莊區建安街9巷3號","121.429006666667","25.026605","6500500","新莊區"
"242054","172-VK","2019/07/09 20:09:30","新北市新莊區西盛街387巷11號","121.428473333333","25.0129616666667","6500500","新莊區"
"242015","173-VK","2019/07/09 20:09:34","新北市新莊區中平路26巷15號","121.44551","25.0432933333333","6500500","新莊區"
"242021","175-VK","2019/07/09 20:09:33","新北市新莊區建中街17號","121.449211666667","25.0373633333333","6500500","新莊區"
"242019","KED-0687","2019/07/09 20:09:30","新北市新莊區民樂街61號","121.457938333333","25.0417966666667","6500500","新莊區"
"242032","346-TH","2019/07/09 20:09:26","新北市新莊區公園一路98號","121.443463333333","25.03739","6500500","新莊區"
"242044","347-TH","2019/07/09 20:09:40","新北市新莊區中正路929巷7弄24號","121.41164","25.019965","6500500","新莊區"
"242034","348-TH","2019/07/09 20:09:23","新北市新莊區中正路316號","121.446358333333","25.0350916666667","6500500","新莊區"
"242007","349-TH","2019/07/09 20:09:35","新北市新莊區福壽街202巷37號","121.45938","25.053515","6500500","新莊區"
"242017","351-TH","2019/07/09 20:09:27","新北市新莊區中港路370號","121.452273333333","25.0471633333333","6500500","新莊區"
"239001","417-VK","2019/07/09 20:03:12","新北市鶯歌區二甲路12-2號","121.34584","24.9349166666667","6500800","鶯歌區"
"221008","489-VK","2019/07/09 20:09:40","台北市內湖區安泰街2號","121.619538333333","25.0732733333333","6501100","汐止區"
"221036","130-UY","2019/07/09 20:09:26","新北市汐止區新台五路二段43號","121.663161666667","25.0665366666667","6501100","汐止區"
"221015","131-UY","2019/07/09 20:09:22","新北市汐止區建成路13號","121.66456","25.0726","6501100","汐止區"
"221010","269-BY","2019/07/09 20:09:27","新北市汐止區連峰街270號","121.6444","25.0816183333333","6501100","汐止區"
"221012","278-VK","2019/07/09 20:09:26","新北市汐止區大同路三段457號","121.678888333333","25.071245","6501100","汐止區"
"221023","279-VK","2019/07/09 20:09:39","新北市汐止區明峰街214號","121.627305","25.0689433333333","6501100","汐止區"
"221032","280-BY","2019/07/09 20:09:39","新北市汐止區弘道街9巷2弄1號","121.616995","25.0490616666667","6501100","汐止區"
"221027","281-BY","2019/07/09 20:09:25","新北市汐止區民生街4巷2號","121.660178333333","25.0687983333333","6501100","汐止區"
"221033","297-VK","2019/07/09 20:09:28","新北市汐止區東勢街201巷104號","121.633485","25.04299","6501100","汐止區"
"221029","298-VK","2019/07/09 20:09:29","新北市汐止區樟樹一路123巷17號","121.64134","25.0646133333333","6501100","汐止區"
"221021","299-VK","2019/07/09 20:09:42","新北市汐止區新台五路一段175號","121.655106666667","25.0629283333333","6501100","汐止區"
"221031","353-TW","2019/07/09 20:09:31","新北市汐止區福德一路258號","121.63342","25.0646533333333","6501100","汐止區"
"221025","623-UM","2019/07/09 20:09:39","新北市汐止區秀峰路83號","121.659981666667","25.0641566666667","6501100","汐止區"
"221038","646-BX","2019/07/09 20:09:40","新北市汐止區大同路三段66號","121.668038333333","25.0771616666667","6501100","汐止區"
"221018","753-BX","2019/07/09 20:09:32","新北市汐止區茄苳路322號","121.673626666667","25.06648","6501100","汐止區"
"220079","145-BY","2019/07/09 20:09:26","新北市板橋區建國街54巷14號","121.45948","25.0169233333333","6500100","板橋區"
"220080","200-UY","2019/07/09 20:09:38","新北市板橋區大觀路二段153巷39弄7號","121.446491666667","25.00074","6500100","板橋區"
"220082","610-BX","2019/07/09 20:09:25","新北市板橋區篤行路二段127-1號","121.431201666667","24.9906016666667","6500100","板橋區"
"220101","245-BX","2019/07/09 20:09:44","新北市板橋區雙十路二段50號","121.475568333333","25.027565","6500100","板橋區"
"224002","257-TC","2019/07/09 20:09:41","新北市瑞芳區員山子路員山巷3-3號","121.817185","25.1036816666667","6501200","瑞芳區"
"220072","277-BY","2019/07/09 20:09:28","新北市板橋區金門街111-3號","121.43308","24.9920666666667","6500100","板橋區"
"220083","286-VK","2019/07/09 20:09:36","新北市板橋區僑中二街20號","121.446081666667","25.0107066666667","6500100","板橋區"
"220081","287-VK","2019/07/09 20:09:24","新北市板橋區僑中一街124巷20弄33號","121.447485","25.013965","6500100","板橋區"
"220061","295-UM","2019/07/09 20:09:36","新北市板橋區四川路一段274巷1-1號","121.458611666667","25.001175","6500100","板橋區"
"220084","296-UM","2019/07/09 20:09:39","新北市板橋區滿平街2巷10號","121.42519","24.9893816666667","6500100","板橋區"
"220075","303-R5","2019/07/09 20:09:40","新北市板橋區金華街10巷48弄54號","121.459018333333","25.0201333333333","6500100","板橋區"
"220062","305-R5","2019/07/09 20:09:38","新北市板橋區萬安街85巷1弄11號","121.484441666667","25.0249783333333","6500100","板橋區"
"242009","280-VK","2019/07/09 20:09:23","新北市新莊區昌盛街35巷3弄2號","121.454086666667","25.0505983333333","6500500","新莊區"
"220035","560-BX","2019/07/09 20:09:34","新北市板橋區新生街89巷22號","121.457276666667","25.02238","6500100","板橋區"
"220103","561-BX","2019/07/09 20:09:37","新北市板橋區漢生東路53巷26號","121.466718333333","25.0173333333333","6500100","板橋區"
"220022","630-UY","2019/07/09 20:09:33","新北市板橋區府中路15號","121.459545","25.00956","6500100","板橋區"
"220057","686-BX","2019/07/09 20:09:33","新北市板橋區大觀路三段59巷17弄7號","121.434738333333","24.9953416666667","6500100","板橋區"
"220077","687-BX","2019/07/09 20:09:34","新北市板橋區僑中一街124巷19弄2號","121.446118333333","25.01414","6500100","板橋區"
"220054","741-BX","2019/07/09 20:09:25","新北市板橋區實踐路93巷24號","121.46496","25.0053166666667","6500100","板橋區"
"220055","827-TW","2019/07/09 20:09:40","新北市板橋區仁愛路86巷4-1號","121.460955","24.9993983333333","6500100","板橋區"
"220067","829-TW","2019/07/09 20:09:38","新北市板橋區中山路一段206巷4弄2號","121.470288333333","25.0131433333333","6500100","板橋區"
"220074","895-R6","2019/07/09 19:47:33","新北市板橋區華東街1-10號","121.448668333333","24.994945","6500100","板橋區"
"220073","985-R7","2019/07/09 20:09:29","新北市板橋區南雅西路二段82號","121.452561666667","25.0108383333333","6500100","板橋區"
"220064","AAC-253","2019/07/09 20:09:42","新北市板橋區漢生東路193巷23-4號","121.470996666667","25.012205","6500100","板橋區"
"235068","KEA-2873","2019/07/09 20:09:26","新北市中和區勝利路35巷1弄26號","121.500006666667","25.0076966666667","6500300","中和區"
