"lineid","car","time","location","longitude","latitude","cityid","cityname"
"251004","009-UM","2019/07/09 22:19:41","新北市淡水區民族路33號","121.462321666667","25.1357866666667","6501000","淡水區"
"251008","181-VK","2019/07/09 22:19:41","新北市淡水區學府路104號","121.449843333333","25.1717916666667","6501000","淡水區"
"251010","413-VK","2019/07/09 22:19:26","新北市淡水區沙崙路200號","121.4249","25.18396","6501000","淡水區"
"251007","442-VK","2019/07/09 22:19:24","新北市淡水區北新路137號","121.449421666667","25.1789166666667","6501000","淡水區"
"251005","443-VK","2019/07/09 22:19:34","新北市淡水區忠愛街4號","121.459506666667","25.171305","6501000","淡水區"
"251011","650-BX","2019/07/09 22:19:32","新北市淡水區水碓街15-1號","121.443173333333","25.1772516666667","6501000","淡水區"
