"lineid","car","time","location","longitude","latitude","cityid","cityname"
"232017","290-BY","2019/07/22 08:16:50","新北市坪林區柑腳坑13-1號","121.767398333333","24.9469316666667","6502000","坪林區"
"232005","291-BY","2019/07/22 08:19:51","新北市坪林區鶯子瀨2-10號","121.707923333333","24.913135","6502000","坪林區"
"232012","705-BZ","2019/07/22 08:19:43","新北市坪林區九芎根10-1號","121.664371666667","24.8812","6502000","坪林區"
"232001","758-BX","2019/07/22 08:19:46","新北市坪林區大粗坑6-1號","121.732208333333","24.9482566666667","6502000","坪林區"
"244001","248-BX","2019/07/22 08:19:49","新北市林口區下福147-11號","121.299731666667","25.1167216666667","6501700","林口區"
"244006","402-UM","2019/07/22 08:19:40","新北市林口區菁埔路13鄰21號","121.377808333333","25.0968433333333","6501700","林口區"
"244012","KEA-2802","2019/07/22 08:19:52","新北市林口區中正路525巷24號","121.383041666667","25.0766966666667","6501700","林口區"
"244022","483-VK","2019/07/22 08:19:52","新北市林口區隆林街48-1號","121.387451666667","25.0754516666667","6501700","林口區"
"244016","485-VK","2019/07/22 08:19:43","新北市林口區中山路270號","121.382986666667","25.0808216666667","6501700","林口區"
"244008","656-BX","2019/07/22 08:19:36","新北市林口區中北三街296號","121.382415","25.0828383333333","6501700","林口區"
"244010","701-TV","2019/07/22 08:19:56","新北市林口區佳林路229號","121.383546666667","25.0764566666667","6501700","林口區"
"244024","837-TS","2019/07/22 08:19:41","新北市林口區文化三路一段394巷2號","121.36601","25.073075","6501700","林口區"
"244020","838-TS","2019/07/22 08:19:56","新北市林口區粉寮路二段46-1號","121.403545","25.0870216666667","6501700","林口區"
"222005","289-BY","2019/07/22 08:19:59","新北市深坑區萬福路83號","121.60223","25.0097","6501800","深坑區"
"231007","189-VK","2019/07/22 08:19:50","新北市新店區新潭路一段73號","121.52503","24.93993","6500600","新店區"
"231008","192-VK","2019/07/22 08:19:39","新北市新店區新烏路二段212-1號","121.547473333333","24.9152266666667","6500600","新店區"
"226001","8452-VL","2019/07/22 08:19:50","新北市平溪區東勢里芊蓁林2號","121.7521","25.0203916666667","6502400","平溪區"
"226003","AGD-0702","2019/07/22 08:19:41","新北市平溪區新寮里新寮路1-2號","121.790235","25.0582616666667","6502400","平溪區"
"223003","205-TH","2019/07/22 08:19:47","新北市石碇區北宜路六段十三股巷1-1號","121.646433333333","24.9442583333333","6501900","石碇區"
"223008","406-TH","2019/07/22 08:19:50","新北市石碇區靜安路一段186號","121.671365","25.0055316666667","6501900","石碇區"
"223001","592-UM","2019/07/22 08:19:53","新北市石碇區北宜路六段十三股巷1-1號","121.646486666667","24.9441433333333","6501900","石碇區"
"223004","660-BX","2019/07/22 08:19:39","新北市石碇區外按11-5號","121.651525","24.999185","6501900","石碇區"
"223007","661-BX","2019/07/22 08:19:46","新北市石碇區靜安路一段139號","121.671236666667","25.0055166666667","6501900","石碇區"
"223005","677-TV","2019/07/22 08:19:46","新北市石碇區外按11-5號","121.651695","24.9991083333333","6501900","石碇區"
"227003","282-VK","2019/07/22 08:19:48","新北市雙溪區上林里內平林140號","121.821916666667","25.023005","6502500","雙溪區"
"252006","073-UM","2019/07/22 08:19:44","新北市三芝區後厝里大片頭81-1號","121.458961666667","25.2447683333333","6502100","三芝區"
"252004","249-BX","2019/07/22 08:19:41","新北市三芝區興華里車埕62號","121.498715","25.19691","6502100","三芝區"
"237014","760-BX","2019/07/22 08:19:50","新北市三峽區有木300號","121.421923333333","24.8626116666667","6500900","三峽區"
"226005","ANY-2373","2019/07/22 08:19:43","新北市平溪區南山里六分1號","121.791933333333","25.048065","6502400","平溪區"
"242038","AAC-296","2019/07/22 08:19:52","新北市新莊區民安路135號","121.425056666667","25.0241866666667","6500500","新莊區"
"242059","986-R7","2019/07/22 08:19:49","新北市新莊區新樹路507號","121.432738333333","25.0108716666667","6500500","新莊區"
"242001","751-BX","2019/07/22 08:19:47","新北市新莊區大觀街42巷2-5號","121.454136666667","25.0357083333333","6500500","新莊區"
"242028","615-BX","2019/07/22 08:19:54","新北市新莊區中平路110巷3號","121.445238333333","25.0460616666667","6500500","新莊區"
"242026","613-BX","2019/07/22 08:19:36","新北市新莊區福壽街171號","121.45799","25.0537766666667","6500500","新莊區"
"242057","612-BX","2019/07/22 08:19:55","新北市新莊區中山路三段627號","121.413855","25.0237266666667","6500500","新莊區"
"242045","566-BX","2019/07/22 08:19:44","新北市新莊區建國一路59號","121.434681666667","25.03002","6500500","新莊區"
"242049","497-BY","2019/07/22 08:19:57","新北市新莊區西盛街153巷10號","121.428778333333","25.0180433333333","6500500","新莊區"
"242010","442-UM","2019/07/22 08:19:39","新北市新莊區中港路699號","121.450575","25.0569966666667","6500500","新莊區"
"242055","441-UM","2019/07/22 08:19:54","新北市新莊區瓊林路38-10號","121.448016666667","25.0302","6500500","新莊區"
"242003","440-UM","2019/07/22 08:19:53","新北市新莊區自立街246號","121.458718333333","25.0455083333333","6500500","新莊區"
"242040","415-TV","2019/07/22 08:19:52","新北市泰山區明志路三段531巷17號","121.421445","25.0297583333333","6500500","新莊區"
"242047","400-BY","2019/07/22 08:19:53","新北市新莊區萬安街60巷15號","121.420541666667","25.023185","6500500","新莊區"
"242024","362-BY","2019/07/22 08:19:36","新北市三重區新北大道二段39號","121.470506666667","25.0612833333333","6500500","新莊區"
"242022","353-BY","2019/07/22 08:19:39","新北市新莊區福樂街45號","121.457603333333","25.04723","6500500","新莊區"
"242012","132-UY","2019/07/22 08:19:44","新北市新莊區中泰街104巷5弄11號","121.448281666667","25.046755","6500500","新莊區"
"242035","135-UY","2019/07/22 08:19:50","新北市新莊區建福路44號","121.426545","25.027865","6500500","新莊區"
"242014","173-VK","2019/07/22 08:19:38","新北市新莊區中平路119巷20號","121.443918333333","25.0467016666667","6500500","新莊區"
"242020","175-VK","2019/07/22 08:19:49","新北市新莊區中華路一段45巷2號","121.452","25.0384","6500500","新莊區"
"242052","176-VK","2019/07/22 08:19:45","新北市新莊區新樹路711號","121.432066666667","25.0020616666667","6500500","新莊區"
"242018","KED-0687","2019/07/22 08:19:35","新北市新莊區民樂街46號","121.457983333333","25.0413583333333","6500500","新莊區"
"242033","348-TH","2019/07/22 08:19:53","新北市新莊區新莊路682號","121.441235","25.0328716666667","6500500","新莊區"
"242006","349-TH","2019/07/22 08:19:37","新北市新莊區自信街75巷11號","121.455723333333","25.048765","6500500","新莊區"
"242030","350-TH","2019/07/22 08:19:43","新北市新莊區新泰路357巷1弄45號","121.442693333333","25.0398766666667","6500500","新莊區"
"242016","351-TH","2019/07/22 08:19:47","新北市新莊區中港路339巷6號","121.451826666667","25.0452833333333","6500500","新莊區"
"244018","KED-0667","2019/07/22 08:19:56","新北市林口區文化一路一段190巷7弄2-1號","121.380278333333","25.0748716666667","6501700","林口區"
"233003","KEC-0709","2019/07/22 08:19:45","新北市烏來區啦卡路70-1號","121.565241666667","24.8561283333333","6502900","烏來區"
"242043","281-VK","2019/07/22 08:19:43","新北市新莊區雙鳳路19號","121.416876666667","25.0268916666667","6500500","新莊區"
"242008","280-VK","2019/07/22 08:19:51","新北市新莊區昌平街59巷10號","121.454406666667","25.0531516666667","6500500","新莊區"
