"lineid","car","time","location","longitude","latitude","cityid","cityname"
"244022","483-VK","2019/07/22 10:09:52","新北市林口區文化三路二段77巷39號","121.373068333333","25.080235","6501700","林口區"
"231008","192-VK","2019/07/22 10:03:41","新北市新店區小坑一路56-2號","121.527368333333","24.9088616666667","6500600","新店區"
"227003","282-VK","2019/07/22 10:01:08","新北市雙溪區泰平里灣潭路35-1號","121.812883333333","24.9290583333333","6502500","雙溪區"
"252004","249-BX","2019/07/22 10:09:41","新北市三芝區福德里埔尾13-1號","121.504338333333","25.2445283333333","6502100","三芝區"
"252006","AAC-283","2019/07/22 10:09:42","新北市三芝區車新路87號","121.494318333333","25.2673466666667","6502100","三芝區"
"237014","760-BX","2019/07/22 10:09:50","新北市三峽區中山路270號","121.361578333333","24.9377166666667","6500900","三峽區"
"242026","613-BX","2019/07/22 10:09:42","新北市新莊區新泰路357巷3弄57號","121.44237","25.039525","6500500","新莊區"
"244018","KED-0667","2019/07/22 10:09:36","新北市林口區麗園二街1巷9-1號","121.378906666667","25.07009","6501700","林口區"
"242043","281-VK","2019/07/22 10:09:43","新北市新莊區龍安路92號","121.417681666667","25.0208033333333","6500500","新莊區"
