"lineid","car","time","location","longitude","latitude","cityid","cityname"
"234044","148-BY","2019/07/22 12:59:44","新北市永和區得和路373巷31弄7號","121.524686666667","25.00049","6500400","永和區"
"234078","298-R6","2019/07/22 12:59:54","新北市永和區永亨路71號","121.521495","25.0058583333333","6500400","永和區"
"234036","336-UY","2019/07/22 12:59:46","新北市中和區秀朗路三段38號","121.526513333333","24.99595","6500400","永和區"
"234062","337-UY","2019/07/22 12:59:41","新北市永和區秀朗路一段168號","121.51853","25.0034266666667","6500400","永和區"
"234084","338-UY","2019/07/22 12:59:44","新北市永和區永利路18號","121.517996666667","25.0057483333333","6500400","永和區"
"234015","745-BX","2019/07/22 12:59:53","新北市永和區忠孝街2號","121.515746666667","25.015845","6500400","永和區"
"234028","746-BX","2019/07/22 12:59:37","新北市永和區秀朗路二段289號","121.526163333333","24.9980783333333","6500400","永和區"
"234052","KEA-2590","2019/07/22 12:59:40","新北市永和區竹林路66巷2號","121.518296666667","25.0133983333333","6500400","永和區"
"234005","KED-0605","2019/07/22 12:59:54","新北市永和區永和路二段32號","121.514756666667","25.0105983333333","6500400","永和區"
"234012","KEA-2591","2019/07/22 12:59:40","新北市永和區中山路一段58號","121.512986666667","25.0108933333333","6500400","永和區"
"234060","AAD-866","2019/07/22 12:59:53","新北市永和區福和路307號","121.516231666667","25.0071466666667","6500400","永和區"
"234068","748-BX","2019/07/22 12:59:38","新北市永和區中興街84巷8號","121.518453333333","25.0116766666667","6500400","永和區"
"234040","862-TW","2019/07/22 12:59:48","新北市永和區永貞路326號","121.511358333333","25.0052666666667","6500400","永和區"
"234048","863-TW","2019/07/22 12:59:41","新北市永和區文化路194號","121.51072","25.0162333333333","6500400","永和區"
"234025","9371-KE","2019/07/22 12:59:46","新北市永和區水源街2巷20號","121.512123333333","25.0056466666667","6500400","永和區"
"234010","9373-KE","2019/07/22 12:59:49","新北市永和區文化路113巷21弄21號","121.51372","25.01421","6500400","永和區"
"248013","025-BX","2019/07/22 12:59:37","新北市五股區中興路三段165號","121.446596666667","25.0805933333333","6501500","五股區"
"248015","026-BX","2019/07/22 12:59:44","新北市五股區中興路二段83巷26-6號","121.46009","25.075115","6501500","五股區"
"248007","KED-0815","2019/07/22 12:59:51","新北市五股區中興路二段160號","121.458408333333","25.07804","6501500","五股區"
"248003","677-BX","2019/07/22 12:59:51","新北市五股區更洲路47號","121.456888333333","25.0789916666667","6501500","五股區"
"248009","682-TV","2019/07/22 12:59:44","新北市五股區中興路二段37巷28號","121.46028","25.0749683333333","6501500","五股區"
"234022","9380-KE","2019/07/22 12:59:52","新北市永和區竹林路39巷28弄39號","121.520033333333","25.0140833333333","6500400","永和區"
"234076","969-R7","2019/07/22 12:59:48","新北市永和區民享街11號","121.51528","24.99537","6500400","永和區"
"234072","AAC-211","2019/07/22 12:59:35","新北市永和區環河東路二段100號","121.524116666667","25.0103283333333","6500400","永和區"
"234066","AAC-212","2019/07/22 12:59:41","新北市永和區自由街47號","121.51408","25.005955","6500400","永和區"
"234003","AAC-295","2019/07/22 12:52:55","新北市永和區永和路一段157-1號","121.514333333333","25.0095966666667","6500400","永和區"
"244001","248-BX","2019/07/22 12:59:42","新北市林口區粉寮路二段221號","121.40421","25.09065","6501700","林口區"
"231005","046-UY","2019/07/22 12:59:57","新北市新店區安華路28-1號","121.51937","24.9608033333333","6500600","新店區"
"231029","106-UY","2019/07/22 12:59:48","新北市新店區安華路28-1號","121.519633333333","24.9608533333333","6500600","新店區"
"231018","107-UY","2019/07/22 12:59:52","新北市新店區安一路一段1-1號","121.519346666667","24.9612466666667","6500600","新店區"
"231014","KEA-2219","2019/07/22 12:59:58","新北市新店區安一路一段1-1號","121.519558333333","24.961235","6500600","新店區"
"231023","260-TV","2019/07/22 12:59:56","新北市新店區安華路28-1號","121.519363333333","24.9609533333333","6500600","新店區"
"231003","268-BY","2019/07/22 12:59:42","新北市新店區秀山路14號","121.532608333333","24.960345","6500600","新店區"
"231035","278-BY","2019/07/22 12:59:42","新北市新店區安一路一段1-1號","121.519726666667","24.9611366666667","6500600","新店區"
"231024","4716-K9","2019/07/22 12:59:48","新北市新店區安華路28-1號","121.519678333333","24.96064","6500600","新店區"
"231019","513-UM","2019/07/22 12:59:57","新北市新店區安一路一段1-1號","121.51956","24.96109","6500600","新店區"
"231002","619-UM","2019/07/22 12:59:48","新北市新店區安華路28-1號","121.519531666667","24.96087","6500600","新店區"
"231034","641-BX","2019/07/22 12:59:54","新北市新店區安華路28-1號","121.519518333333","24.960805","6500600","新店區"
"231011","KED-0819","2019/07/22 12:59:49","新北市新店區安一路一段1-1號","121.519698333333","24.9612233333333","6500600","新店區"
"231010","719-UM","2019/07/22 12:59:41","新北市新店區安一路一段1-1號","121.519498333333","24.961035","6500600","新店區"
"231026","720-UM","2019/07/22 12:59:43","新北市新店區安一路一段1-1號","121.519421666667","24.9611533333333","6500600","新店區"
"231028","897-TW","2019/07/22 12:59:54","新北市新店區安華路28-1號","121.519636666667","24.9607933333333","6500600","新店區"
"231001","898-TW","2019/07/22 12:59:48","新北市新店區安華路28-1號","121.51956","24.9608233333333","6500600","新店區"
"231004","899-TW","2019/07/22 12:59:43","新北市新店區安華路28-1號","121.519315","24.960955","6500600","新店區"
"235028","005-UY","2019/07/22 12:59:50","新北市中和區錦和路350-1號","121.490251666667","24.9935366666667","6500300","中和區"
"235027","006-UY","2019/07/22 12:59:44","新北市中和區員山路36巷16-3號","121.485073333333","24.991335","6500300","中和區"
"235029","098-UM","2019/07/22 12:59:55","新北市中和區橋和路274號","121.495991666667","25.0067416666667","6500300","中和區"
"235022","151-BY","2019/07/22 12:59:54","新北市中和區圓通路367巷19號","121.492318333333","24.98697","6500300","中和區"
"235002","185-VK","2019/07/22 12:59:59","新北市中和區成功路23號","121.52629","24.99366","6500300","中和區"
"235031","255-BX","2019/07/22 12:59:45","新北市中和區新生街13巷2號","121.483491666667","25.0042733333333","6500300","中和區"
"235034","558-UM","2019/07/22 12:59:53","新北市中和區員山路36巷16-3號","121.48507","24.9914533333333","6500300","中和區"
"235009","565-BX","2019/07/22 12:59:57","新北市中和區中正路589巷11號","121.485931666667","24.993945","6500300","中和區"
"235024","KED-0823","2019/07/22 12:59:53","新北市中和區員山路36巷16-4號","121.485238333333","24.99194","6500300","中和區"
"235035","783-BX","2019/07/22 12:59:50","新北市中和區新生街287號","121.483763333333","24.9975133333333","6500300","中和區"
"235021","801-TS","2019/07/22 12:59:45","新北市中和區員山路72-1號","121.4811","24.9935316666667","6500300","中和區"
"235005","802-TS","2019/07/22 12:59:41","新北市中和區員山路36巷16-2號","121.48537","24.99166","6500300","中和區"
"235016","805-TS","2019/07/22 12:59:51","新北市中和區員山路36巷16-3號","121.484791666667","24.9910816666667","6500300","中和區"
"235017","900-TW","2019/07/22 12:59:51","新北市中和區員山路36巷16-3號","121.48515","24.9913116666667","6500300","中和區"
"235026","911-UM","2019/07/22 12:59:50","新北市中和區員山路36巷16-2號","121.485328333333","24.99182","6500300","中和區"
"235015","157-BY","2019/07/22 12:59:43","新北市中和區中正路637巷52弄1號","121.485518333333","24.993515","6500300","中和區"
"235001","AAC-213","2019/07/22 12:59:49","新北市中和區景平路276-1號","121.514013333333","24.9923833333333","6500300","中和區"
"253004","6251-TK","2019/07/22 12:59:40","新北市石門區中山路64-1號","121.567486666667","25.29032","6502200","石門區"
"253001","KEC-0718","2019/07/22 12:59:39","新北市石門區中央路5號","121.566323333333","25.29148","6502200","石門區"
"207002","749-BX","2019/07/22 12:59:57","新北市萬里區雙興里大坪路34-6號","121.631385","25.1686933333333","6502800","萬里區"
"252005","073-UM","2019/07/22 12:59:50","新北市三芝區忠孝街177號","121.50511","25.2616916666667","6502100","三芝區"
"207001","662-BX","2019/07/22 12:59:40","新北市萬里區萬里里獅頭路23號","121.693181666667","25.1782766666667","6502800","萬里區"
"235032","KEA-2873","2019/07/22 12:59:44","新北市中和區員山路36巷16-3號","121.48504","24.9913183333333","6500300","中和區"
