"lineid","car","time","location","longitude","latitude","cityid","cityname"
"234044","148-BY","2019/07/22 13:19:44","新北市永和區得和路322號","121.523098333333","24.9995616666667","6500400","永和區"
"234078","298-R6","2019/07/22 13:19:48","新北市永和區福和路38號","121.523886666667","25.0083033333333","6500400","永和區"
"234036","336-UY","2019/07/22 13:19:53","新北市永和區民樂街70號","121.527421666667","24.998365","6500400","永和區"
"234062","337-UY","2019/07/22 13:19:39","新北市永和區永元路17巷9號","121.521315","25.000665","6500400","永和區"
"234084","338-UY","2019/07/22 13:19:44","新北市永和區中正路548-2號","121.517403333333","25.00551","6500400","永和區"
"234015","745-BX","2019/07/22 13:19:46","新北市永和區環河西路一段95巷5號","121.512015","25.017635","6500400","永和區"
"234028","746-BX","2019/07/22 13:19:57","新北市永和區厚德街62號","121.524256666667","24.998915","6500400","永和區"
"234052","KEA-2590","2019/07/22 13:19:40","新北市永和區中興街20號","121.516056666667","25.0118716666667","6500400","永和區"
"234005","KED-0605","2019/07/22 13:19:54","新北市永和區保平路268巷51弄12號","121.506265","25.00639","6500400","永和區"
"234012","KEA-2591","2019/07/22 13:19:40","新北市永和區信義路54巷1號","121.513193333333","25.012595","6500400","永和區"
"234060","AAD-866","2019/07/22 13:19:53","新北市永和區秀朗路一段175號","121.517046666667","25.0036866666667","6500400","永和區"
"234068","748-BX","2019/07/22 13:19:44","新北市永和區豫溪街45號","121.516948333333","25.0098666666667","6500400","永和區"
"234040","862-TW","2019/07/22 13:19:50","新北市永和區保平路203巷33號","121.50973","25.005","6500400","永和區"
"234048","863-TW","2019/07/22 13:19:41","新北市永和區仁愛路140號","121.511116666667","25.01342","6500400","永和區"
"234025","9371-KE","2019/07/22 13:19:46","新北市永和區豫溪街42巷5號","121.51552","25.0095333333333","6500400","永和區"
"234010","9373-KE","2019/07/22 13:19:44","新北市永和區文化路126巷23弄14號","121.512583333333","25.01654","6500400","永和區"
"248013","025-BX","2019/07/22 13:19:45","新北市五股區自強路90巷1號","121.432501666667","25.07253","6501500","五股區"
"248015","026-BX","2019/07/22 13:19:44","新北市五股區成泰路三段477巷18號","121.449853333333","25.0988966666667","6501500","五股區"
"248007","KED-0815","2019/07/22 13:19:51","新北市五股區更洲路32巷8弄14號","121.459255","25.0796216666667","6501500","五股區"
"248019","KED-0813","2019/07/22 13:19:40","新北市五股區孝義路45號","121.45429","25.1104766666667","6501500","五股區"
"248012","247-BX","2019/07/22 13:19:44","新北市五股區御史路1巷101弄4號","121.440848333333","25.09121","6501500","五股區"
"248003","677-BX","2019/07/22 13:19:51","新北市五股區成泰路二段238號","121.439991666667","25.086965","6501500","五股區"
"248009","682-TV","2019/07/22 13:19:44","新北市五股區成泰路一段189巷9弄2號","121.434481666667","25.0765883333333","6501500","五股區"
"234022","9380-KE","2019/07/22 13:19:52","新北市永和區竹林路109巷7號","121.520291666667","25.0119616666667","6500400","永和區"
"234076","969-R7","2019/07/22 13:19:48","新北市永和區民有街100號","121.517776666667","24.9956916666667","6500400","永和區"
"234072","AAC-211","2019/07/22 13:19:56","新北市永和區竹林路48號","121.517615","25.01415","6500400","永和區"
"234066","AAC-212","2019/07/22 13:19:55","新北市永和區保平路44號","121.511408333333","25.0071316666667","6500400","永和區"
"234003","AAC-295","2019/07/22 13:19:52","新北市永和區中山路一段106號","121.511036666667","25.0104516666667","6500400","永和區"
"244001","248-BX","2019/07/22 13:19:42","新北市林口區嘉寶里45號","121.339421666667","25.1092783333333","6501700","林口區"
"243005","646-TV","2019/07/22 13:19:49","新北市泰山區南林路99巷1-1號","121.415475","25.0509483333333","6501600","泰山區"
"231030","002-UM","2019/07/22 13:19:37","新北市新店區安華路28-1號","121.519728333333","24.9606633333333","6500600","新店區"
"231027","0293-UT","2019/07/22 13:19:54","新北市新店區安康路一段222號","121.5238","24.9635283333333","6500600","新店區"
"231005","046-UY","2019/07/22 13:19:37","新北市新店區安華路28-1號","121.519305","24.9606483333333","6500600","新店區"
"231029","106-UY","2019/07/22 13:19:48","新北市新店區安華路28-1號","121.51963","24.9608483333333","6500600","新店區"
"231018","107-UY","2019/07/22 13:19:52","新北市新店區環河路29巷1號","121.536768333333","24.961305","6500600","新店區"
"231013","108-UY","2019/07/22 13:19:24","新北市新店區安華路28-1號","121.519486666667","24.9608216666667","6500600","新店區"
"231036","110-UY","2019/07/22 13:19:54","新北市新店區建業路15號","121.4825","24.9526616666667","6500600","新店區"
"231014","KEA-2219","2019/07/22 13:19:58","新北市新店區安一路一段1-1號","121.519653333333","24.96127","6500600","新店區"
"231031","256-BX","2019/07/22 13:19:51","新北市新店區安一路一段1-1號","121.519615","24.96121","6500600","新店區"
"231023","260-TV","2019/07/22 13:19:56","新北市新店區安華路28-1號","121.519231666667","24.9609","6500600","新店區"
"231003","268-BY","2019/07/22 13:19:42","新北市新店區中興路一段258號","121.5447","24.9670083333333","6500600","新店區"
"231035","278-BY","2019/07/22 13:19:42","新北市新店區安一路一段1-1號","121.519573333333","24.9611683333333","6500600","新店區"
"231006","355-BY","2019/07/22 13:19:45","新北市新店區安華路1-1號","121.519146666667","24.9605416666667","6500600","新店區"
"231038","3712-VJ","2019/07/22 13:19:45","新北市新店區安華路1-1號","121.51929","24.96056","6500600","新店區"
"231024","4716-K9","2019/07/22 13:19:48","新北市新店區安康路一段105號","121.529016666667","24.9615633333333","6500600","新店區"
"231025","4715-K9","2019/07/22 13:19:53","新北市新店區中央五街32號","121.528795","24.9747833333333","6500600","新店區"
"231019","513-UM","2019/07/22 13:19:37","新北市新店區安康路一段35號","121.531726666667","24.9607133333333","6500600","新店區"
"231002","619-UM","2019/07/22 13:19:48","新北市新店區安華路28-1號","121.519513333333","24.9608866666667","6500600","新店區"
"231034","641-BX","2019/07/22 13:19:54","新北市新店區安華路1-1號","121.51944","24.960515","6500600","新店區"
"231011","KED-0819","2019/07/22 13:19:49","新北市新店區安一路一段1-1號","121.519986666667","24.9612216666667","6500600","新店區"
"231010","719-UM","2019/07/22 13:19:41","新北市新店區安康路一段126號","121.526813333333","24.962735","6500600","新店區"
"231026","720-UM","2019/07/22 13:19:43","新北市新店區安一路一段1-1號","121.519265","24.9612016666667","6500600","新店區"
"231028","897-TW","2019/07/22 13:19:54","新北市新店區安華路28-1號","121.51971","24.96075","6500600","新店區"
"231001","898-TW","2019/07/22 13:19:48","新北市新店區安華路28-1號","121.519456666667","24.96076","6500600","新店區"
"231004","899-TW","2019/07/22 13:19:43","新北市新店區安一路一段1-1號","121.519153333333","24.9610166666667","6500600","新店區"
"231037","AKT-0513","2019/07/22 13:19:46","新北市新店區薏仁坑路28-3號","121.495661666667","24.96358","6500600","新店區"
"235030","003-UY","2019/07/22 13:19:51","新北市中和區中山路二段120號","121.502796666667","25.0037833333333","6500300","中和區"
"235028","005-UY","2019/07/22 13:19:50","新北市中和區圓通路141巷37弄1號","121.498956666667","24.994955","6500300","中和區"
"235027","006-UY","2019/07/22 13:19:44","新北市中和區中正路585號","121.486108333333","24.9945166666667","6500300","中和區"
"235020","096-UM","2019/07/22 13:19:41","新北市中和區中正路637巷52弄11號","121.484903333333","24.9937083333333","6500300","中和區"
"235003","097-UM","2019/07/22 13:19:45","新北市中和區安平路38號","121.510016666667","24.9950216666667","6500300","中和區"
"235029","098-UM","2019/07/22 13:19:50","新北市中和區莊敬路49巷20弄20號","121.502686666667","25.00581","6500300","中和區"
"235004","150-BY","2019/07/22 13:19:51","新北市中和區保健路50巷66號","121.509253333333","24.9951833333333","6500300","中和區"
"235022","151-BY","2019/07/22 13:19:54","新北市中和區圓通路369巷156弄39號","121.489361666667","24.9821733333333","6500300","中和區"
"235019","183-VK","2019/07/22 13:19:40","新北市中和區莒光路207-8號","121.470451666667","24.9963666666667","6500300","中和區"
"235002","185-VK","2019/07/22 13:19:39","新北市中和區大智街42巷11號","121.522575","24.9920583333333","6500300","中和區"
"235013","186-VK","2019/07/22 13:19:59","新北市中和區錦和路350-1號","121.490553333333","24.9935833333333","6500300","中和區"
"235031","255-BX","2019/07/22 13:19:45","新北市中和區連城路340巷14弄20號","121.482905","24.9972","6500300","中和區"
"235036","301-VK","2019/07/22 13:19:48","新北市中和區連城路263巷4弄2號","121.49149","24.9959083333333","6500300","中和區"
"235007","352-BY","2019/07/22 13:19:46","新北市中和區景平路381號","121.503918333333","24.9934416666667","6500300","中和區"
"235006","KEA-2878","2019/07/22 13:19:43","新北市中和區大勇街46巷4號","121.517543333333","24.99378","6500300","中和區"
"235014","4979-A6","2019/07/22 13:19:55","新北市中和區捷運路157號","121.506383333333","24.9911133333333","6500300","中和區"
"235033","4980-A6","2019/07/22 13:19:43","新北市中和區連城路289號","121.490273333333","24.9961483333333","6500300","中和區"
"235034","558-UM","2019/07/22 13:19:53","新北市中和區景平路469號","121.500513333333","24.9968416666667","6500300","中和區"
"235009","565-BX","2019/07/22 13:19:57","新北市中和區南山路236巷22弄13號","121.505373333333","24.989145","6500300","中和區"
"235024","KED-0823","2019/07/22 13:19:54","新北市中和區中山路二段648號","121.480863333333","25.0056583333333","6500300","中和區"
"235018","640-BX","2019/07/22 13:19:53","新北市中和區民享街88巷2號","121.474575","25.000725","6500300","中和區"
"235011","732-UM","2019/07/22 13:19:48","新北市中和區復興路277-1號","121.502461666667","24.9903033333333","6500300","中和區"
"235035","783-BX","2019/07/22 13:19:50","新北市中和區中板路18巷1弄21號","121.483218333333","25.0125333333333","6500300","中和區"
"235021","801-TS","2019/07/22 13:19:44","新北市中和區民安街178號","121.476631666667","24.9999816666667","6500300","中和區"
"235005","802-TS","2019/07/22 13:19:41","新北市中和區中和路306-1號","121.508883333333","25.0000566666667","6500300","中和區"
"235016","805-TS","2019/07/22 13:19:51","新北市中和區興南路二段133號","121.505243333333","24.9842","6500300","中和區"
"235012","896-TW","2019/07/22 13:19:37","新北市中和區錦和路350-1號","121.490351666667","24.9935916666667","6500300","中和區"
"235017","900-TW","2019/07/22 13:19:51","新北市中和區員山路36巷16-2號","121.485288333333","24.9914533333333","6500300","中和區"
"235026","911-UM","2019/07/22 13:19:50","新北市中和區中山路二段312巷45弄25號","121.494951666667","25.0049383333333","6500300","中和區"
"235015","157-BY","2019/07/22 13:19:43","新北市中和區忠孝街2號","121.508741666667","24.98289","6500300","中和區"
"235001","AAC-213","2019/07/22 13:19:49","新北市中和區景德街95號","121.515661666667","24.9913583333333","6500300","中和區"
"235023","AAC-215","2019/07/22 13:19:55","新北市中和區員山路36巷16-3號","121.485021666667","24.9912633333333","6500300","中和區"
"220013","072-UY","2019/07/22 13:19:57","新北市板橋區華東街1-9號","121.448086666667","24.9949116666667","6500100","板橋區"
"253003","4710-YM","2019/07/22 13:19:38","新北市石門區老崩山39-3號","121.56539","25.2662866666667","6502200","石門區"
"253004","6251-TK","2019/07/22 13:19:20","新北市石門區阿里荖69號","121.611443333333","25.271185","6502200","石門區"
"253002","637-UY","2019/07/22 13:19:53","新北市石門區大溪墘9-7號","121.552876666667","25.27448","6502200","石門區"
"253001","KEC-0718","2019/07/22 13:19:39","新北市石門區楓林17-1號","121.535905","25.2945566666667","6502200","石門區"
"207002","749-BX","2019/07/22 13:19:42","新北市萬里區崁腳里內崁路2-1號","121.639531666667","25.16035","6502800","萬里區"
"252005","073-UM","2019/07/22 13:19:51","新北市三芝區福德里土地公埔67-3號","121.520238333333","25.22816","6502100","三芝區"
"207001","662-BX","2019/07/22 13:19:40","新北市萬里區龜吼里新墾丁路35-1號","121.679576666667","25.1944366666667","6502800","萬里區"
"220029","287-VK","2019/07/22 13:19:52","新北市板橋區華東街1-10號","121.448523333333","24.9950066666667","6500100","板橋區"
"220005","686-BX","2019/07/22 13:19:45","新北市板橋區華東街1-9號","121.448216666667","24.994865","6500100","板橋區"
"235032","KEA-2873","2019/07/22 13:19:44","新北市中和區中正路589巷15號","121.48573","24.9933016666667","6500300","中和區"
"235025","KEA-2875","2019/07/22 13:19:35","新北市中和區民享街116巷8號","121.474156666667","24.9988066666667","6500300","中和區"
