"lineid","car","time","location","longitude","latitude","cityid","cityname"
"234044","148-BY","2019/07/22 13:49:44","新北市永和區永利路248號","121.524225","25.0031533333333","6500400","永和區"
"234078","298-R6","2019/07/22 13:49:48","新北市永和區永亨路98號","121.522936666667","25.0048116666667","6500400","永和區"
"234036","336-UY","2019/07/22 13:49:46","新北市永和區民樂街57巷6號","121.528088333333","24.99854","6500400","永和區"
"234062","337-UY","2019/07/22 13:49:45","新北市永和區中正路416號","121.517523333333","25.0019783333333","6500400","永和區"
"234084","338-UY","2019/07/22 13:49:44","新北市永和區永亨路100號","121.523305","25.0046516666667","6500400","永和區"
"234015","745-BX","2019/07/22 13:49:46","新北市永和區文化路69號","121.51395","25.0151133333333","6500400","永和區"
"234028","746-BX","2019/07/22 13:49:50","新北市永和區民生路20號","121.522581666667","24.9974333333333","6500400","永和區"
"234052","KEA-2590","2019/07/22 13:49:40","新北市永和區竹林路39巷28弄21號","121.519961666667","25.0144833333333","6500400","永和區"
"234005","KED-0605","2019/07/22 13:49:54","新北市永和區永和路一段6號","121.51285","25.0045533333333","6500400","永和區"
"234012","KEA-2591","2019/07/22 13:49:40","新北市永和區永平路308號","121.507076666667","25.0124666666667","6500400","永和區"
"234060","AAD-866","2019/07/22 13:49:33","新北市永和區中正路63號","121.514813333333","24.9965116666667","6500400","永和區"
"234068","748-BX","2019/07/22 13:49:38","新北市永和區竹林路86號","121.519435","25.01267","6500400","永和區"
"234040","862-TW","2019/07/22 13:49:55","新北市永和區中和路389巷17號","121.508026666667","25.0011583333333","6500400","永和區"
"234048","863-TW","2019/07/22 13:49:41","新北市永和區保安路144號","121.508531666667","25.01492","6500400","永和區"
"234010","9373-KE","2019/07/22 13:49:44","新北市永和區保生路55號","121.50452","25.01086","6500400","永和區"
"248015","026-BX","2019/07/22 13:49:44","新北市五股區成泰路三段543巷56號","121.449636666667","25.1031716666667","6501500","五股區"
"248007","KED-0815","2019/07/22 13:49:51","新北市五股區中興路一段151巷62號","121.465125","25.0721183333333","6501500","五股區"
"248019","KED-0813","2019/07/22 13:49:40","新北市五股區凌雲路三段88號","121.428341666667","25.1188316666667","6501500","五股區"
"248012","247-BX","2019/07/22 13:49:44","新北市五股區成泰路二段195巷1號","121.440411666667","25.0874083333333","6501500","五股區"
"248003","677-BX","2019/07/22 13:49:51","新北市五股區民義路二段43號","121.41051","25.1043533333333","6501500","五股區"
"248009","682-TV","2019/07/22 13:49:50","新北市五股區水碓九路25號","121.428468333333","25.071915","6501500","五股區"
"234022","9380-KE","2019/07/22 13:49:52","新北市永和區永和路二段105號","121.514948333333","25.0118066666667","6500400","永和區"
"234076","969-R7","2019/07/22 13:49:48","新北市永和區民族街37巷1弄2號","121.51896","24.9990566666667","6500400","永和區"
"234072","AAC-211","2019/07/22 13:49:56","新北市永和區豫溪街191巷3弄2號","121.523565","25.01047","6500400","永和區"
"234066","AAC-212","2019/07/22 13:49:41","新北市永和區保平路236巷24弄1號","121.508006666667","25.0069733333333","6500400","永和區"
"234003","AAC-295","2019/07/22 13:49:52","新北市永和區永和路一段112-1號","121.51363","25.007325","6500400","永和區"
"244001","248-BX","2019/07/22 13:49:42","新北市林口區瑞樹坑34-8號","121.351443333333","25.1296416666667","6501700","林口區"
"243002","297-R6","2019/07/22 13:49:52","新北市泰山區辭修路48號","121.428395","25.057205","6501600","泰山區"
"243006","KEA-2801","2019/07/22 13:49:42","新北市泰山區黎明路25號","121.422098333333","25.0606216666667","6501600","泰山區"
"243008","421-VK","2019/07/22 13:49:46","新北市泰山區明志路二段152-1號","121.427466666667","25.050645","6501600","泰山區"
"243003","KEA-2216","2019/07/22 13:49:42","新北市泰山區明志路二段246巷4號","121.426506666667","25.048355","6501600","泰山區"
"243007","680-BX","2019/07/22 13:49:42","新北市泰山區泰林路二段462號","121.42589","25.0642683333333","6501600","泰山區"
"231030","002-UM","2019/07/22 13:49:37","新北市新店區安康路一段65號","121.530396666667","24.9610633333333","6500600","新店區"
"231027","0293-UT","2019/07/22 13:49:54","新北市新店區北宜路一段105巷4弄9號","121.540451666667","24.9554633333333","6500600","新店區"
"231005","046-UY","2019/07/22 13:49:57","新北市新店區寶中路123號","121.549693333333","24.9793333333333","6500600","新店區"
"231029","106-UY","2019/07/22 13:49:48","新北市新店區安康路二段125-1號","121.512445","24.960885","6500600","新店區"
"231018","107-UY","2019/07/22 13:49:52","新北市新店區中正路400巷21號","121.535243333333","24.97847","6500600","新店區"
"231013","108-UY","2019/07/22 13:49:44","新北市新店區二十張路25巷14號","121.539103333333","24.98205","6500600","新店區"
"231036","110-UY","2019/07/22 13:49:54","新北市新店區安祥路145巷7號","121.474896666667","24.955815","6500600","新店區"
"231014","KEA-2219","2019/07/22 13:49:58","新北市新店區竹林路69號","121.553161666667","24.9513883333333","6500600","新店區"
"231031","256-BX","2019/07/22 13:49:51","新北市新店區莒光路44巷21弄11-3號","121.518591666667","24.9520933333333","6500600","新店區"
"231023","260-TV","2019/07/22 13:49:56","新北市新店區國校路6號","121.537876666667","24.9563316666667","6500600","新店區"
"231003","268-BY","2019/07/22 13:49:42","新北市新店區中興路一段203號","121.543468333333","24.9655816666667","6500600","新店區"
"231035","278-BY","2019/07/22 13:49:44","新北市新店區安忠路57巷5-6號","121.513268333333","24.9587783333333","6500600","新店區"
"231006","355-BY","2019/07/22 13:49:45","新北市新店區北宜路一段123號","121.540446666667","24.95354","6500600","新店區"
"231038","3712-VJ","2019/07/22 13:49:45","新北市新店區安華路30巷1號","121.519673333333","24.9593016666667","6500600","新店區"
"231024","4716-K9","2019/07/22 13:49:48","新北市新店區新生街55號","121.538845","24.96691","6500600","新店區"
"231025","4715-K9","2019/07/22 13:49:53","新北市新店區中正路273號","121.537718333333","24.97435","6500600","新店區"
"231019","513-UM","2019/07/22 13:49:57","新北市新店區永興路88-2號","121.544118333333","24.93309","6500600","新店區"
"231002","619-UM","2019/07/22 13:49:27","新北市新店區溪園路393號","121.524296666667","24.979165","6500600","新店區"
"231034","641-BX","2019/07/22 13:49:54","新北市新店區達觀路14巷2號","121.503535","24.94107","6500600","新店區"
"231011","KED-0819","2019/07/22 13:49:49","新北市新店區德正街27巷29弄88號","121.545738333333","24.97358","6500600","新店區"
"231010","719-UM","2019/07/22 13:49:41","新北市新店區平等街48巷1號","121.53574","24.9729933333333","6500600","新店區"
"231026","720-UM","2019/07/22 13:49:44","新北市新店區中正路331號","121.535906666667","24.9749933333333","6500600","新店區"
"231028","897-TW","2019/07/22 13:49:55","新北市新店區安和路二段192-1號","121.51867","24.9746316666667","6500600","新店區"
"231001","898-TW","2019/07/22 13:49:58","新北市新店區三民路106號","121.53412","24.9739983333333","6500600","新店區"
"231004","899-TW","2019/07/22 13:49:43","新北市新店區中興路三段1-20號","121.546768333333","24.9760233333333","6500600","新店區"
"231037","AKT-0513","2019/07/22 13:49:46","新北市新店區安康路三段359巷12弄26號","121.483996666667","24.9494","6500600","新店區"
"235030","003-UY","2019/07/22 13:49:58","新北市中和區廣福路56巷1弄19號","121.502758333333","25.00166","6500300","中和區"
"235028","005-UY","2019/07/22 13:49:50","新北市中和區泰和街44巷21號","121.498358333333","25.00082","6500300","中和區"
"235027","006-UY","2019/07/22 13:49:44","新北市中和區連城路319巷4弄1號","121.48911","24.9955783333333","6500300","中和區"
"235020","096-UM","2019/07/22 13:49:41","新北市中和區中正路1192號","121.480565","25.0104033333333","6500300","中和區"
"235003","097-UM","2019/07/22 13:49:44","新北市中和區自強路53號","121.520998333333","24.9923116666667","6500300","中和區"
"235029","098-UM","2019/07/22 13:49:50","新北市中和區勝利路35巷9弄2號","121.499465","25.006855","6500300","中和區"
"235004","150-BY","2019/07/22 13:49:31","新北市中和區保健路48巷3號","121.510003333333","24.99694","6500300","中和區"
"235022","151-BY","2019/07/22 13:49:54","新北市中和區連城路508號","121.477085","24.9921416666667","6500300","中和區"
"235019","183-VK","2019/07/22 13:49:40","新北市中和區中山路三段229巷31號","121.46987","25.0059933333333","6500300","中和區"
"235002","185-VK","2019/07/22 13:49:39","新北市中和區大勇街60巷9號","121.518348333333","24.9948033333333","6500300","中和區"
"235013","186-VK","2019/07/22 13:49:38","新北市中和區景新街210巷2弄8號","121.50691","24.9941733333333","6500300","中和區"
"235031","255-BX","2019/07/22 13:49:45","新北市中和區中正路691號","121.48499","24.9980416666667","6500300","中和區"
"235008","293-VK","2019/07/22 13:49:55","新北市中和區中興街166號","121.499828333333","24.9915116666667","6500300","中和區"
"235036","301-VK","2019/07/22 13:49:48","新北市中和區中山路二段28號","121.504528333333","25.005175","6500300","中和區"
"235007","352-BY","2019/07/22 13:49:46","新北市中和區成功路36號","121.526068333333","24.993205","6500300","中和區"
"235006","KEA-2878","2019/07/22 13:49:42","新北市中和區秀朗路三段70巷16號","121.525795","24.9944933333333","6500300","中和區"
"247007","KED-0682","2019/07/22 13:49:36","新北市蘆洲區集賢路269巷4-1號","121.481513333333","25.0835783333333","6501400","蘆洲區"
"235014","4979-A6","2019/07/22 13:49:55","新北市中和區忠孝街62巷9弄1號","121.513098333333","24.9839533333333","6500300","中和區"
"235033","4980-A6","2019/07/22 13:49:43","新北市中和區南山路81巷8弄12號","121.50255","24.9977","6500300","中和區"
"235034","558-UM","2019/07/22 13:49:53","新北市中和區景新街2號","121.502591666667","24.9997083333333","6500300","中和區"
"235009","565-BX","2019/07/22 13:49:57","新北市中和區景新街467巷15弄2號","121.514136666667","24.988405","6500300","中和區"
"235024","KED-0823","2019/07/22 13:49:53","新北市中和區民享街34號","121.473915","25.0031083333333","6500300","中和區"
"235018","640-BX","2019/07/22 13:49:49","新北市中和區民享街8號","121.473901666667","25.0041983333333","6500300","中和區"
"235011","732-UM","2019/07/22 13:49:48","新北市中和區興南路二段34巷71號","121.504906666667","24.9850816666667","6500300","中和區"
"235035","783-BX","2019/07/22 13:49:50","新北市中和區立業路87號","121.490888333333","25.006795","6500300","中和區"
"235021","801-TS","2019/07/22 13:49:44","新北市中和區民利街58巷3弄2號","121.478795","24.99919","6500300","中和區"
"235005","802-TS","2019/07/22 13:49:41","新北市中和區永貞路250號","121.514163333333","25.0037616666667","6500300","中和區"
"235016","805-TS","2019/07/22 13:49:51","新北市中和區興南路二段399巷86號","121.50019","24.9783816666667","6500300","中和區"
"235012","896-TW","2019/07/22 13:49:43","新北市中和區南山路409號","121.507056666667","24.9898233333333","6500300","中和區"
"235017","900-TW","2019/07/22 13:49:51","新北市中和區民德路290巷6號","121.467241666667","24.9958016666667","6500300","中和區"
"235026","911-UM","2019/07/22 13:49:50","新北市中和區中山路二段340巷37號","121.493161666667","25.003875","6500300","中和區"
"235015","157-BY","2019/07/22 13:49:43","新北市中和區忠孝街106巷45號","121.51381","24.98442","6500300","中和區"
"235001","AAC-213","2019/07/22 13:49:55","新北市中和區秀朗路三段10巷37弄13號","121.524141666667","24.9957133333333","6500300","中和區"
"235023","AAC-215","2019/07/22 13:49:35","新北市中和區圓通路393巷2號","121.489596666667","24.9889566666667","6500300","中和區"
"220016","015-TV","2019/07/22 13:49:56","新北市板橋區大同街35巷28號","121.477368333333","25.027935","6500100","板橋區"
"220013","072-UY","2019/07/22 13:49:57","新北市板橋區成都街30號","121.461385","25.0047333333333","6500100","板橋區"
"220034","073-UY","2019/07/22 13:49:49","新北市板橋區南雅西路二段145巷3號","121.451696666667","25.0115566666667","6500100","板橋區"
"220105","075-UY","2019/07/22 13:49:55","新北市板橋區莒光路42號","121.470473333333","25.0243733333333","6500100","板橋區"
"220017","AAD-861","2019/07/22 13:49:46","新北市板橋區縣民大道一段96巷16號","121.45702","25.004745","6500100","板橋區"
"247003","893-R6","2019/07/22 13:49:54","新北市蘆洲區中原路5巷6號","121.461475","25.0832633333333","6501400","蘆洲區"
"247023","337-TH","2019/07/22 13:49:39","新北市蘆洲區光華路186巷65號","121.465138333333","25.0839466666667","6501400","蘆洲區"
"247011","056-VK","2019/07/22 13:49:44","新北市蘆洲區復興路323巷140號","121.481118333333","25.0955683333333","6501400","蘆洲區"
"247005","002-UY","2019/07/22 13:49:44","新北市蘆洲區和平路50號","121.47045","25.079155","6501400","蘆洲區"
"253003","4710-YM","2019/07/22 13:49:38","新北市石門區中山路62-7號","121.567453333333","25.290215","6502200","石門區"
"253004","6251-TK","2019/07/22 13:49:40","新北市石門區阿里荖60-1號","121.603706666667","25.2698933333333","6502200","石門區"
"253002","637-UY","2019/07/22 13:49:52","新北市石門區尖山湖55號","121.565553333333","25.2483216666667","6502200","石門區"
"253001","KEC-0718","2019/07/22 13:49:39","新北市石門區八甲60-5號","121.526126666667","25.2709983333333","6502200","石門區"
"207002","749-BX","2019/07/22 13:49:42","新北市萬里區崁腳里崁腳路166號","121.645038333333","25.1558333333333","6502800","萬里區"
"252005","073-UM","2019/07/22 13:49:50","新北市三芝區圓山里內柑宅25-2號","121.537651666667","25.2248516666667","6502100","三芝區"
"207001","662-BX","2019/07/22 13:49:40","新北市萬里區磺潭里公館崙35號","121.632148333333","25.21104","6502800","萬里區"
"236040","KED-0685","2019/07/22 13:49:37","新北市土城區城林路6巷80號","121.438545","24.979775","6501300","土城區"
"220038","KED-0812","2019/07/22 13:49:52","新北市板橋區文化路二段417巷11號","121.47353","25.0338616666667","6500100","板橋區"
"236074","166-UM","2019/07/22 13:49:41","新北市土城區中央路二段276-1號","121.440896666667","24.97426","6501300","土城區"
"236029","253-BX","2019/07/22 13:49:39","新北市土城區城林路6巷80號","121.438451666667","24.97978","6501300","土城區"
"236024","269-VK","2019/07/22 13:49:54","新北市土城區城林路6巷80號","121.43857","24.97977","6501300","土城區"
"236012","270-VK","2019/07/22 13:49:42","新北市土城區城林路6巷80號","121.438625","24.979775","6501300","土城區"
"236032","271-VK","2019/07/22 13:49:45","新北市土城區城林路6巷80號","121.4386","24.9798266666667","6501300","土城區"
"236064","KEA-2877","2019/07/22 13:49:55","新北市土城區中華路二段2號","121.438841666667","24.9797283333333","6501300","土城區"
"236016","401-BY","2019/07/22 13:49:40","新北市土城區城林路6巷80號","121.438355","24.979835","6501300","土城區"
"236057","912-UM","2019/07/22 13:49:51","新北市土城區大安路2號","121.432818333333","24.96551","6501300","土城區"
"236045","913-UM","2019/07/22 13:49:41","新北市土城區城林路6巷80號","121.438588333333","24.97977","6501300","土城區"
"236060","915-UM","2019/07/22 13:49:57","新北市土城區城林路6巷80號","121.438788333333","24.9797483333333","6501300","土城區"
"236054","AAC-216","2019/07/22 13:49:50","新北市土城區城林路6巷80號","121.438475","24.979755","6501300","土城區"
"220027","145-BY","2019/07/22 13:49:42","新北市板橋區大智街71巷28弄15號","121.452341666667","25.01487","6500100","板橋區"
"220028","200-UY","2019/07/22 13:49:47","新北市板橋區合宜一路1-6號","121.442555","24.9968983333333","6500100","板橋區"
"220030","610-BX","2019/07/22 13:49:56","新北市板橋區篤行路三段玉平巷68弄2號","121.428031666667","24.9862083333333","6500100","板橋區"
"220004","276-BY","2019/07/22 13:49:54","新北市板橋區四川路一段281號","121.459425","25.0017933333333","6500100","板橋區"
"220020","277-BY","2019/07/22 13:49:57","新北市板橋區金門街10號","121.433381666667","24.9947083333333","6500100","板橋區"
"220050","280-UM","2019/07/22 13:49:42","新北市板橋區文化路二段182巷7弄1號","121.471813333333","25.02702","6500100","板橋區"
"220019","283-VK","2019/07/22 13:49:58","新北市板橋區四川路一段95號","121.459835","25.0054316666667","6500100","板橋區"
"220043","285-UM","2019/07/22 13:49:52","新北市板橋區文化路二段31號","121.468888333333","25.0248366666667","6500100","板橋區"
"220001","285-VK","2019/07/22 13:49:54","新北市板橋區成功路47號","121.474866666667","25.0178216666667","6500100","板橋區"
"220031","286-VK","2019/07/22 13:49:50","新北市板橋區大觀路二段22巷20號","121.445665","25.0036483333333","6500100","板橋區"
"220029","287-VK","2019/07/22 13:49:57","新北市板橋區南雅西路二段42號","121.45285","25.01008","6500100","板橋區"
"220039","288-VK","2019/07/22 13:49:52","新北市板橋區四維路177巷4弄10號","121.46358","25.0263566666667","6500100","板橋區"
"220009","295-UM","2019/07/22 13:49:55","新北市板橋區富山街109巷63弄24號","121.475336666667","25.0206383333333","6500100","板橋區"
"220032","296-UM","2019/07/22 13:49:49","新北市板橋區大觀路二段150巷35號","121.441563333333","24.9999366666667","6500100","板橋區"
"220023","303-R5","2019/07/22 13:49:55","新北市板橋區大觀路一段28巷96號","121.450468333333","25.01101","6500100","板橋區"
"220010","305-R5","2019/07/22 13:49:50","新北市板橋區中山路二段40巷7號","121.473311666667","25.014955","6500100","板橋區"
"220041","307-R5","2019/07/22 13:49:45","新北市板橋區文化路一段104巷1弄3號","121.465233333333","25.017885","6500100","板橋區"
"220037","491-VK","2019/07/22 13:49:53","新北市板橋區文化路二段16-2號","121.46874","25.0242216666667","6500100","板橋區"
"220104","560-BX","2019/07/22 13:49:55","新北市板橋區中正路275巷77號","121.452343333333","25.018065","6500100","板橋區"
"220052","561-BX","2019/07/22 13:49:43","新北市板橋區文化路一段188巷9弄86-3號","121.468983333333","25.0187016666667","6500100","板橋區"
"220011","609-BX","2019/07/22 13:49:56","新北市板橋區中山路二段56號","121.473865","25.0157216666667","6500100","板橋區"
"220040","637-BX","2019/07/22 13:49:41","新北市板橋區雙十路二段47巷29號","121.475241666667","25.0255516666667","6500100","板橋區"
"220005","686-BX","2019/07/22 13:49:45","新北市板橋區重慶路97號","121.462071666667","25.0056333333333","6500100","板橋區"
"220025","687-BX","2019/07/22 13:49:56","新北市板橋區大觀路三段121號","121.4327","24.9944966666667","6500100","板橋區"
"220042","689-BX","2019/07/22 13:49:56","新北市板橋區民生路三段236號","121.464556666667","25.0303283333333","6500100","板橋區"
"220002","741-BX","2019/07/22 13:49:49","新北市板橋區館前西路49號","121.457783333333","25.0065866666667","6500100","板橋區"
"220051","KEA-2699","2019/07/22 13:49:41","新北市板橋區萬板路508號","121.480376666667","25.0262966666667","6500100","板橋區"
"220003","827-TW","2019/07/22 13:49:47","新北市板橋區忠孝路165號","121.463856666667","25.0025433333333","6500100","板橋區"
"220014","829-TW","2019/07/22 13:49:53","新北市板橋區民生路一段59號","121.475206666667","25.0132233333333","6500100","板橋區"
"220047","831-TW","2019/07/22 13:49:53","新北市板橋區民生路二段226巷8弄4號","121.470113333333","25.0216666666667","6500100","板橋區"
"220022","895-R6","2019/07/22 13:49:37","新北市板橋區館前西路127號","121.45654","25.007555","6500100","板橋區"
"220021","985-R7","2019/07/22 13:49:40","新北市板橋區府中路67號","121.45825","25.0095366666667","6500100","板橋區"
"220046","AAC-210","2019/07/22 13:49:41","新北市板橋區陽明街162號","121.463435","25.0244633333333","6500100","板橋區"
"220012","AAC-253","2019/07/22 13:49:57","新北市板橋區漢生東路166號","121.4671","25.01481","6500100","板橋區"
"235032","KEA-2873","2019/07/22 13:49:44","新北市中和區圓通路162巷35號","121.496551666667","24.9956366666667","6500300","中和區"
"235025","KEA-2875","2019/07/22 13:49:50","新北市中和區民享街59巷5號","121.47447","25.0025566666667","6500300","中和區"
"235010","KEA-2876","2019/07/22 13:49:37","新北市中和區興南路一段85巷21號","121.510148333333","24.9883666666667","6500300","中和區"
