"lineid","car","time","location","longitude","latitude","cityid","cityname"
"249005","172-UM","2019/07/22 16:39:17","新北市八里區大堀湖1-5號","121.422923333333","25.1547266666667","6502300","八里區"
"249002","305-UY","2019/07/22 16:39:17","新北市八里區渡船頭5-6號","121.4314","25.1548433333333","6502300","八里區"
"249003","759-BX","2019/07/22 16:39:21","新北市八里區博物館路83號","121.41007","25.1601433333333","6502300","八里區"
"248010","682-TV","2019/07/22 16:27:28","新北市五股區中興路二段37巷28號","121.460306666667","25.07485","6501500","五股區"
"244007","402-UM","2019/07/22 16:39:18","新北市林口區粉寮69號","121.404918333333","25.0908066666667","6501700","林口區"
"231046","719-UM","2019/07/22 16:39:08","新北市新店區灣潭路3-3號","121.538188333333","24.9508116666667","6500600","新店區"
"241011","013-R5","2019/07/22 16:39:22","新北市三重區秀江街239號","121.496895","25.0716816666667","6500200","三重區"
"241028","022-UY","2019/07/22 16:37:31","新北市三重區重新路三段84號","121.493303333333","25.060665","6500200","三重區"
"241018","060-VK","2019/07/22 16:39:18","新北市三重區正義北路338巷30號","121.493558333333","25.07047","6500200","三重區"
"241031","061-VK","2019/07/22 16:39:17","新北市三重區重新路四段41巷10號","121.487615","25.0577966666667","6500200","三重區"
"241015","062-VK","2019/07/22 16:39:08","新北市三重區文化北路41號","121.498968333333","25.0651633333333","6500200","三重區"
"241017","063-VK","2019/07/22 16:39:14","新北市三重區中正北路25巷6號","121.493293333333","25.0628733333333","6500200","三重區"
"241024","065-VK","2019/07/22 16:39:20","新北市三重區中正北路315巷6弄62號","121.476096666667","25.0725016666667","6500200","三重區"
"241002","090-VK","2019/07/22 16:39:28","新北市三重區仁義街241巷25號","121.496968333333","25.0829716666667","6500200","三重區"
"241003","091-VK","2019/07/22 16:39:27","新北市三重區五華街71巷105號","121.494741666667","25.08415","6500200","三重區"
"241030","742-BX","2019/07/22 16:39:08","新北市三重區環河南路286號","121.488921666667","25.048995","6500200","三重區"
"241005","262-UM","2019/07/22 16:39:22","新北市三重區仁華街146號","121.487171666667","25.0831016666667","6500200","三重區"
"241016","266-UM","2019/07/22 16:39:08","新北市三重區大智街7-1號","121.494795","25.0651783333333","6500200","三重區"
"241009","267-UM","2019/07/22 16:39:09","新北市三重區三和路四段203巷35號","121.482973333333","25.079625","6500200","三重區"
"241032","269-UM","2019/07/22 16:39:13","新北市三重區中山路40巷1-1號","121.4859","25.061275","6500200","三重區"
"241013","270-UM","2019/07/22 16:39:24","","121.496166666667","25.0730983333333","6500200","三重區"
"241025","271-UM","2019/07/22 16:39:11","新北市三重區中正北路430號","121.474593333333","25.0710166666667","6500200","三重區"
"241007","398-BY","2019/07/22 16:39:18","新北市三重區仁美街86號","121.485988333333","25.0797366666667","6500200","三重區"
"241004","475-VK","2019/07/22 16:39:27","新北市三重區五華街72號","121.493165","25.08177","6500200","三重區"
"241020","478-VK","2019/07/22 16:39:15","新北市三重區忠孝路二段31號","121.486216666667","25.071245","6500200","三重區"
"241026","480-VK","2019/07/22 16:39:22","新北市三重區福德南路56號","121.503146666667","25.0618183333333","6500200","三重區"
"241014","543-UM","2019/07/22 16:39:16","新北市三重區長安街120號","121.502925","25.0679133333333","6500200","三重區"
"241023","545-UM","2019/07/22 16:39:13","新北市三重區洛陽街45巷34號","121.482758333333","25.0643266666667","6500200","三重區"
"241001","547-UM","2019/07/22 16:39:14","新北市三重區仁政街86巷11號","121.491945","25.0774816666667","6500200","三重區"
"241019","KEA-2593","2019/07/22 16:39:20","新北市三重區安慶街287號","121.488993333333","25.0672533333333","6500200","三重區"
"241006","AAD-863","2019/07/22 16:39:11","新北市三重區力行路二段121號","121.483013333333","25.0766083333333","6500200","三重區"
"241022","KED-0820","2019/07/22 16:39:24","新北市三重區貴陽街18-1號","121.484236666667","25.0619133333333","6500200","三重區"
"241008","887-TS","2019/07/22 16:39:17","新北市三重區永安北路一段27巷53號","121.47788","25.0754333333333","6500200","三重區"
"241012","941-UM","2019/07/22 16:39:16","新北市三重區仁興街4巷12號","121.499598333333","25.0737016666667","6500200","三重區"
"241029","942-UM","2019/07/22 16:39:17","新北市三重區集美街212號","121.490676666667","25.05446","6500200","三重區"
"241033","AAC-255","2019/07/22 16:39:13","新北市三重區光復路二段117-1號","121.472178333333","25.0587166666667","6500200","三重區"
"235064","005-UY","2019/07/22 16:27:15","","121.484995","24.9912733333333","6500300","中和區"
"235062","911-UM","2019/07/22 16:35:44","新北市中和區員山路36巷16-3號","121.48512","24.9914283333333","6500300","中和區"
"228002","663-BX","2019/07/22 16:39:06","新北市貢寮區貢寮里朝陽街1-2號","121.912338333333","25.0212766666667","6502600","貢寮區"
"224007","285-BY","2019/07/22 16:39:29","新北市瑞芳區瑞竹路122號","121.761961666667","25.10397","6501200","瑞芳區"
"224009","275-VK","2019/07/22 16:19:27","新北市瑞芳區逢甲路17號","121.809373333333","25.1083866666667","6501200","瑞芳區"
"224005","271-BY","2019/07/22 16:39:23","新北市瑞芳區明里路75號","121.862746666667","25.12314","6501200","瑞芳區"
"227001","642-TC","2019/07/22 16:39:25","新北市雙溪區牡丹里聖南1-1號","121.860623333333","25.0500366666667","6502500","雙溪區"
"227002","400-TW","2019/07/22 16:39:10","新北市雙溪區長源里內柑腳18號","121.802105","25.0147066666667","6502500","雙溪區"
"251015","KEA-2871","2019/07/22 16:39:13","新北市淡水區水源街一段75號","121.444701666667","25.1723483333333","6501000","淡水區"
"251016","179-VK","2019/07/22 16:39:07","新北市淡水區淡金路一段571號","121.452838333333","25.18068","6501000","淡水區"
"251008","181-VK","2019/07/22 16:39:19","新北市淡水區大同路113巷6號","121.463361666667","25.1417516666667","6501000","淡水區"
"251013","182-VK","2019/07/22 16:39:22","新北市淡水區大溪8號","121.49568","25.1903483333333","6501000","淡水區"
"251014","577-R6","2019/07/22 16:39:24","新北市淡水區淡金路四段478號","121.452438333333","25.2239333333333","6501000","淡水區"
"252002","178-VK","2019/07/22 16:39:26","新北市三芝區芝柏路32號","121.510271666667","25.2581766666667","6502100","三芝區"
"247010","KED-0683","2019/07/22 16:39:22","新北市五股區中興路三段163號","121.449133333333","25.0806833333333","6501400","蘆洲區"
"252001","KED-0821","2019/07/22 16:39:17","新北市三芝區茂長里陳厝坑3-5號","121.5105","25.2642216666667","6502100","三芝區"
"238023","601-UM","2019/07/22 16:39:28","新北市樹林區中山路三段128號","121.392131666667","24.9721866666667","6500700","樹林區"
"238025","303-VK","2019/07/22 16:39:27","新北市樹林區中正路22-1號","121.427785","24.999365","6500700","樹林區"
"238001","282-BY","2019/07/22 16:39:22","新北市樹林區大慶街99-1號","121.42783","24.999815","6500700","樹林區"
