"lineid","car","time","location","longitude","latitude","cityid","cityname"
"249005","172-UM","2019/07/22 16:59:12","新北市八里區渡船頭4號","121.433771666667","25.1515566666667","6502300","八里區"
"249001","173-UM","2019/07/22 16:59:09","新北市八里區中山路三段106號","121.391528333333","25.1425366666667","6502300","八里區"
"249004","303-UY","2019/07/22 16:59:25","新北市八里區忠孝路439號","121.41374","25.1618183333333","6502300","八里區"
"249002","305-UY","2019/07/22 16:59:17","新北市八里區牛寮埔21號","121.432198333333","25.1431983333333","6502300","八里區"
"249003","759-BX","2019/07/22 16:59:21","新北市八里區中山路二段283號","121.401653333333","25.1486033333333","6502300","八里區"
"244007","402-UM","2019/07/22 16:59:18","新北市林口區中湖43-5號","121.381795","25.0923733333333","6501700","林口區"
"244023","483-VK","2019/07/22 16:59:07","新北市林口區粉寮路二段221號","121.404168333333","25.09046","6501700","林口區"
"244009","656-BX","2019/07/22 16:59:25","新北市林口區粉寮路二段16號","121.402303333333","25.0858833333333","6501700","林口區"
"244025","837-TS","2019/07/22 16:59:18","新北市林口區粉寮路二段221號","121.404183333333","25.0905033333333","6501700","林口區"
"244021","838-TS","2019/07/22 16:59:18","新北市林口區粉寮32號","121.403245","25.086565","6501700","林口區"
"231046","719-UM","2019/07/22 16:59:08","新北市新店區灣潭路29-5號","121.539626666667","24.9386883333333","6500600","新店區"
"241011","013-R5","2019/07/22 16:59:22","新北市三重區龍門路173號","121.499081666667","25.0730666666667","6500200","三重區"
"241028","022-UY","2019/07/22 16:59:11","新北市三重區重新路三段130號","121.491728333333","25.06001","6500200","三重區"
"241018","060-VK","2019/07/22 16:59:18","新北市三重區六張街126巷29號","121.492561666667","25.0684216666667","6500200","三重區"
"241031","061-VK","2019/07/22 16:59:17","新北市三重區三寧街22號","121.48948","25.0600366666667","6500200","三重區"
"241015","062-VK","2019/07/22 16:59:08","新北市三重區福德北路82號","121.501651666667","25.066325","6500200","三重區"
"241017","063-VK","2019/07/22 16:59:14","新北市三重區國隆路21號","121.492818333333","25.0641333333333","6500200","三重區"
"241024","065-VK","2019/07/22 16:59:20","新北市三重區力行路二段3號","121.482123333333","25.071915","6500200","三重區"
"241002","090-VK","2019/07/22 16:59:08","新北市三重區仁義街101巷8號","121.498276666667","25.0800733333333","6500200","三重區"
"241003","091-VK","2019/07/22 16:59:27","新北市三重區碧華街353號","121.492085","25.085055","6500200","三重區"
"241030","742-BX","2019/07/22 16:59:08","新北市三重區昌隆街62號","121.491288333333","25.0510416666667","6500200","三重區"
"241005","262-UM","2019/07/22 16:59:22","新北市三重區仁華街73號","121.485308333333","25.0829166666667","6500200","三重區"
"241016","266-UM","2019/07/22 16:59:28","新北市三重區大同北路64號","121.494266666667","25.06398","6500200","三重區"
"241009","267-UM","2019/07/22 16:59:29","新北市三重區仁美街107號","121.485805","25.0808133333333","6500200","三重區"
"241032","269-UM","2019/07/22 16:59:13","新北市三重區新北大道一段35巷20號","121.485943333333","25.0606366666667","6500200","三重區"
"241013","270-UM","2019/07/22 16:59:24","新北市三重區公園街32號","121.498153333333","25.0742566666667","6500200","三重區"
"241025","271-UM","2019/07/22 16:59:11","新北市三重區中正北路508巷9號","121.472666666667","25.0711833333333","6500200","三重區"
"241007","398-BY","2019/07/22 16:59:18","新北市三重區慈愛街147號","121.489375","25.0795616666667","6500200","三重區"
"241004","475-VK","2019/07/22 16:59:07","新北市三重區五華街104巷1號","121.49241","25.0825","6500200","三重區"
"241020","478-VK","2019/07/22 16:59:15","新北市三重區後竹圍街175巷27號","121.48555","25.072935","6500200","三重區"
"241026","480-VK","2019/07/22 16:59:22","新北市三重區光興街1號","121.500296666667","25.0602333333333","6500200","三重區"
"241014","543-UM","2019/07/22 16:59:16","新北市三重區介壽路32號","121.500921666667","25.0706133333333","6500200","三重區"
"241023","545-UM","2019/07/22 16:59:13","新北市三重區中華路48號","121.483446666667","25.06152","6500200","三重區"
"241001","547-UM","2019/07/22 16:59:23","新北市三重區仁愛街245巷12號","121.49385","25.0782","6500200","三重區"
"241019","KEA-2593","2019/07/22 16:59:20","新北市三重區自強路二段74巷11號","121.488146666667","25.0700633333333","6500200","三重區"
"241006","AAD-863","2019/07/22 16:59:11","新北市三重區車路頭街143巷2號","121.483975","25.0766183333333","6500200","三重區"
"241022","KED-0820","2019/07/22 16:59:24","新北市三重區中華路125號","121.483631666667","25.0639366666667","6500200","三重區"
"241008","887-TS","2019/07/22 16:59:17","新北市三重區永安北路一段3巷22號","121.476951666667","25.0745","6500200","三重區"
"241012","941-UM","2019/07/22 16:59:16","新北市三重區仁和街183號","121.500211666667","25.0748216666667","6500200","三重區"
"241029","942-UM","2019/07/22 16:59:17","新北市三重區光明路122號","121.492775","25.05594","6500200","三重區"
"241033","AAC-255","2019/07/22 16:59:13","新北市三重區中興北街271號","121.469113333333","25.0606416666667","6500200","三重區"
"247014","KEA-2869","2019/07/22 16:59:25","新北市蘆洲區三民路17號","121.475776666667","25.0823716666667","6501400","蘆洲區"
"247008","KED-0682","2019/07/22 16:59:14","新北市蘆洲區信義路57號","121.475071666667","25.0797866666667","6501400","蘆洲區"
"235062","911-UM","2019/07/22 16:59:23","新北市中和區員山路36巷16-2號","121.485168333333","24.9915016666667","6500300","中和區"
"247004","893-R6","2019/07/22 16:59:23","新北市蘆洲區長安街110號","121.461008333333","25.08147","6501400","蘆洲區"
"247018","546-UM","2019/07/22 16:59:26","新北市蘆洲區民族路227巷18號","121.476893333333","25.0892466666667","6501400","蘆洲區"
"247024","337-TH","2019/07/22 16:59:21","新北市蘆洲區長興路255號","121.46042","25.08775","6501400","蘆洲區"
"247022","057-VK","2019/07/22 16:59:20","新北市蘆洲區三民路128巷166-1號","121.468371666667","25.09256","6501400","蘆洲區"
"247012","056-VK","2019/07/22 16:59:29","新北市蘆洲區信義路347號","121.477745","25.0873283333333","6501400","蘆洲區"
"247016","053-VK","2019/07/22 16:59:24","新北市蘆洲區正和街20號","121.47001","25.0824166666667","6501400","蘆洲區"
"247020","007-UY","2019/07/22 16:59:16","新北市蘆洲區民族路422巷82弄14號","121.47387","25.0937866666667","6501400","蘆洲區"
"247006","002-UY","2019/07/22 16:59:29","新北市蘆洲區長安街99巷31號","121.460691666667","25.0797266666667","6501400","蘆洲區"
"228003","097-TW","2019/07/22 16:59:08","新北市貢寮區福隆里興隆街13-5號","121.944226666667","25.016555","6502600","貢寮區"
"228002","663-BX","2019/07/22 16:59:26","新北市貢寮區貢寮里朝陽街142號","121.905173333333","25.0233783333333","6502600","貢寮區"
"228001","670-TC","2019/07/22 16:59:26","新北市貢寮區貢寮里朝陽街1-2號","121.912348333333","25.0213016666667","6502600","貢寮區"
"224006","676-BX","2019/07/22 16:59:21","新北市瑞芳區大寮路356-1號","121.785051666667","25.1032416666667","6501200","瑞芳區"
"224007","285-BY","2019/07/22 16:59:24","新北市瑞芳區瑞竹路8號","121.765281666667","25.103225","6501200","瑞芳區"
"224009","275-VK","2019/07/22 16:59:15","新北市瑞芳區明燈路一段1號","121.82658","25.1093666666667","6501200","瑞芳區"
"224008","273-VK","2019/07/22 16:59:08","新北市瑞芳區明燈路二段45號","121.810871666667","25.1078516666667","6501200","瑞芳區"
"224005","271-BY","2019/07/22 16:59:23","新北市瑞芳區南雅路41-2號","121.888005","25.12048","6501200","瑞芳區"
"227001","642-TC","2019/07/22 16:59:25","新北市雙溪區三貂里十三層5-3號","121.85233","25.07674","6502500","雙溪區"
"227002","400-TW","2019/07/22 16:59:10","新北市雙溪區上林里內平林107號","121.826733333333","25.0271166666667","6502500","雙溪區"
"251004","009-UM","2019/07/22 16:59:20","新北市淡水區中正路342號","121.434956666667","25.1737016666667","6501000","淡水區"
"251015","KEA-2871","2019/07/22 16:59:13","新北市淡水區忠愛街5-2號","121.460696666667","25.171535","6501000","淡水區"
"251016","179-VK","2019/07/22 16:59:07","新北市淡水區瓦坑3號","121.477541666667","25.1808033333333","6501000","淡水區"
"251007","180-VK","2019/07/22 16:59:28","新北市淡水區中正東路二段37號","121.459115","25.1563416666667","6501000","淡水區"
"251008","181-VK","2019/07/22 16:59:19","新北市淡水區樹梅坑9號","121.472848333333","25.1427166666667","6501000","淡水區"
"251013","182-VK","2019/07/22 16:59:22","新北市淡水區泉洲厝32號","121.489265","25.1926083333333","6501000","淡水區"
"251012","441-VK","2019/07/22 16:59:20","新北市淡水區沙崙路200號","121.424653333333","25.1839283333333","6501000","淡水區"
"251005","443-VK","2019/07/22 16:59:10","新北市淡水區中正路一段87巷1號","121.421551666667","25.1793866666667","6501000","淡水區"
"251006","561-UM","2019/07/22 16:59:24","新北市淡水區中正路一段8巷1弄11號","121.427871666667","25.1756883333333","6501000","淡水區"
"251014","577-R6","2019/07/22 16:59:24","新北市淡水區淡金路四段478號","121.452455","25.2239166666667","6501000","淡水區"
"251011","650-BX","2019/07/22 16:59:23","新北市淡水區淡金路39號","121.456045","25.160745","6501000","淡水區"
"252002","178-VK","2019/07/22 16:59:05","新北市三芝區忠孝街148-1號","121.506125","25.2583216666667","6502100","三芝區"
"247010","KED-0683","2019/07/22 16:59:22","新北市蘆洲區信義路170號","121.479368333333","25.0838783333333","6501400","蘆洲區"
"252001","KED-0821","2019/07/22 16:59:17","新北市三芝區淡金路二段89號","121.504008333333","25.2607083333333","6502100","三芝區"
"242002","751-BX","2019/07/22 16:59:22","新北市新莊區新泰路255巷83號","121.442215","25.0387833333333","6500500","新莊區"
"242058","612-BX","2019/07/22 16:59:14","新北市新莊區新泰路357巷3弄57號","121.442236666667","25.03928","6500500","新莊區"
"242046","566-BX","2019/07/22 16:59:16","新北市新莊區三和路12-21號","121.44242","25.03831","6500500","新莊區"
"242050","497-BY","2019/07/22 16:59:09","新北市新莊區新泰路357巷3弄57號","121.44231","25.0395483333333","6500500","新莊區"
"242011","442-UM","2019/07/22 16:59:10","新北市新莊區三和路12-21號","121.442028333333","25.0388383333333","6500500","新莊區"
"242048","400-BY","2019/07/22 16:58:56","新北市新莊區新泰路357巷3弄57號","121.442291666667","25.0396683333333","6500500","新莊區"
"242023","353-BY","2019/07/22 16:59:24","新北市新莊區新泰路357巷3弄57號","121.442105","25.0391683333333","6500500","新莊區"
"242053","172-VK","2019/07/22 16:59:15","新北市新莊區三和路12-21號","121.441988333333","25.03872","6500500","新莊區"
"242019","KED-0687","2019/07/22 16:59:25","新北市新莊區三和路12-21號","121.442273333333","25.038085","6500500","新莊區"
"242007","349-TH","2019/07/22 16:59:24","新北市新莊區三和路12-21號","121.442255","25.0382883333333","6500500","新莊區"
"238023","601-UM","2019/07/22 16:59:08","新北市樹林區中正路433-1號","121.414878333333","25.0078933333333","6500700","樹林區"
"238018","KEA-2217","2019/07/22 16:59:17","新北市樹林區八德街634號","121.39711","24.9692","6500700","樹林區"
"238022","KEA-2213","2019/07/22 16:43:15","新北市樹林區八德街263-1號","121.419223333333","24.9738","6500700","樹林區"
"238025","303-VK","2019/07/22 16:59:07","新北市樹林區中正路22-1號","121.427978333333","24.999505","6500700","樹林區"
"238017","283-BY","2019/07/22 16:59:15","新北市樹林區中正路433-1號","121.41469","25.0080383333333","6500700","樹林區"
"238001","282-BY","2019/07/22 16:59:22","新北市樹林區中正路22-1號","121.427808333333","24.9996833333333","6500700","樹林區"
"239007","AAC-297","2019/07/22 16:59:14","新北市鶯歌區二甲路13-16號","121.344971666667","24.935245","6500800","鶯歌區"
"239008","527-UM","2019/07/22 16:59:10","新北市鶯歌區二甲路13-16號","121.345085","24.9351766666667","6500800","鶯歌區"
"239001","417-VK","2019/07/22 16:59:21","新北市鶯歌區二甲路12-2號","121.345676666667","24.935125","6500800","鶯歌區"
"239004","193-VK","2019/07/22 16:59:12","新北市鶯歌區二甲路13-16號","121.345015","24.9351133333333","6500800","鶯歌區"
"244019","KED-0667","2019/07/22 16:59:14","新北市林口區粉寮路二段14號","121.401496666667","25.0851916666667","6501700","林口區"
"233002","KEA-2870","2019/07/22 16:59:26","新北市烏來區啦卡路3號","121.553421666667","24.8638383333333","6502900","烏來區"
"233001","KEC-0709","2019/07/22 16:59:19","新北市烏來區環山路18號","121.549143333333","24.8681333333333","6502900","烏來區"
"242009","280-VK","2019/07/22 16:59:15","新北市新莊區三和路12-21號","121.442016666667","25.038135","6500500","新莊區"
