"lineid","car","time","location","longitude","latitude","cityid","cityname"
"249005","172-UM","2019/07/22 17:29:12","新北市八里區荖阡坑路67號","121.405476666667","25.1285783333333","6502300","八里區"
"249001","173-UM","2019/07/22 17:29:09","新北市八里區中華路一段3號","121.42303","25.1585116666667","6502300","八里區"
"249004","303-UY","2019/07/22 17:29:25","新北市八里區民治街173號","121.41337","25.1567933333333","6502300","八里區"
"249002","305-UY","2019/07/22 17:29:17","新北市八里區龍米路二段65巷15弄12號","121.447441666667","25.140065","6502300","八里區"
"249003","759-BX","2019/07/22 17:29:21","新北市八里區中山路二段398號","121.400623333333","25.14783","6502300","八里區"
"232011","375-UM","2019/07/22 17:29:27","新北市坪林區鶯子瀨1-2號","121.710103333333","24.9177883333333","6502000","坪林區"
"244007","402-UM","2019/07/22 17:29:18","新北市林口區中湖48-8號","121.38321","25.0927183333333","6501700","林口區"
"244013","KEA-2802","2019/07/22 17:29:12","新北市林口區中正路446號","121.383431666667","25.077835","6501700","林口區"
"244023","483-VK","2019/07/22 17:29:27","新北市林口區東明一街35巷6號","121.392441666667","25.07191","6501700","林口區"
"244017","485-VK","2019/07/22 17:29:26","新北市林口區文化一路一段133號","121.374008333333","25.0718016666667","6501700","林口區"
"244009","656-BX","2019/07/22 17:29:25","新北市林口區中北三街326號","121.382956666667","25.0838216666667","6501700","林口區"
"244011","701-TV","2019/07/22 17:29:24","新北市林口區仁愛路一段410號","121.386636666667","25.07668","6501700","林口區"
"244025","837-TS","2019/07/22 17:29:18","新北市林口區文化二路一段241巷26號","121.366245","25.0717116666667","6501700","林口區"
"244021","838-TS","2019/07/22 17:29:18","新北市林口區粉寮路23號","121.400318333333","25.082895","6501700","林口區"
"231046","719-UM","2019/07/22 17:16:49","新北市新店區直潭七街60號","121.53223","24.9400083333333","6500600","新店區"
"241011","013-R5","2019/07/22 17:29:22","新北市三重區河邊北街124巷51號","121.502595","25.0711783333333","6500200","三重區"
"241018","060-VK","2019/07/22 17:29:18","新北市三重區自強路一段183號","121.492455","25.06813","6500200","三重區"
"241015","062-VK","2019/07/22 17:29:08","新北市三重區長元街79號","121.503405","25.0667683333333","6500200","三重區"
"241017","063-VK","2019/07/22 17:29:14","新北市三重區中正北路17號","121.492805","25.0618016666667","6500200","三重區"
"241024","065-VK","2019/07/22 17:29:20","新北市三重區中正北路191巷3弄18號","121.47838","25.069625","6500200","三重區"
"241003","091-VK","2019/07/22 17:29:27","新北市三重區碧華街400號","121.49173","25.0848466666667","6500200","三重區"
"241030","742-BX","2019/07/22 17:29:08","新北市三重區集美街196號","121.490841666667","25.0535433333333","6500200","三重區"
"241005","262-UM","2019/07/22 17:29:22","新北市三重區永安北路二段33號","121.482353333333","25.0822","6500200","三重區"
"241016","266-UM","2019/07/22 17:29:27","新北市三重區大同北路71號","121.495251666667","25.0637416666667","6500200","三重區"
"241009","267-UM","2019/07/22 17:29:09","新北市三重區車路頭街135-1號","121.4843","25.0760916666667","6500200","三重區"
"241032","269-UM","2019/07/22 17:29:13","新北市三重區名源街44號","121.482415","25.0595166666667","6500200","三重區"
"241013","270-UM","2019/07/22 17:29:24","新北市三重區仁愛街124號","121.494811666667","25.0749033333333","6500200","三重區"
"241025","271-UM","2019/07/22 17:29:11","新北市三重區中正北路430號","121.474683333333","25.0710433333333","6500200","三重區"
"241007","398-BY","2019/07/22 17:29:18","新北市三重區三和路四段145巷183號","121.488148333333","25.07938","6500200","三重區"
"241020","478-VK","2019/07/22 17:29:15","新北市三重區忠孝路二段51號","121.48549","25.0708366666667","6500200","三重區"
"241014","543-UM","2019/07/22 17:29:16","新北市三重區安和路13號","121.501311666667","25.0684083333333","6500200","三重區"
"241023","545-UM","2019/07/22 17:29:13","新北市三重區忠孝路三段84巷47號","121.481268333333","25.0643133333333","6500200","三重區"
"241019","KEA-2593","2019/07/22 17:29:20","新北市三重區六張街156號","121.48948","25.0687866666667","6500200","三重區"
"241012","941-UM","2019/07/22 17:29:16","新北市三重區仁興街28巷42號","121.498451666667","25.0748866666667","6500200","三重區"
"241033","AAC-255","2019/07/22 17:29:13","新北市三重區中興北街80號","121.468966666667","25.0531716666667","6500200","三重區"
"235064","005-UY","2019/07/22 17:29:23","新北市中和區員山路36巷16-3號","121.485023333333","24.9914066666667","6500300","中和區"
"247014","KEA-2869","2019/07/22 17:29:25","新北市蘆洲區三民路38-1號","121.4755","25.08302","6501400","蘆洲區"
"247008","KED-0682","2019/07/22 17:29:22","新北市蘆洲區民生街56號","121.473693333333","25.0787233333333","6501400","蘆洲區"
"247004","893-R6","2019/07/22 17:29:20","新北市蘆洲區長安街229號","121.459388333333","25.0827033333333","6501400","蘆洲區"
"247018","546-UM","2019/07/22 17:29:26","新北市蘆洲區民權路103號","121.47266","25.089175","6501400","蘆洲區"
"247002","500-BY","2019/07/22 17:29:24","新北市蘆洲區永樂街38巷57弄10-1號","121.457863333333","25.0903616666667","6501400","蘆洲區"
"247024","337-TH","2019/07/22 17:29:21","新北市蘆洲區長興路296-7號","121.460405","25.08999","6501400","蘆洲區"
"247022","057-VK","2019/07/22 17:29:20","新北市蘆洲區三民路339號","121.465233333333","25.0908866666667","6501400","蘆洲區"
"247012","056-VK","2019/07/22 17:29:21","新北市蘆洲區三民路54號","121.475508333333","25.083785","6501400","蘆洲區"
"247016","053-VK","2019/07/22 17:29:24","新北市蘆洲區光華路22巷44號","121.468206666667","25.0849033333333","6501400","蘆洲區"
"247020","007-UY","2019/07/22 17:29:16","新北市蘆洲區水湳街132號","121.46992","25.09361","6501400","蘆洲區"
"247006","002-UY","2019/07/22 17:29:09","新北市蘆洲區長安街68巷24號","121.464056666667","25.0809916666667","6501400","蘆洲區"
"228003","097-TW","2019/07/22 17:29:08","新北市貢寮區仁理村研海街62號","121.929516666667","25.03399","6502600","貢寮區"
"228002","663-BX","2019/07/22 17:29:26","新北市貢寮區雙玉里田寮洋街35號","121.928391666667","25.0172166666667","6502600","貢寮區"
"228001","670-TC","2019/07/22 17:29:06","新北市貢寮區仁理村仁愛路46號","121.925243333333","25.0533116666667","6502600","貢寮區"
"224010","AGQ-8101","2019/07/22 17:29:09","新北市瑞芳區逢甲路15號","121.809798333333","25.1086883333333","6501200","瑞芳區"
"224006","676-BX","2019/07/22 17:29:21","新北市瑞芳區傑魚坑路93號","121.792518333333","25.1104166666667","6501200","瑞芳區"
"224009","275-VK","2019/07/22 17:29:15","新北市瑞芳區輕便路214號","121.844741666667","25.110305","6501200","瑞芳區"
"224008","273-VK","2019/07/22 17:29:28","新北市瑞芳區侯硐路300號","121.832245","25.0897116666667","6501200","瑞芳區"
"224005","271-BY","2019/07/22 17:29:23","新北市瑞芳區洞頂路295號","121.859261666667","25.1236516666667","6501200","瑞芳區"
"227001","642-TC","2019/07/22 17:19:26","新北市雙溪區三貂里政光路3-1號","121.850775","25.0633916666667","6502500","雙溪區"
"227002","400-TW","2019/07/22 17:29:10","新北市雙溪區共和里東榮街52號","121.866316666667","25.0336583333333","6502500","雙溪區"
"251009","008-UM","2019/07/22 17:29:08","新北市淡水區建設街6號","121.43903","25.17251","6501000","淡水區"
"251004","009-UM","2019/07/22 17:13:40","新北市淡水區中正東路二段88巷15號","121.459045","25.1505133333333","6501000","淡水區"
"251002","012-UM","2019/07/22 17:29:11","新北市淡水區中正路一段156巷1號","121.421041666667","25.179695","6501000","淡水區"
"251015","KEA-2871","2019/07/22 17:29:13","新北市淡水區三空泉16-10號","121.471033333333","25.1651133333333","6501000","淡水區"
"251016","179-VK","2019/07/22 17:29:27","新北市淡水區埤島74號","121.45465","25.19349","6501000","淡水區"
"251007","180-VK","2019/07/22 17:29:28","新北市淡水區民生路60號","121.46208","25.1379533333333","6501000","淡水區"
"251008","181-VK","2019/07/22 17:29:19","新北市淡水區大同路118號","121.462768333333","25.1402866666667","6501000","淡水區"
"251013","182-VK","2019/07/22 17:29:22","新北市淡水區大竹圍5號","121.466573333333","25.19521","6501000","淡水區"
"251010","413-VK","2019/07/22 17:29:21","新北市淡水區中正路二段211號","121.426208333333","25.18909","6501000","淡水區"
"251012","441-VK","2019/07/22 17:29:20","新北市淡水區北新路98號","121.447261666667","25.1784316666667","6501000","淡水區"
"251005","443-VK","2019/07/22 17:29:10","新北市淡水區鄧公路31巷1號","121.451281666667","25.1708783333333","6501000","淡水區"
"251006","561-UM","2019/07/22 17:29:24","新北市淡水區大仁街13號","121.442341666667","25.1750083333333","6501000","淡水區"
"251014","577-R6","2019/07/22 17:29:04","新北市淡水區公埔子20-6號","121.470915","25.22684","6501000","淡水區"
"251011","650-BX","2019/07/22 17:29:23","新北市淡水區三空泉8-1號","121.47591","25.16124","6501000","淡水區"
"251003","766-UM","2019/07/22 17:29:22","新北市淡水區中山路157號","121.440741666667","25.1728816666667","6501000","淡水區"
"207003","550-UM","2019/07/22 17:29:17","新北市萬里區龜吼里美崙路95號","121.684908333333","25.1851566666667","6502800","萬里區"
"207004","225-TW","2019/07/22 17:29:28","新北市萬里區萬里里成功新村67號","121.68859","25.1745983333333","6502800","萬里區"
"252002","178-VK","2019/07/22 17:29:26","新北市三芝區忠孝街1-14號","121.505375","25.2539516666667","6502100","三芝區"
"247010","KED-0683","2019/07/22 17:29:22","新北市蘆洲區中山一路120巷36號","121.478276666667","25.0820583333333","6501400","蘆洲區"
"252001","KED-0821","2019/07/22 17:29:17","新北市三芝區長安街119號","121.498026666667","25.2596516666667","6502100","三芝區"
"242039","AAC-296","2019/07/22 17:29:17","新北市新莊區民安路280號","121.427766666667","25.0215433333333","6500500","新莊區"
"242060","986-R7","2019/07/22 17:29:17","新北市新莊區瓊林路176-1號","121.440633333333","25.02258","6500500","新莊區"
"242002","751-BX","2019/07/22 17:29:22","新北市新莊區碧江街11號","121.455851666667","25.0349","6500500","新莊區"
"242029","615-BX","2019/07/22 17:29:24","新北市新莊區復興路二段178號","121.4588","25.0443833333333","6500500","新莊區"
"242027","613-BX","2019/07/22 17:29:15","新北市新莊區思源路28號","121.460311666667","25.0403383333333","6500500","新莊區"
"242058","612-BX","2019/07/22 17:29:14","新北市新莊區中正路400號","121.441955","25.03425","6500500","新莊區"
"242046","566-BX","2019/07/22 17:29:16","新北市新莊區新樹路65-7號","121.439358333333","25.0307816666667","6500500","新莊區"
"242050","497-BY","2019/07/22 17:29:09","新北市新莊區新樹路453號","121.432721666667","25.0134233333333","6500500","新莊區"
"242011","442-UM","2019/07/22 17:29:10","新北市新莊區中港路469號","121.452413333333","25.0490533333333","6500500","新莊區"
"242056","441-UM","2019/07/22 17:29:21","新北市新莊區新泰路34號","121.449625","25.03405","6500500","新莊區"
"242004","440-UM","2019/07/22 17:29:26","新北市新莊區中港路286號","121.452936666667","25.04431","6500500","新莊區"
"242042","415-TV","2019/07/22 17:29:11","新北市新莊區新樹路113巷33號","121.439553333333","25.0264483333333","6500500","新莊區"
"242048","400-BY","2019/07/22 17:29:16","新北市新莊區龍安路256號","121.421375","25.0195383333333","6500500","新莊區"
"242025","362-BY","2019/07/22 17:29:18","新北市新莊區復興路一段222號","121.453096666667","25.0438633333333","6500500","新莊區"
"242023","353-BY","2019/07/22 17:29:24","新北市新莊區公園路150號","121.453146666667","25.0401316666667","6500500","新莊區"
"242013","132-UY","2019/07/22 17:29:09","新北市新莊區中誠街16巷2號","121.452106666667","25.04833","6500500","新莊區"
"242036","135-UY","2019/07/22 17:29:10","新北市新莊區後港一路232號","121.434795","25.0279683333333","6500500","新莊區"
"242053","172-VK","2019/07/22 17:29:15","新北市新莊區環河路48-1號","121.436305","25.0083966666667","6500500","新莊區"
"242015","173-VK","2019/07/22 17:29:14","新北市新莊區新泰路157號","121.447665","25.0368783333333","6500500","新莊區"
"242021","175-VK","2019/07/22 17:29:22","新北市新莊區中正路130號","121.452856666667","25.0362316666667","6500500","新莊區"
"242019","KED-0687","2019/07/22 17:29:27","新北市新莊區中港路60號","121.455458333333","25.0387166666667","6500500","新莊區"
"242034","348-TH","2019/07/22 17:29:22","新北市新莊區瓊林路13-8號","121.448141666667","25.0302483333333","6500500","新莊區"
"242007","349-TH","2019/07/22 17:29:24","新北市新莊區自強街5號","121.454725","25.0456616666667","6500500","新莊區"
"242031","350-TH","2019/07/22 17:29:25","新北市新莊區新泰路466號","121.443366666667","25.0450266666667","6500500","新莊區"
"242017","351-TH","2019/07/22 17:29:10","新北市新莊區中華路一段103號","121.452731666667","25.0439266666667","6500500","新莊區"
"238015","755-BX","2019/07/22 17:29:16","新北市樹林區復興路1號","121.422968333333","24.9950133333333","6500700","樹林區"
"238023","601-UM","2019/07/22 17:29:08","新北市樹林區三福街114號","121.40651","25.0163966666667","6500700","樹林區"
"238019","599-UM","2019/07/22 17:29:18","新北市樹林區八德街98號","121.420851666667","24.9801966666667","6500700","樹林區"
"238024","5061-A6","2019/07/22 17:29:15","新北市樹林區鎮前街158號","121.424455","24.99017","6500700","樹林區"
"238018","KEA-2217","2019/07/22 17:29:17","新北市樹林區博愛街196號","121.424696666667","24.9895883333333","6500700","樹林區"
"238022","KEA-2213","2019/07/22 17:29:20","新北市樹林區和平街6巷2號","121.421431666667","24.9812833333333","6500700","樹林區"
"238021","KEA-2539","2019/07/22 17:29:23","新北市樹林區西圳街一段203巷10-1號","121.392765","24.9607616666667","6500700","樹林區"
"238025","303-VK","2019/07/22 17:29:10","新北市樹林區保安街二段136號","121.41335","25.0042233333333","6500700","樹林區"
"238017","283-BY","2019/07/22 17:29:15","新北市樹林區三德街8號","121.413295","25.0128466666667","6500700","樹林區"
"238001","282-BY","2019/07/22 17:29:22","新北市樹林區保安街一段294巷3號","121.419226666667","24.9975216666667","6500700","樹林區"
"238020","268-VK","2019/07/22 17:29:15","新北市樹林區千歲街101-2號","121.428518333333","25.000895","6500700","樹林區"
"238026","172-UY","2019/07/22 17:29:10","新北市樹林區味王街14號","121.403008333333","24.9760533333333","6500700","樹林區"
"238016","169-UY","2019/07/22 17:29:22","新北市樹林區長壽街2巷5號","121.424016666667","24.993555","6500700","樹林區"
"239007","AAC-297","2019/07/22 17:29:14","新北市鶯歌區中正一路222巷21號","121.354548333333","24.956485","6500800","鶯歌區"
"239006","891-R6","2019/07/22 17:29:13","新北市鶯歌區鳳鳴路45號","121.333393333333","24.9654783333333","6500800","鶯歌區"
"239008","527-UM","2019/07/22 17:29:17","新北市鶯歌區大湖路532號","121.337373333333","24.9725383333333","6500800","鶯歌區"
"239005","526-UM","2019/07/22 17:29:13","新北市鶯歌區鶯桃路二段11號","121.325791666667","24.97184","6500800","鶯歌區"
"239001","417-VK","2019/07/22 17:29:21","新北市鶯歌區中正三路96號","121.33818","24.9409883333333","6500800","鶯歌區"
"239003","360-BY","2019/07/22 17:29:11","新北市鶯歌區德昌街201號","121.330045","24.960265","6500800","鶯歌區"
"239002","359-BY","2019/07/22 17:29:24","新北市鶯歌區南雅路394號","121.348125","24.9540766666667","6500800","鶯歌區"
"239004","193-VK","2019/07/22 17:29:12","新北市鶯歌區文化路417-5號","121.352868333333","24.9488383333333","6500800","鶯歌區"
"244019","KED-0667","2019/07/22 17:29:22","新北市林口區忠孝路403號","121.370115","25.0709533333333","6501700","林口區"
"233002","KEA-2870","2019/07/22 17:29:06","新北市烏來區環山路82巷31號","121.548111666667","24.86313","6502900","烏來區"
"233001","KEC-0709","2019/07/22 17:29:15","新北市烏來區瀑布路1-5號","121.551783333333","24.84937","6502900","烏來區"
"242044","281-VK","2019/07/22 17:29:26","新北市新莊區富國路89號","121.420585","25.02575","6500500","新莊區"
"242009","280-VK","2019/07/22 17:29:15","新北市新莊區中華路二段258巷25號","121.453228333333","25.05445","6500500","新莊區"
"235061","KEA-2875","2019/07/22 17:25:13","新北市中和區員山路36巷16-2號","121.485258333333","24.9916516666667","6500300","中和區"
