"lineid","car","time","location","longitude","latitude","cityid","cityname"
"234026","9371-KE","2019/07/22 17:39:18","新北市永和區中正路700號","121.516343333333","25.0098716666667","6500400","永和區"
"249005","172-UM","2019/07/22 17:39:12","新北市八里區荖阡坑路34-1號","121.402765","25.1297433333333","6502300","八里區"
"249001","173-UM","2019/07/22 17:39:29","新北市八里區龍米路二段159-3號","121.439613333333","25.153815","6502300","八里區"
"249004","303-UY","2019/07/22 17:39:25","新北市八里區賢二街29號","121.418758333333","25.1581466666667","6502300","八里區"
"249002","305-UY","2019/07/22 17:39:17","新北市八里區坪子頂1號","121.442081666667","25.125855","6502300","八里區"
"249003","759-BX","2019/07/22 17:39:21","新北市八里區中山路二段270號","121.404951666667","25.1509866666667","6502300","八里區"
"232011","375-UM","2019/07/22 17:39:27","新北市坪林區北宜路八段99號","121.706038333333","24.9348883333333","6502000","坪林區"
"244007","402-UM","2019/07/22 17:39:18","新北市林口區林口路199號","121.387455","25.0826416666667","6501700","林口區"
"244013","KEA-2802","2019/07/22 17:39:12","新北市林口區中正路505巷4號","121.383323333333","25.0772233333333","6501700","林口區"
"244023","483-VK","2019/07/22 17:39:07","新北市林口區興林路152巷30號","121.387316666667","25.0717333333333","6501700","林口區"
"244017","485-VK","2019/07/22 17:39:26","新北市林口區忠孝路371-1號","121.368976666667","25.0720783333333","6501700","林口區"
"244009","656-BX","2019/07/22 17:39:07","新北市林口區忠孝路512號","121.384498333333","25.08327","6501700","林口區"
"244011","701-TV","2019/07/22 17:39:24","新北市林口區佳林路253號","121.3829","25.076135","6501700","林口區"
"244025","837-TS","2019/07/22 17:39:18","新北市林口區民族路10號","121.36398","25.0736083333333","6501700","林口區"
"244021","838-TS","2019/07/22 17:39:19","新北市林口區仁愛路一段36號","121.397233333333","25.0754833333333","6501700","林口區"
"222002","659-BX","2019/07/22 17:39:25","新北市深坑區深南路88巷1號","121.621203333333","25.0112383333333","6501800","深坑區"
"231046","719-UM","2019/07/22 17:16:49","新北市新店區直潭七街60號","121.53223","24.9400083333333","6500600","新店區"
"241015","062-VK","2019/07/22 17:39:08","新北市三重區三和路一段36號","121.50298","25.0652533333333","6500200","三重區"
"241017","063-VK","2019/07/22 17:39:14","新北市三重區大同北路27號","121.495385","25.0625966666667","6500200","三重區"
"241005","262-UM","2019/07/22 17:39:22","新北市三重區碧華街33號","121.484281666667","25.0812166666667","6500200","三重區"
"241016","266-UM","2019/07/22 17:39:27","新北市三重區正義北路22號","121.497498333333","25.0630366666667","6500200","三重區"
"241007","398-BY","2019/07/22 17:39:18","新北市三重區聯華街143號","121.484336666667","25.0749633333333","6500200","三重區"
"241014","543-UM","2019/07/22 17:39:19","新北市三重區長元街98巷21弄38號","121.503555","25.0679616666667","6500200","三重區"
"241023","545-UM","2019/07/22 17:39:13","新北市三重區中華路103號","121.483513333333","25.063335","6500200","三重區"
"241012","941-UM","2019/07/22 17:39:16","新北市三重區仁興街39巷79號","121.500725","25.076345","6500200","三重區"
"241033","AAC-255","2019/07/22 17:39:13","新北市三重區光復路一段138-1號","121.47179","25.05303","6500200","三重區"
"235064","005-UY","2019/07/22 17:39:23","新北市中和區員山路36巷16-3號","121.48504","24.99139","6500300","中和區"
"235063","006-UY","2019/07/22 17:39:22","新北市中和區員山路36巷16-3號","121.484953333333","24.9912133333333","6500300","中和區"
"247014","KEA-2869","2019/07/22 17:39:25","新北市蘆洲區中正路7號","121.471425","25.0818883333333","6501400","蘆洲區"
"247008","KED-0682","2019/07/22 17:39:14","新北市蘆洲區和平路15號","121.472546666667","25.07931","6501400","蘆洲區"
"247004","893-R6","2019/07/22 17:39:20","新北市蘆洲區長安街249巷40號","121.457796666667","25.0826416666667","6501400","蘆洲區"
"247018","546-UM","2019/07/22 17:39:26","新北市蘆洲區民權路61巷4弄2號","121.47356","25.0879716666667","6501400","蘆洲區"
"247002","500-BY","2019/07/22 17:39:24","新北市蘆洲區永平街32巷1號","121.458661666667","25.091035","6501400","蘆洲區"
"247024","337-TH","2019/07/22 17:39:21","新北市蘆洲區長樂路125-1號","121.462193333333","25.0880483333333","6501400","蘆洲區"
"247022","057-VK","2019/07/22 17:39:20","新北市蘆洲區民族路461號","121.467145","25.088575","6501400","蘆洲區"
"247012","056-VK","2019/07/22 17:39:09","新北市蘆洲區民權路3巷12號","121.475931666667","25.085285","6501400","蘆洲區"
"247016","053-VK","2019/07/22 17:39:24","新北市蘆洲區光華路70巷6號","121.467836666667","25.0832366666667","6501400","蘆洲區"
"247020","007-UY","2019/07/22 17:39:16","新北市蘆洲區民族路446-1號","121.472966666667","25.0920116666667","6501400","蘆洲區"
"247006","002-UY","2019/07/22 17:39:09","新北市蘆洲區長安街66號","121.462793333333","25.08019","6501400","蘆洲區"
"228003","097-TW","2019/07/22 17:39:08","新北市貢寮區仁理村仁和路148號","121.923165","25.0517566666667","6502600","貢寮區"
"228002","663-BX","2019/07/22 17:39:06","新北市貢寮區福隆里福隆街2-1號","121.945216666667","25.0158383333333","6502600","貢寮區"
"228001","670-TC","2019/07/22 17:39:26","新北市貢寮區真理里新港街26巷28-6號","121.927698333333","25.05539","6502600","貢寮區"
"224010","AGQ-8101","2019/07/22 17:39:09","新北市瑞芳區岳王路54號","121.808501666667","25.1112","6501200","瑞芳區"
"224006","676-BX","2019/07/22 17:39:21","新北市瑞芳區中山路312號","121.796995","25.110005","6501200","瑞芳區"
"224009","275-VK","2019/07/22 17:39:15","新北市瑞芳區汽車路3號","121.847401666667","25.111325","6501200","瑞芳區"
"224008","273-VK","2019/07/22 17:39:28","新北市瑞芳區瑞柑新村1-2號","121.829301666667","25.10643","6501200","瑞芳區"
"224005","271-BY","2019/07/22 17:39:23","新北市瑞芳區海濱路8-6號","121.830918333333","25.125765","6501200","瑞芳區"
"227001","642-TC","2019/07/22 17:19:26","新北市雙溪區三貂里政光路3-1號","121.850775","25.0633916666667","6502500","雙溪區"
"227002","400-TW","2019/07/22 17:39:10","新北市雙溪區共和里東榮街52號","121.866268333333","25.0336516666667","6502500","雙溪區"
"251009","008-UM","2019/07/22 17:39:08","新北市淡水區中正路173號","121.438751666667","25.1711316666667","6501000","淡水區"
"251004","009-UM","2019/07/22 17:39:18","新北市淡水區中正東路二段141號","121.459215","25.1476766666667","6501000","淡水區"
"251002","012-UM","2019/07/22 17:39:11","新北市淡水區真理街2號","121.43883","25.1729016666667","6501000","淡水區"
"251015","KEA-2871","2019/07/22 17:39:12","新北市淡水區三空泉17-2號","121.473696666667","25.1655433333333","6501000","淡水區"
"251016","179-VK","2019/07/22 17:39:07","新北市淡水區埤島39-15號","121.452726666667","25.1958483333333","6501000","淡水區"
"251007","180-VK","2019/07/22 17:39:28","新北市淡水區民族路35巷4號","121.46451","25.1371266666667","6501000","淡水區"
"251008","181-VK","2019/07/22 17:39:19","新北市淡水區中正東路二段161巷11弄10號","121.461471666667","25.1460833333333","6501000","淡水區"
"251013","182-VK","2019/07/22 17:39:22","新北市淡水區演戲埔腳3-2號","121.473248333333","25.1925666666667","6501000","淡水區"
"251010","413-VK","2019/07/22 17:39:21","新北市淡水區淡海路280巷16號","121.419843333333","25.189575","6501000","淡水區"
"251012","441-VK","2019/07/22 17:39:20","新北市淡水區北新路200巷8號","121.45168","25.17967","6501000","淡水區"
"251005","443-VK","2019/07/22 17:39:10","新北市淡水區鄧公路32巷1號","121.451413333333","25.1713133333333","6501000","淡水區"
"251006","561-UM","2019/07/22 17:39:24","新北市淡水區大信街31-3號","121.442065","25.1771333333333","6501000","淡水區"
"251014","577-R6","2019/07/22 17:39:24","新北市淡水區北勢子19-1號","121.48072","25.2268216666667","6501000","淡水區"
"251011","650-BX","2019/07/22 17:39:23","新北市淡水區坪頂路712號","121.482521666667","25.1584766666667","6501000","淡水區"
"251003","766-UM","2019/07/22 17:39:22","新北市淡水區中山北路一段33號","121.44152","25.1752083333333","6501000","淡水區"
"207003","550-UM","2019/07/22 17:39:25","新北市萬里區龜吼里漁澳路16號","121.686881666667","25.1948183333333","6502800","萬里區"
"207004","225-TW","2019/07/22 17:39:08","新北市萬里區中幅里中福路23號","121.682153333333","25.1652783333333","6502800","萬里區"
"252002","178-VK","2019/07/22 17:39:25","新北市三芝區中正路二段2號","121.504956666667","25.2557716666667","6502100","三芝區"
"237013","252-BX","2019/07/22 17:39:26","新北市三峽區愛國路33-8號","121.374615","24.933295","6500900","三峽區"
"237011","KEA-2596","2019/07/22 17:39:08","新北市三峽區中山路321-2號","121.360826666667","24.9379366666667","6500900","三峽區"
"237010","706-TV","2019/07/22 17:39:25","新北市三峽區中山路269號","121.362166666667","24.9374366666667","6500900","三峽區"
"236014","270-VK","2019/07/22 17:39:15","新北市土城區城林路6巷80號","121.438361666667","24.9796483333333","6501300","土城區"
"236039","271-VK","2019/07/22 17:39:24","新北市土城區城林路6巷80號","121.438466666667","24.9797866666667","6501300","土城區"
"247010","KED-0683","2019/07/22 17:39:22","新北市蘆洲區中山一路74巷3號","121.478685","25.0812766666667","6501400","蘆洲區"
"236069","KEA-2877","2019/07/22 17:39:20","新北市土城區城林路6巷80號","121.438476666667","24.9797316666667","6501300","土城區"
"252001","KED-0821","2019/07/22 17:39:17","新北市三芝區淡金路二段2號","121.502313333333","25.2590933333333","6502100","三芝區"
"236059","912-UM","2019/07/22 17:39:08","新北市土城區城林路6巷80號","121.438318333333","24.97947","6501300","土城區"
"242039","AAC-296","2019/07/22 17:39:17","新北市新莊區民安路322號","121.429003333333","25.022","6500500","新莊區"
"242060","986-R7","2019/07/22 17:39:17","新北市新莊區瓊林南路50號","121.43578","25.0173283333333","6500500","新莊區"
"242002","751-BX","2019/07/22 17:39:22","新北市新莊區新莊路337號","121.452258333333","25.0340083333333","6500500","新莊區"
"242029","615-BX","2019/07/22 17:39:24","新北市新莊區復興路一段145號","121.45032","25.0432383333333","6500500","新莊區"
"242027","613-BX","2019/07/22 17:39:15","新北市新莊區福壽街85號","121.458188333333","25.050055","6500500","新莊區"
"242058","612-BX","2019/07/22 17:39:14","新北市新莊區中正路582號","121.42735","25.0304533333333","6500500","新莊區"
"242046","566-BX","2019/07/22 17:39:16","新北市新莊區福營路92號","121.43691","25.032635","6500500","新莊區"
"242050","497-BY","2019/07/22 17:39:13","新北市新莊區西盛街187-15號","121.429066666667","25.017385","6500500","新莊區"
"242011","442-UM","2019/07/22 17:39:10","新北市新莊區中港路570號","121.451441666667","25.0533366666667","6500500","新莊區"
"242056","441-UM","2019/07/22 17:39:21","新北市新莊區泰豐街15號","121.448401666667","25.031575","6500500","新莊區"
"242004","440-UM","2019/07/22 17:39:26","新北市新莊區自立街180號","121.456073333333","25.0455033333333","6500500","新莊區"
"242042","415-TV","2019/07/22 17:39:11","新北市新莊區建國一路3號","121.433723333333","25.0319733333333","6500500","新莊區"
"242048","400-BY","2019/07/22 17:39:16","新北市新莊區萬安街124號","121.42038","25.0217683333333","6500500","新莊區"
"242025","362-BY","2019/07/22 17:39:28","新北市新莊區思源路108號","121.460126666667","25.0465766666667","6500500","新莊區"
"242023","353-BY","2019/07/22 17:39:24","新北市新莊區公園路222巷1號","121.456305","25.0405466666667","6500500","新莊區"
"242013","132-UY","2019/07/22 17:39:29","新北市新莊區中誠街97號","121.449938333333","25.047735","6500500","新莊區"
"242036","135-UY","2019/07/22 17:39:10","新北市新莊區建福路59巷28號","121.428036666667","25.0275833333333","6500500","新莊區"
"242053","172-VK","2019/07/22 17:39:15","新北市新莊區新樹路737號","121.431758333333","25.0016383333333","6500500","新莊區"
"242015","173-VK","2019/07/22 17:39:15","新北市新莊區新泰路274號","121.445866666667","25.040305","6500500","新莊區"
"242021","175-VK","2019/07/22 17:39:22","新北市新莊區中華路一段68號","121.452005","25.0387833333333","6500500","新莊區"
"242019","KED-0687","2019/07/22 17:39:25","新北市新莊區中港路211號","121.454751666667","25.0421116666667","6500500","新莊區"
"242034","348-TH","2019/07/22 17:39:22","新北市新莊區新莊路595號","121.446146666667","25.0332266666667","6500500","新莊區"
"242007","349-TH","2019/07/22 17:39:24","新北市新莊區福樂街69號","121.457061666667","25.0477683333333","6500500","新莊區"
"242031","350-TH","2019/07/22 17:39:25","新北市新莊區新泰路369巷16號","121.442893333333","25.0432716666667","6500500","新莊區"
"242017","351-TH","2019/07/22 17:39:10","新北市新莊區復興路一段149巷21弄9號","121.449735","25.0439816666667","6500500","新莊區"
"238015","755-BX","2019/07/22 17:39:25","新北市樹林區樹德街136巷13弄4號","121.4196","24.9933533333333","6500700","樹林區"
"238023","601-UM","2019/07/22 17:39:08","新北市樹林區三福街70巷18號","121.404843333333","25.01663","6500700","樹林區"
"238019","599-UM","2019/07/22 17:39:18","新北市樹林區太平路59號","121.419035","24.9819566666667","6500700","樹林區"
"238024","5061-A6","2019/07/22 17:39:15","新北市樹林區太平路277號","121.418961666667","24.97279","6500700","樹林區"
"238018","KEA-2217","2019/07/22 17:39:17","新北市樹林區博愛街8號","121.42773","24.9930033333333","6500700","樹林區"
"238022","KEA-2213","2019/07/22 17:39:15","新北市樹林區太順街49巷1號","121.418086666667","24.9790883333333","6500700","樹林區"
"238021","KEA-2539","2019/07/22 17:39:23","新北市樹林區柑園街一段253巷1號","121.395608333333","24.9564233333333","6500700","樹林區"
"238025","303-VK","2019/07/22 17:39:20","新北市樹林區三俊街4號","121.410878333333","25.0153416666667","6500700","樹林區"
"238017","283-BY","2019/07/22 17:39:15","新北市樹林區三俊街74巷47號","121.414368333333","25.0130716666667","6500700","樹林區"
"238001","282-BY","2019/07/22 17:39:22","新北市樹林區保安街一段356號","121.417936666667","24.998465","6500700","樹林區"
"238020","268-VK","2019/07/22 17:39:15","新北市樹林區俊英街116巷41弄42號","121.42853","25.007065","6500700","樹林區"
"238026","172-UY","2019/07/22 17:39:10","新北市樹林區新興街19巷36弄12號","121.402473333333","24.9730833333333","6500700","樹林區"
"238016","169-UY","2019/07/22 17:39:07","新北市樹林區啟智街129-4號","121.417858333333","24.989185","6500700","樹林區"
"239007","AAC-297","2019/07/22 17:39:14","新北市鶯歌區光明街232號","121.341341666667","24.9559366666667","6500800","鶯歌區"
"239006","891-R6","2019/07/22 17:39:13","新北市鶯歌區鶯桃路436巷61弄18號","121.333421666667","24.9672","6500800","鶯歌區"
"239008","527-UM","2019/07/22 17:39:10","桃園市龜山區宏德司法新村5-5號","121.331345","24.978825","6500800","鶯歌區"
"239005","526-UM","2019/07/22 17:38:33","新北市鶯歌區鶯桃路二段29巷17號","121.324591666667","24.9718483333333","6500800","鶯歌區"
"239001","417-VK","2019/07/22 17:39:21","新北市鶯歌區中正三路271號","121.33265","24.9380683333333","6500800","鶯歌區"
"239003","360-BY","2019/07/22 17:39:11","新北市鶯歌區永吉街11巷46號","121.337316666667","24.9571183333333","6500800","鶯歌區"
"239002","359-BY","2019/07/22 17:39:24","新北市鶯歌區育才街80號","121.347796666667","24.95472","6500800","鶯歌區"
"239004","193-VK","2019/07/22 17:39:12","新北市鶯歌區三鶯路48號","121.356811666667","24.942025","6500800","鶯歌區"
"221008","489-VK","2019/07/22 17:39:10","新北市汐止區康寧街901號","121.651455","25.0749283333333","6501100","汐止區"
"244019","KED-0667","2019/07/22 17:39:14","新北市林口區忠孝路533號","121.372075","25.0693783333333","6501700","林口區"
"233002","KEA-2870","2019/07/22 17:39:06","新北市烏來區環山路42號","121.548613333333","24.8642433333333","6502900","烏來區"
"233001","KEC-0709","2019/07/22 17:39:15","新北市烏來區信福路40號","121.525873333333","24.83551","6502900","烏來區"
"242044","281-VK","2019/07/22 17:39:26","新北市新莊區中正路879號","121.417951666667","25.02682","6500500","新莊區"
"242009","280-VK","2019/07/22 17:39:24","新北市新莊區昌明街14巷6弄1號","121.457396666667","25.05291","6500500","新莊區"
"235061","KEA-2875","2019/07/22 17:25:13","新北市中和區員山路36巷16-2號","121.485258333333","24.9916516666667","6500300","中和區"
