"lineid","car","time","location","longitude","latitude","cityid","cityname"
"234026","9371-KE","2019/07/22 17:49:18","新北市永和區和平街98號","121.510825","25.0099666666667","6500400","永和區"
"249005","172-UM","2019/07/22 17:49:12","新北市八里區荖阡坑路34-3號","121.402325","25.1315783333333","6502300","八里區"
"249001","173-UM","2019/07/22 17:49:09","新北市八里區龍米路二段147巷7號","121.442531666667","25.15096","6502300","八里區"
"249004","303-UY","2019/07/22 17:49:25","新北市八里區中華路一段309巷19-13號","121.417243333333","25.1534066666667","6502300","八里區"
"249002","305-UY","2019/07/22 17:49:17","新北市八里區龍形二街21號","121.450608333333","25.1316966666667","6502300","八里區"
"249003","759-BX","2019/07/22 17:49:21","新北市八里區中山路二段66號","121.409113333333","25.1557633333333","6502300","八里區"
"248010","682-TV","2019/07/22 17:49:15","新北市五股區中興路二段37巷28號","121.460165","25.0748616666667","6501500","五股區"
"232011","375-UM","2019/07/22 17:49:27","新北市坪林區北宜路八段138號","121.706683333333","24.9345216666667","6502000","坪林區"
"244007","402-UM","2019/07/22 17:49:18","新北市林口區竹林路153號","121.388666666667","25.079795","6501700","林口區"
"244013","KEA-2802","2019/07/22 17:49:12","新北市林口區中山路144-1號","121.391401666667","25.0786166666667","6501700","林口區"
"244023","483-VK","2019/07/22 17:49:27","新北市林口區東湖路86號","121.386551666667","25.0740133333333","6501700","林口區"
"244017","485-VK","2019/07/22 17:49:26","新北市林口區文化二路一段339號","121.370316666667","25.0732483333333","6501700","林口區"
"244009","656-BX","2019/07/22 17:49:25","新北市林口區佳林路56巷43號","121.385021666667","25.0807683333333","6501700","林口區"
"244011","701-TV","2019/07/22 17:49:24","新北市林口區中正路265號","121.390211666667","25.0776333333333","6501700","林口區"
"244025","837-TS","2019/07/22 17:49:18","新北市林口區忠孝三路一段110號","121.359603333333","25.0714633333333","6501700","林口區"
"244021","838-TS","2019/07/22 17:49:18","新北市林口區仁愛路一段83巷38號","121.397775","25.070585","6501700","林口區"
"222003","436-BY","2019/07/22 17:49:10","新北市深坑區阿柔洋60-1號","121.608613333333","24.99848","6501800","深坑區"
"222002","659-BX","2019/07/22 17:49:25","新北市深坑區平埔街22巷17弄1號","121.614905","25.0008866666667","6501800","深坑區"
"241005","262-UM","2019/07/22 17:49:22","新北市三重區仁愛街654號","121.482706666667","25.0804866666667","6500200","三重區"
"241016","266-UM","2019/07/22 17:49:27","新北市三重區新北大道一段3-1號","121.490005","25.061355","6500200","三重區"
"241024","462-BY","2019/07/22 17:49:13","新北市三重區車路頭街62巷28號","121.483103333333","25.0723616666667","6500200","三重區"
"241033","AAC-255","2019/07/22 17:49:13","新北市三重區光復路一段13號","121.472291666667","25.0472783333333","6500200","三重區"
"235064","005-UY","2019/07/22 17:49:23","新北市中和區員山路36巷16-3號","121.485038333333","24.9913916666667","6500300","中和區"
"235063","006-UY","2019/07/22 17:49:22","新北市中和區員山路36巷16-3號","121.484966666667","24.991235","6500300","中和區"
"235065","098-UM","2019/07/22 17:49:23","新北市中和區員山路36巷16-3號","121.48507","24.9911516666667","6500300","中和區"
"247014","KEA-2869","2019/07/22 17:49:25","新北市蘆洲區保和街69巷12號","121.469548333333","25.0855333333333","6501400","蘆洲區"
"247008","KED-0682","2019/07/22 17:49:28","新北市蘆洲區中山一路197巷6弄22號","121.474081666667","25.0803066666667","6501400","蘆洲區"
"235062","911-UM","2019/07/22 17:49:17","新北市中和區員山路36巷16-2號","121.485256666667","24.9918333333333","6500300","中和區"
"235037","AAC-213","2019/07/22 17:49:10","新北市中和區中正路637巷52弄1號","121.485558333333","24.9934183333333","6500300","中和區"
"247004","893-R6","2019/07/22 17:49:20","新北市蘆洲區長安街194巷30號","121.460078333333","25.08459","6501400","蘆洲區"
"247018","546-UM","2019/07/22 17:49:26","新北市蘆洲區復興路227巷2弄10號","121.480423333333","25.0901533333333","6501400","蘆洲區"
"247002","500-BY","2019/07/22 17:49:24","新北市蘆洲區永平街32巷21弄35號","121.457826666667","25.0923216666667","6501400","蘆洲區"
"247024","337-TH","2019/07/22 17:49:21","新北市蘆洲區長興路298巷12號","121.461146666667","25.0896016666667","6501400","蘆洲區"
"247022","057-VK","2019/07/22 17:49:20","新北市蘆洲區中正路418號","121.462896666667","25.0939816666667","6501400","蘆洲區"
"247012","056-VK","2019/07/22 17:49:09","新北市蘆洲區復興路142號","121.476983333333","25.087705","6501400","蘆洲區"
"247016","053-VK","2019/07/22 17:49:24","新北市蘆洲區中正路185巷23弄22號","121.467476666667","25.0840416666667","6501400","蘆洲區"
"247020","007-UY","2019/07/22 17:49:16","新北市蘆洲區民義街71巷24號","121.472573333333","25.090685","6501400","蘆洲區"
"247006","002-UY","2019/07/22 17:49:09","新北市蘆洲區長安街22巷41號","121.465161666667","25.0804833333333","6501400","蘆洲區"
"228003","097-TW","2019/07/22 17:49:08","新北市貢寮區真理里延平街36號","121.924498333333","25.0563166666667","6502600","貢寮區"
"228002","663-BX","2019/07/22 17:49:26","新北市貢寮區福隆里外隆林街14-1號","121.959166666667","25.00363","6502600","貢寮區"
"228001","670-TC","2019/07/22 17:49:26","新北市貢寮區仁理村仁愛路95-1號","121.927668333333","25.0555266666667","6502600","貢寮區"
"224006","676-BX","2019/07/22 17:49:21","新北市瑞芳區瑞興新村12巷1號","121.788433333333","25.108305","6501200","瑞芳區"
"224009","275-VK","2019/07/22 17:49:15","新北市瑞芳區山尖路215-1號","121.84883","25.1123883333333","6501200","瑞芳區"
"224008","273-VK","2019/07/22 17:49:28","新北市瑞芳區明燈路一段220號","121.818253333333","25.1085716666667","6501200","瑞芳區"
"224005","271-BY","2019/07/22 17:49:23","新北市瑞芳區豎崎路32-5號","121.823925","25.1209766666667","6501200","瑞芳區"
"227002","400-TW","2019/07/22 17:48:50","新北市雙溪區共和里東榮街52號","121.866308333333","25.0336483333333","6502500","雙溪區"
"253006","032-BX","2019/07/22 17:49:12","新北市石門區老崩山2-1號","121.554693333333","25.2919233333333","6502200","石門區"
"251009","008-UM","2019/07/22 17:49:28","新北市淡水區長興街3號","121.44382","25.170705","6501000","淡水區"
"251004","009-UM","2019/07/22 17:49:18","新北市淡水區民權一街17巷1號","121.458703333333","25.1366633333333","6501000","淡水區"
"251002","012-UM","2019/07/22 17:49:11","新北市淡水區中山路104號","121.442311666667","25.1705816666667","6501000","淡水區"
"251015","KEA-2871","2019/07/22 17:49:13","新北市淡水區糞箕湖17-3號","121.488101666667","25.168815","6501000","淡水區"
"251016","179-VK","2019/07/22 17:49:27","新北市淡水區埤島39-15號","121.452763333333","25.1958783333333","6501000","淡水區"
"251007","180-VK","2019/07/22 17:49:29","新北市淡水區民生路16巷23號","121.46158","25.13751","6501000","淡水區"
"251008","181-VK","2019/07/22 17:49:19","新北市淡水區八勢路一段123巷10號","121.466518333333","25.157185","6501000","淡水區"
"251013","182-VK","2019/07/22 17:49:22","新北市淡水區泉洲厝31號","121.479573333333","25.1909933333333","6501000","淡水區"
"251010","413-VK","2019/07/22 17:49:21","新北市淡水區淡海路143號","121.42119","25.1830016666667","6501000","淡水區"
"251012","441-VK","2019/07/22 17:49:25","新北市淡水區北新路一段163號","121.458873333333","25.1822433333333","6501000","淡水區"
"251005","443-VK","2019/07/22 17:49:10","新北市淡水區學府路102巷10號","121.450638333333","25.17184","6501000","淡水區"
"251006","561-UM","2019/07/22 17:49:24","新北市淡水區大信街1巷25號","121.440136666667","25.17676","6501000","淡水區"
"251014","577-R6","2019/07/22 17:49:24","新北市淡水區公埔子16-6號","121.481018333333","25.224515","6501000","淡水區"
"251011","650-BX","2019/07/22 17:49:23","新北市淡水區小坪頂13-3號","121.4866","25.1561766666667","6501000","淡水區"
"251003","766-UM","2019/07/22 17:49:22","新北市淡水區大忠街5巷1號","121.443036666667","25.17642","6501000","淡水區"
"207003","550-UM","2019/07/22 17:49:17","新北市萬里區野柳里東澳路66號","121.692815","25.200935","6502800","萬里區"
"207004","225-TW","2019/07/22 17:49:07","新北市萬里區萬里里景美路15號","121.687501666667","25.1742833333333","6502800","萬里區"
"252002","178-VK","2019/07/22 17:49:25","新北市三芝區智成街73號","121.504496666667","25.2559933333333","6502100","三芝區"
"208001","170-UY","2019/07/22 17:49:23","新北市金山區磺清路121號","121.639608333333","25.22786","6502700","金山區"
"237004","KEA-2597","2019/07/22 17:49:24","新北市三峽區仁愛街18號","121.368296666667","24.93227","6500900","三峽區"
"237009","210-TH","2019/07/22 17:49:22","新北市三峽區大勇路3巷36號","121.367448333333","24.9367733333333","6500900","三峽區"
"237013","252-BX","2019/07/22 17:49:26","新北市三峽區中華路8-1號","121.37504","24.9329316666667","6500900","三峽區"
"237012","275-BY","2019/07/22 17:49:23","新北市三峽區文化路32號","121.373115","24.936085","6500900","三峽區"
"237008","302-VK","2019/07/22 17:49:21","新北市三峽區中園街237-1號","121.366981666667","24.919275","6500900","三峽區"
"237014","433-BY","2019/07/22 17:49:12","新北市三峽區復興路101巷1弄59號","121.371403333333","24.9369583333333","6500900","三峽區"
"237006","5529-G3","2019/07/22 17:49:11","新北市三峽區介壽路二段38巷8號","121.391465","24.9350366666667","6500900","三峽區"
"237011","KEA-2596","2019/07/22 17:49:08","新北市三峽區大同路215號","121.370526666667","24.9270983333333","6500900","三峽區"
"237015","649-BX","2019/07/22 17:49:20","新北市三峽區白雞149-2號","121.399893333333","24.9050783333333","6500900","三峽區"
"237010","706-TV","2019/07/22 17:49:25","新北市三峽區文化路212號","121.368868333333","24.93615","6500900","三峽區"
"237005","AKY-6261","2019/07/22 17:49:13","新北市三峽區中山路459巷70號","121.354371666667","24.936315","6500900","三峽區"
"236042","KED-0685","2019/07/22 17:49:22","新北市土城區城林路6巷80號","121.438383333333","24.97961","6501300","土城區"
"236078","166-UM","2019/07/22 17:49:20","新北市土城區中央路三段134-1號","121.433468333333","24.9655933333333","6501300","土城區"
"236030","253-BX","2019/07/22 17:49:25","新北市土城區城林路6巷80號","121.438623333333","24.9795783333333","6501300","土城區"
"236026","269-VK","2019/07/22 17:49:12","新北市土城區城林路6巷80號","121.438436666667","24.9796266666667","6501300","土城區"
"236014","270-VK","2019/07/22 17:49:15","新北市土城區城林路6巷80號","121.438391666667","24.9796183333333","6501300","土城區"
"236039","271-VK","2019/07/22 17:49:24","新北市土城區城林路6巷80號","121.438485","24.9797833333333","6501300","土城區"
"247010","KED-0683","2019/07/22 17:49:22","新北市蘆洲區民族路56號","121.477","25.0846066666667","6501400","蘆洲區"
"236069","KEA-2877","2019/07/22 17:49:20","新北市土城區城林路6巷80號","121.438363333333","24.97964","6501300","土城區"
"252001","KED-0821","2019/07/22 17:49:17","新北市三芝區中興街一段12號","121.497415","25.2592883333333","6502100","三芝區"
"236020","401-BY","2019/07/22 17:49:23","新北市土城區城林路6巷80號","121.438366666667","24.9797766666667","6501300","土城區"
"236059","912-UM","2019/07/22 17:49:08","新北市土城區永寧路1號","121.430378333333","24.96478","6501300","土城區"
"236048","913-UM","2019/07/22 17:49:09","新北市土城區城林路6巷80號","121.438468333333","24.9796766666667","6501300","土城區"
"236063","915-UM","2019/07/22 17:49:17","新北市土城區城林路6巷80號","121.438623333333","24.9795916666667","6501300","土城區"
"236055","AAC-216","2019/07/22 17:49:10","新北市土城區中華路二段62號","121.438993333333","24.976785","6501300","土城區"
"242039","AAC-296","2019/07/22 17:49:24","新北市新莊區民安路170號","121.425045","25.0240966666667","6500500","新莊區"
"242060","986-R7","2019/07/22 17:49:17","新北市新莊區瓊林南路214號","121.433796666667","25.0059866666667","6500500","新莊區"
"242002","751-BX","2019/07/22 17:49:27","新北市新莊區景德路192號","121.450008333333","25.03412","6500500","新莊區"
"242029","615-BX","2019/07/22 17:49:24","新北市新莊區中平路32號","121.444741666667","25.0434566666667","6500500","新莊區"
"242027","613-BX","2019/07/22 17:49:15","新北市新莊區福壽街146號","121.457826666667","25.0520983333333","6500500","新莊區"
"242058","612-BX","2019/07/22 17:49:14","新北市新莊區中正路700-22號","121.417878333333","25.026955","6500500","新莊區"
"242046","566-BX","2019/07/22 17:49:25","新北市新莊區建國一路23號","121.434056666667","25.031425","6500500","新莊區"
"242050","497-BY","2019/07/22 17:49:09","新北市新莊區西盛街245巷19號","121.428876666667","25.0161783333333","6500500","新莊區"
"242011","442-UM","2019/07/22 17:49:10","新北市新莊區中港路679號","121.450698333333","25.0561583333333","6500500","新莊區"
"242056","441-UM","2019/07/22 17:49:21","新北市新莊區瓊林路38巷39號","121.446516666667","25.03037","6500500","新莊區"
"242004","440-UM","2019/07/22 17:49:26","新北市新莊區思源路177巷5弄4號","121.459168333333","25.04504","6500500","新莊區"
"242042","415-TV","2019/07/22 17:49:11","新北市泰山區貴陽街29號","121.422208333333","25.0330683333333","6500500","新莊區"
"242048","400-BY","2019/07/22 17:49:16","新北市新莊區萬安街56號","121.421036666667","25.0236233333333","6500500","新莊區"
"242025","362-BY","2019/07/22 17:49:18","新北市三重區新北大道二段137號","121.465906666667","25.0613166666667","6500500","新莊區"
"242023","353-BY","2019/07/22 17:49:24","新北市新莊區福樂街24號","121.457853333333","25.0452183333333","6500500","新莊區"
"242013","132-UY","2019/07/22 17:49:09","新北市新莊區中誠街142巷13弄14號","121.448026666667","25.04793","6500500","新莊區"
"242036","135-UY","2019/07/22 17:49:10","新北市新莊區建福路61號","121.426771666667","25.0272716666667","6500500","新莊區"
"242053","172-VK","2019/07/22 17:49:15","新北市新莊區新樹路298號","121.432823333333","25.0066416666667","6500500","新莊區"
"242015","173-VK","2019/07/22 17:49:14","新北市新莊區新泰路462號","121.44329","25.0448183333333","6500500","新莊區"
"242021","175-VK","2019/07/22 17:49:22","新北市新莊區復興路一段212號","121.452906666667","25.0437416666667","6500500","新莊區"
"242019","KED-0687","2019/07/22 17:49:25","新北市新莊區民樂街30號","121.457686666667","25.040885","6500500","新莊區"
"242034","348-TH","2019/07/22 17:49:26","新北市新莊區新莊路783號","121.441165","25.032685","6500500","新莊區"
"242007","349-TH","2019/07/22 17:49:24","新北市新莊區福樂街108巷15號","121.457783333333","25.0482283333333","6500500","新莊區"
"242031","350-TH","2019/07/22 17:49:25","新北市新莊區新泰路321巷13號","121.444048333333","25.041235","6500500","新莊區"
"242017","351-TH","2019/07/22 17:49:10","新北市新莊區永安街37號","121.45171","25.0447366666667","6500500","新莊區"
"238015","755-BX","2019/07/22 17:49:16","新北市樹林區復興路182號","121.420186666667","24.99133","6500700","樹林區"
"238023","601-UM","2019/07/22 17:49:27","新北市樹林區龍興街31巷24號","121.403851666667","25.016005","6500700","樹林區"
"238019","599-UM","2019/07/22 17:49:18","新北市樹林區太平路94-3號","121.41895","24.97995","6500700","樹林區"
"238018","KEA-2217","2019/07/22 17:49:17","新北市樹林區中正路7-10號","121.430775","24.9978466666667","6500700","樹林區"
"238022","KEA-2213","2019/07/22 17:49:15","新北市樹林區太順街55號","121.417345","24.9789716666667","6500700","樹林區"
"238021","KEA-2539","2019/07/22 17:49:23","新北市樹林區田尾街1-5號","121.406483333333","24.962065","6500700","樹林區"
"238025","303-VK","2019/07/22 17:49:07","新北市樹林區俊興街211巷7弄13號","121.4169","25.0138866666667","6500700","樹林區"
"238017","283-BY","2019/07/22 17:49:15","新北市樹林區三德街64-2號","121.416305","25.0146833333333","6500700","樹林區"
"238001","282-BY","2019/07/22 17:49:22","新北市樹林區保安街一段289巷28號","121.417805","24.9971066666667","6500700","樹林區"
"238020","268-VK","2019/07/22 17:49:15","新北市樹林區俊英街125號","121.424446666667","25.0110383333333","6500700","樹林區"
"238026","172-UY","2019/07/22 17:49:10","新北市樹林區新興街19巷2弄38號","121.401946666667","24.9729316666667","6500700","樹林區"
"238016","169-UY","2019/07/22 17:49:22","新北市樹林區復興路322巷10號","121.416145","24.987185","6500700","樹林區"
"239007","AAC-297","2019/07/22 17:49:14","新北市鶯歌區鶯桃路171號","121.336983333333","24.95534","6500800","鶯歌區"
"239006","891-R6","2019/07/22 17:49:13","新北市鶯歌區鳳鳴路5號","121.333261666667","24.96489","6500800","鶯歌區"
"239008","527-UM","2019/07/22 17:49:10","新北市鶯歌區大湖路700巷24號","121.33335","24.976945","6500800","鶯歌區"
"239005","526-UM","2019/07/22 17:49:03","新北市鶯歌區鳳吉四街8號","121.326461666667","24.97252","6500800","鶯歌區"
"239001","417-VK","2019/07/22 17:49:21","新北市鶯歌區中正三路359號","121.32769","24.9348916666667","6500800","鶯歌區"
"239003","360-BY","2019/07/22 17:49:11","新北市鶯歌區鶯桃路206巷49號","121.338006666667","24.9601983333333","6500800","鶯歌區"
"239002","359-BY","2019/07/22 17:49:24","新北市鶯歌區育智路20號","121.344916666667","24.9553166666667","6500800","鶯歌區"
"239004","193-VK","2019/07/22 17:49:12","新北市鶯歌區文化路537號","121.352891666667","24.9478666666667","6500800","鶯歌區"
"221008","489-VK","2019/07/22 17:49:29","新北市汐止區康寧街901號","121.651431666667","25.0749816666667","6501100","汐止區"
"221015","131-UY","2019/07/22 17:49:12","新北市汐止區長江街89號","121.65782","25.0725316666667","6501100","汐止區"
"244019","KED-0667","2019/07/22 17:49:14","新北市林口區麗園路175號","121.371591666667","25.0668733333333","6501700","林口區"
"221010","269-BY","2019/07/22 17:49:12","新北市汐止區汐萬路一段418巷6弄8號","121.65031","25.0779283333333","6501100","汐止區"
"221023","279-VK","2019/07/22 17:49:08","新北市汐止區康寧街753巷1-1號","121.639061666667","25.073745","6501100","汐止區"
"221029","298-VK","2019/07/22 17:49:11","新北市汐止區汐萬路一段256巷1號","121.651755","25.0749016666667","6501100","汐止區"
"221031","353-TW","2019/07/22 17:49:29","新北市汐止區汐萬路一段312號","121.650228333333","25.07555","6501100","汐止區"
"233002","KEA-2870","2019/07/22 17:49:26","新北市烏來區烏來街3-2號","121.551161666667","24.8654316666667","6502900","烏來區"
"233001","KEC-0709","2019/07/22 17:49:15","新北市烏來區娃娃谷3-1號","121.527401666667","24.8374033333333","6502900","烏來區"
"242044","281-VK","2019/07/22 17:49:26","新北市新莊區富國路74號","121.419951666667","25.02593","6500500","新莊區"
"242009","280-VK","2019/07/22 17:49:26","新北市新莊區昌明街36號","121.45662","25.05238","6500500","新莊區"
"235061","KEA-2875","2019/07/22 17:25:13","新北市中和區員山路36巷16-2號","121.485258333333","24.9916516666667","6500300","中和區"
