"lineid","car","time","location","longitude","latitude","cityid","cityname"
"234026","9371-KE","2019/07/22 18:09:18","新北市永和區自由街35號","121.51422","25.0062716666667","6500400","永和區"
"249005","172-UM","2019/07/22 18:09:12","新北市八里區荖阡坑路15-40號","121.401595","25.13999","6502300","八里區"
"249001","173-UM","2019/07/22 18:09:09","新北市八里區龍米路二段26號","121.448733333333","25.1394716666667","6502300","八里區"
"249004","303-UY","2019/07/22 18:09:25","新北市八里區龍米路二段200巷5號","121.433716666667","25.15883","6502300","八里區"
"249002","305-UY","2019/07/22 18:09:17","新北市八里區龍米路一段356巷42號","121.452118333333","25.1304766666667","6502300","八里區"
"249003","759-BX","2019/07/22 18:09:21","新北市八里區松子腳4-3號","121.402996666667","25.1442616666667","6502300","八里區"
"248014","025-BX","2019/07/22 18:09:23","新北市五股區成泰路一段187號","121.434866666667","25.0764833333333","6501500","五股區"
"248007","KED-0815","2019/07/22 18:09:21","新北市五股區中興路二段182巷15弄13-1號","121.457186666667","25.081185","6501500","五股區"
"248018","KED-0813","2019/07/22 18:09:22","新北市五股區中興路三段198號","121.44181","25.0819416666667","6501500","五股區"
"248004","677-BX","2019/07/22 18:09:05","新北市五股區中興路四段56號","121.437738333333","25.0831133333333","6501500","五股區"
"248010","682-TV","2019/07/22 18:09:15","新北市五股區新五路二段119-10號","121.438223333333","25.0788183333333","6501500","五股區"
"232011","375-UM","2019/07/22 18:09:27","新北市坪林區坪林街16-1號","121.712513333333","24.9363016666667","6502000","坪林區"
"244007","402-UM","2019/07/22 18:09:18","新北市林口區林口路122號","121.388485","25.0815266666667","6501700","林口區"
"244013","KEA-2802","2019/07/22 18:09:12","新北市林口區中山路206號","121.387125","25.0792933333333","6501700","林口區"
"244023","483-VK","2019/07/22 18:09:07","新北市林口區東湖路117巷2號","121.3832","25.0727533333333","6501700","林口區"
"244017","485-VK","2019/07/22 18:09:26","新北市林口區八德路48巷37號","121.367336666667","25.0676416666667","6501700","林口區"
"244009","656-BX","2019/07/22 18:09:25","新北市林口區民生路131巷1號","121.377428333333","25.0884983333333","6501700","林口區"
"244011","701-TV","2019/07/22 18:09:24","新北市林口區中正路74巷5弄1號","121.394585","25.0779616666667","6501700","林口區"
"244025","837-TS","2019/07/22 18:09:18","新北市林口區文化北路一段299巷27號","121.35894","25.0734666666667","6501700","林口區"
"244021","838-TS","2019/07/22 18:09:18","新北市林口區自強五街23號","121.400163333333","25.0757466666667","6501700","林口區"
"243013","646-TV","2019/07/22 18:09:16","新北市泰山區犁頭窠29鄰18號","121.421085","25.0546083333333","6501600","泰山區"
"222003","436-BY","2019/07/22 18:09:10","新北市深坑區阿柔洋45號","121.61221","24.9979066666667","6501800","深坑區"
"222002","659-BX","2019/07/22 18:09:25","新北市深坑區文化街42號","121.619098333333","25.0016816666667","6501800","深坑區"
"231058","0293-UT","2019/07/22 18:09:18","新北市新店區安華路1-1號","121.519436666667","24.9604166666667","6500600","新店區"
"231044","046-UY","2019/07/22 18:09:21","新北市新店區安華路28-1號","121.51923","24.9606433333333","6500600","新店區"
"231060","106-UY","2019/07/22 18:09:09","新北市新店區安華路28-1號","121.519851666667","24.9607266666667","6500600","新店區"
"231054","260-TV","2019/07/22 18:09:12","新北市新店區安一路一段1-1號","121.519311666667","24.9610666666667","6500600","新店區"
"231042","268-BY","2019/07/22 18:09:17","新北市新店區安一路一段1-1號","121.519995","24.9611866666667","6500600","新店區"
"231056","4715-K9","2019/07/22 18:09:09","新北市新店區安華路3號","121.519106666667","24.9602933333333","6500600","新店區"
"231057","720-UM","2019/07/22 18:09:20","新北市新店區安一路一段1-1號","121.519063333333","24.9613083333333","6500600","新店區"
"231066","AKT-0513","2019/07/22 18:09:19","新北市新店區安華路28-1號","121.51943","24.9605616666667","6500600","新店區"
"241033","AAC-255","2019/07/22 18:09:13","新北市三重區中興北街133號","121.46949","25.050485","6500200","三重區"
"235066","003-UY","2019/07/22 18:09:11","新北市中和區圓通路225號","121.496448333333","24.9943183333333","6500300","中和區"
"235064","005-UY","2019/07/22 18:09:23","新北市中和區中正路161巷2號","121.498483333333","24.9935233333333","6500300","中和區"
"235063","006-UY","2019/07/22 18:09:22","新北市中和區員山路36巷16-3號","121.48493","24.9914383333333","6500300","中和區"
"235039","097-UM","2019/07/22 18:09:15","新北市中和區中正路395號","121.489948333333","24.9935433333333","6500300","中和區"
"235065","098-UM","2019/07/22 18:09:23","新北市中和區和城路一段271巷1號","121.485625","24.991775","6500300","中和區"
"235040","150-BY","2019/07/22 18:09:15","新北市中和區中正路637巷52弄1號","121.485513333333","24.993345","6500300","中和區"
"235058","151-BY","2019/07/22 18:09:07","新北市中和區圓通路367巷66號","121.493331666667","24.9833266666667","6500300","中和區"
"235055","183-VK","2019/07/22 18:09:20","新北市中和區和城路一段271巷1號","121.485373333333","24.9919016666667","6500300","中和區"
"235038","185-VK","2019/07/22 18:09:27","新北市中和區景平路160號","121.517421666667","24.992145","6500300","中和區"
"235072","301-VK","2019/07/22 18:09:24","新北市中和區中正路468號","121.489996666667","24.9943616666667","6500300","中和區"
"235043","352-BY","2019/07/22 18:09:20","新北市中和區錦和路350-1號","121.490511666667","24.9935666666667","6500300","中和區"
"235042","KEA-2878","2019/07/22 18:09:27","新北市中和區錦和路350-1號","121.490546666667","24.9935916666667","6500300","中和區"
"247014","KEA-2869","2019/07/22 18:09:25","新北市蘆洲區永康街116號","121.458106666667","25.0853233333333","6501400","蘆洲區"
"235070","558-UM","2019/07/22 18:09:17","新北市中和區中正路271號","121.495758333333","24.9937166666667","6500300","中和區"
"235045","565-BX","2019/07/22 18:09:25","新北市中和區南山路146巷13號","121.503323333333","24.9924316666667","6500300","中和區"
"235060","KED-0823","2019/07/22 18:09:13","新北市中和區中正路637巷52弄11號","121.484825","24.9937866666667","6500300","中和區"
"235057","801-TS","2019/07/22 18:09:22","新北市中和區民享街97巷14號","121.47531","24.9996433333333","6500300","中和區"
"235041","802-TS","2019/07/22 18:09:15","新北市中和區和城路一段271巷1號","121.485523333333","24.9917266666667","6500300","中和區"
"235052","805-TS","2019/07/22 18:09:15","新北市中和區中正路19號","121.502846666667","24.99339","6500300","中和區"
"235048","896-TW","2019/07/22 18:09:23","新北市中和區員山路36巷16-2號","121.485108333333","24.9915916666667","6500300","中和區"
"235062","911-UM","2019/07/22 18:09:17","新北市中和區橋和路116-2號","121.491721666667","25.0056766666667","6500300","中和區"
"235051","157-BY","2019/07/22 18:09:14","新北市中和區中正路175號","121.497555","24.9935266666667","6500300","中和區"
"235037","AAC-213","2019/07/22 18:09:10","新北市中和區景平路73-2號","121.5187","24.9917433333333","6500300","中和區"
"247004","893-R6","2019/07/22 18:09:20","新北市八里區中山路三段216號","121.377948333333","25.1417183333333","6501400","蘆洲區"
"226004","312-R5","2019/07/22 18:09:14","新北市平溪區白石里白石腳5號","121.721466666667","25.0214883333333","6502400","平溪區"
"228003","097-TW","2019/07/22 18:09:28","新北市貢寮區真理里美艷山街6-2號","121.928833333333","25.0607383333333","6502600","貢寮區"
"228002","663-BX","2019/07/22 18:09:26","新北市貢寮區福連里福興街23號","121.990525","25.0103683333333","6502600","貢寮區"
"228001","670-TC","2019/07/22 18:09:06","新北市貢寮區真理里新港街26巷55弄2-1號","121.927318333333","25.0528416666667","6502600","貢寮區"
"224006","676-BX","2019/07/22 18:09:21","新北市瑞芳區中山路149號","121.802558333333","25.1064216666667","6501200","瑞芳區"
"224007","285-BY","2019/07/22 18:09:09","新北市瑞芳區四腳亭埔路40-1號","121.777988333333","25.10647","6501200","瑞芳區"
"224009","275-VK","2019/07/22 18:09:15","新北市瑞芳區金光路326號","121.851018333333","25.1079816666667","6501200","瑞芳區"
"224008","273-VK","2019/07/22 18:09:28","新北市瑞芳區員山子路23號","121.821386666667","25.103015","6501200","瑞芳區"
"224005","271-BY","2019/07/22 18:09:23","新北市瑞芳區深澳路2號","121.816601666667","25.1288183333333","6501200","瑞芳區"
"227001","642-TC","2019/07/22 18:09:23","新北市雙溪區三貂里政光路3-1號","121.850923333333","25.0634066666667","6502500","雙溪區"
"227002","400-TW","2019/07/22 18:09:10","新北市雙溪區共和里東榮街52號","121.86634","25.0336916666667","6502500","雙溪區"
"253006","032-BX","2019/07/22 18:09:12","新北市石門區老梅路52巷25弄2-1號","121.54671","25.28718","6502200","石門區"
"253005","295-VK","2019/07/22 18:09:19","新北市石門區福安街53號","121.568371666667","25.291675","6502200","石門區"
"222001","KEA-2212","2019/07/22 18:09:19","新北市深坑區北深路二段151號","121.614133333333","25.0021516666667","6501800","深坑區"
"208002","KEA-2872","2019/07/22 18:09:29","新北市金山區三界壇路111巷20-3號","121.61763","25.2318833333333","6502700","金山區"
"208003","665-BX","2019/07/22 18:09:16","新北市金山區磺港里磺港路171號","121.643568333333","25.22421","6502700","金山區"
"251009","008-UM","2019/07/22 18:09:08","新北市淡水區大仁街6巷21號","121.442953333333","25.1750483333333","6501000","淡水區"
"251004","009-UM","2019/07/22 18:09:18","新北市淡水區民權路187巷86弄1號","121.461463333333","25.1348966666667","6501000","淡水區"
"251001","011-UM","2019/07/22 18:09:28","新北市淡水區自立路10號","121.463068333333","25.1298133333333","6501000","淡水區"
"251002","012-UM","2019/07/22 18:09:25","新北市淡水區中正東路40-7號","121.450088333333","25.1649933333333","6501000","淡水區"
"251015","KEA-2871","2019/07/22 18:09:12","新北市淡水區興福寮88巷1號","121.48532","25.1649516666667","6501000","淡水區"
"251016","179-VK","2019/07/22 18:09:27","新北市淡水區下圭柔山13號","121.451323333333","25.20096","6501000","淡水區"
"251008","181-VK","2019/07/22 18:09:19","新北市淡水區八勢一街10號","121.460088333333","25.156045","6501000","淡水區"
"251013","182-VK","2019/07/22 18:09:22","新北市淡水區竹圍子10號","121.47618","25.1942316666667","6501000","淡水區"
"251010","413-VK","2019/07/22 18:09:21","新北市淡水區中正路二段52號","121.41977","25.1834216666667","6501000","淡水區"
"251012","441-VK","2019/07/22 18:09:20","新北市淡水區北新路三段112-1號","121.486125","25.188075","6501000","淡水區"
"251005","443-VK","2019/07/22 18:09:10","新北市淡水區水源街一段141號","121.44722","25.171945","6501000","淡水區"
"251006","561-UM","2019/07/22 18:09:24","新北市淡水區真理街3巷21-1號","121.43776","25.17627","6501000","淡水區"
"251014","577-R6","2019/07/22 18:09:24","新北市淡水區南平15號","121.488531666667","25.21896","6501000","淡水區"
"251011","650-BX","2019/07/22 18:09:23","新北市淡水區三空泉6-3號","121.4771","25.1621683333333","6501000","淡水區"
"251003","766-UM","2019/07/22 18:09:22","新北市淡水區大忠街113巷8號","121.446846666667","25.1774533333333","6501000","淡水區"
"207003","550-UM","2019/07/22 18:09:27","新北市萬里區野柳里港東路157號","121.689965","25.204955","6502800","萬里區"
"207004","225-TW","2019/07/22 18:09:28","新北市萬里區中幅里中福路68-1號","121.678385","25.1715366666667","6502800","萬里區"
"252002","178-VK","2019/07/22 18:09:25","新北市三芝區中山路二段39號","121.502885","25.255095","6502100","三芝區"
"252003","249-BX","2019/07/22 18:09:20","新北市三芝區埔頭里埔頭39-1號","121.499148333333","25.2608333333333","6502100","三芝區"
"208001","170-UY","2019/07/22 18:09:23","新北市金山區磺港里磺港路77號","121.647581666667","25.2266083333333","6502700","金山區"
"237004","KEA-2597","2019/07/22 18:09:24","新北市三峽區大埔路357號","121.371226666667","24.8956316666667","6500900","三峽區"
"237007","153-BY","2019/07/22 18:09:16","新北市三峽區中正路二段362號","121.365408333333","24.90998","6500900","三峽區"
"237009","210-TH","2019/07/22 18:09:22","新北市三峽區大仁路50巷19號","121.36525","24.93818","6500900","三峽區"
"237013","252-BX","2019/07/22 18:09:26","新北市三峽區長泰街42號","121.37837","24.93224","6500900","三峽區"
"237012","275-BY","2019/07/22 18:09:23","新北市三峽區民生街1巷1-23號","121.377805","24.93557","6500900","三峽區"
"237008","302-VK","2019/07/22 18:09:21","新北市三峽區白雞44-49號","121.377818333333","24.9103583333333","6500900","三峽區"
"237014","433-BY","2019/07/22 18:09:12","新北市三峽區復興路80巷17號","121.373613333333","24.9378616666667","6500900","三峽區"
"237006","5529-G3","2019/07/22 18:09:11","新北市三峽區溪東路34巷19號","121.400253333333","24.9342116666667","6500900","三峽區"
"237011","KEA-2596","2019/07/22 18:09:08","新北市三峽區大同路24號","121.377788333333","24.9293666666667","6500900","三峽區"
"237015","649-BX","2019/07/22 18:09:20","新北市三峽區紫新路25巷8號","121.422718333333","24.92129","6500900","三峽區"
"237010","706-TV","2019/07/22 18:09:25","新北市三峽區民權街168號","121.367895","24.9301316666667","6500900","三峽區"
"237005","AKY-6261","2019/07/22 18:09:13","新北市三峽區文化路65巷2號","121.371931666667","24.9357616666667","6500900","三峽區"
"236042","KED-0685","2019/07/22 18:09:22","新北市土城區城林路6巷80號","121.438355","24.9795666666667","6501300","土城區"
"236078","166-UM","2019/07/22 18:09:20","新北市土城區永寧路32巷3號","121.429075","24.9606083333333","6501300","土城區"
"236030","253-BX","2019/07/22 18:09:25","新北市土城區城林路6巷80號","121.43845","24.97976","6501300","土城區"
"236026","269-VK","2019/07/22 18:09:12","新北市土城區承天路45號","121.43871","24.9639833333333","6501300","土城區"
"236014","270-VK","2019/07/22 18:09:15","新北市土城區學府路一段6號","121.459648333333","24.98838","6501300","土城區"
"236039","271-VK","2019/07/22 18:09:24","新北市土城區明德路一段371號","121.453023333333","24.9795833333333","6501300","土城區"
"236069","KEA-2877","2019/07/22 18:09:20","新北市土城區明德路一段128巷2號","121.463196666667","24.979115","6501300","土城區"
"252001","KED-0821","2019/07/22 18:09:17","新北市三芝區中興街二段2號","121.49834","25.2566616666667","6502100","三芝區"
"236020","401-BY","2019/07/22 18:09:23","新北市土城區中華路二段2號","121.43942","24.979565","6501300","土城區"
"236059","912-UM","2019/07/22 18:09:28","新北市土城區中央路四段242號","121.415275","24.9570266666667","6501300","土城區"
"236048","913-UM","2019/07/22 18:09:09","新北市土城區明德路一段371號","121.452886666667","24.979735","6501300","土城區"
"236063","915-UM","2019/07/22 18:09:17","新北市土城區金城路三段4號","121.464456666667","24.9859666666667","6501300","土城區"
"236055","AAC-216","2019/07/22 18:09:10","新北市土城區中華路二段92號","121.438215","24.9747583333333","6501300","土城區"
"242039","AAC-296","2019/07/22 18:09:17","新北市新莊區民安西路38巷2號","121.427143333333","25.020955","6500500","新莊區"
"242060","986-R7","2019/07/22 18:09:17","新北市新莊區新樹路253號","121.43489","25.0220616666667","6500500","新莊區"
"242002","751-BX","2019/07/22 18:09:23","新北市新莊區新莊路79號","121.457976666667","25.0368116666667","6500500","新莊區"
"242029","615-BX","2019/07/22 18:09:23","新北市新莊區幸福路860號","121.443778333333","25.048945","6500500","新莊區"
"242027","613-BX","2019/07/22 18:09:15","新北市新莊區幸福路49號","121.457713333333","25.0493316666667","6500500","新莊區"
"242058","612-BX","2019/07/22 18:09:14","新北市新莊區壽山路160巷21號","121.417416666667","25.0318683333333","6500500","新莊區"
"242046","566-BX","2019/07/22 18:09:16","新北市新莊區福營路227巷12號","121.430161666667","25.029195","6500500","新莊區"
"242050","497-BY","2019/07/22 18:09:09","新北市新莊區民本街23巷19號","121.429125","25.0198366666667","6500500","新莊區"
"242011","442-UM","2019/07/22 18:09:10","新北市新莊區中信街94巷9號","121.448376666667","25.05373","6500500","新莊區"
"242056","441-UM","2019/07/22 18:09:21","新北市新莊區豐年街豐1巷10號","121.446998333333","25.0311266666667","6500500","新莊區"
"242004","440-UM","2019/07/22 18:09:26","新北市新莊區自立街115號","121.455645","25.045545","6500500","新莊區"
"242042","415-TV","2019/07/22 18:09:11","新北市新莊區中正路705號","121.425445","25.029895","6500500","新莊區"
"242048","400-BY","2019/07/22 18:09:24","新北市新莊區萬安街67巷3號","121.421628333333","25.024","6500500","新莊區"
"242025","362-BY","2019/07/22 18:09:18","新北市新莊區五權一路11-3號","121.459425","25.067615","6500500","新莊區"
"242013","132-UY","2019/07/22 18:07:29","新北市新莊區新泰路500號","121.442126666667","25.0461983333333","6500500","新莊區"
"242036","135-UY","2019/07/22 18:09:11","新北市新莊區建福路58巷3號","121.426388333333","25.027175","6500500","新莊區"
"242053","172-VK","2019/07/22 18:09:15","新北市新莊區民安西路366號","121.427503333333","25.0109533333333","6500500","新莊區"
"242015","173-VK","2019/07/22 18:09:14","新北市新莊區中和街59巷10弄2號","121.446893333333","25.0470683333333","6500500","新莊區"
"242021","175-VK","2019/07/22 18:09:22","新北市新莊區中華路一段63巷42號","121.44991","25.0392333333333","6500500","新莊區"
"242034","348-TH","2019/07/22 18:09:22","新北市新莊區中正路377巷18號","121.446303333333","25.0336316666667","6500500","新莊區"
"242007","349-TH","2019/07/22 18:09:24","新北市新莊區自重街1號","121.453323333333","25.0475816666667","6500500","新莊區"
"242031","350-TH","2019/07/22 18:09:25","新北市新莊區新泰路277巷35號","121.444528333333","25.040225","6500500","新莊區"
"242017","351-TH","2019/07/22 18:09:16","新北市新莊區中港路286號","121.452943333333","25.04435","6500500","新莊區"
"238015","755-BX","2019/07/22 18:09:16","新北市樹林區大安路323巷10弄8號","121.417386666667","24.9911316666667","6500700","樹林區"
"238023","601-UM","2019/07/22 18:09:08","新北市樹林區中正路825號","121.409405","25.017115","6500700","樹林區"
"238019","599-UM","2019/07/22 18:09:18","新北市樹林區中華路71號","121.42317","24.982965","6500700","樹林區"
"238018","KEA-2217","2019/07/22 18:09:17","新北市板橋區大觀路三段236-6號","121.429258333333","24.992415","6500700","樹林區"
"238021","KEA-2539","2019/07/22 18:09:23","新北市樹林區柑園街二段141號","121.382958333333","24.9547633333333","6500700","樹林區"
"238025","303-VK","2019/07/22 18:09:27","新北市樹林區保安街一段295號","121.418253333333","24.9976816666667","6500700","樹林區"
"238017","283-BY","2019/07/22 18:09:15","新北市樹林區中正路698號","121.4093","25.0174883333333","6500700","樹林區"
"238001","282-BY","2019/07/22 18:09:21","新北市樹林區千歲街61巷46號","121.425473333333","24.9986966666667","6500700","樹林區"
"238020","268-VK","2019/07/22 18:09:15","新北市樹林區三龍街138號","121.416495","25.0184016666667","6500700","樹林區"
"238026","172-UY","2019/07/22 18:09:10","新北市樹林區佳園路一段50號","121.392968333333","24.97074","6500700","樹林區"
"238016","169-UY","2019/07/22 18:09:22","新北市樹林區啟智街173巷10號","121.41587","24.9871966666667","6500700","樹林區"
"239007","AAC-297","2019/07/22 18:09:14","新北市鶯歌區尖山埔路114號","121.344178333333","24.9502116666667","6500800","鶯歌區"
"239006","891-R6","2019/07/22 18:09:20","新北市鶯歌區鶯桃路383號","121.333548333333","24.96354","6500800","鶯歌區"
"239008","527-UM","2019/07/22 18:09:10","新北市鶯歌區朝陽街4號","121.336261666667","24.976575","6500800","鶯歌區"
"239005","526-UM","2019/07/22 18:09:13","新北市鶯歌區中正三路101號","121.338228333333","24.9408516666667","6500800","鶯歌區"
"239001","417-VK","2019/07/22 18:09:20","新北市鶯歌區中正三路45號","121.338841666667","24.9416466666667","6500800","鶯歌區"
"239003","360-BY","2019/07/22 18:09:10","新北市鶯歌區永吉街7巷1號","121.336681666667","24.95859","6500800","鶯歌區"
"239002","359-BY","2019/07/22 18:09:24","新北市鶯歌區育英街17巷1弄3號","121.347685","24.9552516666667","6500800","鶯歌區"
"221008","489-VK","2019/07/22 18:09:10","新北市汐止區明峰街149號","121.629383333333","25.0703983333333","6501100","汐止區"
"221036","130-UY","2019/07/22 18:09:23","新北市汐止區大同路三段116號","121.672048333333","25.07673","6501100","汐止區"
"221015","131-UY","2019/07/22 18:09:12","新北市汐止區長江街77號","121.657293333333","25.072235","6501100","汐止區"
"244019","KED-0667","2019/07/22 18:09:14","新北市林口區麗園路89號","121.373113333333","25.068715","6501700","林口區"
"221010","269-BY","2019/07/22 18:09:13","新北市汐止區汐萬路二段238號","121.646456666667","25.0885116666667","6501100","汐止區"
"221012","278-VK","2019/07/22 18:09:10","新北市汐止區長興街二段50巷27號","121.674531666667","25.08113","6501100","汐止區"
"221023","279-VK","2019/07/22 18:09:28","新北市汐止區民族五街69號","121.628206666667","25.0703416666667","6501100","汐止區"
"221032","280-BY","2019/07/22 18:09:12","新北市汐止區橫科路73巷22-2號","121.619373333333","25.05147","6501100","汐止區"
"221033","297-VK","2019/07/22 18:09:19","新北市汐止區宜興街10巷19號","121.62189","25.0407316666667","6501100","汐止區"
"221029","298-VK","2019/07/22 18:09:14","新北市汐止區樟樹二路130號","121.639933333333","25.065485","6501100","汐止區"
"221021","299-VK","2019/07/22 18:09:17","新北市汐止區新興路13號","121.65643","25.0647766666667","6501100","汐止區"
"221031","353-TW","2019/07/22 18:09:09","新北市汐止區中興路161號","121.631071666667","25.0661516666667","6501100","汐止區"
"221035","622-UM","2019/07/22 18:09:08","新北市汐止區汐萬路一段121號","121.654126666667","25.07106","6501100","汐止區"
"221025","623-UM","2019/07/22 18:09:21","新北市汐止區秀峰路143號","121.660393333333","25.062275","6501100","汐止區"
"221038","646-BX","2019/07/22 18:09:16","新北市汐止區南興路85號","121.653095","25.0590566666667","6501100","汐止區"
"221002","707-TV","2019/07/22 18:09:23","新北市汐止區福德一路206巷1-1號","121.634466666667","25.06536","6501100","汐止區"
"221018","753-BX","2019/07/22 18:09:28","新北市汐止區招商街19巷25號","121.667648333333","25.0682483333333","6501100","汐止區"
"233002","KEA-2870","2019/07/22 18:09:26","新北市烏來區新烏路五段117號","121.547733333333","24.87149","6502900","烏來區"
"233001","KEC-0709","2019/07/22 18:09:19","新北市烏來區溫泉街86巷16號","121.549576666667","24.8628016666667","6502900","烏來區"
"224002","257-TC","2019/07/22 18:09:21","新北市瑞芳區三爪子坑路165-1號","121.81066","25.1058016666667","6501200","瑞芳區"
"242044","281-VK","2019/07/22 18:09:26","新北市新莊區雙鳳路137號","121.412865","25.0272816666667","6500500","新莊區"
"242009","280-VK","2019/07/22 18:09:15","新北市新莊區昌平街4號","121.454876666667","25.052415","6500500","新莊區"
"220073","985-R7","2019/07/22 18:09:20","新北市板橋區華東街1-10號","121.448285","24.9949716666667","6500100","板橋區"
"235068","KEA-2873","2019/07/22 18:09:23","新北市中和區員山路36巷16-3號","121.485015","24.9912466666667","6500300","中和區"
"235061","KEA-2875","2019/07/22 18:09:24","新北市中和區國光街215巷24弄6號","121.46661","25.00017","6500300","中和區"
