"lineid","car","time","location","longitude","latitude","cityid","cityname"
"234026","9371-KE","2019/07/22 18:19:18","新北市永和區豫溪街42巷8號","121.51543","25.00942","6500400","永和區"
"234011","9373-KE","2019/07/22 18:19:22","新北市永和區環河東路二段20號","121.522446666667","25.0130816666667","6500400","永和區"
"249005","172-UM","2019/07/22 18:19:12","新北市八里區荖阡坑路15-28號","121.400393333333","25.1403416666667","6502300","八里區"
"249001","173-UM","2019/07/22 18:19:09","新北市八里區龍米路一段280號","121.451565","25.1293516666667","6502300","八里區"
"249004","303-UY","2019/07/22 18:19:25","新北市八里區龍米路二段232巷1弄2號","121.431495","25.1589766666667","6502300","八里區"
"249002","305-UY","2019/07/22 18:19:17","新北市八里區龍形二街25號","121.450568333333","25.1321383333333","6502300","八里區"
"248014","025-BX","2019/07/22 18:19:23","新北市五股區自強路76號","121.432916666667","25.072925","6501500","五股區"
"248015","026-BX","2019/07/22 18:19:20","新北市五股區成泰路三段477巷18號","121.449866666667","25.0989216666667","6501500","五股區"
"248007","KED-0815","2019/07/22 18:19:21","新北市五股區更洲路32巷8弄14號","121.459226666667","25.079615","6501500","五股區"
"248018","KED-0813","2019/07/22 18:19:22","新北市五股區御史路195-3號","121.436041666667","25.09765","6501500","五股區"
"248012","247-BX","2019/07/22 18:19:23","新北市五股區御史路1巷101弄2號","121.44101","25.0911333333333","6501500","五股區"
"248004","677-BX","2019/07/22 18:19:25","新北市五股區工商路84-1號","121.437963333333","25.0850966666667","6501500","五股區"
"248010","682-TV","2019/07/22 18:19:15","新北市五股區成泰路一段187號","121.434983333333","25.0764766666667","6501500","五股區"
"232011","375-UM","2019/07/22 18:19:27","新北市坪林區坪雙路一段41號","121.71169","24.942415","6502000","坪林區"
"244007","402-UM","2019/07/22 18:19:18","新北市林口區後湖11-63號","121.387036666667","25.0976333333333","6501700","林口區"
"244013","KEA-2802","2019/07/22 18:19:12","新北市林口區文化一路二段190號","121.382786666667","25.080315","6501700","林口區"
"244023","483-VK","2019/07/22 18:19:27","新北市林口區東湖路208號","121.383001666667","25.07331","6501700","林口區"
"244017","485-VK","2019/07/22 18:19:26","新北市林口區八德路78號","121.365521666667","25.0656433333333","6501700","林口區"
"244009","656-BX","2019/07/22 18:19:25","新北市林口區民生路46號","121.376438333333","25.0868916666667","6501700","林口區"
"244011","701-TV","2019/07/22 18:19:24","新北市林口區中正路149號","121.392996666667","25.0772483333333","6501700","林口區"
"244025","837-TS","2019/07/22 18:19:18","新北市林口區南勢二街85巷1號","121.355916666667","25.0696683333333","6501700","林口區"
"244021","838-TS","2019/07/22 18:19:18","新北市林口區自強一街6-1號","121.397858333333","25.0786","6501700","林口區"
"243013","646-TV","2019/07/22 18:19:16","新北市泰山區南林路93號","121.415515","25.051205","6501600","泰山區"
"222003","436-BY","2019/07/22 18:19:10","新北市深坑區旺耽路67號","121.626256666667","25.00301","6501800","深坑區"
"222002","659-BX","2019/07/22 18:19:25","新北市深坑區文山路二段17號","121.621961666667","24.99996","6501800","深坑區"
"231058","0293-UT","2019/07/22 18:19:18","新北市新店區安一路一段1-1號","121.51975","24.9617866666667","6500600","新店區"
"231044","046-UY","2019/07/22 18:19:21","新北市新店區安華路3號","121.519085","24.9604783333333","6500600","新店區"
"231060","106-UY","2019/07/22 18:19:09","新北市新店區安華路28-1號","121.519816666667","24.96077","6500600","新店區"
"231051","107-UY","2019/07/22 18:19:05","新北市新店區安一路一段1-1號","121.519235","24.9616183333333","6500600","新店區"
"231050","KEA-2219","2019/07/22 18:19:21","新北市新店區安一路一段1-1號","121.520073333333","24.96123","6500600","新店區"
"231054","260-TV","2019/07/22 18:19:12","新北市新店區安華路28-1號","121.519168333333","24.96083","6500600","新店區"
"231042","268-BY","2019/07/22 18:19:17","新北市新店區安一路一段1-1號","121.519783333333","24.9614633333333","6500600","新店區"
"231056","4715-K9","2019/07/22 18:19:09","新北市新店區環河路121-2號","121.530328333333","24.97148","6500600","新店區"
"231052","513-UM","2019/07/22 18:19:24","新北市新店區安一路一段1-1號","121.519783333333","24.9614816666667","6500600","新店區"
"231057","720-UM","2019/07/22 18:19:20","新北市新店區安華路28-1號","121.519326666667","24.9609166666667","6500600","新店區"
"231066","AKT-0513","2019/07/22 18:19:19","新北市新店區安華路28-1號","121.519495","24.9605916666667","6500600","新店區"
"241033","AAC-255","2019/07/22 18:19:13","新北市三重區中興北街42巷56號","121.467695","25.0492533333333","6500200","三重區"
"235066","003-UY","2019/07/22 18:19:11","新北市中和區中山路二段181號","121.501013333333","25.002805","6500300","中和區"
"235064","005-UY","2019/07/22 18:19:23","新北市中和區圓通路145巷9弄2號","121.498093333333","24.9950233333333","6500300","中和區"
"235063","006-UY","2019/07/22 18:19:22","新北市中和區中正路472號","121.489868333333","24.994155","6500300","中和區"
"235056","096-UM","2019/07/22 18:19:15","新北市中和區新生街116巷2號","121.483465","25.00217","6500300","中和區"
"235039","097-UM","2019/07/22 18:19:15","新北市中和區景平路408-2號","121.508491666667","24.9931516666667","6500300","中和區"
"235065","098-UM","2019/07/22 18:19:23","新北市中和區民樂路72號","121.484205","25.0012566666667","6500300","中和區"
"235040","150-BY","2019/07/22 18:18:15","新北市中和區中正路1號","121.503396666667","24.99332","6500300","中和區"
"235058","151-BY","2019/07/22 18:19:27","新北市中和區圓通路369巷39號","121.489748333333","24.98615","6500300","中和區"
"235055","183-VK","2019/07/22 18:19:20","新北市土城區延壽路1-9號","121.469171666667","24.9938833333333","6500300","中和區"
"235038","185-VK","2019/07/22 18:10:10","新北市中和區景平路124號","121.519026666667","24.9918066666667","6500300","中和區"
"235049","186-VK","2019/07/22 18:19:17","新北市中和區和城路一段271巷1號","121.485505","24.9921716666667","6500300","中和區"
"235067","255-BX","2019/07/22 18:19:18","新北市中和區連城路469巷17號","121.4836","24.9952166666667","6500300","中和區"
"235072","301-VK","2019/07/22 18:19:24","新北市中和區連城路237-1號","121.493805","24.997305","6500300","中和區"
"235043","352-BY","2019/07/22 18:19:20","新北市中和區景平路381號","121.503851666667","24.9935033333333","6500300","中和區"
"235042","KEA-2878","2019/07/22 18:19:27","新北市中和區景平路159巷17弄8號","121.512871666667","24.9916183333333","6500300","中和區"
"247014","KEA-2869","2019/07/22 18:17:44","新北市五股區中直路15-2號","121.42372","25.1109216666667","6501400","蘆洲區"
"235050","4979-A6","2019/07/22 18:19:10","新北市中和區南山路166號","121.504795","24.9914783333333","6500300","中和區"
"235069","4980-A6","2019/07/22 18:19:21","新北市中和區連城路169號","121.495573333333","24.9982383333333","6500300","中和區"
"235070","558-UM","2019/07/22 18:19:17","新北市中和區圓通路92號","121.49963","24.9969983333333","6500300","中和區"
"235045","565-BX","2019/07/22 18:19:25","新北市中和區復興路13號","121.505793333333","24.9896233333333","6500300","中和區"
"235060","KED-0823","2019/07/22 18:19:21","新北市中和區員山路271-1號","121.481345","24.999405","6500300","中和區"
"235047","732-UM","2019/07/22 18:19:14","新北市中和區中正路169號","121.498098333333","24.99363","6500300","中和區"
"235057","801-TS","2019/07/22 18:19:22","新北市中和區民享街97巷14號","121.475288333333","24.999645","6500300","中和區"
"235041","802-TS","2019/07/22 18:19:15","新北市中和區中正路266-1號","121.495131666667","24.9939266666667","6500300","中和區"
"235052","805-TS","2019/07/22 18:19:15","新北市中和區興南路二段87號","121.5063","24.9847933333333","6500300","中和區"
"235048","896-TW","2019/07/22 18:19:23","新北市中和區錦和路350-1號","121.490515","24.993595","6500300","中和區"
"235053","900-TW","2019/07/22 18:19:19","新北市中和區員山路36巷16-2號","121.485321666667","24.99145","6500300","中和區"
"235062","911-UM","2019/07/22 18:19:17","新北市中和區中山路二段312巷49號","121.495001666667","25.004375","6500300","中和區"
"235051","157-BY","2019/07/22 18:19:14","新北市中和區信義街59號","121.51145","24.9885183333333","6500300","中和區"
"235037","AAC-213","2019/07/22 18:19:10","新北市中和區景新街383巷64號","121.514651666667","24.9903883333333","6500300","中和區"
"220069","AAD-861","2019/07/22 18:19:11","新北市板橋區華東街1-10號","121.44827","24.9949633333333","6500100","板橋區"
"226004","312-R5","2019/07/22 18:19:14","新北市平溪區薯榔里一坑路1號","121.714036666667","25.0213166666667","6502400","平溪區"
"228003","097-TW","2019/07/22 18:19:08","新北市貢寮區真理里美艷山街63號","121.921621666667","25.07163","6502600","貢寮區"
"228002","663-BX","2019/07/22 18:19:06","新北市貢寮區福連里馬崗街1號","121.998193333333","25.0160916666667","6502600","貢寮區"
"228001","670-TC","2019/07/22 18:19:26","新北市貢寮區真理里新港街26巷55弄2-1號","121.927306666667","25.0528266666667","6502600","貢寮區"
"224010","AGQ-8101","2019/07/22 18:19:09","新北市瑞芳區崙頂路1-5號","121.846706666667","25.1065833333333","6501200","瑞芳區"
"224006","676-BX","2019/07/22 18:19:01","新北市瑞芳區三爪子坑路106巷1-11號","121.808066666667","25.104955","6501200","瑞芳區"
"224007","285-BY","2019/07/22 18:19:20","新北市瑞芳區大埔路67巷21號","121.764241666667","25.1017366666667","6501200","瑞芳區"
"224009","275-VK","2019/07/22 18:19:15","新北市瑞芳區五號路8號","121.854818333333","25.1101233333333","6501200","瑞芳區"
"224008","273-VK","2019/07/22 18:19:08","新北市瑞芳區逢甲路38號","121.811355","25.10841","6501200","瑞芳區"
"224005","271-BY","2019/07/22 18:19:23","新北市瑞芳區建基新村5-1號","121.812078333333","25.1313416666667","6501200","瑞芳區"
"227001","642-TC","2019/07/22 18:19:23","新北市雙溪區牡丹里牡丹73號","121.851665","25.0593716666667","6502500","雙溪區"
"227002","400-TW","2019/07/22 18:19:10","新北市雙溪區共和里中山路2號","121.863808333333","25.0337633333333","6502500","雙溪區"
"253006","032-BX","2019/07/22 18:19:12","新北市石門區老梅路74號","121.54691","25.2890783333333","6502200","石門區"
"253005","295-VK","2019/07/22 18:19:19","新北市石門區中央路37-5號","121.569546666667","25.296505","6502200","石門區"
"222001","KEA-2212","2019/07/22 18:19:19","新北市深坑區北深路二段51號","121.619045","25.003935","6501800","深坑區"
"208002","KEA-2872","2019/07/22 18:19:09","新北市金山區磺清路135號","121.63949","25.2274733333333","6502700","金山區"
"208003","665-BX","2019/07/22 18:19:16","新北市金山區民生路196號","121.645458333333","25.2218183333333","6502700","金山區"
"251004","009-UM","2019/07/22 18:19:18","新北市淡水區民權路215巷100號","121.462748333333","25.1335483333333","6501000","淡水區"
"251001","011-UM","2019/07/22 18:19:28","新北市淡水區自強路108-19號","121.461626666667","25.1313566666667","6501000","淡水區"
"251002","012-UM","2019/07/22 18:19:11","新北市淡水區中正東路一段125號","121.455265","25.1594283333333","6501000","淡水區"
"251015","KEA-2871","2019/07/22 18:19:13","新北市淡水區興福寮88巷87號","121.484555","25.1656983333333","6501000","淡水區"
"251016","179-VK","2019/07/22 18:19:27","新北市淡水區下圭柔山33號","121.450443333333","25.2048783333333","6501000","淡水區"
"251008","181-VK","2019/07/22 18:19:19","新北市淡水區坪頂路70巷26號","121.460556666667","25.1604183333333","6501000","淡水區"
"251013","182-VK","2019/07/22 18:19:22","新北市淡水區行忠路657號","121.469686666667","25.19929","6501000","淡水區"
"251010","413-VK","2019/07/22 18:19:21","新北市淡水區淡海路188號","121.420393333333","25.1849733333333","6501000","淡水區"
"251012","441-VK","2019/07/22 18:19:20","新北市淡水區北新路二段79-7號","121.481316666667","25.185425","6501000","淡水區"
"251005","443-VK","2019/07/22 18:19:10","新北市淡水區水源街一段122巷40號","121.447076666667","25.17061","6501000","淡水區"
"251006","561-UM","2019/07/22 18:19:24","新北市淡水區新民街76巷36弄1號","121.439381666667","25.1779616666667","6501000","淡水區"
"251014","577-R6","2019/07/22 18:19:24","新北市淡水區崙頂16號","121.49183","25.2216116666667","6501000","淡水區"
"251011","650-BX","2019/07/22 18:19:25","新北市淡水區三空泉9-2號","121.47426","25.1634316666667","6501000","淡水區"
"251003","766-UM","2019/07/22 18:19:22","新北市淡水區北新路184巷3-1號","121.449365","25.1784833333333","6501000","淡水區"
"207003","550-UM","2019/07/22 18:19:16","新北市萬里區野柳里港西路13號","121.685135","25.20439","6502800","萬里區"
"207004","225-TW","2019/07/22 18:19:28","新北市萬里區中幅里中福路194號","121.673666666667","25.1654","6502800","萬里區"
"252002","178-VK","2019/07/22 18:19:25","新北市三芝區中山路二段39號","121.502885","25.2551066666667","6502100","三芝區"
"252003","249-BX","2019/07/22 18:19:20","新北市三芝區錫板里南勢崗5-5號","121.480653333333","25.2630566666667","6502100","三芝區"
"208001","170-UY","2019/07/22 18:19:23","新北市金山區自強路11號","121.640391666667","25.21658","6502700","金山區"
"237004","KEA-2597","2019/07/22 18:19:24","新北市三峽區五寮41-28號","121.365398333333","24.8627783333333","6500900","三峽區"
"237007","153-BY","2019/07/22 18:19:16","新北市三峽區中正路二段546號","121.360143333333","24.90631","6500900","三峽區"
"237009","210-TH","2019/07/22 18:19:22","新北市三峽區大勇路36巷22號","121.366193333333","24.9371516666667","6500900","三峽區"
"237013","252-BX","2019/07/22 18:19:26","新北市三峽區長泰街2號","121.378673333333","24.9307566666667","6500900","三峽區"
"237012","275-BY","2019/07/22 18:19:23","新北市三峽區三樹路46號","121.37774","24.9377633333333","6500900","三峽區"
"237008","302-VK","2019/07/22 18:19:21","新北市三峽區白雞68-303號","121.391265","24.9096866666667","6500900","三峽區"
"237014","433-BY","2019/07/22 18:19:12","新北市三峽區復興路110巷2弄14號","121.373116666667","24.9379083333333","6500900","三峽區"
"237006","5529-G3","2019/07/22 18:19:11","新北市三峽區溪東路235號","121.406496666667","24.932665","6500900","三峽區"
"237011","KEA-2596","2019/07/22 18:19:08","新北市三峽區溪東路41號","121.400453333333","24.93488","6500900","三峽區"
"237015","649-BX","2019/07/22 18:19:20","新北市三峽區紫微路42-1號","121.422656666667","24.9199883333333","6500900","三峽區"
"237010","706-TV","2019/07/22 18:19:25","新北市三峽區民族街158號","121.36898","24.92818","6500900","三峽區"
"237005","AKY-6261","2019/07/22 18:19:13","新北市三峽區忠孝街25-9號","121.371448333333","24.934295","6500900","三峽區"
"236042","KED-0685","2019/07/22 18:19:22","新北市土城區裕民路3巷32號","121.448583333333","24.9865216666667","6501300","土城區"
"236078","166-UM","2019/07/22 18:19:20","新北市土城區中央路三段235巷7號","121.429163333333","24.9637783333333","6501300","土城區"
"236030","253-BX","2019/07/22 18:19:25","新北市土城區順風路63號","121.440196666667","24.97735","6501300","土城區"
"236026","269-VK","2019/07/22 18:19:12","新北市土城區承天路47號","121.438893333333","24.9638933333333","6501300","土城區"
"236014","270-VK","2019/07/22 18:19:15","新北市土城區青雲路39巷7號","121.460335","24.98746","6501300","土城區"
"236039","271-VK","2019/07/22 18:19:24","新北市土城區青雲路483巷10弄20號","121.45933","24.97301","6501300","土城區"
"236069","KEA-2877","2019/07/22 18:19:20","新北市土城區永豐路202巷7-1號","121.466213333333","24.98326","6501300","土城區"
"252001","KED-0821","2019/07/22 18:19:17","新北市三芝區中興街二段2號","121.498286666667","25.2566416666667","6502100","三芝區"
"236020","401-BY","2019/07/22 18:19:23","新北市土城區明德路一段375-1號","121.454761666667","24.9782","6501300","土城區"
"236059","912-UM","2019/07/22 18:19:08","新北市土城區中央路四段464號","121.409903333333","24.9506066666667","6501300","土城區"
"236048","913-UM","2019/07/22 18:19:18","新北市土城區明德路一段361-3號","121.456133333333","24.9777183333333","6501300","土城區"
"236063","915-UM","2019/07/22 18:19:17","新北市土城區金城路三段183-1號","121.469648333333","24.9887533333333","6501300","土城區"
"236055","AAC-216","2019/07/22 18:19:20","新北市土城區中華路二段116號","121.437856666667","24.9739833333333","6501300","土城區"
"242060","986-R7","2019/07/22 18:19:17","新北市新莊區新樹路132號","121.435681666667","25.0236716666667","6500500","新莊區"
"242002","751-BX","2019/07/22 18:19:22","新北市新莊區大觀街4號","121.454551666667","25.0341766666667","6500500","新莊區"
"242027","613-BX","2019/07/22 18:19:15","新北市新莊區幸福路600號","121.453163333333","25.0492533333333","6500500","新莊區"
"242058","612-BX","2019/07/22 18:19:14","新北市新莊區新北大道七段347號","121.41214","25.0274516666667","6500500","新莊區"
"242046","566-BX","2019/07/22 18:19:16","新北市新莊區福營路334號","121.421691666667","25.0268216666667","6500500","新莊區"
"242050","497-BY","2019/07/22 18:19:21","新北市新莊區民安西路68號","121.427233333333","25.0201133333333","6500500","新莊區"
"242011","442-UM","2019/07/22 18:19:10","新北市新莊區中港路591巷16號","121.45023","25.0525066666667","6500500","新莊區"
"242056","441-UM","2019/07/22 18:19:21","新北市新莊區豐年街53巷22號","121.44706","25.031715","6500500","新莊區"
"242042","415-TV","2019/07/22 18:19:11","新北市新莊區明志路19號","121.420053333333","25.0291166666667","6500500","新莊區"
"242048","400-BY","2019/07/22 18:19:16","新北市新莊區民安路100號","121.423908333333","25.0260716666667","6500500","新莊區"
"242025","362-BY","2019/07/22 18:19:18","新北市新莊區五工三路97號","121.458031666667","25.0653516666667","6500500","新莊區"
"242036","135-UY","2019/07/22 18:19:10","新北市新莊區後港一路49巷3弄11號","121.425105","25.0267433333333","6500500","新莊區"
"242053","172-VK","2019/07/22 18:19:15","新北市新莊區民安西路410巷1弄2號","121.428651666667","25.009565","6500500","新莊區"
"242015","173-VK","2019/07/22 18:19:14","新北市新莊區中和街126號","121.447486666667","25.0479216666667","6500500","新莊區"
"242021","175-VK","2019/07/22 18:19:22","新北市新莊區中正路225號","121.4507","25.0358216666667","6500500","新莊區"
"242034","348-TH","2019/07/22 18:19:22","新北市新莊區瓊林路46-3號","121.447298333333","25.0294533333333","6500500","新莊區"
"242007","349-TH","2019/07/22 18:19:24","新北市新莊區自強街23巷3號","121.454413333333","25.0463916666667","6500500","新莊區"
"242031","350-TH","2019/07/22 18:19:25","新北市新莊區新泰路255巷83號","121.442858333333","25.039405","6500500","新莊區"
"238015","755-BX","2019/07/22 18:19:16","新北市樹林區啟智街173巷2號","121.415876666667","24.98754","6500700","樹林區"
"238023","601-UM","2019/07/22 18:19:08","新北市樹林區三福街114號","121.406386666667","25.0162866666667","6500700","樹林區"
"238019","599-UM","2019/07/22 18:19:18","新北市樹林區水源街32巷74號","121.424973333333","24.9802266666667","6500700","樹林區"
"238024","5061-A6","2019/07/22 18:19:15","新北市樹林區中山路一段157號","121.422011666667","24.9886966666667","6500700","樹林區"
"238018","KEA-2217","2019/07/22 18:19:17","新北市樹林區保安街一段20巷34號","121.428291666667","24.9945966666667","6500700","樹林區"
"238025","303-VK","2019/07/22 18:19:27","新北市樹林區保安街一段79號","121.422713333333","24.9951833333333","6500700","樹林區"
"238017","283-BY","2019/07/22 18:19:22","新北市樹林區保安街二段333巷1號","121.411901666667","25.0074133333333","6500700","樹林區"
"238001","282-BY","2019/07/22 18:19:21","新北市樹林區大安路493號","121.41437","24.986875","6500700","樹林區"
"238020","268-VK","2019/07/22 18:19:15","新北市樹林區三俊街50號","121.412293333333","25.0155916666667","6500700","樹林區"
"238026","172-UY","2019/07/22 18:19:18","新北市樹林區佳園路一段82-1號","121.393343333333","24.9695383333333","6500700","樹林區"
"238016","169-UY","2019/07/22 18:19:22","新北市樹林區中山路二段80號","121.415078333333","24.9838666666667","6500700","樹林區"
"239007","AAC-297","2019/07/22 18:19:18","新北市鶯歌區育英街79號","121.347363333333","24.9518","6500800","鶯歌區"
"239006","891-R6","2019/07/22 18:19:13","新北市鶯歌區德昌街140巷32號","121.332418333333","24.9617116666667","6500800","鶯歌區"
"239008","527-UM","2019/07/22 18:19:10","新北市鶯歌區國際一路14號","121.336208333333","24.976565","6500800","鶯歌區"
"239001","417-VK","2019/07/22 18:19:20","新北市鶯歌區中正三路5巷19號","121.340201666667","24.9427883333333","6500800","鶯歌區"
"239003","360-BY","2019/07/22 18:19:10","新北市鶯歌區福安街32巷26號","121.33513","24.9636416666667","6500800","鶯歌區"
"239002","359-BY","2019/07/22 18:19:24","新北市鶯歌區光明街94號","121.346391666667","24.95582","6500800","鶯歌區"
"239004","193-VK","2019/07/22 18:19:12","新北市鶯歌區尖山路137巷5弄2衖22號","121.347608333333","24.9479366666667","6500800","鶯歌區"
"221036","130-UY","2019/07/22 18:19:22","新北市汐止區大同路三段193號","121.67107","25.0774366666667","6501100","汐止區"
"221015","131-UY","2019/07/22 18:19:12","新北市汐止區汐萬路一段160號","121.652598333333","25.0714833333333","6501100","汐止區"
"244019","KED-0667","2019/07/22 18:19:14","新北市林口區忠孝路604巷18號","121.376593333333","25.0673033333333","6501700","林口區"
"221010","269-BY","2019/07/22 18:19:12","新北市汐止區祥雲街18巷1號","121.64646","25.089945","6501100","汐止區"
"221012","278-VK","2019/07/22 18:19:10","新北市汐止區保一街47號","121.674428333333","25.0801466666667","6501100","汐止區"
"221023","279-VK","2019/07/22 18:19:28","新北市汐止區中興路201號","121.6292","25.0684533333333","6501100","汐止區"
"221032","280-BY","2019/07/22 18:19:12","新北市汐止區力行街11號","121.617106666667","25.0509333333333","6501100","汐止區"
"221033","297-VK","2019/07/22 18:19:19","新北市汐止區宜興街33巷1號","121.62197","25.0420966666667","6501100","汐止區"
"221021","299-VK","2019/07/22 18:19:17","新北市汐止區復興路9號","121.655881666667","25.0645966666667","6501100","汐止區"
"221031","353-TW","2019/07/22 18:19:09","新北市汐止區中興路206號","121.631285","25.0660833333333","6501100","汐止區"
"221035","622-UM","2019/07/22 18:19:08","新北市汐止區汐萬路一段37號","121.655436666667","25.06844","6501100","汐止區"
"221025","623-UM","2019/07/22 18:19:21","新北市汐止區勤進路12巷31號","121.659191666667","25.06251","6501100","汐止區"
"221038","646-BX","2019/07/22 18:19:10","新北市汐止區仁愛路202號","121.664965","25.0657883333333","6501100","汐止區"
"221002","707-TV","2019/07/22 18:19:23","新北市汐止區福德一路201巷25號","121.635933333333","25.0647083333333","6501100","汐止區"
"221018","753-BX","2019/07/22 18:19:28","新北市汐止區茄苳路88巷6弄8號","121.66656","25.0702266666667","6501100","汐止區"
"233002","KEA-2870","2019/07/22 18:19:26","新北市烏來區新烏路五段45號","121.542443333333","24.8806","6502900","烏來區"
"233001","KEC-0709","2019/07/22 18:19:21","新北市烏來區新烏路五段69號","121.54693","24.8749","6502900","烏來區"
"224002","257-TC","2019/07/22 18:19:21","新北市瑞芳區三爪子坑路109號","121.810745","25.10716","6501200","瑞芳區"
"242044","281-VK","2019/07/22 18:19:26","新北市新莊區中正路730-2號","121.414775","25.023975","6500500","新莊區"
"220073","985-R7","2019/07/22 18:19:20","新北市板橋區華東街1-10號","121.448276666667","24.9949783333333","6500100","板橋區"
"235068","KEA-2873","2019/07/22 18:19:24","新北市中和區員山路36巷16-3號","121.485168333333","24.9912666666667","6500300","中和區"
"235061","KEA-2875","2019/07/22 18:19:25","新北市中和區民享街116巷27弄1號","121.47369","24.9989933333333","6500300","中和區"
"235046","KEA-2876","2019/07/22 18:19:07","新北市中和區員山路36巷13號","121.48402","24.9911066666667","6500300","中和區"
