"lineid","car","time","location","longitude","latitude","cityid","cityname"
"234046","148-BY","2019/07/22 18:39:16","新北市永和區永元路68號","121.522583333333","25.0015833333333","6500400","永和區"
"234038","336-UY","2019/07/22 18:39:27","新北市永和區福和路1號","121.526458333333","25.010015","6500400","永和區"
"234086","338-UY","2019/07/22 18:39:28","新北市永和區中正路182號","121.515233333333","24.9968616666667","6500400","永和區"
"234003","553-UM","2019/07/22 18:39:25","新北市永和區福和路1號","121.52592","25.0091483333333","6500400","永和區"
"234017","745-BX","2019/07/22 18:39:16","新北市永和區竹林路91巷60弄70號","121.523086666667","25.012185","6500400","永和區"
"234030","746-BX","2019/07/22 18:39:09","新北市永和區林森路99號","121.523361666667","25.0036716666667","6500400","永和區"
"234007","KED-0605","2019/07/22 18:39:25","新北市永和區文化路168號","121.512095","25.0153733333333","6500400","永和區"
"234013","KEA-2591","2019/07/22 18:39:25","新北市永和區信義路50號","121.513158333333","25.0124533333333","6500400","永和區"
"234061","AAD-866","2019/07/22 18:39:24","新北市永和區福和路1號","121.525973333333","25.0095283333333","6500400","永和區"
"234070","748-BX","2019/07/22 18:39:13","新北市永和區福和路1號","121.52546","25.0092466666667","6500400","永和區"
"234026","9371-KE","2019/07/22 18:39:18","新北市永和區自由街60號","121.513626666667","25.0059616666667","6500400","永和區"
"234011","9373-KE","2019/07/22 18:39:22","新北市永和區永和路二段231巷1號","121.515253333333","25.0141433333333","6500400","永和區"
"249005","172-UM","2019/07/22 18:39:12","新北市八里區中華路三段34-2號","121.388681666667","25.1256316666667","6502300","八里區"
"249001","173-UM","2019/07/22 18:39:09","新北市八里區龍米路一段366號","121.451563333333","25.1315433333333","6502300","八里區"
"249004","303-UY","2019/07/22 18:39:25","新北市八里區龍米路三段60號","121.423635","25.15904","6502300","八里區"
"249002","305-UY","2019/07/22 18:38:57","新北市八里區龍形一街12巷10號","121.449875","25.1307933333333","6502300","八里區"
"248014","025-BX","2019/07/22 18:39:23","新北市五股區民義路一段42-1號","121.436903333333","25.0839266666667","6501500","五股區"
"248015","026-BX","2019/07/22 18:39:20","新北市五股區凌雲路一段149巷5-1號","121.448918333333","25.1017483333333","6501500","五股區"
"248007","KED-0815","2019/07/22 18:39:21","新北市五股區中興路一段150巷14號","121.464723333333","25.0745366666667","6501500","五股區"
"248018","KED-0813","2019/07/22 18:39:22","新北市五股區民義路二段107號","121.404783333333","25.10969","6501500","五股區"
"248012","247-BX","2019/07/22 18:39:23","新北市五股區成泰路三段6號","121.441186666667","25.0876483333333","6501500","五股區"
"248004","677-BX","2019/07/22 18:39:25","新北市五股區民義路二段18-1號","121.420573333333","25.0966083333333","6501500","五股區"
"248010","682-TV","2019/07/22 18:39:15","新北市五股區水碓三路120號","121.431856666667","25.0735083333333","6501500","五股區"
"234023","9380-KE","2019/07/22 18:39:20","新北市永和區福和路76巷5弄14號","121.522273333333","25.008375","6500400","永和區"
"234077","969-R7","2019/07/22 18:39:19","新北市永和區中正路612號","121.517008333333","25.0073566666667","6500400","永和區"
"232011","375-UM","2019/07/22 18:39:07","新北市坪林區坪雙路一段41號","121.711688333333","24.9424266666667","6502000","坪林區"
"244007","402-UM","2019/07/22 18:39:18","新北市林口區太平里3-3號","121.379171666667","25.11384","6501700","林口區"
"244013","KEA-2802","2019/07/22 18:39:12","新北市林口區麗園路2巷33號","121.37509","25.0709816666667","6501700","林口區"
"244023","483-VK","2019/07/22 18:39:27","新北市林口區四維路156號","121.380835","25.075885","6501700","林口區"
"244017","485-VK","2019/07/22 18:39:26","新北市林口區文化二路一段68號","121.36613","25.06882","6501700","林口區"
"244009","656-BX","2019/07/22 18:39:05","新北市林口區竹林路358巷15號","121.392471666667","25.0840983333333","6501700","林口區"
"244011","701-TV","2019/07/22 18:39:24","新北市林口區仁愛路一段280號","121.393206666667","25.0760416666667","6501700","林口區"
"244025","837-TS","2019/07/22 18:39:18","新北市林口區南勢四街303號","121.35647","25.074265","6501700","林口區"
"244021","838-TS","2019/07/22 18:39:18","新北市林口區工六路62-1號","121.399503333333","25.077865","6501700","林口區"
"243014","KEA-2801","2019/07/22 18:39:10","新北市泰山區犁頭窠3-1號","121.422268333333","25.060515","6501600","泰山區"
"243016","421-VK","2019/07/22 18:39:26","新北市泰山區黎明路25號","121.421795","25.0609416666667","6501600","泰山區"
"222003","436-BY","2019/07/22 18:39:30","新北市深坑區翠谷街39號","121.626715","25.0094416666667","6501800","深坑區"
"222002","659-BX","2019/07/22 18:39:25","新北市深坑區雲鄉路2號","121.620943333333","24.9996683333333","6501800","深坑區"
"231061","002-UM","2019/07/22 18:39:11","新北市新店區安華路28-1號","121.51975","24.960755","6500600","新店區"
"231058","0293-UT","2019/07/22 18:39:18","新北市新店區新店後街48號","121.537855","24.9538216666667","6500600","新店區"
"231044","046-UY","2019/07/22 18:39:21","新北市新店區安一路一段1-1號","121.519501666667","24.96131","6500600","新店區"
"231060","106-UY","2019/07/22 18:39:09","新北市新店區安華路28-1號","121.519936666667","24.9607516666667","6500600","新店區"
"231051","107-UY","2019/07/22 18:39:25","新北市新店區安康路一段355號","121.519946666667","24.9635783333333","6500600","新店區"
"231050","KEA-2219","2019/07/22 18:39:21","新北市新店區安一路一段1-1號","121.52016","24.961195","6500600","新店區"
"231054","260-TV","2019/07/22 18:39:12","新北市新店區安華路28-1號","121.519223333333","24.960825","6500600","新店區"
"231042","268-BY","2019/07/22 18:39:17","新北市新店區北新路一段62號","121.541135","24.96657","6500600","新店區"
"231045","355-BY","2019/07/22 18:39:10","新北市新店區安華路28-1號","121.518943333333","24.9607383333333","6500600","新店區"
"231055","4716-K9","2019/07/22 18:39:09","新北市新店區中華路139號","121.538376666667","24.9700333333333","6500600","新店區"
"231056","4715-K9","2019/07/22 18:39:09","新北市新店區大豐路68巷17號","121.538473333333","24.980315","6500600","新店區"
"231052","513-UM","2019/07/22 18:39:24","新北市新店區新烏路一段73-1號","121.546436666667","24.9423033333333","6500600","新店區"
"231063","616-UM","2019/07/22 18:39:11","新北市新店區安華路1-1號","121.519391666667","24.9604466666667","6500600","新店區"
"231047","KED-0819","2019/07/22 18:39:09","新北市新店區安一路一段1-1號","121.519988333333","24.9612033333333","6500600","新店區"
"231046","719-UM","2019/07/22 18:39:28","新北市新店區直潭二街1號","121.535405","24.94315","6500600","新店區"
"231057","720-UM","2019/07/22 18:39:20","新北市新店區北宜路一段9號","121.538136666667","24.9579066666667","6500600","新店區"
"231059","897-TW","2019/07/22 18:39:23","新北市新店區安華路28-1號","121.519748333333","24.9607316666667","6500600","新店區"
"231040","898-TW","2019/07/22 18:39:15","新北市新店區安華路28-1號","121.519533333333","24.9608","6500600","新店區"
"231043","899-TW","2019/07/22 18:39:12","新北市新店區安華路3號","121.518841666667","24.9606816666667","6500600","新店區"
"231066","AKT-0513","2019/07/22 18:39:19","新北市新店區安華路1-1號","121.51952","24.9604166666667","6500600","新店區"
"235066","003-UY","2019/07/22 18:39:10","新北市中和區光華街46號","121.505031666667","25.0036233333333","6500300","中和區"
"235064","005-UY","2019/07/22 18:39:23","新北市中和區連城路103號","121.496313333333","24.999595","6500300","中和區"
"235063","006-UY","2019/07/22 18:39:22","新北市中和區連城路389巷8號","121.486428333333","24.99568","6500300","中和區"
"235056","096-UM","2019/07/22 18:39:15","新北市中和區員山路611巷1號","121.477821666667","25.0112433333333","6500300","中和區"
"235039","097-UM","2019/07/22 18:39:15","新北市中和區宜安路18巷13號","121.513908333333","24.9963183333333","6500300","中和區"
"235065","098-UM","2019/07/22 18:39:23","新北市中和區中山路二段64巷14弄1號","121.503361666667","25.0056416666667","6500300","中和區"
"235040","150-BY","2019/07/22 18:39:15","新北市中和區安平路59號","121.509526666667","24.995075","6500300","中和區"
"235058","151-BY","2019/07/22 18:39:27","新北市中和區員山路109號","121.48084","24.99469","6500300","中和區"
"235055","183-VK","2019/07/22 18:39:20","新北市板橋區民族路276巷3弄4號","121.469926666667","25.0061383333333","6500300","中和區"
"235038","185-VK","2019/07/22 18:39:08","新北市中和區大勇街60巷8號","121.51868","24.994725","6500300","中和區"
"235049","186-VK","2019/07/22 18:39:17","新北市中和區明義街32號","121.503951666667","24.99523","6500300","中和區"
"235067","255-BX","2019/07/22 18:39:18","新北市中和區新生街37號","121.483406666667","25.0033366666667","6500300","中和區"
"235044","293-VK","2019/07/22 18:39:09","新北市中和區復興路280巷6號","121.50227","24.9910566666667","6500300","中和區"
"235072","301-VK","2019/07/22 18:39:24","新北市中和區中山路二段80號","121.503475","25.0045266666667","6500300","中和區"
"235043","352-BY","2019/07/22 18:39:20","新北市中和區景平路71-5號","121.518471666667","24.99165","6500300","中和區"
"235042","KEA-2878","2019/07/22 18:39:27","新北市中和區秀朗路三段142號","121.524286666667","24.99147","6500300","中和區"
"235050","4979-A6","2019/07/22 18:39:10","新北市中和區忠孝街113巷31號","121.512471666667","24.9878433333333","6500300","中和區"
"235069","4980-A6","2019/07/22 18:39:21","新北市中和區連城路91號","121.496753333333","24.999805","6500300","中和區"
"235070","558-UM","2019/07/22 18:39:17","新北市中和區圓通路40號","121.50094","24.997895","6500300","中和區"
"235045","565-BX","2019/07/22 18:39:25","新北市中和區南山路234號","121.50663","24.989945","6500300","中和區"
"235060","KED-0823","2019/07/22 18:39:13","新北市中和區中山路三段56號","121.478221666667","25.0058416666667","6500300","中和區"
"235054","640-BX","2019/07/22 18:39:23","新北市中和區民享街68巷16號","121.473353333333","25.001805","6500300","中和區"
"235047","732-UM","2019/07/22 18:39:17","新北市中和區南山路320巷10弄8號","121.506938333333","24.986565","6500300","中和區"
"235057","801-TS","2019/07/22 18:39:22","新北市中和區民安街22巷23號","121.479575","25.0014516666667","6500300","中和區"
"235041","802-TS","2019/07/22 18:39:15","新北市中和區中安街178巷3弄2號","121.510473333333","24.9990266666667","6500300","中和區"
"235052","805-TS","2019/07/22 18:39:15","新北市中和區興南路三段52巷2-5號","121.494728333333","24.97611","6500300","中和區"
"235048","896-TW","2019/07/22 18:39:23","新北市中和區南山路313號","121.504896666667","24.9914316666667","6500300","中和區"
"235053","900-TW","2019/07/22 18:39:19","新北市中和區民德路266號","121.468058333333","24.9966233333333","6500300","中和區"
"235062","911-UM","2019/07/22 18:39:17","新北市中和區景平路703巷2弄2號","121.496188333333","25.00351","6500300","中和區"
"235051","157-BY","2019/07/22 18:39:14","新北市中和區華新街232巷10號","121.50574","24.9821966666667","6500300","中和區"
"235037","AAC-213","2019/07/22 18:39:10","新北市中和區秀朗路三段128巷12弄1號","121.524581666667","24.9928433333333","6500300","中和區"
"235059","AAC-215","2019/07/22 18:39:22","新北市中和區錦和路354巷15號","121.489483333333","24.9915616666667","6500300","中和區"
"220068","015-TV","2019/07/22 18:36:14","新北市板橋區三民路一段129-2號","121.479388333333","25.0208633333333","6500100","板橋區"
"220065","072-UY","2019/07/22 18:39:21","新北市板橋區實踐路60號","121.463821666667","25.0060033333333","6500100","板橋區"
"220086","073-UY","2019/07/22 18:39:19","新北市板橋區華東街1-10號","121.448256666667","24.9950366666667","6500100","板橋區"
"220106","075-UY","2019/07/22 18:39:17","新北市板橋區民生路二段161巷9號","121.470158333333","25.0194816666667","6500100","板橋區"
"220069","AAD-861","2019/07/22 18:39:11","新北市板橋區南雅南路一段1巷42號","121.457676666667","25.0063366666667","6500100","板橋區"
"226004","312-R5","2019/07/22 18:39:14","新北市平溪區石底里公園街18-3號","121.733305","25.02582","6502400","平溪區"
"228003","097-TW","2019/07/22 18:39:23","新北市貢寮區和美里龍洞街40號","121.91502","25.1117166666667","6502600","貢寮區"
"228002","663-BX","2019/07/22 18:39:26","新北市貢寮區福隆里桂安街18號","121.95673","25.01981","6502600","貢寮區"
"228001","670-TC","2019/07/22 18:39:26","新北市貢寮區仁理村保健街73號","121.92372","25.05166","6502600","貢寮區"
"224006","676-BX","2019/07/22 18:39:21","新北市瑞芳區明燈路三段130號","121.804485","25.1084666666667","6501200","瑞芳區"
"224007","285-BY","2019/07/22 18:39:29","新北市瑞芳區大埔路117號","121.763496666667","25.1010666666667","6501200","瑞芳區"
"224009","275-VK","2019/07/22 18:39:15","新北市瑞芳區祈堂路8號","121.859036666667","25.1132733333333","6501200","瑞芳區"
"224008","273-VK","2019/07/22 18:39:08","新北市瑞芳區岳王路162號","121.808043333333","25.111315","6501200","瑞芳區"
"224005","271-BY","2019/07/22 18:39:23","新北市瑞芳區瑞濱路139-1號","121.819646666667","25.119825","6501200","瑞芳區"
"227001","642-TC","2019/07/22 18:39:23","新北市雙溪區牡丹里牡丹134號","121.850575","25.059415","6502500","雙溪區"
"227002","400-TW","2019/07/22 18:39:10","新北市雙溪區魚行里坤溪3-5號","121.875075","25.0216116666667","6502500","雙溪區"
"253006","032-BX","2019/07/22 18:39:12","新北市石門區楓林28-5號","121.542621666667","25.289875","6502200","石門區"
"253005","295-VK","2019/07/22 18:39:19","新北市石門區中央路4-1號","121.56545","25.2913216666667","6502200","石門區"
"222001","KEA-2212","2019/07/22 18:39:19","新北市深坑區北深路一段82號","121.636305","25.010705","6501800","深坑區"
"208002","KEA-2872","2019/07/22 18:39:09","新北市金山區忠孝一路19巷6-1號","121.63793","25.2180716666667","6502700","金山區"
"208003","665-BX","2019/07/22 18:39:16","新北市金山區中山路399號","121.633208333333","25.225425","6502700","金山區"
"251004","009-UM","2019/07/22 18:39:18","新北市淡水區大同路2號","121.461533333333","25.140795","6501000","淡水區"
"251001","011-UM","2019/07/22 18:39:28","新北市淡水區自強路166號","121.465616666667","25.1340733333333","6501000","淡水區"
"251002","012-UM","2019/07/22 18:39:11","新北市淡水區中正東路一段3巷14弄3號","121.451023333333","25.1644133333333","6501000","淡水區"
"251015","KEA-2871","2019/07/22 18:39:13","新北市淡水區興福寮66巷303號","121.485545","25.1617633333333","6501000","淡水區"
"251016","179-VK","2019/07/22 18:39:27","新北市淡水區下圭柔山84-1號","121.440148333333","25.2050833333333","6501000","淡水區"
"251008","181-VK","2019/07/22 18:39:19","新北市淡水區北投子68-2號","121.454271666667","25.181545","6501000","淡水區"
"251013","182-VK","2019/07/22 18:39:22","新北市淡水區奎柔山路1262號","121.482471666667","25.205635","6501000","淡水區"
"251010","413-VK","2019/07/22 18:39:21","新北市淡水區沙崙路126號","121.423421666667","25.182955","6501000","淡水區"
"251012","441-VK","2019/07/22 18:39:20","新北市淡水區北新路121號","121.448966666667","25.1786433333333","6501000","淡水區"
"251005","443-VK","2019/07/22 18:39:10","新北市淡水區濱海路一段53號","121.443931666667","25.188945","6501000","淡水區"
"251006","561-UM","2019/07/22 18:39:24","新北市淡水區中山北路三段16巷20號","121.443853333333","25.1899183333333","6501000","淡水區"
"251014","577-R6","2019/07/22 18:39:24","新北市淡水區崙頂12-8號","121.495563333333","25.2172383333333","6501000","淡水區"
"251011","650-BX","2019/07/22 18:39:22","新北市淡水區學府路1號","121.447233333333","25.1677516666667","6501000","淡水區"
"251003","766-UM","2019/07/22 18:39:22","新北市淡水區北新路69巷28號","121.447036666667","25.1797466666667","6501000","淡水區"
"207003","550-UM","2019/07/22 18:39:17","新北市萬里區野柳里港東路72-1號","121.688005","25.2049416666667","6502800","萬里區"
"207004","225-TW","2019/07/22 18:39:15","新北市萬里區萬里里獅頭路12號","121.692295","25.1791516666667","6502800","萬里區"
"252002","178-VK","2019/07/22 18:39:25","新北市三芝區民生街64巷1號","121.503453333333","25.255385","6502100","三芝區"
"252003","249-BX","2019/07/22 18:39:20","新北市三芝區後厝里土地公坑54-18號","121.465536666667","25.249465","6502100","三芝區"
"208001","170-UY","2019/07/22 18:39:23","新北市金山區文化三路7號","121.635151666667","25.2249266666667","6502700","金山區"
"237004","KEA-2597","2019/07/22 18:39:24","新北市三峽區插角82號","121.406218333333","24.87088","6500900","三峽區"
"237007","153-BY","2019/07/22 18:39:16","新北市三峽區柑樹路6巷23號","121.361701666667","24.9040483333333","6500900","三峽區"
"237009","210-TH","2019/07/22 18:39:22","新北市三峽區大同路286巷3號","121.364181666667","24.9252816666667","6500900","三峽區"
"237013","252-BX","2019/07/22 18:39:26","新北市三峽區光明路69巷25號","121.37678","24.929255","6500900","三峽區"
"237012","275-BY","2019/07/22 18:39:23","新北市三峽區三樹路340號","121.383841666667","24.9433466666667","6500900","三峽區"
"237008","302-VK","2019/07/22 18:39:21","新北市三峽區白雞30-14號","121.372685","24.9122983333333","6500900","三峽區"
"237014","433-BY","2019/07/22 18:39:12","新北市三峽區和平街99號","121.370303333333","24.9379966666667","6500900","三峽區"
"237006","5529-G3","2019/07/22 18:39:11","新北市三峽區溪東路371巷2弄2號","121.411948333333","24.929635","6500900","三峽區"
"237011","KEA-2596","2019/07/22 18:39:28","新北市三峽區溪東路400號","121.414248333333","24.9277933333333","6500900","三峽區"
"237015","649-BX","2019/07/22 18:39:20","新北市三峽區成福路311號","121.429278333333","24.9236233333333","6500900","三峽區"
"237010","706-TV","2019/07/22 18:39:25","新北市三峽區中山路307號","121.361261666667","24.937815","6500900","三峽區"
"237005","AKY-6261","2019/07/22 18:39:13","新北市三峽區民生街106號","121.373653333333","24.9354516666667","6500900","三峽區"
"236042","KED-0685","2019/07/22 18:39:22","新北市土城區裕民路55巷15號","121.449326666667","24.988645","6501300","土城區"
"236078","166-UM","2019/07/22 18:39:22","新北市土城區中央路四段52巷32號","121.419663333333","24.960805","6501300","土城區"
"236030","253-BX","2019/07/22 18:39:25","新北市土城區慶利街33號","121.438845","24.9744283333333","6501300","土城區"
"236026","269-VK","2019/07/22 18:39:13","新北市土城區忠義路49-1號","121.440555","24.9690916666667","6501300","土城區"
"236014","270-VK","2019/07/22 18:39:15","新北市土城區清水路207巷11號","121.459875","24.9823783333333","6501300","土城區"
"236039","271-VK","2019/07/22 18:39:24","新北市土城區明德路一段247巷5號","121.462768333333","24.9778116666667","6501300","土城區"
"236069","KEA-2877","2019/07/22 18:39:20","新北市土城區永豐路157巷29弄1號","121.468703333333","24.9813866666667","6501300","土城區"
"252001","KED-0821","2019/07/22 18:39:17","新北市三芝區中興街二段260號","121.501856666667","25.252885","6502100","三芝區"
"236020","401-BY","2019/07/22 18:39:23","新北市土城區延吉街327-1號","121.465461666667","24.984215","6501300","土城區"
"236059","912-UM","2019/07/22 18:39:08","新北市土城區中央路三段151號","121.432151666667","24.9653616666667","6501300","土城區"
"236048","913-UM","2019/07/22 18:39:28","新北市土城區明德路一段67號","121.4654","24.9842566666667","6501300","土城區"
"236063","915-UM","2019/07/22 18:39:17","新北市土城區延壽路55巷9弄6號","121.469603333333","24.9915283333333","6501300","土城區"
"236055","AAC-216","2019/07/22 18:39:10","新北市土城區中華路一段27號","121.446268333333","24.98906","6501300","土城區"
"242060","986-R7","2019/07/22 18:39:17","新北市新莊區新樹路206巷3號","121.433455","25.0205033333333","6500500","新莊區"
"242058","612-BX","2019/07/22 18:39:14","新北市新莊區中正路895號","121.412321666667","25.022085","6500500","新莊區"
"242046","566-BX","2019/07/22 18:39:15","新北市新莊區福營路405號","121.422131666667","25.027015","6500500","新莊區"
"242056","441-UM","2019/07/22 18:39:21","新北市新莊區瓊林南路301巷13號","121.436036666667","25.0059416666667","6500500","新莊區"
"242042","415-TV","2019/07/22 18:39:28","新北市新莊區天祥街79號","121.415631666667","25.0293433333333","6500500","新莊區"
"238023","601-UM","2019/07/22 18:39:28","新北市樹林區三福街114號","121.406318333333","25.0162616666667","6500700","樹林區"
"238019","599-UM","2019/07/22 18:39:18","新北市樹林區中華路190-16號","121.411708333333","24.9806033333333","6500700","樹林區"
"238024","5061-A6","2019/07/22 18:39:15","新北市樹林區太順街86巷11號","121.41669","24.97836","6500700","樹林區"
"238018","KEA-2217","2019/07/22 18:39:17","新北市樹林區鎮前街144號","121.424565","24.9904683333333","6500700","樹林區"
"238022","KEA-2213","2019/07/22 18:39:15","新北市樹林區中華路393號","121.411308333333","24.9804683333333","6500700","樹林區"
"238025","303-VK","2019/07/22 18:39:07","新北市樹林區中山路三段22號","121.39559","24.9729383333333","6500700","樹林區"
"238001","282-BY","2019/07/22 18:39:21","新北市樹林區中洲街30巷13弄35號","121.398316666667","24.9722933333333","6500700","樹林區"
"238020","268-VK","2019/07/22 18:39:15","新北市樹林區俊安街24巷6號","121.419148333333","25.0138533333333","6500700","樹林區"
"238026","172-UY","2019/07/22 18:39:10","新北市樹林區中山路三段204號","121.38719","24.96831","6500700","樹林區"
"238016","169-UY","2019/07/22 18:39:22","新北市樹林區中山路二段78號","121.415166666667","24.9839583333333","6500700","樹林區"
"239007","AAC-297","2019/07/22 18:39:13","新北市鶯歌區建國路121號","121.352111666667","24.95402","6500800","鶯歌區"
"239008","527-UM","2019/07/22 18:39:10","新北市鶯歌區國際一路179號","121.33623","24.9765083333333","6500800","鶯歌區"
"239005","526-UM","2019/07/22 18:38:13","新北市鶯歌區鶯桃路668巷52弄19號","121.329698333333","24.970365","6500800","鶯歌區"
"239001","417-VK","2019/07/22 18:39:20","新北市鶯歌區國中街170號","121.338678333333","24.9394983333333","6500800","鶯歌區"
"239003","360-BY","2019/07/22 18:39:10","新北市鶯歌區永和街57號","121.332751666667","24.9676133333333","6500800","鶯歌區"
"239004","193-VK","2019/07/22 18:39:12","新北市鶯歌區尖山路258巷42號","121.341436666667","24.9466066666667","6500800","鶯歌區"
"221036","130-UY","2019/07/22 18:39:22","新北市汐止區長興街一段6號","121.669636666667","25.0786366666667","6501100","汐止區"
"221015","131-UY","2019/07/22 18:39:12","新北市汐止區長江街365號","121.667975","25.0823966666667","6501100","汐止區"
"244019","KED-0667","2019/07/22 18:39:14","新北市林口區麗園二街47巷29號","121.381976666667","25.0697466666667","6501700","林口區"
"221010","269-BY","2019/07/22 18:39:12","新北市汐止區瑞松街32號","121.645706666667","25.10574","6501100","汐止區"
"221012","278-VK","2019/07/22 18:39:18","新北市汐止區保長路51巷5號","121.673501666667","25.0788783333333","6501100","汐止區"
"221032","280-BY","2019/07/22 18:39:12","新北市汐止區福山街62巷1號","121.617921666667","25.04681","6501100","汐止區"
"221029","298-VK","2019/07/22 18:39:11","新北市汐止區樟樹一路140號","121.642276666667","25.064965","6501100","汐止區"
"221021","299-VK","2019/07/22 18:39:17","新北市汐止區新台五路一段91-2號","121.650723333333","25.06134","6501100","汐止區"
"221031","353-TW","2019/07/22 18:39:09","新北市汐止區光復街7巷34號","121.641326666667","25.0599933333333","6501100","汐止區"
"221035","622-UM","2019/07/22 18:39:29","新北市汐止區大同路二段167號","121.650996666667","25.06501","6501100","汐止區"
"221025","623-UM","2019/07/22 18:39:21","新北市汐止區仁愛路121巷9號","121.662703333333","25.064285","6501100","汐止區"
"221002","707-TV","2019/07/22 18:39:23","新北市汐止區中興路8號","121.637313333333","25.0590983333333","6501100","汐止區"
"221018","753-BX","2019/07/22 18:39:18","新北市汐止區茄苳路224巷3弄7號","121.670908333333","25.0682566666667","6501100","汐止區"
"233002","KEA-2870","2019/07/22 18:39:26","新北市新店區新烏路一段183號","121.545283333333","24.9337716666667","6502900","烏來區"
"220080","200-UY","2019/07/22 18:39:24","新北市板橋區華東街1-9號","121.448105","24.9949033333333","6500100","板橋區"
"220082","610-BX","2019/07/22 18:39:23","新北市板橋區大觀路二段443-2號","121.439056666667","24.9952116666667","6500100","板橋區"
"220056","276-BY","2019/07/22 18:39:17","新北市板橋區四川路一段49號","121.459736666667","25.0063933333333","6500100","板橋區"
"220072","277-BY","2019/07/22 18:39:07","新北市板橋區大觀路2段435-7號","121.447896666667","24.9955733333333","6500100","板橋區"
"220101","280-UM","2019/07/22 18:39:21","新北市板橋區民生路二段56-6號","121.471176666667","25.0192483333333","6500100","板橋區"
"220071","283-VK","2019/07/22 18:39:12","新北市板橋區四川路二段241號","121.45065","24.993705","6500100","板橋區"
"220094","285-UM","2019/07/22 18:39:24","新北市板橋區民生路二段161巷1號","121.470105","25.02007","6500100","板橋區"
"220083","286-VK","2019/07/22 18:39:18","新北市板橋區華東街1-10號","121.44838","24.9951116666667","6500100","板橋區"
"220090","288-VK","2019/07/22 18:39:24","新北市板橋區民生路二段120號","121.470521666667","25.0195133333333","6500100","板橋區"
"220084","296-UM","2019/07/22 18:39:11","新北市板橋區大觀路二段205號","121.444511666667","24.9994916666667","6500100","板橋區"
"242044","281-VK","2019/07/22 18:39:06","新北市新莊區中正路新旺巷36號","121.416235","25.022595","6500500","新莊區"
"220075","303-R5","2019/07/22 18:39:14","新北市板橋區板城路421號","121.448548333333","24.9961016666667","6500100","板橋區"
"220092","307-R5","2019/07/22 18:39:10","新北市板橋區民生路二段120號","121.470436666667","25.0195233333333","6500100","板橋區"
"220089","487-VK","2019/07/22 18:39:10","新北市板橋區民生路二段161巷1號","121.46986","25.0200883333333","6500100","板橋區"
"220035","560-BX","2019/07/22 18:39:27","新北市板橋區南雅西路二段145巷10號","121.451578333333","25.0118933333333","6500100","板橋區"
"220103","561-BX","2019/07/22 18:39:13","新北市板橋區民生路二段56-6號","121.470763333333","25.01893","6500100","板橋區"
"220091","637-BX","2019/07/22 18:39:12","新北市板橋區民生路二段161巷1號","121.469885","25.019745","6500100","板橋區"
"220057","686-BX","2019/07/22 18:39:15","新北市板橋區館前東路46號","121.46075","25.0071866666667","6500100","板橋區"
"220077","687-BX","2019/07/22 18:39:17","新北市板橋區華東街1-10號","121.448266666667","24.9950916666667","6500100","板橋區"
"220093","689-BX","2019/07/22 18:39:25","新北市板橋區民生路二段188號","121.470168333333","25.02028","6500100","板橋區"
"220054","741-BX","2019/07/22 18:39:18","新北市板橋區南雅南路二段120-8號","121.452488333333","24.9994783333333","6500100","板橋區"
"220102","KEA-2699","2019/07/22 18:39:21","新北市板橋區民生路二段161巷1號","121.470078333333","25.0200416666667","6500100","板橋區"
"220055","827-TW","2019/07/22 18:39:23","新北市板橋區忠孝路31-1號","121.460681666667","25.0020816666667","6500100","板橋區"
"220074","895-R6","2019/07/22 18:39:12","新北市板橋區南雅南路二段140號","121.45179","24.996355","6500100","板橋區"
"220073","985-R7","2019/07/22 18:39:20","新北市板橋區四川路二段23-3號","121.454526666667","24.9957266666667","6500100","板橋區"
"220097","AAC-210","2019/07/22 18:39:22","新北市板橋區民生路二段120號","121.470425","25.0197283333333","6500100","板橋區"
"220064","AAC-253","2019/07/22 18:38:55","新北市板橋區縣民大道二段82號","121.465248333333","25.014315","6500100","板橋區"
"235068","KEA-2873","2019/07/22 18:39:23","新北市中和區中正路161巷2號","121.49853","24.9936666666667","6500300","中和區"
"235061","KEA-2875","2019/07/22 18:39:18","新北市中和區民享街30巷1號","121.474016666667","25.0035416666667","6500300","中和區"
"235046","KEA-2876","2019/07/22 18:39:05","新北市中和區仁愛街91號","121.511783333333","24.9869233333333","6500300","中和區"
