"lineid","car","time","location","longitude","latitude","cityid","cityname"
"234081","298-R6","2019/07/22 20:29:57","新北市永和區國中路132巷4號","121.523673333333","25.00709","6500400","永和區"
"234038","336-UY","2019/07/22 20:29:47","新北市永和區成功路一段29巷7號","121.527823333333","25.0047333333333","6500400","永和區"
"234064","337-UY","2019/07/22 20:29:41","新北市永和區中正路530號","121.51723","25.005115","6500400","永和區"
"234086","338-UY","2019/07/22 20:29:48","新北市永和區永和路二段233號","121.515593333333","25.014205","6500400","永和區"
"234003","553-UM","2019/07/22 20:29:45","新北市永和區中正路620號","121.51703","25.00782","6500400","永和區"
"234030","746-BX","2019/07/22 20:29:49","新北市永和區民族街81巷58號","121.52008","24.99639","6500400","永和區"
"234054","KEA-2590","2019/07/22 20:29:49","新北市永和區環河東路一段82號","121.519603333333","25.0164","6500400","永和區"
"234013","KEA-2591","2019/07/22 20:29:45","新北市永和區仁愛路296號","121.503721666667","25.0081583333333","6500400","永和區"
"234061","AAD-866","2019/07/22 20:29:50","新北市永和區安樂路182號","121.514885","25.001225","6500400","永和區"
"234070","748-BX","2019/07/22 20:29:53","新北市永和區永亨路7號","121.519458333333","25.0056966666667","6500400","永和區"
"234042","862-TW","2019/07/22 20:29:52","新北市永和區安樂路248號","121.51461","25.00325","6500400","永和區"
"234050","863-TW","2019/07/22 20:29:52","新北市永和區新生路52號","121.507835","25.0153766666667","6500400","永和區"
"249001","173-UM","2019/07/22 20:29:48","新北市八里區下罟子5-6號","121.387583333333","25.1423916666667","6502300","八里區"
"249004","303-UY","2019/07/22 20:29:41","新北市八里區中山路一段129巷19-1號","121.413825","25.1586366666667","6502300","八里區"
"249002","305-UY","2019/07/22 20:29:37","新北市八里區龍米路二段32巷19號","121.448931666667","25.1408983333333","6502300","八里區"
"249003","759-BX","2019/07/22 20:29:45","新北市八里區舊城路21號","121.39972","25.1469133333333","6502300","八里區"
"248007","KED-0815","2019/07/22 20:28:43","新北市五股區中興路二段57-6號","121.460361666667","25.075275","6501500","五股區"
"234023","9380-KE","2019/07/22 20:29:39","新北市永和區博愛街32巷17-1號","121.51886","25.01521","6500400","永和區"
"234074","AAC-211","2019/07/22 20:29:44","新北市永和區豫溪街217巷23號","121.52439","25.0101083333333","6500400","永和區"
"234067","AAC-212","2019/07/22 20:29:53","新北市永和區保平路292巷4號","121.507866666667","25.0047816666667","6500400","永和區"
"243012","AAD-798","2019/07/22 20:29:38","新北市泰山區楓江路14號","121.433796666667","25.0624266666667","6501600","泰山區"
"243010","297-R6","2019/07/22 20:29:42","新北市泰山區新生路31巷7號","121.427658333333","25.0459016666667","6501600","泰山區"
"243014","KEA-2801","2019/07/22 20:29:51","新北市泰山區泰林路二段518號","121.424043333333","25.06386","6501600","泰山區"
"243016","421-VK","2019/07/22 20:29:46","新北市泰山區文程路15號","121.428035","25.04942","6501600","泰山區"
"243009","KEA-2215","2019/07/22 20:29:50","新北市泰山區忠孝街43號","121.4288","25.0654616666667","6501600","泰山區"
"243011","KEA-2216","2019/07/22 20:29:53","新北市泰山區漢口街23號","121.42461","25.0360733333333","6501600","泰山區"
"243013","646-TV","2019/07/22 20:29:51","新北市泰山區中央路5巷46號","121.428386666667","25.0427916666667","6501600","泰山區"
"243015","680-BX","2019/07/22 20:29:38","新北市泰山區仁德路126號","121.43257","25.0561983333333","6501600","泰山區"
"222003","436-BY","2019/07/22 20:29:50","新北市深坑區深坑街32號","121.615275","25.0017716666667","6501800","深坑區"
"222002","659-BX","2019/07/22 20:29:45","新北市深坑區萬福路16巷36-1號","121.61114","25.0081116666667","6501800","深坑區"
"231061","002-UM","2019/07/22 20:29:51","新北市新店區安興路33-1號","121.515803333333","24.97045","6500600","新店區"
"231058","0293-UT","2019/07/22 20:29:38","新北市新店區安和路三段4巷3號","121.51962","24.9808533333333","6500600","新店區"
"231044","046-UY","2019/07/22 20:29:41","新北市新店區建國路147號","121.538838333333","24.9787183333333","6500600","新店區"
"231060","106-UY","2019/07/22 20:29:49","新北市新店區錦秀路11巷92弄1號","121.480295","24.9427633333333","6500600","新店區"
"231051","107-UY","2019/07/22 20:29:45","新北市新店區中央七街33號","121.529286666667","24.9755083333333","6500600","新店區"
"231049","108-UY","2019/07/22 20:29:49","新北市新店區永業路81巷1弄2號","121.529795","24.949505","6500600","新店區"
"231065","110-UY","2019/07/22 20:29:52","新北市新店區安祥路102巷46弄79號","121.487046666667","24.9632966666667","6500600","新店區"
"231068","187-VK","2019/07/22 20:29:49","新北市新店區民權路7號","121.542566666667","24.9828466666667","6500600","新店區"
"231050","KEA-2219","2019/07/22 20:29:41","新北市新店區建興街9巷1號","121.539875","24.976315","6500600","新店區"
"231062","256-BX","2019/07/22 20:29:53","新北市新店區安泰路60巷21號","121.483581666667","24.94649","6500600","新店區"
"231054","260-TV","2019/07/22 20:29:52","新北市新店區檳榔路174號","121.544185","24.96181","6500600","新店區"
"231042","268-BY","2019/07/22 20:29:37","新北市新店區寶橋路230號","121.551508333333","24.9788733333333","6500600","新店區"
"231064","278-BY","2019/07/22 20:29:37","新北市新店區永安街74巷17號","121.519293333333","24.9858733333333","6500600","新店區"
"231045","355-BY","2019/07/22 20:29:50","新北市新店區新坡一街58-3號","121.550096666667","24.9638733333333","6500600","新店區"
"231055","4716-K9","2019/07/22 20:29:49","新北市新店區北新路一段305號","121.54155","24.967615","6500600","新店區"
"231056","4715-K9","2019/07/22 20:29:49","新北市新店區中正路487-3號","121.532555","24.9818283333333","6500600","新店區"
"231067","4772-VM","2019/07/22 20:29:41","新北市新店區安華路28-1號","121.519791666667","24.9605616666667","6500600","新店區"
"231052","513-UM","2019/07/22 20:29:44","新北市新店區松林路38號","121.546246666667","24.9102483333333","6500600","新店區"
"231041","619-UM","2019/07/22 20:29:53","新北市新店區民權路129-1號","121.53534","24.98266","6500600","新店區"
"231063","641-BX","2019/07/22 20:29:56","新北市新店區玫瑰路4-1號","121.493576666667","24.95139","6500600","新店區"
"231047","KED-0819","2019/07/22 20:29:49","新北市新店區中興路三段327號","121.542001666667","24.9863316666667","6500600","新店區"
"231057","720-UM","2019/07/22 20:29:54","新北市新店區花園六路二段9號","121.555648333333","24.9332466666667","6500600","新店區"
"231059","897-TW","2019/07/22 20:29:44","新北市新店區安德街116巷36號","121.508561666667","24.961185","6500600","新店區"
"231040","898-TW","2019/07/22 20:29:40","新北市新店區三民路71號","121.53611","24.9713016666667","6500600","新店區"
"231043","899-TW","2019/07/22 20:29:54","新北市新店區明德路67巷17號","121.540431666667","24.9770683333333","6500600","新店區"
"231066","AKT-0513","2019/07/22 20:29:39","新北市新店區安德街60巷35號","121.51077","24.96343","6500600","新店區"
"241011","013-R5","2019/07/22 20:29:48","新北市三重區龍門路42號","121.496066666667","25.0724916666667","6500200","三重區"
"241028","022-UY","2019/07/22 20:29:39","新北市三重區光興街67號","121.498","25.0600716666667","6500200","三重區"
"241018","060-VK","2019/07/22 20:29:44","新北市三重區雙園街103號","121.493748333333","25.0672816666667","6500200","三重區"
"241031","061-VK","2019/07/22 20:29:17","新北市三重區三寧街32號","121.489775","25.060215","6500200","三重區"
"241015","062-VK","2019/07/22 20:29:35","新北市三重區文化北路41-2號","121.499003333333","25.065315","6500200","三重區"
"241017","063-VK","2019/07/22 20:29:54","新北市三重區自強路一段288號","121.491535","25.0681316666667","6500200","三重區"
"241024","065-VK","2019/07/22 20:29:39","新北市三重區忠孝路三段15巷18號","121.480841666667","25.0675683333333","6500200","三重區"
"241002","090-VK","2019/07/22 20:29:47","新北市三重區仁義街211巷23號","121.49758","25.0823183333333","6500200","三重區"
"241003","091-VK","2019/07/22 20:29:49","新北市三重區富華街154號","121.492388333333","25.0844066666667","6500200","三重區"
"241030","742-BX","2019/07/22 20:29:48","新北市三重區成功路75號","121.48863","25.0511216666667","6500200","三重區"
"241005","262-UM","2019/07/22 20:29:42","新北市三重區碧華街293號","121.490465","25.0838816666667","6500200","三重區"
"241016","266-UM","2019/07/22 20:29:47","新北市三重區正義北路188號","121.496445","25.0668683333333","6500200","三重區"
"241009","267-UM","2019/07/22 20:29:49","新北市三重區永福街77號","121.480153333333","25.0776416666667","6500200","三重區"
"241013","270-UM","2019/07/22 20:29:42","新北市三重區溪尾街19巷17號","121.492351666667","25.07471","6500200","三重區"
"241025","271-UM","2019/07/22 20:29:46","新北市三重區頂崁街210巷27號","121.475731666667","25.068245","6500200","三重區"
"241007","398-BY","2019/07/22 20:29:41","新北市三重區自強路四段46號","121.489535","25.077625","6500200","三重區"
"241035","462-BY","2019/07/22 20:29:53","新北市三重區正義北路54號","121.497336666667","25.0639316666667","6500200","三重區"
"241004","475-VK","2019/07/22 20:29:47","新北市三重區溪尾街176號","121.488565","25.080605","6500200","三重區"
"241020","478-VK","2019/07/22 20:29:51","新北市三重區三和路三段109-6號","121.493526666667","25.0726733333333","6500200","三重區"
"241026","480-VK","2019/07/22 20:29:42","新北市三重區福德南路8巷7號","121.503258333333","25.0635266666667","6500200","三重區"
"241014","543-UM","2019/07/22 20:29:36","新北市三重區長壽街120巷23號","121.502431666667","25.0693116666667","6500200","三重區"
"241023","545-UM","2019/07/22 20:29:53","新北市三重區自由街17巷5號","121.480011666667","25.0668083333333","6500200","三重區"
"241001","547-UM","2019/07/22 20:29:45","新北市三重區自強路四段12號","121.488491666667","25.076265","6500200","三重區"
"241019","KEA-2593","2019/07/22 20:29:51","新北市三重區重陽路四段114巷25號","121.491426666667","25.0706933333333","6500200","三重區"
"241006","AAD-863","2019/07/22 20:29:51","新北市三重區車路頭街139巷12號","121.484256666667","25.076195","6500200","三重區"
"241022","KED-0820","2019/07/22 20:29:52","新北市三重區中正北路20巷2號","121.488178333333","25.062825","6500200","三重區"
"241008","887-TS","2019/07/22 20:29:37","新北市三重區永福街211巷1號","121.479795","25.0743366666667","6500200","三重區"
"241012","941-UM","2019/07/22 20:29:36","新北市三重區龍濱路269號","121.501388333333","25.0730916666667","6500200","三重區"
"241029","942-UM","2019/07/22 20:29:37","新北市三重區集美街116號","121.488676666667","25.0538983333333","6500200","三重區"
"241033","AAC-255","2019/07/22 20:29:48","新北市三重區五谷王北街80巷7號","121.47581","25.0532716666667","6500200","三重區"
"235066","003-UY","2019/07/22 20:29:50","新北市中和區保平路362巷13號","121.50575","25.003955","6500300","中和區"
"235055","183-VK","2019/07/22 20:29:40","新北市林口區太平里180號","121.368338333333","25.1342966666667","6500300","中和區"
"247014","KEA-2869","2019/07/22 20:29:55","新北市蘆洲區中山二路100號","121.472516666667","25.0818266666667","6501400","蘆洲區"
"247008","KED-0682","2019/07/22 20:29:57","新北市蘆洲區重陽二街11號","121.482876666667","25.0845033333333","6501400","蘆洲區"
"235050","4979-A6","2019/07/22 20:29:50","新北市中和區景新街160巷14號","121.50494","24.99677","6500300","中和區"
"235069","4980-A6","2019/07/22 20:29:40","新北市中和區中正路440號","121.491018333333","24.9943416666667","6500300","中和區"
"235059","AAC-215","2019/07/22 20:29:48","新北市中和區員山路37-8號","121.482015","24.98987","6500300","中和區"
"247004","893-R6","2019/07/22 20:29:49","新北市蘆洲區長安街222號","121.458156666667","25.0848766666667","6501400","蘆洲區"
"247018","546-UM","2019/07/22 20:29:38","新北市蘆洲區民族路327巷60號","121.474723333333","25.0905333333333","6501400","蘆洲區"
"247024","337-TH","2019/07/22 20:29:36","新北市蘆洲區長興路50巷6號","121.464645","25.084395","6501400","蘆洲區"
"247002","336-TH","2019/07/22 20:29:51","新北市蘆洲區長安街361巷28號","121.455921666667","25.0876483333333","6501400","蘆洲區"
"247022","057-VK","2019/07/22 20:29:43","新北市蘆洲區中正路275號","121.467036666667","25.0877216666667","6501400","蘆洲區"
"247012","056-VK","2019/07/22 20:29:48","新北市蘆洲區復興路270號","121.48035","25.0897916666667","6501400","蘆洲區"
"247016","053-VK","2019/07/22 20:29:53","新北市蘆洲區光華路54巷1號","121.468305","25.0828583333333","6501400","蘆洲區"
"247006","002-UY","2019/07/22 20:29:54","新北市蘆洲區九芎街167巷52號","121.466098333333","25.0778366666667","6501400","蘆洲區"
"222001","KEA-2212","2019/07/22 20:29:19","新北市深坑區北深路三段329號","121.597248333333","25.005075","6501800","深坑區"
"251001","011-UM","2019/07/22 20:29:48","新北市淡水區中山北路二段10號","121.444485","25.18333","6501000","淡水區"
"251002","012-UM","2019/07/22 20:29:55","新北市淡水區中正路41號","121.44215","25.1694116666667","6501000","淡水區"
"251015","KEA-2871","2019/07/22 20:29:53","新北市淡水區淡金路二段507號","121.447073333333","25.18954","6501000","淡水區"
"251016","179-VK","2019/07/22 20:29:46","新北市淡水區新埔子15-1號","121.449193333333","25.2282233333333","6501000","淡水區"
"251008","181-VK","2019/07/22 20:29:38","新北市淡水區淡海路208巷26號","121.421576666667","25.1857616666667","6501000","淡水區"
"251013","182-VK","2019/07/22 20:29:41","新北市淡水區後坑子6號","121.463411666667","25.2066733333333","6501000","淡水區"
"251010","413-VK","2019/07/22 20:29:41","新北市淡水區沙崙路181巷2號","121.424438333333","25.18407","6501000","淡水區"
"251012","441-VK","2019/07/22 20:29:40","新北市淡水區頂田寮路22號","121.45413","25.2166133333333","6501000","淡水區"
"251005","443-VK","2019/07/22 20:29:50","新北市淡水區下圭柔山91-2號","121.430265","25.209095","6501000","淡水區"
"251006","561-UM","2019/07/22 20:29:46","新北市淡水區商工路356號","121.468686666667","25.1853683333333","6501000","淡水區"
"251014","577-R6","2019/07/22 20:29:44","新北市淡水區石頭厝12-1號","121.460656666667","25.2360483333333","6501000","淡水區"
"251003","766-UM","2019/07/22 20:29:44","新北市淡水區新生街29號","121.439458333333","25.1750633333333","6501000","淡水區"
"207004","225-TW","2019/07/22 20:29:47","新北市萬里區北基里忠二街11號","121.68487","25.1754216666667","6502800","萬里區"
"252002","178-VK","2019/07/22 20:29:45","新北市三芝區淡金路二段47-2號","121.503631666667","25.26052","6502100","三芝區"
"236030","253-BX","2019/07/22 20:29:45","新北市土城區中華路一段24號","121.447475","24.9901633333333","6501300","土城區"
"247010","KED-0683","2019/07/22 20:29:46","新北市蘆洲區信義路224號","121.478983333333","25.08523","6501400","蘆洲區"
"252001","KED-0821","2019/07/22 20:29:37","新北市三芝區中山路一段37號","121.50064","25.2578133333333","6502100","三芝區"
"242039","AAC-296","2019/07/22 20:29:51","新北市新莊區民安西路8號","121.426533333333","25.0217733333333","6500500","新莊區"
"242060","986-R7","2019/07/22 20:29:54","新北市新莊區新樹路244巷41號","121.431328333333","25.018935","6500500","新莊區"
"242002","751-BX","2019/07/22 20:29:42","新北市新莊區中正路11號","121.464091666667","25.0411083333333","6500500","新莊區"
"242029","615-BX","2019/07/22 20:29:49","新北市新莊區昌平街19號","121.454465","25.0513816666667","6500500","新莊區"
"242027","613-BX","2019/07/22 20:29:39","新北市新莊區幸福路56號","121.457388333333","25.0494316666667","6500500","新莊區"
"242058","612-BX","2019/07/22 20:29:50","新北市新莊區四維路198號","121.421671666667","25.0205566666667","6500500","新莊區"
"242046","566-BX","2019/07/22 20:29:55","新北市新莊區裕民街72巷3號","121.41832","25.0241933333333","6500500","新莊區"
"242050","497-BY","2019/07/22 20:29:56","新北市新莊區民安西路189巷1號","121.426366666667","25.0155166666667","6500500","新莊區"
"242011","442-UM","2019/07/22 20:29:48","新北市新莊區中義街49號","121.449346666667","25.0510483333333","6500500","新莊區"
"242056","441-UM","2019/07/22 20:29:41","新北市新莊區新莊路727號","121.443333333333","25.0329116666667","6500500","新莊區"
"242004","440-UM","2019/07/22 20:29:55","新北市新莊區頭前路38號","121.467361666667","25.0523816666667","6500500","新莊區"
"242042","415-TV","2019/07/22 20:29:46","新北市新莊區天祥街54巷1弄1號","121.416626666667","25.029225","6500500","新莊區"
"242048","400-BY","2019/07/22 20:29:40","新北市新莊區成功街168號","121.42295","25.0168316666667","6500500","新莊區"
"242025","362-BY","2019/07/22 20:29:52","新北市新莊區五工三路62巷31號","121.460423333333","25.0653916666667","6500500","新莊區"
"242023","353-BY","2019/07/22 20:29:56","新北市新莊區化成路461號","121.464561666667","25.0618816666667","6500500","新莊區"
"242013","132-UY","2019/07/22 20:29:55","新北市新莊區中和街184號","121.447495","25.0497766666667","6500500","新莊區"
"242036","135-UY","2019/07/22 20:29:41","新北市新莊區後港一路76巷12弄2號","121.427226666667","25.025895","6500500","新莊區"
"242053","172-VK","2019/07/22 20:29:40","新北市新莊區西盛街362巷14號","121.427291666667","25.0136833333333","6500500","新莊區"
"242015","173-VK","2019/07/22 20:29:39","新北市新莊區中平路36巷29號","121.445938333333","25.04351","6500500","新莊區"
"242021","175-VK","2019/07/22 20:29:42","新北市新莊區公園路36號","121.448716666667","25.0394766666667","6500500","新莊區"
"242019","KED-0687","2019/07/22 20:29:48","新北市新莊區民樂街76號","121.457921666667","25.0435966666667","6500500","新莊區"
"242034","348-TH","2019/07/22 20:29:40","新北市新莊區新泰路203號","121.44709","25.038185","6500500","新莊區"
"242007","349-TH","2019/07/22 20:29:44","新北市新莊區福壽街85號","121.458178333333","25.050085","6500500","新莊區"
"242031","350-TH","2019/07/22 20:29:55","新北市泰山區新生路181-5號","121.436031666667","25.0391683333333","6500500","新莊區"
"242017","351-TH","2019/07/22 20:29:50","新北市新莊區中港二街101號","121.449106666667","25.0457133333333","6500500","新莊區"
"221008","489-VK","2019/07/22 20:29:53","新北市汐止區三民街1巷1號","121.62441","25.0669116666667","6501100","汐止區"
"221036","130-UY","2019/07/22 20:29:44","新北市汐止區仁愛路151巷28號","121.663221666667","25.0653983333333","6501100","汐止區"
"221015","131-UY","2019/07/22 20:29:51","新北市汐止區建成路142巷19弄7號","121.662103333333","25.0739233333333","6501100","汐止區"
"221010","269-BY","2019/07/22 20:29:52","新北市汐止區八連路二段233號","121.632485","25.09693","6501100","汐止區"
"221012","278-VK","2019/07/22 20:29:50","新北市汐止區汐平路二段66號","121.698653333333","25.06091","6501100","汐止區"
"221023","279-VK","2019/07/22 20:29:36","新北市汐止區明峰街108號","121.630498333333","25.07112","6501100","汐止區"
"221032","280-BY","2019/07/22 20:29:52","新北市汐止區民權街二段56號","121.619456666667","25.0488","6501100","汐止區"
"221027","281-BY","2019/07/22 20:29:38","新北市汐止區中正路214號","121.658198333333","25.0689383333333","6501100","汐止區"
"221033","297-VK","2019/07/22 20:29:49","新北市汐止區林森街132巷6弄6號","121.624348333333","25.0406366666667","6501100","汐止區"
"221029","298-VK","2019/07/22 20:29:30","新北市汐止區樟樹一路129巷32號","121.640595","25.065135","6501100","汐止區"
"221021","299-VK","2019/07/22 20:29:37","新北市汐止區水源路一段288號","121.654126666667","25.0581766666667","6501100","汐止區"
"221031","353-TW","2019/07/22 20:29:49","新北市汐止區中興路150巷12號","121.633255","25.064915","6501100","汐止區"
"221035","622-UM","2019/07/22 20:29:48","新北市汐止區長江街79巷16號","121.657883333333","25.0728616666667","6501100","汐止區"
"221025","623-UM","2019/07/22 20:29:41","新北市汐止區水源路二段88巷1弄2號","121.656283333333","25.0557783333333","6501100","汐止區"
"221038","646-BX","2019/07/22 20:29:50","新北市汐止區忠孝東路204號","121.661791666667","25.0661283333333","6501100","汐止區"
"221002","707-TV","2019/07/22 20:29:43","新北市汐止區福德二路106號","121.632248333333","25.0659816666667","6501100","汐止區"
"221018","753-BX","2019/07/22 20:29:48","新北市汐止區茄苳路225巷11弄31號","121.670591666667","25.0700033333333","6501100","汐止區"
"220083","286-VK","2019/07/22 20:29:38","新北市板橋區僑中二街100巷34號","121.444613333333","25.0086866666667","6500100","板橋區"
"220081","287-VK","2019/07/22 20:29:40","新北市板橋區龍興街99巷2號","121.444291666667","25.00295","6500100","板橋區"
"242044","281-VK","2019/07/22 20:29:46","新北市新莊區中正路新建巷42號","121.414608333333","25.0213966666667","6500500","新莊區"
"242009","280-VK","2019/07/22 20:29:35","新北市新莊區昌盛街81巷4弄1號","121.455606666667","25.0506383333333","6500500","新莊區"
