"lineid","car","time","location","longitude","latitude","cityid","cityname"
"231061","002-UM","2019/07/22 21:09:51","新北市新店區永平街51巷1號","121.516158333333","24.9840933333333","6500600","新店區"
"231060","106-UY","2019/07/22 21:09:49","新北市新店區安康路三段23號","121.493286666667","24.953295","6500600","新店區"
"231051","107-UY","2019/07/22 21:09:45","新北市新店區中正路618巷7弄2號","121.534815","24.9892383333333","6500600","新店區"
"231065","110-UY","2019/07/22 21:09:52","新北市新店區安祥路69巷89弄43號","121.482861666667","24.9616733333333","6500600","新店區"
"231068","187-VK","2019/07/22 21:09:49","新北市新店區安業街285-1號","121.52737","24.9665516666667","6500600","新店區"
"231050","KEA-2219","2019/07/22 21:09:41","新北市新店區中華路83巷2弄5號","121.538873333333","24.9685633333333","6500600","新店區"
"231062","256-BX","2019/07/22 21:09:53","新北市新店區安康路三段51號","121.492478333333","24.9523016666667","6500600","新店區"
"231054","260-TV","2019/07/22 21:09:52","新北市新店區環河路29巷1號","121.536168333333","24.9613633333333","6500600","新店區"
"231042","268-BY","2019/07/22 21:09:57","新北市新店區柴埕路47號","121.514266666667","24.965295","6500600","新店區"
"231064","278-BY","2019/07/22 21:09:37","新北市新店區薏仁坑路自強巷6號","121.496713333333","24.9583766666667","6500600","新店區"
"231063","641-BX","2019/07/22 21:09:56","新北市新店區玫瑰路61巷1號","121.495936666667","24.94542","6500600","新店區"
"231059","897-TW","2019/07/22 21:09:44","新北市新店區僑信路57號","121.499386666667","24.9492233333333","6500600","新店區"
"231040","898-TW","2019/07/22 21:09:55","新北市新店區光明街306號","121.540588333333","24.96495","6500600","新店區"
"241011","013-R5","2019/07/22 21:09:48","新北市三重區龍濱路120-1號","121.501896666667","25.0709933333333","6500200","三重區"
"241028","022-UY","2019/07/22 21:09:39","新北市三重區正義南路87-1號","121.498436666667","25.0597533333333","6500200","三重區"
"241018","060-VK","2019/07/22 21:09:44","新北市三重區正義北路340號","121.494335","25.0706666666667","6500200","三重區"
"241031","061-VK","2019/07/22 21:09:44","新北市三重區重新路五段408巷30號","121.476233333333","25.04562","6500200","三重區"
"241015","062-VK","2019/07/22 21:09:55","新北市三重區長元街67號","121.502818333333","25.0664666666667","6500200","三重區"
"241017","063-VK","2019/07/22 21:09:34","新北市三重區國隆路31號","121.49238","25.0644466666667","6500200","三重區"
"241024","065-VK","2019/07/22 21:09:39","新北市三重區大勇街49號","121.481328333333","25.071905","6500200","三重區"
"241002","090-VK","2019/07/22 21:09:47","新北市三重區五華街19-2號","121.494831666667","25.08051","6500200","三重區"
"241003","091-VK","2019/07/22 21:09:49","新北市三重區仁義街224號","121.49496","25.084705","6500200","三重區"
"241030","742-BX","2019/07/22 21:09:48","新北市三重區五谷王北街20巷15弄1號","121.475048333333","25.04845","6500200","三重區"
"241005","262-UM","2019/07/22 21:09:42","新北市三重區五華街184號","121.488705","25.0864066666667","6500200","三重區"
"241016","266-UM","2019/07/22 21:09:47","新北市三重區信義西街138號","121.495625","25.0643383333333","6500200","三重區"
"241009","267-UM","2019/07/22 21:09:49","新北市三重區忠孝路二段124號","121.48304","25.0689","6500200","三重區"
"241013","270-UM","2019/07/22 21:09:42","新北市三重區仁愛街141巷21號","121.496653333333","25.0757516666667","6500200","三重區"
"241025","271-UM","2019/07/22 21:09:46","新北市三重區中正北路208巷10弄4號","121.482391666667","25.066875","6500200","三重區"
"241007","398-BY","2019/07/22 21:09:37","新北市三重區三和路四段145巷85號","121.486356666667","25.0788","6500200","三重區"
"241035","462-BY","2019/07/22 21:09:46","新北市三重區重新路四段121號","121.484886666667","25.0518833333333","6500200","三重區"
"241004","475-VK","2019/07/22 21:09:47","新北市三重區仁愛街423-1號","121.490348333333","25.0815533333333","6500200","三重區"
"241020","478-VK","2019/07/22 21:09:41","新北市三重區忠孝路二段51號","121.485641666667","25.0709716666667","6500200","三重區"
"241026","480-VK","2019/07/22 21:09:42","新北市三重區福德南路150號","121.500603333333","25.05834","6500200","三重區"
"241014","543-UM","2019/07/22 21:09:36","新北市三重區長安街82-1號","121.501333333333","25.0677666666667","6500200","三重區"
"241023","545-UM","2019/07/22 21:09:53","新北市三重區洛陽街45巷20號","121.482321666667","25.0638933333333","6500200","三重區"
"241001","547-UM","2019/07/22 21:09:45","新北市三重區福隆路50號","121.492406666667","25.0784716666667","6500200","三重區"
"241019","KEA-2593","2019/07/22 21:09:51","新北市三重區自強路二段76號","121.488058333333","25.0700733333333","6500200","三重區"
"241006","AAD-863","2019/07/22 21:09:51","新北市三重區中正北路105號","121.489458333333","25.0630966666667","6500200","三重區"
"241022","KED-0820","2019/07/22 21:09:52","新北市三重區中正北路64巷20號","121.486153333333","25.0637883333333","6500200","三重區"
"241008","887-TS","2019/07/22 21:09:54","新北市三重區自強路一段71號","121.497485","25.06688","6500200","三重區"
"241012","941-UM","2019/07/22 21:09:35","新北市三重區仁信街29號","121.501208333333","25.0756166666667","6500200","三重區"
"241029","942-UM","2019/07/22 21:09:37","新北市三重區正義南路107號","121.498176666667","25.0586416666667","6500200","三重區"
"241033","AAC-255","2019/07/22 21:09:48","新北市三重區光復路二段170號","121.471961666667","25.0611633333333","6500200","三重區"
"235055","183-VK","2019/07/22 21:09:39","新北市中和區員山路36巷13號","121.484108333333","24.9909916666667","6500300","中和區"
"247014","KEA-2869","2019/07/22 21:09:55","新北市蘆洲區復興路30-3號","121.472645","25.0847783333333","6501400","蘆洲區"
"247008","KED-0682","2019/07/22 21:09:37","新北市蘆洲區民生街47號","121.474993333333","25.07886","6501400","蘆洲區"
"247004","893-R6","2019/07/22 21:09:53","新北市蘆洲區永安南路二段294號","121.457281666667","25.08178","6501400","蘆洲區"
"247018","546-UM","2019/07/22 21:09:38","新北市蘆洲區民族路408巷14號","121.474878333333","25.0919683333333","6501400","蘆洲區"
"247024","337-TH","2019/07/22 21:09:36","新北市蘆洲區長興路50巷1號","121.46381","25.083805","6501400","蘆洲區"
"247002","336-TH","2019/07/22 21:09:51","新北市蘆洲區永樂街38巷40號","121.458538333333","25.0900083333333","6501400","蘆洲區"
"247022","057-VK","2019/07/22 21:09:43","新北市蘆洲區三民路229號","121.469428333333","25.088525","6501400","蘆洲區"
"247012","056-VK","2019/07/22 21:09:48","新北市蘆洲區三民路88號","121.473571666667","25.0855016666667","6501400","蘆洲區"
"247020","007-UY","2019/07/22 21:09:35","新北市蘆洲區民族路460號","121.471935","25.0917766666667","6501400","蘆洲區"
"247006","002-UY","2019/07/22 21:09:42","新北市蘆洲區和平路97巷13號","121.467758333333","25.0787033333333","6501400","蘆洲區"
"251009","008-UM","2019/07/22 21:09:48","新北市淡水區民族路112巷57號","121.462096666667","25.1343016666667","6501000","淡水區"
"251001","011-UM","2019/07/22 21:09:48","新北市淡水區中山北路二段2號","121.444708333333","25.1831216666667","6501000","淡水區"
"251002","012-UM","2019/07/22 21:09:51","新北市淡水區水源街一段154號","121.448376666667","25.171395","6501000","淡水區"
"251015","KEA-2871","2019/07/22 21:09:52","新北市淡水區淡金路四段542巷90號","121.454856666667","25.2254783333333","6501000","淡水區"
"251016","179-VK","2019/07/22 21:09:46","新北市淡水區前洲子3-1號","121.443548333333","25.2162383333333","6501000","淡水區"
"251008","181-VK","2019/07/22 21:09:38","新北市淡水區淡金路二段513號","121.447","25.1901916666667","6501000","淡水區"
"251013","182-VK","2019/07/22 21:09:41","新北市淡水區中洲(子)6號","121.470206666667","25.200865","6501000","淡水區"
"251010","413-VK","2019/07/22 21:09:41","新北市淡水區中正路一段63巷7弄1號","121.423158333333","25.17729","6501000","淡水區"
"251012","441-VK","2019/07/22 21:09:39","新北市三芝區後厝里大片頭116號","121.457795","25.2415333333333","6501000","淡水區"
"251005","443-VK","2019/07/22 21:09:50","新北市淡水區英專路2巷27號","121.446458333333","25.169305","6501000","淡水區"
"251014","577-R6","2019/07/22 21:09:25","新北市淡水區六塊厝1-2號","121.451088333333","25.24233","6501000","淡水區"
"251003","766-UM","2019/07/22 21:09:41","新北市淡水區新春街125巷16號","121.441586666667","25.1824216666667","6501000","淡水區"
"247010","KED-0683","2019/07/22 21:09:46","新北市蘆洲區鷺江街42號","121.477333333333","25.0831316666667","6501400","蘆洲區"
"242025","362-BY","2019/07/22 21:09:38","新北市林口區太平里180號","121.368398333333","25.1345066666667","6500500","新莊區"
