"lineid","car","time","location","longitude","latitude","cityid","cityname"
"248007","KED-0815","2019/07/22 21:45:59","新北市五股區中興路二段63巷17號","121.46027","25.07534","6501500","五股區"
"251004","009-UM","2019/07/22 22:09:56","新北市淡水區民族路33號","121.462316666667","25.135795","6501000","淡水區"
"251007","180-VK","2019/07/22 22:09:48","新北市淡水區北新路180號","121.44947","25.178715","6501000","淡水區"
"251008","181-VK","2019/07/22 22:09:38","新北市淡水區學府路104號","121.449911666667","25.1718333333333","6501000","淡水區"
"251010","413-VK","2019/07/22 22:09:41","新北市淡水區沙崙路200號","121.424685","25.18391","6501000","淡水區"
"251005","443-VK","2019/07/22 22:09:49","新北市淡水區鄧公路19號","121.451381666667","25.1700433333333","6501000","淡水區"
"251006","561-UM","2019/07/22 21:42:57","新北市淡水區中正路11巷3號","121.43782","25.1708133333333","6501000","淡水區"
"251011","650-BX","2019/07/22 22:09:51","新北市淡水區水碓街3號","121.443108333333","25.1770766666667","6501000","淡水區"
