"lineid","car","time","location","longitude","latitude","cityid","cityname"
"232006","291-BY","2019/07/23 06:59:51","新北市坪林區石48-7號","121.731493333333","24.8952533333333","6502000","坪林區"
"232013","705-BZ","2019/07/23 06:59:37","新北市坪林區粗窟3號","121.681446666667","24.9361783333333","6502000","坪林區"
"232002","758-BX","2019/07/23 06:59:39","新北市坪林區下坑子口15-1號","121.71734","24.9483266666667","6502000","坪林區"
"244002","248-BX","2019/07/23 06:59:46","新北市林口區中山路270號","121.382883333333","25.0809516666667","6501700","林口區"
"222004","289-BY","2019/07/23 06:59:57","新北市深坑區平埔街22巷19號","121.614728333333","25.001015","6501800","深坑區"
"235001","031-BX","2019/07/23 06:59:54","新北市中和區廟美街5號","121.500751666667","25.0015166666667","6500300","中和區"
"226002","8452-VL","2019/07/23 06:59:35","新北市平溪區石底里公園街18-3號","121.734018333333","25.0253216666667","6502400","平溪區"
"226006","AGD-0702","2019/07/23 06:59:55","新北市平溪區石底里公園街18-3號","121.733908333333","25.0252966666667","6502400","平溪區"
"223002","KEA-2673","2019/07/23 06:59:48","新北市石碇區蓬菜寮7-2號","121.65306","24.9746133333333","6501900","石碇區"
"223003","205-TH","2019/07/23 06:59:38","新北市石碇區石崁35-2號","121.657653333333","24.9927983333333","6501900","石碇區"
"223008","406-TH","2019/07/23 06:59:48","新北市石碇區十八重溪78號","121.67319","25.0119616666667","6501900","石碇區"
"223001","592-UM","2019/07/23 06:59:54","新北市石碇區石崁35-3號","121.658083333333","24.9929133333333","6501900","石碇區"
"223004","660-BX","2019/07/23 06:59:46","新北市石碇區碇坪路一段52號","121.65689","24.9916733333333","6501900","石碇區"
"223007","661-BX","2019/07/23 06:59:44","新北市石碇區十八重溪78號","121.673161666667","25.0119266666667","6501900","石碇區"
"227004","282-VK","2019/07/23 06:59:50","新北市雙溪區新基里自強路7號","121.866285","25.0390783333333","6502500","雙溪區"
"252004","249-BX","2019/07/23 06:59:51","新北市三芝區埔坪里埔頭坑41號","121.504726666667","25.26449","6502100","三芝區"
"226005","ANY-2373","2019/07/23 06:59:46","新北市平溪區石底里公園街18-3號","121.733346666667","25.0257833333333","6502400","平溪區"
