"lineid","car","time","location","longitude","latitude","cityid","cityname"
"244002","248-BX","2019/07/23 07:39:26","新北市林口區下福里1鄰7號","121.323501666667","25.0959216666667","6501700","林口區"
"235001","031-BX","2019/07/23 07:39:14","新北市中和區廟美街11號","121.50085","25.0015383333333","6500300","中和區"
"226002","8452-VL","2019/07/23 07:39:15","新北市平溪區平湖里大湖9號","121.780803333333","25.0260666666667","6502400","平溪區"
"226006","AGD-0702","2019/07/23 07:39:15","新北市平溪區新寮里頂寮子3-1號","121.768581666667","25.0503816666667","6502400","平溪區"
"223003","205-TH","2019/07/23 07:39:18","新北市石碇區蓬菜寮5-1號","121.652078333333","24.9737583333333","6501900","石碇區"
"223008","406-TH","2019/07/23 07:35:52","新北市石碇區靜安路一段337號","121.698726666667","25.014515","6501900","石碇區"
"223001","592-UM","2019/07/23 07:39:25","新北市石碇區烏塗窟8號","121.655826666667","24.9750283333333","6501900","石碇區"
"223004","660-BX","2019/07/23 07:39:06","新北市石碇區八分寮35-1號","121.644915","25.0158233333333","6501900","石碇區"
"223007","661-BX","2019/07/23 07:39:04","新北市石碇區靜安路一段337號","121.69885","25.0144633333333","6501900","石碇區"
"227004","282-VK","2019/07/23 07:39:10","新北市雙溪區雙溪里太平路41號","121.864706666667","25.0355816666667","6502500","雙溪區"
"252004","249-BX","2019/07/23 07:39:11","新北市三芝區興華里田心子5號","121.501706666667","25.2034833333333","6502100","三芝區"
"252007","AAC-283","2019/07/23 07:39:17","新北市三芝區後厝里北勢子21-3號","121.473221666667","25.2536216666667","6502100","三芝區"
"237014","760-BX","2019/07/23 07:39:08","新北市三峽區竹崙路97號","121.432996666667","24.9167916666667","6500900","三峽區"
"226005","ANY-2373","2019/07/23 07:39:06","新北市平溪區石底里公園街8號","121.738078333333","25.0250983333333","6502400","平溪區"
