"lineid","car","time","location","longitude","latitude","cityid","cityname"
"244022","483-VK","2019/10/14 10:29:16","新北市林口區文林六街2-1號","121.370483333333","25.0799166666667","6501700","林口區"
"231007","189-VK","2019/10/14 10:29:15","新北市新店區新潭路二段24號","121.526833333333","24.9261983333333","6500600","新店區"
"231008","192-VK","2019/10/14 10:22:01","新北市新店區成功路50巷15號","121.539096666667","24.9001333333333","6500600","新店區"
"227003","282-VK","2019/10/14 10:07:35","新北市雙溪區泰平里灣潭路35-1號","121.812231666667","24.9287416666667","6502500","雙溪區"
"252006","AAC-283","2019/10/14 10:29:22","新北市三芝區埔頭里埔頭47號","121.50094","25.2626083333333","6502100","三芝區"
"242059","986-R7","2019/10/14 10:29:17","新北市新莊區新泰路255巷83號","121.442138333333","25.039085","6500500","新莊區"
