"lineid","car","time","location","longitude","latitude","cityid","cityname"
"234078","298-R6","2019/10/14 12:29:28","新北市永和區環河東路二段102號","121.52421","25.01025","6500400","永和區"
"234015","745-BX","2019/10/14 12:29:15","新北市永和區福和路1號","121.526336666667","25.009555","6500400","永和區"
"234012","KEA-2591","2019/10/14 12:29:12","新北市永和區光復街60巷29號","121.518141666667","25.01746","6500400","永和區"
"234060","AAD-866","2019/10/14 12:29:13","新北市永和區福和路1號","121.52617","25.0095383333333","6500400","永和區"
"234040","862-TW","2019/10/14 12:29:20","新北市永和區福和路1號","121.52616","25.0098633333333","6500400","永和區"
"234022","9380-KE","2019/10/14 12:29:19","新北市永和區福和路1號","121.526341666667","25.00977","6500400","永和區"
"234076","969-R7","2019/10/14 12:29:14","新北市永和區福和路1號","121.526451666667","25.0097433333333","6500400","永和區"
"244023","483-VK","2019/10/14 12:01:04","新北市林口區粉寮69號","121.40509","25.0907716666667","6501700","林口區"
"231011","KED-0819","2019/10/14 12:29:18","新北市新店區安一路一段1-1號","121.519703333333","24.961285","6500600","新店區"
"207002","749-BX","2019/10/14 12:29:27","新北市萬里區中幅里大湖路6號","121.660673333333","25.1711466666667","6502800","萬里區"
"235025","KEA-2875","2019/10/19 12:08:14","新北市中和區員山路36巷13號","121.484395","24.99099","6500300","中和區"
