"lineid","car","time","location","longitude","latitude","cityid","cityname"
"234078","298-R6","2019/10/14 14:29:28","新北市永和區永貞路31號","121.520971666667","25.00661","6500400","永和區"
"234036","336-UY","2019/10/14 14:29:27","新北市永和區民樂街31巷10弄12號","121.528915","25.00083","6500400","永和區"
"234084","338-UY","2019/10/14 14:29:19","新北市永和區永和路二段239號","121.515686666667","25.0147066666667","6500400","永和區"
"234068","552-UM","2019/10/14 14:29:31","新北市永和區永寧街46號","121.51992","25.00691","6500400","永和區"
"234028","746-BX","2019/10/14 14:29:18","新北市中和區中正路2-1號","121.503075","24.993695","6500400","永和區"
"234052","KEA-2590","2019/10/14 14:29:27","新北市永和區光復街60巷25號","121.517965","25.0175083333333","6500400","永和區"
"234005","KED-0605","2019/10/14 14:29:18","新北市永和區中正路644號","121.516875","25.008335","6500400","永和區"
"234040","862-TW","2019/10/14 14:29:29","新北市永和區安樂路336號","121.514456666667","25.006035","6500400","永和區"
"234048","863-TW","2019/10/14 14:29:20","新北市永和區新生路138巷3弄1號","121.506476666667","25.014505","6500400","永和區"
"234025","9371-KE","2019/10/14 14:29:33","新北市中和區安平路222號","121.514063333333","25.000175","6500400","永和區"
"248013","025-BX","2019/10/14 14:29:14","新北市五股區民義路一段161-5號","121.432415","25.0875666666667","6501500","五股區"
"248015","026-BX","2019/10/14 14:29:20","新北市五股區成泰路四段22巷27-1號","121.455348333333","25.1080933333333","6501500","五股區"
"248007","KED-0815","2019/10/14 14:29:32","新北市五股區中興路二段83巷26-6號","121.460066666667","25.0752916666667","6501500","五股區"
"248017","KED-0813","2019/10/14 14:29:14","新北市五股區凌雲路三段59-4號","121.425006666667","25.1250183333333","6501500","五股區"
"248011","247-BX","2019/10/14 14:29:28","新北市五股區蓬萊路6巷4號","121.435723333333","25.079665","6501500","五股區"
"248003","677-BX","2019/10/14 14:29:27","新北市五股區工商路118號","121.436831666667","25.0857033333333","6501500","五股區"
"248001","678-BX","2019/10/14 14:29:26","新北市五股區成泰路三段476號","121.451748333333","25.1013683333333","6501500","五股區"
"234072","AAC-211","2019/10/14 14:29:15","新北市永和區環河東路一段122號","121.52059","25.0155116666667","6500400","永和區"
"234001","AAC-295","2019/10/14 14:29:27","新北市永和區大新街16號","121.51516","25.0084533333333","6500400","永和區"
"244002","658-BX","2019/10/14 14:29:27","新北市林口區文化三路一段165號","121.361575","25.0690433333333","6501700","林口區"
"243004","AAD-798","2019/10/14 14:29:18","新北市泰山區明志路一段519號","121.43046","25.054","6501600","泰山區"
"243002","297-R6","2019/10/14 14:15:44","新北市泰山區明志路一段515號","121.430556666667","25.0542266666667","6501600","泰山區"
"243006","KEA-2801","2019/10/14 14:29:15","新北市泰山區中港西路420號","121.433778333333","25.0540283333333","6501600","泰山區"
"243008","421-VK","2019/10/14 14:29:27","新北市泰山區新北大道七段20號","121.420198333333","25.0323083333333","6501600","泰山區"
"243001","KEA-2215","2019/10/14 14:29:17","新北市五股區成泰路一段7巷4號","121.433341666667","25.0667316666667","6501600","泰山區"
"243003","KEA-2216","2019/10/14 14:29:22","新北市泰山區貴子路41-1號","121.42942","25.04009","6501600","泰山區"
"243005","646-TV","2019/10/14 14:29:17","新北市泰山區貴子路9-2號","121.425641666667","25.0420566666667","6501600","泰山區"
"243007","680-BX","2019/10/14 14:29:19","新北市泰山區民權街53號","121.428965","25.05048","6501600","泰山區"
"231030","002-UM","2019/10/14 14:29:17","新北市新店區吉安街26號","121.516238333333","24.965975","6500600","新店區"
"231027","0293-UT","2019/10/14 14:29:21","新北市新店區北新路一段96巷29號","121.542948333333","24.9692466666667","6500600","新店區"
"231005","046-UY","2019/10/14 14:29:29","新北市新店區北新路三段74號","121.541955","24.98054","6500600","新店區"
"231029","106-UY","2019/10/14 14:29:32","新北市新店區安康路二段380號","121.500543333333","24.957035","6500600","新店區"
"231018","107-UY","2019/10/14 14:29:11","新北市新店區中央二街39號","121.527738333333","24.9740133333333","6500600","新店區"
"231013","108-UY","2019/10/14 14:29:18","新北市新店區民權路90巷21號","121.536153333333","24.98373","6500600","新店區"
"231036","110-UY","2019/10/14 14:29:27","新北市新店區安祥路109巷85弄2號","121.477876666667","24.960205","6500600","新店區"
"231031","256-BX","2019/10/14 14:29:21","新北市新店區溪洲路101-1號","121.5315","24.9625233333333","6500600","新店區"
"231023","260-TV","2019/10/14 14:29:19","新北市新店區光明街138巷13弄1號","121.540395","24.9610683333333","6500600","新店區"
"231003","268-BY","2019/10/14 14:29:25","新北市新店區中興路一段271號","121.545143333333","24.9680266666667","6500600","新店區"
"231035","278-BY","2019/10/14 14:29:11","新北市新店區安光路10-1號","121.513856666667","24.9642066666667","6500600","新店區"
"231014","AAD-862","2019/10/14 14:29:26","新北市新店區北宜路三段62號","121.575011666667","24.95133","6500600","新店區"
"231006","355-BY","2019/10/14 14:29:22","新北市新店區北宜路二段523號","121.563553333333","24.9534933333333","6500600","新店區"
"231038","3712-VJ","2019/10/14 14:29:18","新北市新店區溪洲路143-2號","121.528805","24.9639133333333","6500600","新店區"
"231025","4715-K9","2019/10/14 14:29:16","新北市新店區薏仁坑路自強巷6號","121.496806666667","24.9582366666667","6500600","新店區"
"231019","512-UM","2019/10/14 14:29:32","新北市新店區新烏路三段69號","121.555241666667","24.9038283333333","6500600","新店區"
"231001","617-UM","2019/10/14 14:29:31","新北市新店區中正路75巷71號","121.54312","24.9688983333333","6500600","新店區"
"231002","619-UM","2019/10/14 14:29:10","新北市新店區中央路75號","121.532301666667","24.9768033333333","6500600","新店區"
"231034","641-BX","2019/10/14 14:29:29","新北市新店區車子路11號","121.503081666667","24.951985","6500600","新店區"
"231011","KED-0819","2019/10/14 14:29:18","新北市新店區寶興路61巷1號","121.550845","24.97208","6500600","新店區"
"231028","897-TW","2019/10/14 14:29:18","新北市新店區安和路二段1號","121.517795","24.9669583333333","6500600","新店區"
"231004","899-TW","2019/10/14 14:29:29","新北市新店區中正路263-2號","121.538426666667","24.9738116666667","6500600","新店區"
"231037","AKT-0513","2019/10/14 14:29:12","新北市新店區車子路1-1號","121.504686666667","24.9577266666667","6500600","新店區"
"235030","003-UY","2019/10/14 14:29:12","新北市中和區景新街32號","121.503213333333","24.9992816666667","6500300","中和區"
"235027","006-UY","2019/10/14 14:29:18","新北市中和區連城路203巷6號","121.494875","24.9975616666667","6500300","中和區"
"235020","096-UM","2019/10/14 14:29:16","新北市中和區民富街44號","121.476703333333","25.0068516666667","6500300","中和區"
"235003","097-UM","2019/10/14 14:29:23","新北市中和區景平路314號","121.512376666667","24.9928433333333","6500300","中和區"
"235029","098-UM","2019/10/14 14:29:18","新北市中和區永和路8巷19號","121.50074","25.0035466666667","6500300","中和區"
"235004","150-BY","2019/10/14 14:29:14","新北市中和區安樂路51巷26號","121.511343333333","24.994185","6500300","中和區"
"235022","151-BY","2019/10/14 14:29:15","新北市中和區連城路374巷11號","121.481446666667","24.9957883333333","6500300","中和區"
"235019","183-VK","2019/10/14 14:29:27","新北市中和區德光路15巷9號","121.471338333333","25.0038766666667","6500300","中和區"
"235002","185-VK","2019/10/14 14:29:23","新北市中和區自立路127號","121.521915","24.9941216666667","6500300","中和區"
"235031","255-BX","2019/10/14 14:29:31","新北市中和區員山路148巷23弄28號","121.482236666667","24.9977366666667","6500300","中和區"
"235008","293-VK","2019/10/14 14:29:23","新北市中和區捷運路28號","121.5084","24.99023","6500300","中和區"
"235036","301-VK","2019/10/14 14:29:18","新北市中和區光華街62號","121.505453333333","25.00374","6500300","中和區"
"235007","352-BY","2019/10/14 14:29:15","新北市中和區景平路424號","121.507655","24.993275","6500300","中和區"
"235006","KEA-2878","2019/10/14 14:29:29","新北市中和區保健路29巷2號","121.508975","24.9981733333333","6500300","中和區"
"247015","KEA-2869","2019/10/14 14:29:24","新北市蘆洲區中正路185巷60號","121.46667","25.0846633333333","6501400","蘆洲區"
"247009","KED-0682","2019/10/14 14:29:17","新北市蘆洲區鷺江街16-3號","121.478718333333","25.0824966666667","6501400","蘆洲區"
"235034","558-UM","2019/10/14 14:29:25","新北市中和區景平路543號","121.49862","24.999345","6500300","中和區"
"235009","565-BX","2019/10/14 14:29:29","新北市中和區安樂路1號","121.511568333333","24.991785","6500300","中和區"
"235024","KED-0823","2019/10/14 14:29:11","新北市中和區新生街38號","121.48323","25.0035666666667","6500300","中和區"
"235018","640-BX","2019/10/14 14:29:18","新北市中和區國光街56號","121.470625","25.0003383333333","6500300","中和區"
"235011","732-UM","2019/10/14 14:29:14","新北市中和區景平路241巷66號","121.50774","24.99229","6500300","中和區"
"235010","733-UM","2019/10/14 14:29:30","新北市中和區忠孝街37巷52號","121.511155","24.9849566666667","6500300","中和區"
"235035","783-BX","2019/10/14 14:29:14","新北市中和區連城路455號","121.484475","24.996215","6500300","中和區"
"235021","801-TS","2019/10/14 14:29:24","新北市中和區員山路150-4號","121.481301666667","24.9974133333333","6500300","中和區"
"235005","802-TS","2019/10/14 14:29:27","新北市中和區安平路116號","121.511733333333","24.9976416666667","6500300","中和區"
"235016","805-TS","2019/10/14 14:29:26","新北市中和區華新街143巷47號","121.506361666667","24.9803116666667","6500300","中和區"
"235012","896-TW","2019/10/14 14:29:28","新北市中和區忠孝街60巷7號","121.511686666667","24.9838166666667","6500300","中和區"
"235017","900-TW","2019/10/14 14:29:11","新北市中和區民德路189巷7號","121.469008333333","24.9986183333333","6500300","中和區"
"235028","911-UM","2019/10/14 14:29:18","新北市中和區圓通路33號","121.50102","24.9976633333333","6500300","中和區"
"235015","157-BY","2019/10/14 14:29:24","新北市中和區中興街132巷26號","121.498795","24.991735","6500300","中和區"
"235001","AAC-213","2019/10/14 14:29:23","新北市中和區秀朗路三段107號","121.526456666667","24.994655","6500300","中和區"
"235023","AAC-215","2019/10/14 14:29:15","新北市中和區錦和路203巷13號","121.49134","24.9906583333333","6500300","中和區"
"220034","015-TV","2019/10/14 14:29:26","新北市板橋區中正路216巷8號","121.456263333333","25.0184366666667","6500100","板橋區"
"220013","072-UY","2019/10/14 14:29:21","新北市板橋區國泰街75巷29-1號","121.467955","25.0055216666667","6500100","板橋區"
"220105","075-UY","2019/10/14 14:29:14","新北市板橋區文化路二段548巷21-1號","121.476615","25.033855","6500100","板橋區"
"220017","AAD-861","2019/10/14 14:29:28","新北市板橋區縣民大道一段64巷15號","121.455776666667","25.003475","6500100","板橋區"
"220016","120-SR","2019/10/14 14:29:28","新北市板橋區萬安街4號","121.48483","25.022475","6500100","板橋區"
"247005","893-R6","2019/10/14 14:29:15","新北市蘆洲區永安南路二段150號","121.461961666667","25.0788266666667","6501400","蘆洲區"
"247019","341-TH","2019/10/14 14:29:22","新北市蘆洲區水湳街399-7號","121.470068333333","25.09457","6501400","蘆洲區"
"247011","337-TH","2019/10/14 14:29:21","新北市蘆洲區中興街125號","121.482103333333","25.0894966666667","6501400","蘆洲區"
"247003","336-TH","2019/10/14 14:29:27","新北市蘆洲區長安街218號","121.45834","25.0846333333333","6501400","蘆洲區"
"247023","057-VK","2019/10/14 14:29:14","新北市蘆洲區中正路263巷2號","121.467226666667","25.08765","6501400","蘆洲區"
"247013","056-VK","2019/10/14 14:29:20","新北市蘆洲區中山二路139號","121.471798333333","25.0815766666667","6501400","蘆洲區"
"247017","053-VK","2019/10/14 14:29:24","新北市蘆洲區民族路314巷5號","121.477531666667","25.0903183333333","6501400","蘆洲區"
"247021","007-UY","2019/10/14 14:29:31","新北市蘆洲區三民路128巷15號","121.470473333333","25.0885766666667","6501400","蘆洲區"
"247007","002-UY","2019/10/14 14:29:16","新北市蘆洲區信義路89號","121.476941666667","25.0797083333333","6501400","蘆洲區"
"247001","001-UY","2019/10/14 14:29:25","新北市蘆洲區永樂街38巷19弄32號","121.457008333333","25.0893016666667","6501400","蘆洲區"
"235013","251-BX","2019/10/14 14:29:22","新北市中和區景新街273巷21-1號","121.510245","24.9939566666667","6500300","中和區"
"253003","6232-TK","2019/10/14 14:29:15","新北市石門區尖子鹿42號","121.580003333333","25.2667016666667","6502200","石門區"
"253004","6251-TK","2019/10/14 14:29:19","新北市石門區內阿里磅25號","121.59085","25.24302","6502200","石門區"
"253002","637-UY","2019/10/14 14:29:15","新北市石門區楓林30號","121.544133333333","25.28565","6502200","石門區"
"253001","KEC-0718","2019/10/14 14:29:19","新北市石門區崁子腳66-1號","121.530405","25.282435","6502200","石門區"
"207002","749-BX","2019/10/14 14:29:27","新北市萬里區溪底里富士坪路16-1號","121.62169","25.1541266666667","6502800","萬里區"
"252005","073-UM","2019/10/14 14:29:22","新北市三芝區橫山里大坑87-1號","121.530796666667","25.259365","6502100","三芝區"
"207001","662-BX","2019/10/14 14:29:24","新北市萬里區磺潭里清水18-3號","121.639105","25.198975","6502800","萬里區"
"236040","KED-0685","2019/10/14 14:29:31","新北市土城區裕民路61巷8號","121.449475","24.9881266666667","6501300","土城區"
"236074","166-UM","2019/10/14 14:29:32","新北市土城區中央路四段52巷8號","121.420046666667","24.960965","6501300","土城區"
"236029","253-BX","2019/10/14 14:29:14","新北市土城區水源街15號","121.4412","24.9751783333333","6501300","土城區"
"236024","269-VK","2019/10/14 14:29:15","新北市土城區承天路18號","121.439311666667","24.963435","6501300","土城區"
"236012","270-VK","2019/10/14 14:29:14","新北市土城區青雲路39巷7號","121.460323333333","24.9875933333333","6501300","土城區"
"236032","271-VK","2019/10/14 14:29:15","新北市土城區青雲路451巷15號","121.45967","24.97478","6501300","土城區"
"236064","KEA-2877","2019/10/14 14:29:30","新北市土城區永豐路360號","121.47436","24.975","6501300","土城區"
"236016","401-BY","2019/10/14 14:29:16","新北市土城區永豐路202巷1弄4號","121.466503333333","24.9830766666667","6501300","土城區"
"236060","752-BX","2019/10/14 14:27:30","新北市土城區延壽路44巷1-1號","121.470408333333","24.991905","6501300","土城區"
"236057","912-UM","2019/10/14 14:29:16","新北市土城區中央路四段176-1號","121.416675","24.9579516666667","6501300","土城區"
"236045","913-UM","2019/10/14 14:29:32","新北市土城區青雲路457號","121.458718333333","24.974465","6501300","土城區"
"236054","AAC-216","2019/10/14 14:29:31","新北市土城區福祥街101巷1號","121.440991666667","24.9817716666667","6501300","土城區"
"220027","145-BY","2019/10/14 14:29:29","新北市板橋區民權路202巷18弄2號","121.46076","25.01641","6500100","板橋區"
"220030","610-BX","2019/10/14 14:29:18","新北市板橋區溪城路77號","121.426538333333","24.98374","6500100","板橋區"
"220050","245-BX","2019/10/14 14:29:14","新北市板橋區莊敬路220巷29弄1號","121.472665","25.0205116666667","6500100","板橋區"
"220023","256-TC","2019/10/14 14:29:23","新北市板橋區南雅西路一段122號","121.452506666667","25.0064916666667","6500100","板橋區"
"220004","276-BY","2019/10/14 14:29:29","新北市板橋區信義路99號","121.457491666667","24.9937283333333","6500100","板橋區"
"220019","283-VK","2019/10/14 14:29:29","新北市板橋區忠孝路48巷9弄11號","121.461628333333","25.0001966666667","6500100","板橋區"
"220043","285-UM","2019/10/14 14:29:29","新北市板橋區吳鳳路30號","121.468591666667","25.0301083333333","6500100","板橋區"
"220031","286-VK","2019/10/14 14:29:33","新北市板橋區大觀路二段174巷163弄2號","121.441618333333","25.003185","6500100","板橋區"
"220029","287-VK","2019/10/14 14:29:33","新北市板橋區南雅西路一段7巷11號","121.454165","25.00428","6500100","板橋區"
"220039","288-VK","2019/10/14 14:29:27","新北市板橋區新海路431巷8號","121.457813333333","25.0272316666667","6500100","板橋區"
"220009","293-UM","2019/10/14 14:29:18","新北市板橋區漢生東路117號","121.467305","25.0149333333333","6500100","板橋區"
"220001","295-UM","2019/10/14 14:29:21","新北市板橋區永豐街205號","121.476516666667","25.0210433333333","6500100","板橋區"
"220032","296-UM","2019/10/14 14:26:28","新北市板橋區滿平街136巷10弄12號","121.427241666667","24.987385","6500100","板橋區"
"220010","305-R5","2019/10/14 14:29:17","新北市板橋區三民路二段109巷29號","121.4806","25.0160666666667","6500100","板橋區"
"220041","307-R5","2019/10/14 14:29:28","新北市板橋區陽明街164巷20號","121.464435","25.0245366666667","6500100","板橋區"
"220047","317-R6","2019/10/14 14:29:27","新北市板橋區民有街89巷8弄1號","121.464238333333","25.0273716666667","6500100","板橋區"
"220038","487-VK","2019/10/14 14:29:17","新北市板橋區英士路17號","121.4619","25.0251583333333","6500100","板橋區"
"220037","491-VK","2019/10/14 14:29:24","新北市板橋區雙十路一段22號","121.478","25.0243733333333","6500100","板橋區"
"220104","560-BX","2019/10/14 14:29:27","新北市板橋區中正路433巷1弄8-3號","121.453653333333","25.02303","6500100","板橋區"
"220052","561-BX","2019/10/14 14:29:16","新北市板橋區陽明街46-5號","121.465543333333","25.022075","6500100","板橋區"
"220028","568-UM","2019/10/14 14:29:29","新北市板橋區大觀路二段37巷318號","121.449663333333","25.0021983333333","6500100","板橋區"
"220011","609-BX","2019/10/14 14:29:10","新北市板橋區三民路二段228號","121.478723333333","25.0114383333333","6500100","板橋區"
"220020","630-UY","2019/10/14 14:29:26","新北市板橋區篤行路二段141巷23號","121.430653333333","24.987735","6500100","板橋區"
"220040","637-BX","2019/10/14 14:29:28","新北市板橋區文聖街135巷23號","121.478926666667","25.0289683333333","6500100","板橋區"
"220005","686-BX","2019/10/14 14:29:13","新北市板橋區國慶路155號","121.461576666667","24.9960783333333","6500100","板橋區"
"220025","687-BX","2019/10/14 14:29:26","新北市板橋區大觀路二段269號","121.442905","24.9990133333333","6500100","板橋區"
"220042","689-BX","2019/10/14 14:29:30","新北市板橋區英士路49號","121.461023333333","25.0246366666667","6500100","板橋區"
"220002","741-BX","2019/10/14 14:29:23","新北市板橋區光明街75號","121.462065","25.0028483333333","6500100","板橋區"
"220051","KEA-2699","2019/10/14 14:29:21","新北市板橋區雙十路二段46巷19號","121.476283333333","25.0282783333333","6500100","板橋區"
"220003","827-TW","2019/10/14 14:29:26","新北市板橋區館前東路156巷10號","121.464341666667","25.00725","6500100","板橋區"
"220014","831-TW","2019/10/14 14:29:21","新北市板橋區漢生東路313巷33號","121.472746666667","25.008515","6500100","板橋區"
"220022","895-R6","2019/10/14 14:29:20","新北市板橋區北門街60號","121.456606666667","25.01138","6500100","板橋區"
"220021","985-R7","2019/10/14 14:29:11","新北市板橋區中正路332-11號","121.454291666667","25.02329","6500100","板橋區"
"220046","AAC-210","2019/10/14 14:29:11","新北市板橋區文化路一段285巷26號","121.463793333333","25.01948","6500100","板橋區"
"220012","AAC-253","2019/10/14 14:29:32","新北市板橋區館前西路17巷2號","121.458831666667","25.0068683333333","6500100","板橋區"
"235032","KEA-2873","2019/10/14 14:29:15","新北市中和區福美路230號","121.499096666667","25.0052916666667","6500300","中和區"
"235025","KEA-2875","2019/10/14 14:29:27","新北市中和區員山路226巷5弄1號","121.481673333333","25.0007916666667","6500300","中和區"
"235026","KEA-2876","2019/10/14 14:29:09","新北市中和區中山路二段530號","121.485805","25.0050383333333","6500300","中和區"
