"lineid","car","time","location","longitude","latitude","cityid","cityname"
"248007","KED-0815","2019/10/14 15:19:32","新北市五股區中興路一段1巷11號","121.46936","25.0714416666667","6501500","五股區"
"248017","KED-0813","2019/10/14 15:19:14","新北市五股區凌雲路二段17號","121.44428","25.102445","6501500","五股區"
"244002","658-BX","2019/10/14 15:19:27","新北市林口區民族路302-99號","121.37071","25.0794866666667","6501700","林口區"
"243004","AAD-798","2019/10/14 15:19:10","新北市泰山區忠孝街19巷3-1號","121.427498333333","25.0657383333333","6501600","泰山區"
"231030","002-UM","2019/10/14 15:19:17","新北市新店區安民街341號","121.516958333333","24.9749566666667","6500600","新店區"
"231005","046-UY","2019/10/14 15:19:29","新北市新店區建國路215號","121.537673333333","24.980505","6500600","新店區"
"231029","106-UY","2019/10/14 15:19:32","新北市新店區安康路三段716號","121.474008333333","24.9420366666667","6500600","新店區"
"231018","107-UY","2019/10/14 15:19:10","新北市新店區中央八街64號","121.528021666667","24.9765933333333","6500600","新店區"
"231036","110-UY","2019/10/14 15:19:27","新北市新店區安祥路69巷15號","121.481986666667","24.961425","6500600","新店區"
"231039","187-VK","2019/10/14 15:19:21","新北市新店區寶元路一段61號","121.54217","24.9859716666667","6500600","新店區"
"231031","256-BX","2019/10/14 15:19:21","新北市新店區安泰路170-2號","121.488508333333","24.93727","6500600","新店區"
"231023","260-TV","2019/10/14 15:19:19","新北市新店區行政街22號","121.543055","24.9657316666667","6500600","新店區"
"231003","268-BY","2019/10/14 15:19:25","新北市新店區寶高路120巷1號","121.554595","24.97614","6500600","新店區"
"231035","278-BY","2019/10/14 15:19:31","新北市新店區安和路三段57號","121.517973333333","24.982845","6500600","新店區"
"231014","AAD-862","2019/10/14 15:19:25","新北市新店區北宜路二段452號","121.570041666667","24.95644","6500600","新店區"
"231006","355-BY","2019/10/14 15:19:22","新北市新店區新坡一街88號","121.548305","24.9619283333333","6500600","新店區"
"231024","4716-K9","2019/10/14 15:19:19","新北市新店區新明街14號","121.540958333333","24.9683","6500600","新店區"
"231025","4715-K9","2019/10/14 15:19:16","新北市新店區環河路105-12號","121.531836666667","24.9700433333333","6500600","新店區"
"231019","512-UM","2019/10/14 15:19:12","新北市新店區永福路61號","121.557976666667","24.9288233333333","6500600","新店區"
"231001","617-UM","2019/10/14 15:19:31","新北市新店區北新路一段100號","121.542065","24.9696266666667","6500600","新店區"
"231002","619-UM","2019/10/14 15:19:10","新北市新店區中正路707號","121.533786666667","24.991135","6500600","新店區"
"231034","641-BX","2019/10/14 15:19:29","新北市新店區如意街4巷2號","121.495583333333","24.94929","6500600","新店區"
"231011","KED-0819","2019/10/14 15:19:18","新北市新店區寶慶街5號","121.54401","24.9866333333333","6500600","新店區"
"231026","720-UM","2019/10/14 15:19:18","新北市新店區中正路263號","121.538561666667","24.973535","6500600","新店區"
"231028","897-TW","2019/10/14 15:19:17","新北市新店區僑愛三路3號","121.499983333333","24.9441933333333","6500600","新店區"
"231004","899-TW","2019/10/14 15:19:29","新北市新店區建國路29號","121.540188333333","24.9740566666667","6500600","新店區"
"231037","AKT-0513","2019/10/14 15:19:12","新北市新店區安興路69-1號","121.515756666667","24.9752016666667","6500600","新店區"
"235030","003-UY","2019/10/14 15:19:12","新北市中和區保平路326巷3號","121.507086666667","25.0043683333333","6500300","中和區"
"235018","031-BX","2019/10/14 15:19:19","新北市中和區國光街109巷28號","121.469443333333","24.9995866666667","6500300","中和區"
"235019","183-VK","2019/10/14 15:19:27","新北市八里區中山路三段382號","121.368526666667","25.1359633333333","6500300","中和區"
"235036","301-VK","2019/10/14 15:19:18","新北市八里區商港路120號","121.392976666667","25.150025","6500300","中和區"
"235014","4979-A6","2019/10/14 15:19:14","新北市中和區景平路392號","121.510196666667","24.9928783333333","6500300","中和區"
"235033","4980-A6","2019/10/14 15:19:25","新北市中和區中正路426號","121.491561666667","24.9942183333333","6500300","中和區"
"235035","783-BX","2019/10/14 15:19:15","新北市中和區立德街321號","121.482003333333","25.01033","6500300","中和區"
"235005","802-TS","2019/10/14 15:19:27","新北市中和區安平路108號","121.511665","24.9973966666667","6500300","中和區"
"235012","896-TW","2019/10/14 15:19:28","新北市中和區景新街347號","121.51199","24.990885","6500300","中和區"
"235023","AAC-215","2019/10/14 15:19:27","新北市中和區圓通路316號","121.486525","24.9879","6500300","中和區"
"220034","015-TV","2019/10/14 15:19:26","新北市板橋區板城路327號","121.449275","24.997705","6500100","板橋區"
"220013","072-UY","2019/10/14 15:19:21","新北市板橋區南雅南路二段47號","121.451565","24.9946183333333","6500100","板橋區"
"253004","6251-TK","2019/10/14 15:19:19","新北市石門區小坑20號","121.596396666667","25.2819583333333","6502200","石門區"
"253002","637-UY","2019/10/14 15:19:22","新北市石門區尖子鹿79-1號","121.572233333333","25.2960016666667","6502200","石門區"
"207002","749-BX","2019/10/14 15:19:27","新北市萬里區崁腳里內中福路2號","121.667398333333","25.1650466666667","6502800","萬里區"
"207001","662-BX","2019/10/14 15:19:24","新北市萬里區大鵬里萬里加投19-12號","121.650275","25.2090416666667","6502800","萬里區"
"236040","KED-0685","2019/10/14 15:19:11","新北市土城區裕民路233巷1號","121.454993333333","24.9835833333333","6501300","土城區"
"236074","166-UM","2019/10/14 15:19:12","新北市土城區溪頭路58巷2號","121.412068333333","24.9551533333333","6501300","土城區"
"236029","253-BX","2019/10/14 15:19:14","新北市土城區中央路一段325號","121.443738333333","24.9830016666667","6501300","土城區"
"236024","269-VK","2019/10/14 15:19:15","新北市土城區中央路二段61巷36號","121.443593333333","24.97855","6501300","土城區"
"236012","270-VK","2019/10/14 15:19:17","新北市土城區廣福街32-1號","121.456991666667","24.9900716666667","6501300","土城區"
"236032","271-VK","2019/10/14 15:19:27","新北市土城區國際路158巷7號","121.468613333333","24.9763416666667","6501300","土城區"
"236064","KEA-2877","2019/10/14 15:19:30","新北市土城區裕民路185巷6弄3號","121.454265","24.9843483333333","6501300","土城區"
"236016","401-BY","2019/10/14 15:19:16","新北市土城區峰廷街3號","121.469023333333","24.9873416666667","6501300","土城區"
"236060","752-BX","2019/10/14 15:19:21","新北市土城區延平街33巷12號","121.467405","24.99173","6501300","土城區"
"236057","912-UM","2019/10/14 15:19:22","新北市土城區金城路一段31號","121.440086666667","24.96936","6501300","土城區"
"236045","913-UM","2019/10/14 15:19:12","新北市土城區明德路一段51號","121.465208333333","24.9846716666667","6501300","土城區"
"236054","AAC-216","2019/10/14 15:19:32","新北市土城區延和路24號","121.464681666667","24.9883983333333","6501300","土城區"
"238002","755-BX","2019/10/14 15:19:28","新北市樹林區復興路219號","121.420203333333","24.991125","6500700","樹林區"
"238006","599-UM","2019/10/14 15:19:15","新北市樹林區太平路1-3號","121.418501666667","24.9847","6500700","樹林區"
"238011","5061-A6","2019/10/14 15:19:10","新北市樹林區鎮前街273-3號","121.419445","24.985725","6500700","樹林區"
"238005","KEA-2217","2019/10/14 15:19:25","新北市樹林區樹新路193號","121.429223333333","24.9974016666667","6500700","樹林區"
"238009","KEA-2213","2019/10/14 15:19:29","新北市樹林區中華路37巷11號","121.424138333333","24.98313","6500700","樹林區"
"238008","KEA-2539","2019/10/14 15:19:25","新北市樹林區西圳街一段165巷20弄11號","121.395563333333","24.9602233333333","6500700","樹林區"
"238012","303-VK","2019/10/14 15:19:17","新北市樹林區中山路一段249號","121.420456666667","24.9864783333333","6500700","樹林區"
"238004","283-BY","2019/10/14 15:19:28","新北市樹林區保安街二段333巷2號","121.412633333333","25.0075666666667","6500700","樹林區"
"238001","282-BY","2019/10/14 15:19:21","新北市樹林區大安路125巷27號","121.423343333333","24.99688","6500700","樹林區"
"238007","268-VK","2019/10/14 15:19:12","新北市樹林區俊英街80號","121.428133333333","25.0041833333333","6500700","樹林區"
"238013","172-UY","2019/10/14 15:19:23","新北市樹林區新興街11巷1-5號","121.401368333333","24.97368","6500700","樹林區"
"238003","169-UY","2019/10/14 15:19:26","新北市樹林區中山路一段181-1號","121.421475","24.9881433333333","6500700","樹林區"
"220030","610-BX","2019/10/14 15:19:22","新北市板橋區篤行路二段52號","121.431728333333","24.9926566666667","6500100","板橋區"
"220031","286-VK","2019/10/14 15:19:16","新北市板橋區僑中二街102巷8號","121.44574","25.0084166666667","6500100","板橋區"
"220029","287-VK","2019/10/14 15:19:20","新北市板橋區僑中一街80巷7弄6號","121.447545","25.0128366666667","6500100","板橋區"
"220038","487-VK","2019/10/14 15:19:17","新北市板橋區四維路221號","121.463201666667","25.0270483333333","6500100","板橋區"
"220011","609-BX","2019/10/14 15:19:25","新北市板橋區三民路一段50-1號","121.479405","25.0226383333333","6500100","板橋區"
"220025","687-BX","2019/10/14 15:19:26","新北市板橋區僑中一街124巷58號","121.446663333333","25.0158866666667","6500100","板橋區"
"220042","689-BX","2019/10/14 15:19:31","新北市板橋區長江路二段8號","121.464678333333","25.0313333333333","6500100","板橋區"
"220003","827-TW","2019/10/14 15:19:28","新北市板橋區國慶路149巷22弄5號","121.461515","24.9975666666667","6500100","板橋區"
"220022","895-R6","2019/10/14 15:19:20","新北市板橋區府後街7號","121.458853333333","25.0103366666667","6500100","板橋區"
"220012","AAC-253","2019/10/14 15:19:27","新北市板橋區民族路215號","121.469415","25.0072816666667","6500100","板橋區"
"235026","KEA-2876","2019/10/14 15:19:09","新北市中和區中山路二段389號","121.486803333333","25.0048333333333","6500300","中和區"
