"lineid","car","time","location","longitude","latitude","cityid","cityname"
"231030","002-UM","2019/10/14 15:39:17","新北市新店區新和街107號","121.52159","24.9869733333333","6500600","新店區"
"231005","046-UY","2019/10/14 15:39:29","新北市新店區中正路374號","121.535031666667","24.9763716666667","6500600","新店區"
"231029","106-UY","2019/10/14 15:39:12","新北市新店區安康路三段242-1號","121.487888333333","24.9518583333333","6500600","新店區"
"231018","107-UY","2019/10/14 15:39:30","新北市新店區溪園路39號","121.530263333333","24.988165","6500600","新店區"
"231036","110-UY","2019/10/14 15:39:28","新北市新店區安祥路55號","121.484293333333","24.9604316666667","6500600","新店區"
"231039","187-VK","2019/10/14 15:39:32","新北市新店區寶元路二段29號","121.5465","24.9818983333333","6500600","新店區"
"231031","256-BX","2019/10/14 15:39:21","新北市新店區裕合街76號","121.49039","24.9484083333333","6500600","新店區"
"231023","260-TV","2019/10/14 15:39:19","新北市新店區大新街7巷19號","121.54404","24.9680233333333","6500600","新店區"
"231003","268-BY","2019/10/14 15:39:25","新北市新店區寶興路60巷3號","121.549886666667","24.97182","6500600","新店區"
"231035","278-BY","2019/10/14 15:39:31","新北市新店區安興路83-3號","121.515323333333","24.97557","6500600","新店區"
"231014","AAD-862","2019/10/14 15:39:25","新北市新店區北宜路二段67號","121.549435","24.9515183333333","6500600","新店區"
"231038","3712-VJ","2019/10/14 15:39:18","新北市新店區安德街171號","121.508645","24.9590766666667","6500600","新店區"
"231019","512-UM","2019/10/14 15:39:12","新北市新店區金興路12號","121.549915","24.9298216666667","6500600","新店區"
"231034","641-BX","2019/10/14 15:39:29","新北市新店區如意街50號","121.493445","24.94688","6500600","新店區"
"231011","KED-0819","2019/10/14 15:39:18","新北市新店區文化路23號","121.543498333333","24.9798316666667","6500600","新店區"
"231026","720-UM","2019/10/14 15:39:18","新北市新店區三民路51巷1弄2號","121.536721666667","24.9706233333333","6500600","新店區"
"231028","897-TW","2019/10/14 15:39:21","新北市新店區僑義路28號","121.50068","24.9499366666667","6500600","新店區"
"231004","899-TW","2019/10/14 15:39:29","新北市新店區民族路108號","121.538325","24.9774683333333","6500600","新店區"
"231037","AKT-0513","2019/10/14 15:39:12","新北市新店區安興路81號","121.515533333333","24.9751983333333","6500600","新店區"
"241028","022-UY","2019/10/14 15:39:13","新北市三重區重新路四段121號","121.48479","25.0526183333333","6500200","三重區"
"241017","063-VK","2019/10/14 15:39:22","新北市三重區重新路三段49號","121.492966666667","25.061315","6500200","三重區"
"241007","066-VK","2019/10/14 15:39:29","新北市三重區重新路四段121號","121.484966666667","25.0519133333333","6500200","三重區"
"241015","742-BX","2019/10/14 15:39:32","新北市三重區重新路四段121號","121.485218333333","25.05194","6500200","三重區"
"241016","266-UM","2019/10/14 15:39:14","新北市三重區重新路四段121號","121.485268333333","25.052045","6500200","三重區"
"241018","268-UM","2019/10/14 15:39:14","新北市三重區重新路四段121號","121.485205","25.0520316666667","6500200","三重區"
"241013","270-UM","2019/10/14 15:39:28","新北市三重區忠孝路一段125號","121.488723333333","25.07212","6500200","三重區"
"241020","478-VK","2019/10/14 15:39:15","新北市三重區忠孝路二段54號","121.484961666667","25.0704666666667","6500200","三重區"
"241012","743-BX","2019/10/14 15:39:16","新北市三重區正義南路1號","121.49789","25.061975","6500200","三重區"
"241029","942-UM","2019/10/14 15:39:25","新北市三重區重安街99-2號","121.493716666667","25.0553083333333","6500200","三重區"
"241033","AAC-255","2019/10/14 15:39:28","新北市三重區中興南街76號","121.470918333333","25.0434966666667","6500200","三重區"
"235018","031-BX","2019/10/14 15:39:19","新北市中和區莒光路63號","121.472353333333","25.0037216666667","6500300","中和區"
"235019","183-VK","2019/10/14 15:38:26","新北市八里區荖阡坑路34號","121.402058333333","25.12905","6500300","中和區"
"235036","301-VK","2019/10/14 15:39:18","新北市八里區中山路三段133號","121.388403333333","25.1423183333333","6500300","中和區"
"235033","4980-A6","2019/10/14 15:39:25","新北市中和區新生街184號","121.483785","24.9997183333333","6500300","中和區"
"235005","802-TS","2019/10/14 15:39:27","新北市中和區宜安路65號","121.511218333333","24.9970733333333","6500300","中和區"
"235023","AAC-215","2019/10/14 15:39:15","新北市中和區員山路31-6號","121.480078333333","24.9877933333333","6500300","中和區"
"220034","015-TV","2019/10/14 15:39:26","新北市樹林區中山路三段210-2號","121.38081","24.9668","6500100","板橋區"
"253002","637-UY","2019/10/14 15:39:14","新北市石門區小坑9號","121.594491666667","25.28836","6502200","石門區"
"236040","KED-0685","2019/10/14 15:39:31","新北市土城區學享街32號","121.451776666667","24.9870883333333","6501300","土城區"
"236074","166-UM","2019/10/14 15:39:32","新北市土城區福安街55巷23號","121.419425","24.963275","6501300","土城區"
"236029","253-BX","2019/10/14 15:39:14","新北市土城區中央路一段121巷8弄2號","121.447555","24.9880583333333","6501300","土城區"
"236024","269-VK","2019/10/14 15:39:15","新北市土城區裕生路102巷30號","121.445973333333","24.9849983333333","6501300","土城區"
"236012","270-VK","2019/10/14 15:39:14","新北市土城區廣明街91號","121.454691666667","24.9943566666667","6501300","土城區"
"236064","KEA-2877","2019/10/14 15:39:30","新北市土城區中央路三段38號","121.438391666667","24.9688233333333","6501300","土城區"
"236016","401-BY","2019/10/14 15:39:16","新北市土城區延吉街111巷12弄15-3號","121.471598333333","24.9849516666667","6501300","土城區"
"236060","752-BX","2019/10/14 15:39:30","新北市土城區立德路135巷5弄1號","121.464808333333","24.9869466666667","6501300","土城區"
"236057","912-UM","2019/10/14 15:39:16","新北市土城區中央路一段269號","121.444926666667","24.98531","6501300","土城區"
"236045","913-UM","2019/10/14 15:39:24","新北市土城區金城路三段248號","121.47389","24.99065","6501300","土城區"
"236054","AAC-216","2019/10/14 15:39:31","新北市土城區中華路一段18號","121.447645","24.9904266666667","6501300","土城區"
"238002","755-BX","2019/10/14 15:39:28","新北市樹林區啟智街44巷2號","121.420408333333","24.9929866666667","6500700","樹林區"
"238010","601-UM","2019/10/14 15:39:18","桃園市龜山區萬壽路一段369巷7弄2號","121.40164","25.0159983333333","6500700","樹林區"
"238011","5061-A6","2019/10/14 15:39:10","新北市樹林區中山路二段191號","121.40451","24.9775566666667","6500700","樹林區"
"238005","KEA-2217","2019/10/14 15:39:25","新北市樹林區中華路168號","121.415426666667","24.9803633333333","6500700","樹林區"
"238009","KEA-2213","2019/10/14 15:39:26","新北市樹林區太元街17號","121.418105","24.9802366666667","6500700","樹林區"
"238008","KEA-2539","2019/10/14 15:39:25","新北市樹林區佳園路二段173號","121.38994","24.956315","6500700","樹林區"
"238012","303-VK","2019/10/14 15:39:17","新北市樹林區復興路478號","121.413571666667","24.983365","6500700","樹林區"
"238004","283-BY","2019/10/14 15:39:28","新北市樹林區光榮街3巷9弄1號","121.412843333333","25.00391","6500700","樹林區"
"238001","282-BY","2019/10/14 15:39:23","新北市樹林區潭興街143巷1號","121.425665","24.9997333333333","6500700","樹林區"
"238007","268-VK","2019/10/14 15:39:32","新北市樹林區俊英街125號","121.424453333333","25.0110766666667","6500700","樹林區"
"238013","172-UY","2019/10/14 15:39:12","新北市樹林區新興街19巷2弄19號","121.401401666667","24.9729216666667","6500700","樹林區"
"238003","169-UY","2019/10/14 15:39:26","新北市樹林區復興路274號","121.418081666667","24.9884716666667","6500700","樹林區"
"220029","287-VK","2019/10/14 15:39:15","新北市板橋區大觀路三段50巷47號","121.432926666667","24.9956016666667","6500100","板橋區"
"235026","KEA-2876","2019/10/14 15:39:09","新北市中和區橋和路107號","121.491038333333","25.0056416666667","6500300","中和區"
