"lineid","car","time","location","longitude","latitude","cityid","cityname"
"249005","172-UM","2019/10/14 16:59:23","新北市八里區渡船頭3-19號","121.4339","25.15175","6502300","八里區"
"249001","173-UM","2019/10/14 16:59:25","新北市八里區中山路三段109號","121.390171666667","25.1421166666667","6502300","八里區"
"249004","303-UY","2019/10/14 16:59:19","新北市八里區博物館路5號","121.415883333333","25.1641383333333","6502300","八里區"
"249002","305-UY","2019/10/14 16:57:49","新北市八里區牛寮埔19-1號","121.4317","25.1427583333333","6502300","八里區"
"249003","593-UM","2019/10/14 16:59:28","新北市八里區中山路二段289號","121.401551666667","25.1486733333333","6502300","八里區"
"244025","069-UM","2019/10/14 16:59:17","新北市林口區粉寮69號","121.404941666667","25.0908483333333","6501700","林口區"
"244007","080-UY","2019/10/14 16:59:18","新北市林口區中華路96號","121.38477","25.0904483333333","6501700","林口區"
"244023","483-VK","2019/10/14 16:57:49","新北市林口區中山路1號","121.396966666667","25.0778533333333","6501700","林口區"
"244009","656-BX","2019/10/14 16:59:17","新北市林口區粉寮路一段77-2號","121.39728","25.0797233333333","6501700","林口區"
"244011","701-TV","2019/10/14 16:59:28","新北市林口區粉寮69號","121.405","25.09088","6501700","林口區"
"244021","838-TS","2019/10/14 16:59:10","新北市林口區粉寮一街150-2號","121.40369","25.0868383333333","6501700","林口區"
"231046","719-UM","2019/10/14 16:59:19","新北市新店區灣潭路15-8號","121.541586666667","24.9396283333333","6500600","新店區"
"241011","013-R5","2019/10/14 16:59:18","新北市三重區仁愛街55巷50號","121.497423333333","25.0723983333333","6500200","三重區"
"241028","022-UY","2019/10/14 16:59:13","新北市三重區中正南路58號","121.494086666667","25.0596733333333","6500200","三重區"
"241008","059-VK","2019/10/14 16:59:32","新北市三重區永安北路一段11巷24號","121.47763","25.07483","6500200","三重區"
"241002","060-VK","2019/10/14 16:59:26","新北市三重區仁義街225巷40號","121.497761666667","25.0828833333333","6500200","三重區"
"241031","061-VK","2019/10/14 16:59:14","新北市三重區三寧街10號","121.489068333333","25.0595233333333","6500200","三重區"
"241017","063-VK","2019/10/14 16:59:22","新北市三重區國隆路12巷5號","121.492686666667","25.0638083333333","6500200","三重區"
"241024","065-VK","2019/10/14 16:59:15","新北市三重區大勇街82巷15弄30號","121.481175","25.0719","6500200","三重區"
"241007","066-VK","2019/10/14 16:59:09","新北市三重區三和路四段145巷215號","121.48883","25.0793883333333","6500200","三重區"
"241003","091-VK","2019/10/14 16:59:14","新北市三重區集賢路87-1號","121.493885","25.0869333333333","6500200","三重區"
"241015","742-BX","2019/10/14 16:59:12","新北市三重區福德北路82號","121.501558333333","25.066315","6500200","三重區"
"241006","262-UM","2019/10/14 16:59:24","新北市三重區車路頭街131巷28號","121.48567","25.0758316666667","6500200","三重區"
"241016","266-UM","2019/10/14 16:59:14","新北市三重區大同北路107號","121.49416","25.0641816666667","6500200","三重區"
"241009","267-UM","2019/10/14 16:59:10","新北市三重區仁愛街600巷18號","121.484413333333","25.0803983333333","6500200","三重區"
"241018","268-UM","2019/10/14 16:59:14","新北市三重區民生東街30號","121.492966666667","25.0688583333333","6500200","三重區"
"241032","269-UM","2019/10/14 16:59:18","新北市三重區重陽路一段126號","121.486721666667","25.06029","6500200","三重區"
"241013","270-UM","2019/10/14 16:59:27","新北市三重區仁興街28巷46號","121.498348333333","25.0749416666667","6500200","三重區"
"241025","271-UM","2019/10/14 16:59:17","新北市三重區中正北路508巷5號","121.472596666667","25.0713366666667","6500200","三重區"
"241030","KED-0822","2019/10/14 16:59:25","新北市三重區昌隆街61號","121.491058333333","25.0510966666667","6500200","三重區"
"241004","475-VK","2019/10/14 16:59:23","新北市三重區五華街98巷21號","121.491811666667","25.081905","6500200","三重區"
"241020","478-VK","2019/10/14 16:59:15","新北市三重區國道路一段8號","121.486143333333","25.0733733333333","6500200","三重區"
"241026","480-VK","2019/10/14 16:59:27","新北市三重區文化南路42號","121.500405","25.0601066666667","6500200","三重區"
"241014","543-UM","2019/10/14 16:59:18","新北市三重區介壽路32號","121.500966666667","25.070655","6500200","三重區"
"241023","545-UM","2019/10/14 16:59:16","新北市三重區新北大道一段252號","121.480005","25.0617083333333","6500200","三重區"
"241001","547-UM","2019/10/14 16:59:26","新北市三重區仁愛街174號","121.494045","25.076645","6500200","三重區"
"241019","KEA-2593","2019/10/14 16:59:27","新北市三重區自強路二段74巷19號","121.487998333333","25.0699066666667","6500200","三重區"
"241005","AAD-863","2019/10/14 16:59:22","新北市三重區仁愛街650號","121.482793333333","25.0805666666667","6500200","三重區"
"241012","743-BX","2019/10/14 16:59:16","新北市三重區仁壽街245號","121.501146666667","25.0749283333333","6500200","三重區"
"241022","KED-0820","2019/10/14 16:59:21","新北市三重區中華路128號","121.48355","25.06385","6500200","三重區"
"241029","942-UM","2019/10/14 16:59:25","新北市三重區中正南路269號","121.493263333333","25.052215","6500200","三重區"
"241033","AAC-255","2019/10/14 16:59:28","新北市三重區中興北街275號","121.469091666667","25.0608116666667","6500200","三重區"
"247016","KEA-2869","2019/10/14 16:59:25","新北市蘆洲區中正路67號","121.470343333333","25.0826266666667","6501400","蘆洲區"
"247006","893-R6","2019/10/14 16:59:12","新北市蘆洲區長安街99巷30號","121.46092","25.0799716666667","6501400","蘆洲區"
"247020","341-TH","2019/10/14 16:59:28","新北市蘆洲區民族路422巷82弄2號","121.473661666667","25.0937166666667","6501400","蘆洲區"
"247012","337-TH","2019/10/14 16:59:21","新北市蘆洲區信義路296號","121.477663333333","25.0874866666667","6501400","蘆洲區"
"247004","336-TH","2019/10/14 16:59:17","新北市蘆洲區長安街110號","121.461066666667","25.0815533333333","6501400","蘆洲區"
"247024","057-VK","2019/10/14 16:59:21","新北市蘆洲區長興路255號","121.460523333333","25.0875016666667","6501400","蘆洲區"
"247014","056-VK","2019/10/14 16:59:23","新北市蘆洲區中山一路129號","121.475853333333","25.0815466666667","6501400","蘆洲區"
"247018","053-VK","2019/10/14 16:59:22","新北市蘆洲區民族路227巷12-1號","121.477131666667","25.0894233333333","6501400","蘆洲區"
"247022","007-UY","2019/10/14 16:59:24","新北市蘆洲區三民路128巷130號","121.46871","25.0918716666667","6501400","蘆洲區"
"247002","001-UY","2019/10/14 16:59:27","新北市蘆洲區永平街14號","121.459273333333","25.0906116666667","6501400","蘆洲區"
"228003","097-TW","2019/10/14 16:59:20","新北市貢寮區福隆里興隆街23號","121.943281666667","25.0164683333333","6502600","貢寮區"
"228002","663-BX","2019/10/14 16:59:21","新北市貢寮區貢寮里長泰路24-2號","121.902763333333","25.0239933333333","6502600","貢寮區"
"228001","670-TC","2019/10/14 16:59:27","新北市貢寮區貢寮里朝陽街1-2號","121.912303333333","25.0212333333333","6502600","貢寮區"
"224006","676-BX","2019/10/14 16:59:18","新北市瑞芳區傑魚坑路245巷2-1號","121.787803333333","25.1062333333333","6501200","瑞芳區"
"224007","285-BY","2019/10/14 16:59:23","新北市瑞芳區楓子瀨路54-1號","121.768833333333","25.1037283333333","6501200","瑞芳區"
"224009","275-VK","2019/10/14 16:59:18","新北市瑞芳區明燈路一段1號","121.826595","25.1093466666667","6501200","瑞芳區"
"224008","273-VK","2019/10/14 16:59:27","新北市瑞芳區明燈路一段253號","121.817465","25.1082566666667","6501200","瑞芳區"
"224005","271-BY","2019/10/14 16:59:24","新北市瑞芳區鼻頭路247號","121.906476666667","25.1211133333333","6501200","瑞芳區"
"227002","642-TC","2019/10/14 16:59:23","新北市雙溪區上林里內平林90號","121.827555","25.027485","6502500","雙溪區"
"227001","400-TW","2019/10/14 16:59:24","新北市雙溪區三貂里政光路6-5號","121.85143","25.0718166666667","6502500","雙溪區"
"251009","008-UM","2019/10/14 16:59:16","新北市淡水區中正路二段31號","121.41945","25.1816383333333","6501000","淡水區"
"251004","009-UM","2019/10/14 16:59:16","新北市淡水區中山路9號","121.444235","25.1697416666667","6501000","淡水區"
"251005","010-UM","2019/10/14 16:59:28","新北市淡水區文化路61號","121.438293333333","25.17279","6501000","淡水區"
"251015","KEA-2871","2019/10/14 16:59:31","新北市淡水區忠愛街5-2號","121.460675","25.1716","6501000","淡水區"
"251016","179-VK","2019/10/14 16:59:25","新北市淡水區瓦坑5-5號","121.478046666667","25.18193","6501000","淡水區"
"251008","181-VK","2019/10/14 16:59:30","新北市淡水區樹梅坑9號","121.472831666667","25.1427","6501000","淡水區"
"251013","182-VK","2019/10/14 16:59:14","新北市淡水區泉洲厝32號","121.489285","25.19263","6501000","淡水區"
"251007","442-VK","2019/10/14 16:59:32","新北市淡水區中正路28號","121.444305","25.1690766666667","6501000","淡水區"
"251012","443-VK","2019/10/14 16:59:21","新北市淡水區中正路二段31號","121.41929","25.1817683333333","6501000","淡水區"
"251006","561-UM","2019/10/14 16:59:27","新北市淡水區中正路一段87巷1號","121.421868333333","25.1792266666667","6501000","淡水區"
"251014","577-R6","2019/10/14 16:59:24","新北市淡水區淡金路四段476號","121.452443333333","25.2239133333333","6501000","淡水區"
"251011","650-BX","2019/10/14 16:59:22","新北市淡水區坪頂路50號","121.457946666667","25.1624566666667","6501000","淡水區"
"252002","178-VK","2019/10/14 16:59:20","新北市三芝區忠孝街133-1號","121.50634","25.2594516666667","6502100","三芝區"
"233002","762-BX","2019/10/14 16:59:12","新北市烏來區環山路71號","121.548686666667","24.8623366666667","6502900","烏來區"
"252001","KED-0821","2019/10/14 16:59:15","新北市三芝區淡金路二段89號","121.503858333333","25.2607633333333","6502100","三芝區"
"242042","AAC-296","2019/10/14 16:59:13","新北市新莊區新泰路357巷3弄57號","121.442081666667","25.03958","6500500","新莊區"
"242060","986-R7","2019/10/14 16:59:23","新北市新莊區新泰路255巷83號","121.44228","25.0390766666667","6500500","新莊區"
"242029","615-BX","2019/10/14 16:59:11","新北市新莊區新泰路357巷3弄57號","121.441898333333","25.0392833333333","6500500","新莊區"
"242027","613-BX","2019/10/14 16:59:17","新北市新莊區新泰路357巷3弄57號","121.44228","25.039245","6500500","新莊區"
"242058","612-BX","2019/10/14 16:59:14","新北市新莊區新泰路357巷3弄57號","121.442253333333","25.0392516666667","6500500","新莊區"
"242053","497-BY","2019/10/14 16:59:14","新北市新莊區新泰路255巷83號","121.442258333333","25.0391933333333","6500500","新莊區"
"242039","442-UM","2019/10/14 16:59:24","新北市新莊區三和路12-21號","121.441968333333","25.038835","6500500","新莊區"
"242007","440-UM","2019/10/14 16:59:09","新北市新莊區三和路12-21號","121.442355","25.03855","6500500","新莊區"
"242025","362-BY","2019/10/14 16:59:14","新北市新莊區新泰路357巷3弄57號","121.442021666667","25.0392033333333","6500500","新莊區"
"242023","353-BY","2019/10/14 16:59:25","新北市新莊區新泰路357巷3弄57號","121.442093333333","25.039195","6500500","新莊區"
"242021","KED-0687","2019/10/14 16:59:24","新北市新莊區三和路12-21號","121.442305","25.03802","6500500","新莊區"
"242036","347-TH","2019/10/14 16:59:19","新北市新莊區三和路12-21號","121.442286666667","25.0382483333333","6500500","新莊區"
"242034","350-TH","2019/10/14 16:59:18","新北市新莊區三和路12-21號","121.441923333333","25.0389116666667","6500500","新莊區"
"242019","351-TH","2019/10/14 16:59:21","新北市新莊區新泰路357巷3弄57號","121.441866666667","25.0394883333333","6500500","新莊區"
"238018","KEA-2217","2019/10/14 16:59:20","新北市樹林區育德街78-1號","121.387803333333","24.9679716666667","6500700","樹林區"
"238022","KEA-2213","2019/10/14 16:59:25","新北市樹林區八德街321-1號","121.419516666667","24.9737266666667","6500700","樹林區"
"238025","303-VK","2019/10/14 16:59:17","新北市樹林區中正路22-1號","121.427873333333","24.9992833333333","6500700","樹林區"
"238001","282-BY","2019/10/14 16:59:21","新北市樹林區中正路22-1號","121.427846666667","24.9996266666667","6500700","樹林區"
"239007","AAC-297","2019/10/14 16:59:17","新北市鶯歌區二甲路13-16號","121.34518","24.935155","6500800","鶯歌區"
"239008","527-UM","2019/10/14 16:59:28","新北市鶯歌區二甲路13-16號","121.345108333333","24.9350266666667","6500800","鶯歌區"
"239005","526-UM","2019/10/14 16:59:13","新北市鶯歌區二甲路13-16號","121.345308333333","24.9351533333333","6500800","鶯歌區"
"239001","417-VK","2019/10/14 16:59:15","新北市鶯歌區二甲路12-2號","121.345343333333","24.934505","6500800","鶯歌區"
"244019","KED-0667","2019/10/14 16:59:14","新北市林口區中山路152號","121.39106","25.0787433333333","6501700","林口區"
"233001","KEA-2870","2019/10/14 16:59:24","新北市烏來區溫泉街86巷16號","121.549525","24.8620266666667","6502900","烏來區"
"242011","280-VK","2019/10/14 16:59:25","新北市新莊區三和路12-21號","121.441836666667","25.03821","6500500","新莊區"
