"lineid","car","time","location","longitude","latitude","cityid","cityname"
"234026","9371-KE","2019/10/14 17:39:24","新北市永和區中正路696-1號","121.516486666667","25.009865","6500400","永和區"
"249005","172-UM","2019/10/14 17:39:23","新北市八里區荖阡坑路34-1號","121.402738333333","25.1297416666667","6502300","八里區"
"249001","173-UM","2019/10/14 17:39:21","新北市八里區龍米路二段150號","121.435688333333","25.1569116666667","6502300","八里區"
"249004","303-UY","2019/10/14 17:39:19","新北市八里區賢二街39號","121.418901666667","25.1577683333333","6502300","八里區"
"249002","305-UY","2019/10/14 17:39:29","新北市八里區坪子頂1號","121.442395","25.1269683333333","6502300","八里區"
"249003","593-UM","2019/10/14 17:39:28","新北市八里區中山路二段270號","121.404803333333","25.1509766666667","6502300","八里區"
"232011","375-UM","2019/10/14 17:39:15","新北市坪林區北宜路八段109號","121.706238333333","24.9347983333333","6502000","坪林區"
"244007","080-UY","2019/10/14 17:39:18","新北市林口區佳林路17號","121.386951666667","25.0822816666667","6501700","林口區"
"244013","KEA-2802","2019/10/14 17:39:16","新北市林口區中正路478-1號","121.38319","25.0777","6501700","林口區"
"244023","483-VK","2019/10/14 17:39:20","新北市林口區興林路152巷26號","121.387791666667","25.0716783333333","6501700","林口區"
"244017","485-VK","2019/10/14 17:39:23","新北市林口區文化二路一段214-1號","121.369111666667","25.0721133333333","6501700","林口區"
"244009","656-BX","2019/10/14 17:39:17","新北市林口區中北三街398號","121.383983333333","25.0855516666667","6501700","林口區"
"244011","701-TV","2019/10/14 17:39:28","新北市林口區仁愛路一段669號","121.387605","25.0766616666667","6501700","林口區"
"244025","837-TS","2019/10/14 17:39:29","新北市林口區文化三路一段394巷6號","121.366123333333","25.0729616666667","6501700","林口區"
"244021","838-TS","2019/10/14 17:39:30","新北市林口區仁愛路一段161號","121.398353333333","25.072245","6501700","林口區"
"222002","659-BX","2019/10/14 17:39:12","新北市深坑區深南路88巷1號","121.621436666667","25.011125","6501800","深坑區"
"231046","719-UM","2019/10/14 17:17:39","新北市新店區直潭六街64號","121.532228333333","24.9400133333333","6500600","新店區"
"241002","060-VK","2019/10/14 17:39:26","新北市五股區凌雲路一段22巷9號","121.452966666667","25.10063","6500200","三重區"
"241017","063-VK","2019/10/14 17:39:22","新北市三重區大同北路34巷9號","121.494678333333","25.0624516666667","6500200","三重區"
"241007","066-VK","2019/10/14 17:39:29","新北市三重區國道路一段68號","121.480653333333","25.072925","6500200","三重區"
"241015","742-BX","2019/10/14 17:39:13","新北市三重區重新路一段33號","121.50291","25.0641","6500200","三重區"
"241016","266-UM","2019/10/14 17:39:14","新北市三重區正義北路15-4號","121.497631666667","25.063165","6500200","三重區"
"241032","269-UM","2019/10/14 17:39:18","新北市三重區名源街59號","121.482348333333","25.0593683333333","6500200","三重區"
"241035","KEA-2210","2019/10/14 17:39:22","新北市三重區大勇街23號","121.482908333333","25.07166","6500200","三重區"
"241030","KED-0822","2019/10/14 17:39:25","新北市三重區成功路50巷73號","121.486068333333","25.0481766666667","6500200","三重區"
"241014","543-UM","2019/10/14 17:39:18","新北市三重區河邊北街80號","121.504368333333","25.068715","6500200","三重區"
"241023","545-UM","2019/10/14 17:39:16","新北市三重區中華路81號","121.483603333333","25.0628016666667","6500200","三重區"
"241033","AAC-255","2019/10/14 17:39:28","新北市三重區光復路一段138-2號","121.471221666667","25.0530016666667","6500200","三重區"
"235063","006-UY","2019/10/14 17:39:21","新北市中和區員山路36巷16-3號","121.485005","24.9912716666667","6500300","中和區"
"247016","KEA-2869","2019/10/14 17:39:27","新北市蘆洲區光華路72號","121.468036666667","25.0828466666667","6501400","蘆洲區"
"247010","KED-0682","2019/10/14 17:39:17","新北市蘆洲區中山一路124-2號","121.47685","25.0815883333333","6501400","蘆洲區"
"235054","640-BX","2019/10/14 17:11:33","新北市中和區員山路36巷16-2號","121.48519","24.9916666666667","6500300","中和區"
"235064","911-UM","2019/10/14 17:39:11","新北市中和區員山路36巷16-3號","121.485095","24.9912266666667","6500300","中和區"
"247006","893-R6","2019/10/14 17:39:31","新北市蘆洲區長安街68巷6號","121.462975","25.0803566666667","6501400","蘆洲區"
"247020","341-TH","2019/10/14 17:39:28","新北市蘆洲區民族路424號","121.473978333333","25.0917383333333","6501400","蘆洲區"
"247012","337-TH","2019/10/14 17:39:21","新北市蘆洲區民權路8-1號","121.476593333333","25.0858866666667","6501400","蘆洲區"
"247004","336-TH","2019/10/14 17:39:17","新北市蘆洲區長安街249巷42號","121.457666666667","25.0825383333333","6501400","蘆洲區"
"247024","057-VK","2019/10/14 17:39:21","新北市蘆洲區光榮路93號","121.46238","25.0885516666667","6501400","蘆洲區"
"247014","056-VK","2019/10/14 17:39:25","新北市蘆洲區中山二路69號","121.473528333333","25.0819516666667","6501400","蘆洲區"
"247018","053-VK","2019/10/14 17:39:22","新北市蘆洲區民權路61巷4弄2號","121.47345","25.0879483333333","6501400","蘆洲區"
"247022","007-UY","2019/10/14 17:39:24","新北市蘆洲區民族路574號","121.467156666667","25.088615","6501400","蘆洲區"
"247008","002-UY","2019/10/14 17:39:12","新北市蘆洲區民生街109號","121.473311666667","25.0785916666667","6501400","蘆洲區"
"247002","001-UY","2019/10/14 17:39:27","新北市蘆洲區永平街41號","121.458161666667","25.0911483333333","6501400","蘆洲區"
"228003","097-TW","2019/10/14 17:39:20","新北市貢寮區仁理村仁和路148號","121.923183333333","25.0517766666667","6502600","貢寮區"
"228002","663-BX","2019/10/14 17:39:21","新北市貢寮區福隆里龜壽谷街27-1號","121.951565","25.013355","6502600","貢寮區"
"224010","AGQ-8101","2019/10/14 17:39:27","新北市瑞芳區岳王路10-6號","121.807541666667","25.1110133333333","6501200","瑞芳區"
"224006","676-BX","2019/10/14 17:39:18","新北市瑞芳區中山路326號","121.796545","25.110125","6501200","瑞芳區"
"224009","275-VK","2019/10/14 17:39:18","新北市瑞芳區烏勢巷131號","121.846601666667","25.1073166666667","6501200","瑞芳區"
"224008","273-VK","2019/10/14 17:39:27","新北市瑞芳區瑞柑新村40號","121.829066666667","25.106995","6501200","瑞芳區"
"224005","271-BY","2019/10/14 17:39:24","新北市瑞芳區籠山路15號","121.831793333333","25.123995","6501200","瑞芳區"
"227002","642-TC","2019/10/14 17:21:29","新北市雙溪區共和里東榮街52號","121.86631","25.0336766666667","6502500","雙溪區"
"227001","400-TW","2019/10/14 17:39:24","新北市雙溪區三貂里定福路1-2號","121.850711666667","25.0634016666667","6502500","雙溪區"
"251009","008-UM","2019/10/14 17:39:15","新北市淡水區新生街30巷36號","121.439458333333","25.173165","6501000","淡水區"
"251004","009-UM","2019/10/14 17:39:18","新北市淡水區中正東路二段88巷37號","121.459256666667","25.1467916666667","6501000","淡水區"
"251005","010-UM","2019/10/14 17:39:27","新北市淡水區鄧公路35巷2號","121.451548333333","25.1711833333333","6501000","淡水區"
"251002","012-UM","2019/10/14 17:39:19","新北市淡水區文化路57號","121.438626666667","25.1728516666667","6501000","淡水區"
"251015","KEA-2871","2019/10/14 17:39:31","新北市淡水區樹林口16號","121.478166666667","25.167085","6501000","淡水區"
"251016","179-VK","2019/10/14 17:39:24","新北市淡水區埤島39-15號","121.452735","25.1958783333333","6501000","淡水區"
"251008","181-VK","2019/10/14 17:39:30","新北市淡水區中正東路二段161巷11弄10號","121.461435","25.146035","6501000","淡水區"
"251013","182-VK","2019/10/14 17:39:14","新北市淡水區演戲埔腳3-3號","121.473366666667","25.1924233333333","6501000","淡水區"
"251010","413-VK","2019/10/14 17:39:14","新北市淡水區淡海路280巷16號","121.4199","25.1894366666667","6501000","淡水區"
"251007","442-VK","2019/10/14 17:39:32","新北市淡水區民族路35巷1號","121.464551666667","25.13716","6501000","淡水區"
"251012","443-VK","2019/10/14 17:39:21","新北市淡水區北新路200巷8號","121.451696666667","25.1796733333333","6501000","淡水區"
"251006","561-UM","2019/10/14 17:39:26","新北市淡水區中山北路一段119巷4號","121.44244","25.1769766666667","6501000","淡水區"
"251014","577-R6","2019/10/14 17:39:23","新北市淡水區公埔子15-1號","121.479185","25.2266666666667","6501000","淡水區"
"251011","650-BX","2019/10/14 17:39:22","新北市淡水區坪頂路718號","121.482561666667","25.1584983333333","6501000","淡水區"
"251003","673-BX","2019/10/14 17:39:11","新北市淡水區中山北路一段33號","121.441493333333","25.1752016666667","6501000","淡水區"
"207003","550-UM","2019/10/14 17:39:27","新北市萬里區龜吼里漁澳路16號","121.686813333333","25.1947233333333","6502800","萬里區"
"207004","291-VK","2019/10/14 17:39:23","新北市萬里區中幅里中福路22號","121.682158333333","25.1652583333333","6502800","萬里區"
"252002","178-VK","2019/10/14 17:39:20","新北市三芝區智成街98號","121.50548","25.255515","6502100","三芝區"
"237004","KEA-2597","2019/10/14 17:39:27","新北市三峽區中山路459巷135號","121.348995","24.93319","6500900","三峽區"
"237013","252-BX","2019/10/14 17:39:16","新北市三峽區愛國路33-9號","121.374891666667","24.9329816666667","6500900","三峽區"
"237010","706-TV","2019/10/14 17:39:14","新北市三峽區中山路276號","121.361346666667","24.9377966666667","6500900","三峽區"
"233002","762-BX","2019/10/14 17:39:12","新北市烏來區烏來街3-2號","121.551211666667","24.8654116666667","6502900","烏來區"
"236078","166-UM","2019/10/14 17:39:14","新北市土城區城林路6巷80號","121.43823","24.9795216666667","6501300","土城區"
"236039","271-VK","2019/10/14 17:39:26","新北市土城區城林路6巷80號","121.43841","24.979735","6501300","土城區"
"252001","KED-0821","2019/10/14 17:39:12","新北市三芝區淡金路二段2號","121.502241666667","25.25917","6502100","三芝區"
"236020","401-BY","2019/10/14 17:39:10","新北市土城區城林路6巷80號","121.438753333333","24.9796233333333","6501300","土城區"
"242060","986-R7","2019/10/14 17:39:23","新北市新莊區新樹路449巷23號","121.434788333333","25.0142616666667","6500500","新莊區"
"242004","751-BX","2019/10/14 17:39:24","新北市新莊區自立街180號","121.456055","25.0454783333333","6500500","新莊區"
"242029","615-BX","2019/10/14 17:39:31","新北市新莊區復興路二段5號","121.453533333333","25.04389","6500500","新莊區"
"242027","613-BX","2019/10/14 17:39:17","新北市新莊區福壽街88號","121.458201666667","25.0498633333333","6500500","新莊區"
"242058","612-BX","2019/10/14 17:39:14","新北市新莊區中正路651-2號","121.429486666667","25.03109","6500500","新莊區"
"242048","566-BX","2019/10/14 17:39:15","新北市新莊區萬安街147號","121.42038","25.021635","6500500","新莊區"
"242053","497-BY","2019/10/14 17:39:14","新北市新莊區新樹路701號","121.432143333333","25.0023283333333","6500500","新莊區"
"242039","442-UM","2019/10/14 17:39:24","新北市新莊區民安路332號","121.429055","25.0220483333333","6500500","新莊區"
"242002","441-UM","2019/10/14 17:39:21","新北市新莊區新莊路258號","121.451968333333","25.0340366666667","6500500","新莊區"
"242007","440-UM","2019/10/14 17:39:29","新北市新莊區自信街81巷1號","121.456","25.0482183333333","6500500","新莊區"
"242044","415-TV","2019/10/14 17:39:20","新北市新莊區中正路871巷6號","121.41841","25.026835","6500500","新莊區"
"242013","413-TV","2019/10/14 17:39:15","新北市新莊區中誠街96號","121.449996666667","25.0477783333333","6500500","新莊區"
"242050","400-BY","2019/10/14 17:39:31","新北市新莊區西盛街187-16號","121.429016666667","25.0171383333333","6500500","新莊區"
"242025","362-BY","2019/10/14 17:39:24","新北市新莊區思源路90號","121.460226666667","25.045545","6500500","新莊區"
"242023","353-BY","2019/10/14 17:39:25","新北市新莊區公園路129-5號","121.457421666667","25.0407883333333","6500500","新莊區"
"242015","132-UY","2019/10/14 17:39:15","新北市新莊區新泰路271號","121.445746666667","25.04028","6500500","新莊區"
"242056","172-VK","2019/10/14 17:39:14","新北市新莊區泰豐街30巷16號","121.448835","25.03202","6500500","新莊區"
"242017","173-VK","2019/10/14 17:39:21","新北市新莊區復興路一段149巷21弄23號","121.448983333333","25.0439183333333","6500500","新莊區"
"242031","175-VK","2019/10/14 17:39:27","新北市新莊區新泰路361巷21號","121.442686666667","25.0430033333333","6500500","新莊區"
"242021","KED-0687","2019/10/14 17:39:24","新北市新莊區中華路一段65號","121.452008333333","25.0395166666667","6500500","新莊區"
"242042","346-TH","2019/10/14 17:39:28","新北市新莊區建國一路20號","121.433741666667","25.0316966666667","6500500","新莊區"
"242036","347-TH","2019/10/14 17:39:19","新北市新莊區建福路69巷43號","121.42877","25.02759","6500500","新莊區"
"242009","349-TH","2019/10/14 17:39:30","新北市新莊區昌明街14巷3弄1號","121.457316666667","25.0529116666667","6500500","新莊區"
"242034","350-TH","2019/10/14 17:39:18","新北市新莊區新莊路526號","121.445801666667","25.0329966666667","6500500","新莊區"
"242019","351-TH","2019/10/14 17:39:21","新北市新莊區中港路160號","121.455031666667","25.0414266666667","6500500","新莊區"
"238015","755-BX","2019/10/14 17:39:11","新北市樹林區樹德街90-1號","121.420201666667","24.9924616666667","6500700","樹林區"
"238023","601-UM","2019/10/14 17:39:18","新北市樹林區三福街114號","121.406403333333","25.0164333333333","6500700","樹林區"
"238019","599-UM","2019/10/14 17:39:15","新北市樹林區太平路33號","121.419191666667","24.983075","6500700","樹林區"
"238024","5061-A6","2019/10/14 17:39:10","新北市樹林區太平路269號","121.419535","24.9730966666667","6500700","樹林區"
"238018","KEA-2217","2019/10/14 17:39:19","新北市樹林區鎮前街124號","121.424813333333","24.9910366666667","6500700","樹林區"
"238022","KEA-2213","2019/10/14 17:39:25","新北市樹林區太元街34號","121.418046666667","24.9800683333333","6500700","樹林區"
"238021","KEA-2539","2019/10/14 17:39:18","新北市樹林區柑園街一段253巷26號","121.396928333333","24.9533666666667","6500700","樹林區"
"238025","303-VK","2019/10/14 17:39:17","新北市樹林區保安街二段180號","121.412576666667","25.0100316666667","6500700","樹林區"
"238017","283-BY","2019/10/14 17:39:28","新北市樹林區三德街20-4號","121.413953333333","25.01299","6500700","樹林區"
"238014","282-BY","2019/10/14 17:39:21","新北市樹林區保安街一段313巷27號","121.416983333333","24.99735","6500700","樹林區"
"238020","268-VK","2019/10/14 17:39:12","新北市樹林區俊英街116巷27號","121.428398333333","25.006055","6500700","樹林區"
"238026","172-UY","2019/10/14 17:39:12","新北市樹林區新興街19巷34弄34號","121.402283333333","24.97234","6500700","樹林區"
"238016","169-UY","2019/10/14 17:39:26","新北市樹林區文化街56號","121.41799","24.9885883333333","6500700","樹林區"
"239007","AAC-297","2019/10/14 17:39:18","新北市鶯歌區鶯桃路182巷96弄6-1號","121.34016","24.9571816666667","6500800","鶯歌區"
"239006","891-R6","2019/10/14 17:39:12","新北市鶯歌區鶯桃路466號","121.332408333333","24.9656233333333","6500800","鶯歌區"
"239008","527-UM","2019/10/14 17:39:28","新北市鶯歌區宏德司法新村143號","121.333966666667","24.978645","6500800","鶯歌區"
"239005","526-UM","2019/10/14 17:39:13","新北市鶯歌區鶯桃路二段24號","121.32599","24.9723883333333","6500800","鶯歌區"
"239001","417-VK","2019/10/14 17:39:15","新北市鶯歌區高職西街75號","121.336231666667","24.9418883333333","6500800","鶯歌區"
"239003","360-BY","2019/10/14 17:39:23","新北市鶯歌區鶯桃路179號","121.337955","24.9583933333333","6500800","鶯歌區"
"239002","359-BY","2019/10/14 17:39:18","新北市鶯歌區育英街15號","121.346771666667","24.95512","6500800","鶯歌區"
"239004","193-VK","2019/10/14 17:39:23","新北市鶯歌區三鶯路82號","121.358148333333","24.94302","6500800","鶯歌區"
"244019","KED-0667","2019/10/14 17:39:14","新北市林口區忠孝路512-1號","121.371753333333","25.0691816666667","6501700","林口區"
"221010","269-BY","2019/10/14 17:39:25","新北市汐止區康寧街901號","121.650878333333","25.075235","6501100","汐止區"
"221029","298-VK","2019/10/14 17:39:20","新北市汐止區康寧街901號","121.651761666667","25.07498","6501100","汐止區"
"233001","KEA-2870","2019/10/14 17:39:24","新北市烏來區娃娃谷31號","121.52784","24.8373716666667","6502900","烏來區"
"242046","281-VK","2019/10/14 17:39:25","新北市新莊區福營路116號","121.43614","25.0325933333333","6500500","新莊區"
"242011","280-VK","2019/10/14 17:39:30","新北市新莊區中華路二段237號","121.45145","25.05322","6500500","新莊區"
