"lineid","car","time","location","longitude","latitude","cityid","cityname"
"234026","9371-KE","2019/10/14 17:59:24","新北市永和區永和路一段45-1號","121.512838333333","25.0062633333333","6500400","永和區"
"249005","172-UM","2019/10/14 17:59:23","新北市八里區荖阡坑路22-1號","121.398923333333","25.137075","6502300","八里區"
"249001","173-UM","2019/10/14 17:59:21","新北市八里區龍米路二段37號","121.448285","25.1400016666667","6502300","八里區"
"249004","303-UY","2019/10/14 17:59:19","新北市八里區龍米路三段17巷2號","121.428055","25.15882","6502300","八里區"
"249002","305-UY","2019/10/14 17:59:09","新北市八里區龍形三街9巷2號","121.450633333333","25.13177","6502300","八里區"
"249003","593-UM","2019/10/14 17:59:28","新北市八里區中華路二段165巷19弄26號","121.410396666667","25.15171","6502300","八里區"
"248014","025-BX","2019/10/14 17:59:17","新北市五股區中興路三段198號","121.44135","25.082065","6501500","五股區"
"248016","026-BX","2019/10/14 17:59:11","新北市五股區中興路二段103巷14號","121.458563333333","25.0762116666667","6501500","五股區"
"248006","077-UY","2019/10/14 17:59:25","新北市五股區中興路二段163號","121.457665","25.0776783333333","6501500","五股區"
"248008","KED-0815","2019/10/14 17:59:14","新北市五股區中興路二段148號","121.458813333333","25.078325","6501500","五股區"
"248018","KED-0813","2019/10/14 17:59:21","新北市五股區中興路二段83巷26-6號","121.459895","25.0753","6501500","五股區"
"248004","677-BX","2019/10/14 17:59:16","新北市五股區更洲路47號","121.45688","25.0791416666667","6501500","五股區"
"248002","678-BX","2019/10/14 17:59:25","新北市五股區中興路二段83巷26-6號","121.460148333333","25.07528","6501500","五股區"
"248010","682-TV","2019/10/14 17:59:21","新北市五股區中興路二段161號","121.457866666667","25.07711","6501500","五股區"
"232011","375-UM","2019/10/14 17:59:15","新北市坪林區水柳腳39號","121.70969","24.9351566666667","6502000","坪林區"
"244007","080-UY","2019/10/14 17:59:18","新北市林口區林口路237號","121.386965","25.0834766666667","6501700","林口區"
"244013","KEA-2802","2019/10/14 17:59:16","新北市林口區中山路68號","121.393858333333","25.0785733333333","6501700","林口區"
"244023","483-VK","2019/10/14 17:59:00","新北市林口區東湖路93巷80號","121.385433333333","25.070965","6501700","林口區"
"244017","485-VK","2019/10/14 17:59:23","新北市林口區忠孝路490號","121.370436666667","25.0703583333333","6501700","林口區"
"244009","656-BX","2019/10/14 17:59:17","新北市林口區佳林路56巷6弄18號","121.385495","25.0823216666667","6501700","林口區"
"244011","701-TV","2019/10/14 17:59:28","新北市林口區中正路32號","121.395668333333","25.0775","6501700","林口區"
"244025","837-TS","2019/10/14 17:59:09","新北市林口區三民路77-3號","121.358938333333","25.0684383333333","6501700","林口區"
"244021","838-TS","2019/10/14 17:59:30","新北市林口區新寮27-6號","121.396333333333","25.066355","6501700","林口區"
"243013","646-TV","2019/10/14 17:59:14","新北市泰山區黎明路33號","121.421648333333","25.0605083333333","6501600","泰山區"
"222003","436-BY","2019/10/14 17:59:17","新北市深坑區炮子崙20號","121.606571666667","24.9893666666667","6501800","深坑區"
"222002","659-BX","2019/10/14 17:59:13","新北市深坑區深坑街35號","121.61603","25.00187","6501800","深坑區"
"231055","4716-K9","2019/10/14 17:59:22","新北市新店區安華路28-1號","121.519618333333","24.9606516666667","6500600","新店區"
"241016","266-UM","2019/10/14 17:59:14","新北市新莊區五工一路85號","121.46174","25.0676666666667","6500200","三重區"
"241035","KEA-2210","2019/10/14 17:59:22","新北市三重區大勇街28號","121.482581666667","25.07158","6500200","三重區"
"241033","AAC-255","2019/10/14 17:59:28","新北市三重區重新路五段599號","121.46948","25.04565","6500200","三重區"
"235063","006-UY","2019/10/14 17:59:21","新北市中和區員山路36巷16-3號","121.484935","24.9912783333333","6500300","中和區"
"235065","098-UM","2019/10/14 17:59:18","新北市中和區中山路二段472號","121.48823","25.0048183333333","6500300","中和區"
"235058","151-BY","2019/10/14 17:59:19","新北市中和區圓通路369巷2號","121.49126","24.9895266666667","6500300","中和區"
"235038","185-VK","2019/10/14 17:59:19","新北市中和區中正路277號","121.495295","24.99366","6500300","中和區"
"235042","KEA-2878","2019/10/14 17:59:14","新北市中和區南山路146巷29號","121.502926666667","24.9923816666667","6500300","中和區"
"247016","KEA-2869","2019/10/14 17:59:24","新北市蘆洲區中正路185巷78弄9號","121.46598","25.08449","6501400","蘆洲區"
"235069","4980-A6","2019/10/14 17:59:20","新北市中和區員山路36巷16-2號","121.485135","24.9917533333333","6500300","中和區"
"235070","558-UM","2019/10/14 17:59:26","新北市中和區錦和路350-1號","121.490278333333","24.9936183333333","6500300","中和區"
"235045","565-BX","2019/10/14 17:59:31","新北市中和區中正路637巷52弄1號","121.485495","24.9935116666667","6500300","中和區"
"235054","640-BX","2019/10/14 17:59:18","新北市中和區連城路569巷9弄24號","121.479665","24.9935383333333","6500300","中和區"
"235047","732-UM","2019/10/14 17:59:14","新北市中和區建八路1號","121.485545","24.99866","6500300","中和區"
"235057","801-TS","2019/10/14 17:58:57","新北市中和區員山路36巷16-2號","121.485226666667","24.991305","6500300","中和區"
"235052","805-TS","2019/10/14 17:59:31","新北市中和區員山路36巷16-3號","121.484788333333","24.9909116666667","6500300","中和區"
"235053","900-TW","2019/10/14 17:59:11","新北市中和區員山路36巷16-2號","121.485271666667","24.9914366666667","6500300","中和區"
"235064","911-UM","2019/10/14 17:59:11","新北市中和區錦和路350-1號","121.490366666667","24.993595","6500300","中和區"
"235051","157-BY","2019/10/14 17:59:26","新北市中和區中正路637巷52弄1號","121.485423333333","24.9933566666667","6500300","中和區"
"235037","AAC-213","2019/10/14 17:59:29","新北市中和區景平路412號","121.508293333333","24.99315","6500300","中和區"
"247006","893-R6","2019/10/14 17:59:11","新北市蘆洲區中華街12號","121.463161666667","25.08156","6501400","蘆洲區"
"247012","337-TH","2019/10/14 17:59:21","新北市蘆洲區民族路167巷11號","121.478406666667","25.0882083333333","6501400","蘆洲區"
"247004","336-TH","2019/10/14 17:59:17","新北市蘆洲區永康街77號","121.455773333333","25.0852216666667","6501400","蘆洲區"
"247014","056-VK","2019/10/14 17:59:23","新北市蘆洲區忠孝路53號","121.471288333333","25.08664","6501400","蘆洲區"
"247018","053-VK","2019/10/14 17:59:22","新北市蘆洲區復興路235號","121.48024","25.0898066666667","6501400","蘆洲區"
"247008","002-UY","2019/10/14 17:59:32","新北市蘆洲區信義路7號","121.473785","25.0791933333333","6501400","蘆洲區"
"247002","001-UY","2019/10/14 17:59:30","新北市蘆洲區永平街32巷57弄35號","121.458358333333","25.0933766666667","6501400","蘆洲區"
"226004","312-R5","2019/10/14 17:59:16","新北市平溪區石底里公園街18-3號","121.73373","25.02544","6502400","平溪區"
"228003","097-TW","2019/10/14 17:59:20","新北市貢寮區真理里美艷山街6-2號","121.928831666667","25.0607833333333","6502600","貢寮區"
"228002","663-BX","2019/10/14 17:59:21","新北市貢寮區福隆里桂安街3-1號","121.962713333333","25.0208116666667","6502600","貢寮區"
"228001","670-TC","2019/10/14 17:59:18","新北市貢寮區仁理村仁愛路106巷36號","121.92956","25.05444","6502600","貢寮區"
"224006","676-BX","2019/10/14 17:59:18","新北市瑞芳區大寮路356-1號","121.785553333333","25.1031216666667","6501200","瑞芳區"
"224007","285-BY","2019/10/14 17:59:22","新北市瑞芳區大寮路84號","121.78037","25.101335","6501200","瑞芳區"
"224009","275-VK","2019/10/14 17:59:18","新北市瑞芳區山尖路2號","121.854261666667","25.1158383333333","6501200","瑞芳區"
"224008","273-VK","2019/10/14 17:59:27","新北市瑞芳區明燈路一段45巷103號","121.82144","25.1038383333333","6501200","瑞芳區"
"224005","271-BY","2019/10/14 17:59:24","新北市瑞芳區深澳路205號","121.819495","25.1331133333333","6501200","瑞芳區"
"227001","400-TW","2019/10/14 17:59:24","新北市雙溪區三貂里定福路1-2號","121.85072","25.063425","6502500","雙溪區"
"253005","032-BX","2019/10/14 17:59:11","新北市石門區中山路62-5號","121.567421666667","25.2898016666667","6502200","石門區"
"253006","295-VK","2019/10/14 17:59:17","新北市石門區大丘田45-2號","121.54981","25.2748416666667","6502200","石門區"
"208002","KEA-2872","2019/10/14 17:59:28","新北市金山區三界壇路87號","121.625105","25.2285566666667","6502700","金山區"
"208003","665-BX","2019/10/14 17:59:19","新北市金山區磺港里磺港路203號","121.644921666667","25.2275983333333","6502700","金山區"
"251009","008-UM","2019/10/14 17:59:20","新北市淡水區水源街一段52-1號","121.44408","25.1722533333333","6501000","淡水區"
"251004","009-UM","2019/10/14 17:59:19","新北市淡水區民權路187號","121.45954","25.13358","6501000","淡水區"
"251005","010-UM","2019/10/14 17:59:27","新北市淡水區英專路127-1號","121.446321666667","25.1727683333333","6501000","淡水區"
"251002","012-UM","2019/10/14 17:59:19","新北市淡水區中山路24號","121.444391666667","25.1695683333333","6501000","淡水區"
"251015","KEA-2871","2019/10/14 17:59:31","新北市淡水區興福寮32-2號","121.490815","25.1635733333333","6501000","淡水區"
"251016","179-VK","2019/10/14 17:59:24","新北市淡水區埤島28號","121.447625","25.1983633333333","6501000","淡水區"
"251008","181-VK","2019/10/14 17:59:10","新北市淡水區八勢路一段125-1號","121.467168333333","25.1567916666667","6501000","淡水區"
"251013","182-VK","2019/10/14 17:59:14","新北市淡水區泉洲厝31號","121.47952","25.191015","6501000","淡水區"
"251010","413-VK","2019/10/14 17:59:14","新北市淡水區中正路一段87巷1號","121.421626666667","25.179095","6501000","淡水區"
"251007","442-VK","2019/10/14 17:59:12","新北市淡水區竹林路161號","121.463231666667","25.1418133333333","6501000","淡水區"
"251012","443-VK","2019/10/14 17:59:21","新北市淡水區北新路三段30號","121.483703333333","25.1865116666667","6501000","淡水區"
"251006","561-UM","2019/10/14 17:59:26","新北市淡水區中山北路一段47號","121.44154","25.1754933333333","6501000","淡水區"
"251014","577-R6","2019/10/14 17:59:23","新北市淡水區公埔子16-6號","121.481041666667","25.224575","6501000","淡水區"
"251011","650-BX","2019/10/14 17:53:22","新北市淡水區吳(仔)厝65號","121.482288333333","25.14996","6501000","淡水區"
"251003","673-BX","2019/10/14 17:59:11","新北市淡水區大忠街39號","121.444461666667","25.1763383333333","6501000","淡水區"
"207003","550-UM","2019/10/14 17:59:19","新北市萬里區野柳里東澳路66號","121.69263","25.2009","6502800","萬里區"
"207004","291-VK","2019/10/14 17:59:23","新北市萬里區萬里里瑪鋉路5號","121.68613","25.1749816666667","6502800","萬里區"
"252002","178-VK","2019/10/14 17:59:20","新北市三芝區中山路二段9號","121.502528333333","25.25573","6502100","三芝區"
"208001","170-UY","2019/10/14 17:59:30","新北市金山區磺港里磺港路160號","121.644718333333","25.2258","6502700","金山區"
"237004","KEA-2597","2019/10/14 17:59:27","新北市三峽區中園街118號","121.36723","24.9225366666667","6500900","三峽區"
"237007","153-BY","2019/10/14 17:59:23","新北市三峽區中園街108-1號","121.367015","24.9230183333333","6500900","三峽區"
"237009","210-TH","2019/10/14 17:59:22","新北市三峽區中山路106巷5號","121.36606","24.9360666666667","6500900","三峽區"
"237013","252-BX","2019/10/14 17:59:16","新北市三峽區介壽路一段22號","121.375568333333","24.93288","6500900","三峽區"
"237012","275-BY","2019/10/14 17:59:15","新北市三峽區民生街19巷3-1號","121.376251666667","24.93614","6500900","三峽區"
"237008","302-VK","2019/10/14 17:59:26","新北市三峽區正義街158-7號","121.368378333333","24.9159466666667","6500900","三峽區"
"237014","433-BY","2019/10/14 17:59:23","新北市三峽區復興路101巷1弄79號","121.370983333333","24.9376866666667","6500900","三峽區"
"237006","5529-G3","2019/10/14 17:59:20","新北市三峽區介壽路二段138巷1弄5-1號","121.396086666667","24.9342616666667","6500900","三峽區"
"237011","KEA-2596","2019/10/14 17:59:20","新北市三峽區大同路39-1號","121.376571666667","24.9281866666667","6500900","三峽區"
"237015","649-BX","2019/10/14 17:59:24","新北市三峽區紫微路84號","121.409675","24.9141933333333","6500900","三峽區"
"237010","706-TV","2019/10/14 17:59:14","新北市三峽區文化路238號","121.367615","24.9358316666667","6500900","三峽區"
"237005","AKY-6261","2019/10/14 17:59:23","新北市三峽區復興路235號","121.368253333333","24.9389066666667","6500900","三峽區"
"236042","KED-0685","2019/10/14 17:59:24","新北市土城區城林路6巷80號","121.43845","24.979605","6501300","土城區"
"233002","762-BX","2019/10/14 17:59:12","新北市烏來區烏來街127號","121.551448333333","24.8629583333333","6502900","烏來區"
"236078","166-UM","2019/10/14 17:59:14","新北市土城區永寧路32巷10弄1號","121.428916666667","24.96102","6501300","土城區"
"236030","253-BX","2019/10/14 17:59:23","新北市土城區城林路6巷80號","121.438633333333","24.9796666666667","6501300","土城區"
"236026","269-VK","2019/10/14 17:59:31","新北市土城區承天路47號","121.438921666667","24.9638816666667","6501300","土城區"
"236014","270-VK","2019/10/14 17:59:20","新北市土城區員福街50號","121.440545","24.9790666666667","6501300","土城區"
"236039","271-VK","2019/10/14 17:59:26","新北市土城區中正路75號","121.44541","24.9757466666667","6501300","土城區"
"236069","KEA-2877","2019/10/14 17:59:16","新北市土城區員福街50號","121.440633333333","24.9790416666667","6501300","土城區"
"252001","KED-0821","2019/10/14 17:59:32","新北市三芝區中興街二段2號","121.498316666667","25.2566333333333","6502100","三芝區"
"236020","401-BY","2019/10/14 17:59:10","新北市土城區城林路6巷80號","121.438473333333","24.979775","6501300","土城區"
"236063","752-BX","2019/10/14 17:59:03","新北市土城區城林路6巷80號","121.438595","24.9797316666667","6501300","土城區"
"236059","912-UM","2019/10/14 17:59:20","新北市土城區中央路三段250號","121.427565","24.9641916666667","6501300","土城區"
"236048","913-UM","2019/10/14 17:59:14","新北市土城區中正路65號","121.444573333333","24.9756683333333","6501300","土城區"
"236055","AAC-216","2019/10/14 17:59:21","新北市土城區城林路6巷80號","121.438533333333","24.97959","6501300","土城區"
"242060","986-R7","2019/10/14 17:59:27","新北市新莊區新樹路415號","121.43262","25.0142316666667","6500500","新莊區"
"242004","751-BX","2019/10/14 17:59:24","新北市新莊區福樂街72巷9號","121.458575","25.0466266666667","6500500","新莊區"
"242029","615-BX","2019/10/14 17:59:11","新北市新莊區中平路110巷13號","121.44579","25.0460316666667","6500500","新莊區"
"242027","613-BX","2019/10/14 17:59:17","新北市新莊區思源路455號","121.459671666667","25.0534366666667","6500500","新莊區"
"242058","612-BX","2019/10/14 17:59:14","新北市新莊區中山路三段627號","121.413903333333","25.0237233333333","6500500","新莊區"
"242048","566-BX","2019/10/14 17:59:15","新北市新莊區萬安街28號","121.42138","25.0244","6500500","新莊區"
"242053","497-BY","2019/10/14 17:59:14","新北市新莊區光華街37號","121.428765","25.01127","6500500","新莊區"
"242039","442-UM","2019/10/14 17:59:29","新北市新莊區民安西路24巷19號","121.426135","25.0207266666667","6500500","新莊區"
"242002","441-UM","2019/10/14 17:59:21","新北市新莊區大觀街42巷31號","121.454603333333","25.0363783333333","6500500","新莊區"
"242007","440-UM","2019/10/14 17:59:29","新北市新莊區自信街75巷13號","121.455746666667","25.0488333333333","6500500","新莊區"
"242044","415-TV","2019/10/14 17:59:28","新北市新莊區雙鳳路75號","121.414855","25.027485","6500500","新莊區"
"242013","413-TV","2019/10/14 17:59:15","新北市新莊區中和街125巷3號","121.447066666667","25.0485366666667","6500500","新莊區"
"242050","400-BY","2019/10/14 17:59:31","新北市新莊區民安西路141號","121.426596666667","25.0170333333333","6500500","新莊區"
"242025","362-BY","2019/10/14 17:59:14","新北市新莊區五工路58號","121.458841666667","25.062785","6500500","新莊區"
"242023","353-BY","2019/10/14 17:59:25","新北市新莊區福壽街31號","121.458158333333","25.048345","6500500","新莊區"
"242015","132-UY","2019/10/14 17:59:25","新北市新莊區新泰路502巷38號","121.4436","25.04657","6500500","新莊區"
"242056","172-VK","2019/10/14 17:59:14","新北市新莊區豐年街124巷20弄2號","121.445608333333","25.0300616666667","6500500","新莊區"
"242017","173-VK","2019/10/14 17:59:21","新北市新莊區中和街60巷15號","121.448543333333","25.044855","6500500","新莊區"
"242031","175-VK","2019/10/14 17:59:27","新北市新莊區新泰路305巷12號","121.444646666667","25.041005","6500500","新莊區"
"242021","KED-0687","2019/10/14 17:59:24","新北市新莊區中華路一段45巷1號","121.45194","25.038095","6500500","新莊區"
"242042","346-TH","2019/10/14 17:59:28","新北市新莊區中正路723-8號","121.423081666667","25.0291233333333","6500500","新莊區"
"242036","347-TH","2019/10/14 17:59:19","新北市新莊區建福路76號","121.426871666667","25.0268083333333","6500500","新莊區"
"242009","349-TH","2019/10/14 17:59:27","新北市新莊區中華路二段258巷17號","121.453126666667","25.0539333333333","6500500","新莊區"
"242034","350-TH","2019/10/14 17:59:18","新北市新莊區景德路414號","121.44462","25.0334566666667","6500500","新莊區"
"242019","351-TH","2019/10/14 17:59:24","新北市新莊區明中街12-29號","121.457721666667","25.0391866666667","6500500","新莊區"
"238015","755-BX","2019/10/14 17:59:11","新北市樹林區大安路307巷2弄14號","121.41769","24.9916833333333","6500700","樹林區"
"238023","601-UM","2019/10/14 17:59:18","新北市樹林區龍興街46巷22號","121.402286666667","25.01531","6500700","樹林區"
"238019","599-UM","2019/10/14 17:59:15","新北市樹林區太平路176號","121.418478333333","24.976825","6500700","樹林區"
"238018","KEA-2217","2019/10/14 17:59:19","新北市樹林區中正路7-1號","121.43016","24.9975833333333","6500700","樹林區"
"238022","KEA-2213","2019/10/14 17:59:25","新北市樹林區太平路150巷21號","121.41764","24.9774583333333","6500700","樹林區"
"238021","KEA-2539","2019/10/14 17:59:18","新北市樹林區柑園街一段136號","121.399825","24.9576016666667","6500700","樹林區"
"238025","303-VK","2019/10/14 17:59:17","新北市樹林區俊興街209-6號","121.417558333333","25.0145283333333","6500700","樹林區"
"238017","283-BY","2019/10/14 17:59:30","新北市樹林區三俊街2號","121.410745","25.015045","6500700","樹林區"
"238014","282-BY","2019/10/14 17:59:22","新北市樹林區大安路47-1號","121.424173333333","24.9995966666667","6500700","樹林區"
"238020","268-VK","2019/10/14 17:59:12","新北市樹林區三俊街157號","121.419051666667","25.0156066666667","6500700","樹林區"
"238026","172-UY","2019/10/14 17:59:12","新北市樹林區中山路三段125-10號","121.39735","24.97343","6500700","樹林區"
"238016","169-UY","2019/10/14 17:59:26","新北市樹林區中山路一段242巷29弄1號","121.420393333333","24.988085","6500700","樹林區"
"239007","AAC-297","2019/10/14 17:59:17","新北市鶯歌區鶯桃路94巷33-2號","121.341981666667","24.954825","6500800","鶯歌區"
"239006","891-R6","2019/10/14 17:59:12","新北市鶯歌區鶯桃路413巷74號","121.329795","24.9630516666667","6500800","鶯歌區"
"239008","527-UM","2019/10/14 17:59:28","新北市鶯歌區香賓街9巷18號","121.336065","24.9794833333333","6500800","鶯歌區"
"239005","526-UM","2019/10/14 17:59:18","新北市鶯歌區鶯桃路668巷74-1號","121.330026666667","24.971825","6500800","鶯歌區"
"239001","417-VK","2019/10/14 17:59:15","新北市鶯歌區中正三路236號","121.330808333333","24.9372483333333","6500800","鶯歌區"
"239003","360-BY","2019/10/14 17:59:23","新北市鶯歌區永吉街46巷43號","121.334478333333","24.9576583333333","6500800","鶯歌區"
"239002","359-BY","2019/10/14 17:59:18","新北市鶯歌區國華路71-1號","121.342881666667","24.9544433333333","6500800","鶯歌區"
"221008","489-VK","2019/10/14 17:59:30","新北市汐止區康寧街753巷2弄16號","121.639731666667","25.07428","6501100","汐止區"
"244019","KED-0667","2019/10/14 17:59:14","新北市林口區文化一路一段126號","121.375348333333","25.07259","6501700","林口區"
"221010","269-BY","2019/10/14 17:59:25","新北市汐止區汐萬路二段247號","121.646436666667","25.0882566666667","6501100","汐止區"
"221023","279-VK","2019/10/14 17:59:26","新北市汐止區明峰街57號","121.633168333333","25.0713666666667","6501100","汐止區"
"221029","298-VK","2019/10/14 17:59:20","新北市汐止區樟樹二路328號","121.641416666667","25.070225","6501100","汐止區"
"221031","353-TW","2019/10/14 17:59:30","新北市汐止區中興路96巷2號","121.635215","25.0624716666667","6501100","汐止區"
"221035","622-UM","2019/10/14 17:59:23","新北市汐止區汐萬路一段211巷15號","121.651425","25.0718566666667","6501100","汐止區"
"221025","623-UM","2019/10/14 17:59:28","新北市汐止區仁愛路17號","121.659181666667","25.0639233333333","6501100","汐止區"
"221038","646-BX","2019/10/14 17:59:16","新北市汐止區新台五路一段152號","121.653515","25.0621516666667","6501100","汐止區"
"221033","647-BX","2019/10/14 17:59:30","新北市汐止區合順街37號","121.620695","25.043205","6501100","汐止區"
"233001","KEA-2870","2019/10/14 17:59:24","新北市烏來區環山路98號","121.54877","24.862895","6502900","烏來區"
"224002","257-TC","2019/10/14 17:59:20","新北市瑞芳區三爪子坑路34號","121.810546666667","25.106195","6501200","瑞芳區"
"242046","281-VK","2019/10/14 17:59:22","新北市新莊區福營路167號","121.43178","25.0311066666667","6500500","新莊區"
"242011","280-VK","2019/10/14 17:59:27","新北市新莊區富貴路406號","121.450041666667","25.0570066666667","6500500","新莊區"
"235061","KEA-2875","2019/10/14 17:59:13","新北市中和區連城路518巷1號","121.476418333333","24.9917733333333","6500300","中和區"
