"lineid","car","time","location","longitude","latitude","cityid","cityname"
"234046","148-BY","2019/10/14 18:39:24","新北市永和區永元路68號","121.522548333333","25.001555","6500400","永和區"
"234081","298-R6","2019/10/14 18:39:30","新北市永和區林森路83號","121.523846666667","25.003805","6500400","永和區"
"234086","338-UY","2019/10/14 18:39:25","新北市永和區中正路8號","121.51253","24.993775","6500400","永和區"
"234064","553-UM","2019/10/14 18:39:23","新北市永和區福和路1號","121.526636666667","25.0099366666667","6500400","永和區"
"234017","745-BX","2019/10/14 18:39:22","新北市永和區福和路1號","121.526316666667","25.0096016666667","6500400","永和區"
"234030","746-BX","2019/10/14 18:39:23","新北市永和區得和路382-1號","121.524991666667","24.999285","6500400","永和區"
"234007","KED-0605","2019/10/14 18:39:22","新北市永和區文化路123號","121.512118333333","25.015345","6500400","永和區"
"234013","KEA-2591","2019/10/14 18:39:21","新北市永和區仁愛路88號","121.51261","25.0132266666667","6500400","永和區"
"234061","AAD-866","2019/10/14 18:39:13","新北市永和區福和路1號","121.525645","25.009445","6500400","永和區"
"234042","862-TW","2019/10/14 18:39:19","新北市永和區中和路619號","121.512821666667","25.00475","6500400","永和區"
"234026","9371-KE","2019/10/14 18:39:24","新北市永和區永貞路431號","121.507121666667","25.0097233333333","6500400","永和區"
"234011","9373-KE","2019/10/14 18:39:20","新北市永和區文化路9巷34號","121.515213333333","25.014295","6500400","永和區"
"249005","172-UM","2019/10/14 18:39:23","新北市八里區長坑口34-1號","121.389531666667","25.1258183333333","6502300","八里區"
"249001","173-UM","2019/10/14 18:39:20","新北市八里區龍米路一段360號","121.45156","25.1313616666667","6502300","八里區"
"249004","303-UY","2019/10/14 18:39:19","新北市八里區觀海大道93號","121.426386666667","25.1619083333333","6502300","八里區"
"249002","305-UY","2019/10/14 18:39:29","新北市八里區龍形一街21號","121.449743333333","25.1304366666667","6502300","八里區"
"249003","593-UM","2019/10/14 18:38:13","新北市八里區博物館路10-1號","121.41508","25.1639633333333","6502300","八里區"
"248014","025-BX","2019/10/14 18:39:17","新北市五股區成泰路二段64號","121.43735","25.0820033333333","6501500","五股區"
"248016","026-BX","2019/10/14 18:39:11","新北市五股區凌雲路一段149巷42號","121.448605","25.1008983333333","6501500","五股區"
"248008","KED-0815","2019/10/14 18:39:14","新北市五股區中興路一段140巷10-1號","121.46507","25.0746533333333","6501500","五股區"
"248018","KED-0813","2019/10/14 18:39:01","新北市五股區民義路二段122-3號","121.405266666667","25.11681","6501500","五股區"
"248012","247-BX","2019/10/14 18:39:20","新北市五股區成泰路三段2巷1-12號","121.441251666667","25.0867116666667","6501500","五股區"
"248004","677-BX","2019/10/14 18:39:16","新北市五股區民義路一段310-1號","121.424483333333","25.093805","6501500","五股區"
"248002","678-BX","2019/10/14 18:39:25","新北市五股區西雲路205號","121.448595","25.0965383333333","6501500","五股區"
"248010","682-TV","2019/10/14 18:39:21","新北市五股區水碓一路92號","121.431805","25.0736066666667","6501500","五股區"
"234023","9380-KE","2019/10/14 18:39:24","新北市永和區福和路76巷5弄9號","121.52233","25.0083033333333","6500400","永和區"
"234077","969-R7","2019/10/14 18:39:31","新北市永和區中正路513號","121.516946666667","25.0072733333333","6500400","永和區"
"234067","AAC-212","2019/10/14 18:39:26","新北市永和區福和路127號","121.521498333333","25.007785","6500400","永和區"
"234003","AAC-295","2019/10/14 18:39:27","新北市永和區福和路1號","121.525768333333","25.009105","6500400","永和區"
"232011","375-UM","2019/10/14 18:39:15","新北市坪林區坪雙路一段41號","121.711698333333","24.9424566666667","6502000","坪林區"
"244007","080-UY","2019/10/14 18:39:18","新北市林口區太平里17-1號","121.377526666667","25.115365","6501700","林口區"
"244013","KEA-2802","2019/10/14 18:39:16","新北市林口區文化一路一段120號","121.374553333333","25.0716983333333","6501700","林口區"
"244023","483-VK","2019/10/14 18:39:00","新北市林口區四維路251號","121.381376666667","25.074855","6501700","林口區"
"244017","485-VK","2019/10/14 18:39:23","新北市林口區文化二路一段68巷2號","121.366168333333","25.068755","6501700","林口區"
"244009","656-BX","2019/10/14 18:37:37","新北市林口區竹林路326巷16號","121.392225","25.0821983333333","6501700","林口區"
"244011","701-TV","2019/10/14 18:39:28","新北市林口區新寮1-82號","121.392695","25.076785","6501700","林口區"
"244025","837-TS","2019/10/14 18:39:29","新北市林口區南勢三街1巷29號","121.357626666667","25.0775383333333","6501700","林口區"
"244021","838-TS","2019/10/14 18:39:29","新北市林口區工六路13號","121.399626666667","25.0778883333333","6501700","林口區"
"243010","297-R6","2019/10/14 18:39:25","新北市泰山區辭修路48號","121.428406666667","25.05718","6501600","泰山區"
"243015","680-BX","2019/10/14 18:39:15","新北市泰山區美寧街50號","121.430548333333","25.0644516666667","6501600","泰山區"
"222003","436-BY","2019/10/14 18:39:17","新北市深坑區翠谷街17巷5號","121.626411666667","25.008475","6501800","深坑區"
"222002","659-BX","2019/10/14 18:39:13","新北市深坑區雲鄉路2號","121.620956666667","24.9997133333333","6501800","深坑區"
"231061","002-UM","2019/10/14 18:39:14","新北市新店區安華路28-1號","121.5195","24.9608183333333","6500600","新店區"
"231058","0293-UT","2019/10/14 18:39:19","新北市新店區新店後街96號","121.537645","24.9551266666667","6500600","新店區"
"231044","046-UY","2019/10/14 18:39:10","新北市新店區秀山路72號","121.531271666667","24.9608733333333","6500600","新店區"
"231060","106-UY","2019/10/14 18:39:15","新北市新店區安華路28-1號","121.519716666667","24.9610016666667","6500600","新店區"
"231051","107-UY","2019/10/14 18:39:29","新北市新店區中央路167-3號","121.533643333333","24.9702716666667","6500600","新店區"
"231065","110-UY","2019/10/14 18:39:24","新北市新店區安一路一段1-1號","121.5192","24.9611166666667","6500600","新店區"
"231062","256-BX","2019/10/14 18:39:14","新北市新店區安一路一段1-1號","121.519741666667","24.9611566666667","6500600","新店區"
"231054","260-TV","2019/10/14 18:39:18","新北市新店區安一路一段1-1號","121.519145","24.9611383333333","6500600","新店區"
"231042","268-BY","2019/10/14 18:39:15","新北市新店區安一路一段1-1號","121.51958","24.961345","6500600","新店區"
"231064","278-BY","2019/10/14 18:39:13","新北市新店區安一路一段1-1號","121.51981","24.9612616666667","6500600","新店區"
"231050","AAD-862","2019/10/14 18:39:20","新北市新店區安一路一段1-1號","121.519685","24.9611083333333","6500600","新店區"
"231045","355-BY","2019/10/14 18:39:26","新北市新店區安華路28-1號","121.519015","24.9608633333333","6500600","新店區"
"231055","4716-K9","2019/10/14 18:39:22","新北市新店區華興街42號","121.536991666667","24.9692083333333","6500600","新店區"
"231056","4715-K9","2019/10/14 18:39:31","新北市新店區建國路194號","121.537801666667","24.9803516666667","6500600","新店區"
"231052","512-UM","2019/10/14 18:39:15","新北市新店區永興路9號","121.54438","24.9394283333333","6500600","新店區"
"231040","617-UM","2019/10/14 18:39:22","新北市新店區安華路28-1號","121.519285","24.9609366666667","6500600","新店區"
"231041","619-UM","2019/10/14 18:39:24","新北市新店區安華路28-1號","121.51945","24.96069","6500600","新店區"
"231063","641-BX","2019/10/14 18:39:12","新北市新店區安華路28-1號","121.519588333333","24.9606866666667","6500600","新店區"
"231047","KED-0819","2019/10/14 18:39:18","新北市新店區安一路一段1-1號","121.519816666667","24.9612783333333","6500600","新店區"
"231046","719-UM","2019/10/14 18:39:19","新北市新店區直潭二街1號","121.535411666667","24.9431516666667","6500600","新店區"
"231057","720-UM","2019/10/14 18:39:24","新北市新店區北宜路一段276號","121.546235","24.9526983333333","6500600","新店區"
"231059","897-TW","2019/10/14 18:39:29","新北市新店區安華路28-1號","121.5196","24.9610266666667","6500600","新店區"
"231043","899-TW","2019/10/14 18:39:10","新北市新店區安華路28-1號","121.51908","24.960835","6500600","新店區"
"231066","AKT-0513","2019/10/14 18:39:25","新北市新店區安華路28-1號","121.519518333333","24.9605216666667","6500600","新店區"
"241035","462-BY","2019/10/14 18:39:25","新北市三重區重新路四段121號","121.484916666667","25.051935","6500200","三重區"
"235066","003-UY","2019/10/14 18:39:16","新北市中和區水源路43號","121.504745","25.0035916666667","6500300","中和區"
"235063","006-UY","2019/10/14 18:39:21","新北市中和區連城路347巷4弄25號","121.487218333333","24.99555","6500300","中和區"
"235056","096-UM","2019/10/14 18:39:12","新北市中和區員山路611巷1號","121.477845","25.0112466666667","6500300","中和區"
"235039","097-UM","2019/10/14 18:39:26","新北市中和區宜安路18巷9號","121.513665","24.99609","6500300","中和區"
"235065","098-UM","2019/10/14 18:39:18","新北市中和區莊敬路49巷27號","121.501478333333","25.0061716666667","6500300","中和區"
"235040","150-BY","2019/10/14 18:39:18","新北市中和區安平路59號","121.509628333333","24.9951116666667","6500300","中和區"
"235058","151-BY","2019/10/14 18:39:19","新北市中和區員山路119號","121.480991666667","24.9953383333333","6500300","中和區"
"235055","183-VK","2019/10/14 18:39:32","新北市中和區民生街25號","121.470491666667","25.0055133333333","6500300","中和區"
"235038","185-VK","2019/10/14 18:39:20","新北市中和區大勇街60巷24號","121.519091666667","24.9946133333333","6500300","中和區"
"235067","255-BX","2019/10/14 18:39:31","新北市中和區中正路839巷2號","121.48469","25.0025383333333","6500300","中和區"
"235044","293-VK","2019/10/14 18:39:26","新北市中和區復興路265號","121.502766666667","24.9902383333333","6500300","中和區"
"235072","301-VK","2019/10/14 18:39:29","新北市中和區中山路二段41號","121.504691666667","25.0051283333333","6500300","中和區"
"235043","352-BY","2019/10/14 18:39:26","新北市中和區景平路61號","121.520433333333","24.9910283333333","6500300","中和區"
"235042","KEA-2878","2019/10/14 18:39:14","新北市中和區成功路41巷1號","121.526276666667","24.9932016666667","6500300","中和區"
"235050","4979-A6","2019/10/14 18:39:27","新北市中和區景新街496巷28弄39號","121.512713333333","24.9859383333333","6500300","中和區"
"235069","4980-A6","2019/10/14 18:39:20","新北市中和區連城路65巷10號","121.497923333333","25.000755","6500300","中和區"
"235070","558-UM","2019/10/14 18:39:26","新北市中和區南山路27號","121.502045","24.9989666666667","6500300","中和區"
"235045","565-BX","2019/10/14 18:39:11","新北市中和區復興路51號","121.504598333333","24.9900266666667","6500300","中和區"
"235060","KED-0823","2019/10/14 18:39:21","新北市中和區中山路三段207號","121.472081666667","25.0064416666667","6500300","中和區"
"235054","640-BX","2019/10/14 18:39:18","新北市中和區民享街38-2號","121.47399","25.0029583333333","6500300","中和區"
"235047","732-UM","2019/10/14 18:39:14","新北市中和區興南路二段45號","121.507485","24.985665","6500300","中和區"
"235046","733-UM","2019/10/14 18:39:19","新北市中和區仁愛街36巷44號","121.511328333333","24.98625","6500300","中和區"
"235057","801-TS","2019/10/14 18:39:17","新北市中和區民安街25巷15號","121.480585","25.00016","6500300","中和區"
"235041","802-TS","2019/10/14 18:39:13","新北市中和區中安街178巷13弄3號","121.510378333333","24.9986533333333","6500300","中和區"
"235052","805-TS","2019/10/14 18:39:11","新北市中和區興南路三段52巷2-5號","121.494796666667","24.976145","6500300","中和區"
"235048","896-TW","2019/10/14 18:39:26","新北市中和區景安路211號","121.504651666667","24.99164","6500300","中和區"
"235053","900-TW","2019/10/14 18:39:11","新北市中和區華福街6號","121.465348333333","24.996805","6500300","中和區"
"235064","911-UM","2019/10/14 18:39:11","新北市中和區連城路75巷7號","121.498331666667","24.99855","6500300","中和區"
"235051","157-BY","2019/10/14 18:39:26","新北市中和區華新街143巷106弄33號","121.50694","24.9783","6500300","中和區"
"235037","AAC-213","2019/10/14 18:39:28","新北市中和區秀朗路三段128巷7弄2號","121.524526666667","24.9929683333333","6500300","中和區"
"235059","AAC-215","2019/10/14 18:39:25","新北市中和區錦和路354巷15號","121.48971","24.9915483333333","6500300","中和區"
"220086","015-TV","2019/10/14 18:39:17","新北市板橋區華東街1-8號","121.447698333333","24.9948933333333","6500100","板橋區"
"220065","072-UY","2019/10/14 18:39:28","新北市板橋區實踐路64號","121.463878333333","25.0059066666667","6500100","板橋區"
"220106","075-UY","2019/10/14 18:39:20","新北市板橋區民生路二段120號","121.470341666667","25.0197566666667","6500100","板橋區"
"220069","AAD-861","2019/10/14 18:39:28","新北市板橋區大華街5號","121.458916666667","25.0062266666667","6500100","板橋區"
"226004","312-R5","2019/10/14 18:39:16","新北市平溪區石底里石筍尖1號","121.736046666667","25.0256033333333","6502400","平溪區"
"235049","251-BX","2019/10/14 18:39:19","新北市中和區明義街30號","121.504033333333","24.9951333333333","6500300","中和區"
"228003","097-TW","2019/10/14 18:39:20","新北市貢寮區和美里龍洞街35-2號","121.916458333333","25.11171","6502600","貢寮區"
"228002","663-BX","2019/10/14 18:39:21","新北市貢寮區福隆里東興街6-11號","121.95077","25.021085","6502600","貢寮區"
"228001","670-TC","2019/10/14 18:39:18","新北市貢寮區仁理村保健街73號","121.923746666667","25.0516833333333","6502600","貢寮區"
"224010","AGQ-8101","2019/10/14 18:39:27","新北市瑞芳區基山街3號","121.845215","25.10972","6501200","瑞芳區"
"224006","676-BX","2019/10/14 18:39:18","新北市瑞芳區一坑路46號","121.803711666667","25.10879","6501200","瑞芳區"
"224007","285-BY","2019/10/14 18:39:22","新北市瑞芳區大埔路119號","121.76364","25.1010616666667","6501200","瑞芳區"
"224009","275-VK","2019/10/14 18:39:18","新北市瑞芳區祈堂路53-1號","121.85956","25.1106183333333","6501200","瑞芳區"
"224008","273-VK","2019/10/14 18:39:27","新北市瑞芳區逢甲路274號","121.804811666667","25.1109116666667","6501200","瑞芳區"
"224005","271-BY","2019/10/14 18:39:23","新北市瑞芳區瑞濱路127號","121.820045","25.1201183333333","6501200","瑞芳區"
"227002","642-TC","2019/10/14 18:39:19","新北市雙溪區魚行里坤溪3-5號","121.876195","25.0208533333333","6502500","雙溪區"
"227001","400-TW","2019/10/14 18:39:24","新北市雙溪區牡丹里下坑11號","121.851033333333","25.0561816666667","6502500","雙溪區"
"253005","032-BX","2019/10/14 18:39:31","新北市石門區石門街22號","121.566041666667","25.29056","6502200","石門區"
"253006","295-VK","2019/10/14 18:39:24","新北市石門區楓林28-1號","121.542206666667","25.2893116666667","6502200","石門區"
"222001","KEA-2212","2019/10/14 18:39:12","新北市深坑區北深路一段84號","121.636156666667","25.0106716666667","6501800","深坑區"
"208002","KEA-2872","2019/10/14 18:39:28","新北市金山區仁愛路15-7號","121.638375","25.218755","6502700","金山區"
"208003","665-BX","2019/10/14 18:39:17","新北市金山區中山路254號","121.63563","25.2239","6502700","金山區"
"251004","009-UM","2019/10/14 18:39:18","新北市淡水區大同路2號","121.461535","25.14078","6501000","淡水區"
"251002","012-UM","2019/10/14 18:39:19","新北市淡水區中正東路一段3巷14弄1號","121.450931666667","25.1641516666667","6501000","淡水區"
"251015","KEA-2871","2019/10/14 18:39:11","新北市淡水區興福寮66巷301號","121.485645","25.1618","6501000","淡水區"
"251016","179-VK","2019/10/14 18:39:24","新北市淡水區下圭柔山76-12號","121.443805","25.2056016666667","6501000","淡水區"
"251008","181-VK","2019/10/14 18:39:10","新北市淡水區北投子79-2號","121.460423333333","25.178525","6501000","淡水區"
"251013","182-VK","2019/10/14 18:39:14","新北市三芝區興華里田心子34-3號","121.485926666667","25.204455","6501000","淡水區"
"251010","413-VK","2019/10/14 18:39:14","新北市淡水區沙崙路141-1號","121.42336","25.1830066666667","6501000","淡水區"
"251012","443-VK","2019/10/14 18:39:21","新北市淡水區北新路121號","121.449005","25.1786283333333","6501000","淡水區"
"251001","559-UM","2019/10/14 18:39:20","新北市淡水區自強路166號","121.465606666667","25.13414","6501000","淡水區"
"251006","561-UM","2019/10/14 18:39:26","新北市淡水區中山北路一段149巷33號","121.44307","25.17802","6501000","淡水區"
"251014","577-R6","2019/10/14 18:39:23","新北市淡水區崙頂12-8號","121.495563333333","25.217215","6501000","淡水區"
"251011","650-BX","2019/10/14 18:39:22","新北市淡水區學府路1號","121.44729","25.1678033333333","6501000","淡水區"
"251003","673-BX","2019/10/14 18:39:32","新北市淡水區北新路69巷26號","121.446698333333","25.1801516666667","6501000","淡水區"
"207003","550-UM","2019/10/14 18:39:19","新北市萬里區野柳里港東路162-14號","121.690463333333","25.2040383333333","6502800","萬里區"
"207004","291-VK","2019/10/14 18:39:23","新北市萬里區萬里里獅頭路10-1號","121.692008333333","25.1786016666667","6502800","萬里區"
"252002","178-VK","2019/10/14 18:39:22","新北市三芝區中正路二段37號","121.503955","25.2548583333333","6502100","三芝區"
"252003","249-BX","2019/10/14 18:39:23","新北市三芝區後厝里土地公坑56號","121.46363","25.24876","6502100","三芝區"
"208001","170-UY","2019/10/14 18:39:30","新北市金山區文化三路7號","121.635193333333","25.2248416666667","6502700","金山區"
"237004","KEA-2597","2019/10/14 18:39:27","新北市三峽區圳頭94號","121.38009","24.8778","6500900","三峽區"
"237007","153-BY","2019/10/14 18:39:23","新北市三峽區柑樹路6巷33號","121.361481666667","24.9033633333333","6500900","三峽區"
"237009","210-TH","2019/10/14 18:39:22","新北市三峽區大同路258號","121.365655","24.9253183333333","6500900","三峽區"
"237013","252-BX","2019/10/14 18:39:16","新北市樹林區學勤路200號","121.377291666667","24.9470216666667","6500900","三峽區"
"237012","275-BY","2019/10/14 18:39:15","新北市三峽區三樹路212-2號","121.3792","24.9425583333333","6500900","三峽區"
"237008","302-VK","2019/10/14 18:39:26","新北市三峽區白雞53-6號","121.385075","24.912695","6500900","三峽區"
"237014","433-BY","2019/10/14 18:39:23","新北市三峽區復興路179號","121.36983","24.9386666666667","6500900","三峽區"
"237006","5529-G3","2019/10/14 18:39:20","新北市三峽區溪東路271號","121.408791666667","24.93148","6500900","三峽區"
"237011","KEA-2596","2019/10/14 18:39:20","新北市三峽區溪東路218巷32號","121.40699","24.9300333333333","6500900","三峽區"
"237015","649-BX","2019/10/14 18:39:24","新北市三峽區竹崙路53號","121.430966666667","24.922035","6500900","三峽區"
"237010","706-TV","2019/10/14 18:39:14","新北市三峽區中山路222-1號","121.362811666667","24.9372316666667","6500900","三峽區"
"237005","AKY-6261","2019/10/14 18:39:23","新北市三峽區清水街293號","121.373156666667","24.934625","6500900","三峽區"
"236042","KED-0685","2019/10/14 18:39:24","新北市土城區學成路118號","121.449551666667","24.98945","6501300","土城區"
"236078","166-UM","2019/10/14 18:39:13","新北市土城區中央路四段123號","121.416383333333","24.9577233333333","6501300","土城區"
"236030","253-BX","2019/10/14 18:39:23","新北市土城區慶利街32號","121.4389","24.9744766666667","6501300","土城區"
"236026","269-VK","2019/10/14 18:39:12","新北市土城區忠義路51-1號","121.440458333333","24.9688833333333","6501300","土城區"
"236014","270-VK","2019/10/14 18:39:20","新北市土城區青雲路185號","121.459411666667","24.9826383333333","6501300","土城區"
"236039","271-VK","2019/10/14 18:39:26","新北市土城區明德路一段238號","121.460231666667","24.9773533333333","6501300","土城區"
"236069","KEA-2877","2019/10/14 18:39:16","新北市土城區永豐路230號","121.467081666667","24.9813866666667","6501300","土城區"
"252001","KED-0821","2019/10/14 18:39:12","新北市三芝區中興街二段260號","121.50188","25.2528883333333","6502100","三芝區"
"236020","401-BY","2019/10/14 18:39:10","新北市土城區明德路一段67號","121.465438333333","24.9842483333333","6501300","土城區"
"236063","752-BX","2019/10/14 18:39:23","新北市土城區延壽路13巷18號","121.470548333333","24.990875","6501300","土城區"
"236059","912-UM","2019/10/14 18:39:31","新北市土城區中央路三段161號","121.431878333333","24.9653416666667","6501300","土城區"
"236048","913-UM","2019/10/14 18:39:14","新北市土城區明德路一段101號","121.465646666667","24.9827866666667","6501300","土城區"
"236055","AAC-216","2019/10/14 18:39:21","新北市土城區裕民路27號","121.448038333333","24.9884433333333","6501300","土城區"
"242060","986-R7","2019/10/14 18:39:23","新北市新莊區民安路185號","121.425936666667","25.02286","6500500","新莊區"
"242058","612-BX","2019/10/14 18:39:14","新北市新莊區中正路887-17號","121.416118333333","25.0241866666667","6500500","新莊區"
"242042","346-TH","2019/10/14 18:39:28","新北市新莊區天祥街92巷12號","121.415546666667","25.0299633333333","6500500","新莊區"
"242009","349-TH","2019/10/14 18:39:27","新北市新莊區利濟街10號","121.453106666667","25.0336633333333","6500500","新莊區"
"238023","601-UM","2019/10/14 18:39:18","新北市樹林區三福街114號","121.406361666667","25.01631","6500700","樹林區"
"238024","5061-A6","2019/10/14 18:39:10","新北市樹林區中山路一段149-3號","121.422085","24.989215","6500700","樹林區"
"238018","KEA-2217","2019/10/14 18:39:19","新北市樹林區鎮前街78號","121.425468333333","24.992105","6500700","樹林區"
"238020","268-VK","2019/10/14 18:39:12","新北市樹林區俊安街22號","121.419293333333","25.0139116666667","6500700","樹林區"
"238026","172-UY","2019/10/14 18:39:12","新北市樹林區育德街78-1號","121.388036666667","24.9680583333333","6500700","樹林區"
"238016","169-UY","2019/10/14 18:39:26","新北市樹林區中山路一段412號","121.417378333333","24.98519","6500700","樹林區"
"239008","527-UM","2019/10/14 18:39:28","新北市鶯歌區朝陽街4號","121.33624","24.9766333333333","6500800","鶯歌區"
"239005","526-UM","2019/10/14 18:39:13","新北市鶯歌區鶯桃路670號","121.32887","24.9694566666667","6500800","鶯歌區"
"239001","417-VK","2019/10/14 18:39:15","新北市鶯歌區高職東街19巷2弄10號","121.341271666667","24.9412516666667","6500800","鶯歌區"
"239003","360-BY","2019/10/14 18:39:23","新北市鶯歌區福安街58號","121.335588333333","24.9652416666667","6500800","鶯歌區"
"239002","359-BY","2019/10/14 18:39:18","新北市鶯歌區中山路117號","121.349968333333","24.9569066666667","6500800","鶯歌區"
"239004","193-VK","2019/10/14 18:39:23","新北市鶯歌區尖山路174巷1號","121.34482","24.9478366666667","6500800","鶯歌區"
"221036","130-UY","2019/10/14 18:39:22","新北市汐止區長安路87號","121.669553333333","25.0783983333333","6501100","汐止區"
"221015","131-UY","2019/10/14 18:39:19","新北市汐止區鄉長路二段25號","121.668071666667","25.0826983333333","6501100","汐止區"
"244019","KED-0667","2019/10/14 18:39:14","新北市林口區麗園二街47巷41號","121.382306666667","25.0696233333333","6501700","林口區"
"221010","269-BY","2019/10/14 18:39:25","新北市汐止區瑞松街42號","121.645536666667","25.1058766666667","6501100","汐止區"
"221012","278-VK","2019/10/14 18:39:21","新北市汐止區保長路51巷1號","121.673218333333","25.07891","6501100","汐止區"
"221023","279-VK","2019/10/14 18:39:26","新北市汐止區康寧街541巷1-2號","121.633825","25.0693983333333","6501100","汐止區"
"221032","280-BY","2019/10/14 18:39:24","新北市汐止區福山街58巷15號","121.618241666667","25.046015","6501100","汐止區"
"221029","298-VK","2019/10/14 18:39:20","新北市汐止區樟樹一路131號","121.642208333333","25.0650166666667","6501100","汐止區"
"221021","299-VK","2019/10/14 18:38:07","新北市汐止區新台五路一段123號","121.651618333333","25.061595","6501100","汐止區"
"221031","353-TW","2019/10/14 18:39:11","新北市汐止區大同路一段405-1號","121.641535","25.06015","6501100","汐止區"
"221035","622-UM","2019/10/14 18:39:23","新北市汐止區大同路二段187巷2弄2號","121.652198333333","25.0647983333333","6501100","汐止區"
"221025","623-UM","2019/10/14 18:39:28","新北市汐止區福安街22巷16號","121.662516666667","25.0644016666667","6501100","汐止區"
"221033","647-BX","2019/10/14 18:39:30","新北市汐止區東勢街20號","121.624665","25.038425","6501100","汐止區"
"221002","707-TV","2019/10/14 18:39:15","新北市汐止區大同路一段295號","121.637115","25.05877","6501100","汐止區"
"221018","753-BX","2019/10/14 18:38:04","新北市汐止區茄苳路223號","121.670941666667","25.0687066666667","6501100","汐止區"
"220082","610-BX","2019/10/14 18:39:24","新北市板橋區大觀路二段443-2號","121.439363333333","24.99515","6500100","板橋區"
"220056","256-TC","2019/10/14 18:39:24","新北市板橋區華東街11號","121.451211666667","24.99819","6500100","板橋區"
"224002","257-TC","2019/10/14 18:39:19","新北市瑞芳區國中新村18號","121.817176666667","25.1073533333333","6501200","瑞芳區"
"220056","276-BY","2019/10/14 18:39:20","新北市板橋區四川路一段26號","121.45949","25.006285","6500100","板橋區"
"220071","283-VK","2019/10/14 18:39:15","新北市板橋區四川路二段119號","121.451416666667","24.9942766666667","6500100","板橋區"
"220094","285-UM","2019/10/14 18:39:12","新北市板橋區民生路二段161巷1號","121.470128333333","25.01982","6500100","板橋區"
"220083","286-VK","2019/10/14 18:39:29","新北市板橋區板城路421號","121.447998333333","24.9962883333333","6500100","板橋區"
"220081","287-VK","2019/10/14 18:39:24","新北市板橋區大觀路二段153巷46弄1號","121.448546666667","24.9986933333333","6500100","板橋區"
"220090","288-VK","2019/10/14 18:39:10","新北市板橋區民生路二段120號","121.470491666667","25.0196233333333","6500100","板橋區"
"220061","293-UM","2019/10/14 18:39:21","新北市板橋區民生路二段161巷5號","121.470276666667","25.01975","6500100","板橋區"
"220053","295-UM","2019/10/14 18:39:27","新北市板橋區民生路二段161巷9號","121.470176666667","25.0196116666667","6500100","板橋區"
"220084","296-UM","2019/10/14 18:39:12","新北市板橋區大觀路二段205號","121.444568333333","24.999475","6500100","板橋區"
"242046","281-VK","2019/10/14 18:39:26","新北市新莊區中正路803巷9號","121.42176","25.0279233333333","6500500","新莊區"
"220062","305-R5","2019/10/14 18:39:21","新北市板橋區民生路二段161巷9號","121.470296666667","25.0195133333333","6500100","板橋區"
"220092","307-R5","2019/10/14 18:39:29","新北市板橋區民生路二段80號","121.471605","25.018395","6500100","板橋區"
"220089","487-VK","2019/10/14 18:39:20","新北市板橋區民生路二段171號","121.469695","25.0200483333333","6500100","板橋區"
"220088","491-VK","2019/10/14 18:39:15","新北市板橋區民生路二段188號","121.470341666667","25.0202283333333","6500100","板橋區"
"220035","560-BX","2019/10/14 18:39:15","新北市板橋區南雅西路二段145巷10號","121.451586666667","25.0119033333333","6500100","板橋區"
"220103","561-BX","2019/10/14 18:39:22","新北市板橋區民生路二段89-4號","121.471258333333","25.018045","6500100","板橋區"
"220080","568-UM","2019/10/14 18:39:24","新北市板橋區大觀路二段431-1號","121.441516666667","24.9950283333333","6500100","板橋區"
"220063","609-BX","2019/10/14 18:39:26","新北市板橋區民生路二段171號","121.469728333333","25.0201283333333","6500100","板橋區"
"220072","630-UY","2019/10/14 18:39:26","新北市板橋區大觀路二段443-2號","121.440026666667","24.99513","6500100","板橋區"
"220091","637-BX","2019/10/14 18:39:28","新北市板橋區民生路二段161巷1號","121.469836666667","25.0198566666667","6500100","板橋區"
"220057","686-BX","2019/10/14 18:39:12","新北市板橋區館前西路4-1號","121.459116666667","25.0071433333333","6500100","板橋區"
"220077","687-BX","2019/10/14 18:39:16","新北市板橋區板城路421號","121.448128333333","24.9962233333333","6500100","板橋區"
"220054","741-BX","2019/10/14 18:39:19","新北市板橋區南雅南路二段120-2號","121.45247","24.9998716666667","6500100","板橋區"
"220055","827-TW","2019/10/14 18:39:19","新北市板橋區忠孝路23號","121.460503333333","25.00194","6500100","板橋區"
"220074","895-R6","2019/10/14 18:39:13","新北市板橋區南雅南路二段120-2號","121.452431666667","25.0000933333333","6500100","板橋區"
"220073","985-R7","2019/10/14 18:39:25","新北市土城區四川路27號","121.455053333333","24.995865","6500100","板橋區"
"220097","AAC-210","2019/10/14 18:39:28","新北市板橋區民生路二段161巷7號","121.47019","25.0196433333333","6500100","板橋區"
"220064","AAC-253","2019/10/14 18:39:28","新北市板橋區民生路二段7號","121.47277","25.0159216666667","6500100","板橋區"
"235068","KEA-2873","2019/10/14 18:39:00","新北市中和區中正路219號","121.496555","24.99369","6500300","中和區"
"235061","KEA-2875","2019/10/14 18:39:23","新北市中和區民享街28號","121.473833333333","25.003535","6500300","中和區"
"235062","KEA-2876","2019/10/14 18:38:59","新北市中和區中山路二段312巷33弄10號","121.494856666667","25.0038666666667","6500300","中和區"
