"lineid","car","time","location","longitude","latitude","cityid","cityname"
"234046","148-BY","2019/10/14 18:59:44","新北市永和區得和路373巷29號","121.525053333333","25.0003366666667","6500400","永和區"
"234081","298-R6","2019/10/14 19:00:01","新北市永和區永貞路39巷13號","121.522518333333","25.0063416666667","6500400","永和區"
"234038","336-UY","2019/10/14 18:59:55","新北市永和區成功路二段207號","121.52657","24.9959183333333","6500400","永和區"
"234086","338-UY","2019/10/14 18:59:45","新北市永和區中正路395號","121.517295","25.00411","6500400","永和區"
"234070","552-UM","2019/10/14 18:59:59","新北市永和區竹林路160號","121.520256666667","25.0105683333333","6500400","永和區"
"234064","553-UM","2019/10/14 18:59:43","新北市永和區秀朗路一段158號","121.518375","25.0033366666667","6500400","永和區"
"234017","745-BX","2019/10/14 18:59:42","新北市永和區永和路二段297號","121.516058333333","25.0159966666667","6500400","永和區"
"234030","746-BX","2019/10/14 18:59:43","新北市永和區四維街67號","121.525763333333","24.997975","6500400","永和區"
"234054","KEA-2590","2019/10/14 18:59:42","新北市永和區竹林路66巷2號","121.518225","25.013405","6500400","永和區"
"234007","KED-0605","2019/10/14 18:59:42","新北市永和區中山路一段68號","121.512611666667","25.0107983333333","6500400","永和區"
"234013","KEA-2591","2019/10/14 19:00:01","新北市永和區信義路17巷1號","121.514166666667","25.0118816666667","6500400","永和區"
"234061","AAD-866","2019/10/14 18:59:53","新北市永和區福和路307號","121.51623","25.0071266666667","6500400","永和區"
"234042","862-TW","2019/10/14 18:59:39","新北市永和區永貞路306號","121.51187","25.00486","6500400","永和區"
"234050","863-TW","2019/10/14 18:59:56","新北市永和區文化路135巷6號","121.510805","25.0157683333333","6500400","永和區"
"234026","9371-KE","2019/10/14 18:59:44","新北市永和區安樂路451號","121.514315","25.0049483333333","6500400","永和區"
"234011","9373-KE","2019/10/14 18:59:40","新北市永和區仁愛路109巷9號","121.51242","25.0127383333333","6500400","永和區"
"249005","172-UM","2019/10/14 18:59:43","新北市八里區長道坑8號","121.395601666667","25.1210433333333","6502300","八里區"
"249001","173-UM","2019/10/14 18:59:41","新北市八里區龍米路二段228-1號","121.43271","25.1584416666667","6502300","八里區"
"249003","593-UM","2019/10/14 18:38:13","新北市八里區博物館路10-1號","121.41508","25.1639633333333","6502300","八里區"
"248016","026-BX","2019/10/14 18:59:50","新北市五股區凌雲路一段134巷8號","121.449911666667","25.10245","6501500","五股區"
"248006","077-UY","2019/10/14 18:59:45","新北市五股區四維路177號","121.467955","25.0751616666667","6501500","五股區"
"248008","KED-0815","2019/10/14 18:59:54","新北市五股區中興路一段124號","121.46555","25.073525","6501500","五股區"
"248018","KED-0813","2019/10/14 18:59:41","新北市五股區民義路二段22巷27號","121.42386","25.0979983333333","6501500","五股區"
"248012","247-BX","2019/10/14 18:59:59","新北市五股區中興路四段48巷16號","121.438608333333","25.0834433333333","6501500","五股區"
"248004","677-BX","2019/10/14 18:59:56","新北市五股區民義路一段316號","121.421633333333","25.095945","6501500","五股區"
"248002","678-BX","2019/10/14 18:59:54","新北市五股區天乙路1號","121.44858","25.10281","6501500","五股區"
"248010","682-TV","2019/10/14 18:59:41","新北市五股區水碓一路23號","121.430576666667","25.071315","6501500","五股區"
"234023","9380-KE","2019/10/14 18:59:44","新北市永和區竹林路39巷28弄39號","121.520066666667","25.01406","6500400","永和區"
"234077","969-R7","2019/10/14 18:59:51","新北市永和區民治街80號","121.517515","24.9983816666667","6500400","永和區"
"234067","AAC-212","2019/10/14 18:59:48","新北市永和區自由街49號","121.514061666667","25.00582","6500400","永和區"
"234003","AAC-295","2019/10/14 18:59:52","新北市永和區和平街38號","121.513056666667","25.009955","6500400","永和區"
"232011","375-UM","2019/10/14 18:59:55","新北市坪林區坪林街10-2號","121.712225","24.9358766666667","6502000","坪林區"
"244013","KEA-2802","2019/10/14 18:59:56","新北市林口區麗園一街5號","121.376176666667","25.071985","6501700","林口區"
"244023","483-VK","2019/10/14 19:00:00","新北市林口區民權路189號","121.374861666667","25.08482","6501700","林口區"
"244017","485-VK","2019/10/14 18:59:43","新北市林口區公園路84號","121.369453333333","25.0702416666667","6501700","林口區"
"244009","656-BX","2019/10/14 18:59:57","新北市林口區林口路83-1號","121.389646666667","25.0799033333333","6501700","林口區"
"244011","701-TV","2019/10/14 18:59:48","新北市林口區中正路306號","121.388135","25.0777283333333","6501700","林口區"
"244025","837-TS","2019/10/14 18:59:49","新北市林口區南勢一街20號","121.36083","25.0754833333333","6501700","林口區"
"243010","297-R6","2019/10/14 18:59:53","新北市泰山區辭修路24號","121.429038333333","25.0581533333333","6501600","泰山區"
"243014","KEA-2801","2019/10/14 18:59:58","新北市泰山區黎明路23號","121.420891666667","25.06253","6501600","泰山區"
"243016","421-VK","2019/10/14 18:59:51","新北市泰山區明志路二段152-2號","121.427598333333","25.050555","6501600","泰山區"
"243009","KEA-2215","2019/10/14 18:59:58","新北市泰山區泰林路二段364號","121.428673333333","25.0636883333333","6501600","泰山區"
"243011","KEA-2216","2019/10/14 18:59:42","新北市泰山區明志路二段246-1號","121.427116666667","25.047975","6501600","泰山區"
"243015","680-BX","2019/10/14 18:59:55","新北市泰山區美寧街50號","121.430561666667","25.0644366666667","6501600","泰山區"
"222003","436-BY","2019/10/14 18:59:57","新北市深坑區深南路88巷1號","121.621405","25.0108283333333","6501800","深坑區"
"222002","659-BX","2019/10/14 18:59:53","新北市深坑區文山路一段31巷2號","121.629883333333","25.0033283333333","6501800","深坑區"
"231061","002-UM","2019/10/14 18:59:54","新北市新店區安華路28-1號","121.519858333333","24.9609516666667","6500600","新店區"
"231058","0293-UT","2019/10/14 18:59:59","新北市新店區北宜路一段97號","121.539346666667","24.9553783333333","6500600","新店區"
"231044","046-UY","2019/10/14 18:59:50","新北市新店區寶中路72號","121.547871666667","24.9806016666667","6500600","新店區"
"231060","106-UY","2019/10/14 18:59:55","新北市新店區安華路30巷12-1號","121.518216666667","24.9580333333333","6500600","新店區"
"231051","107-UY","2019/10/14 18:59:48","新北市新店區百忍街10巷2號","121.534966666667","24.9755783333333","6500600","新店區"
"231049","108-UY","2019/10/14 18:59:56","新北市新店區二十張路117號","121.536138333333","24.9795266666667","6500600","新店區"
"231065","110-UY","2019/10/14 18:59:44","新北市新店區安祥路147巷60號","121.476158333333","24.9562133333333","6500600","新店區"
"231062","256-BX","2019/10/14 18:59:54","新北市新店區車子路1-1號","121.504543333333","24.9579266666667","6500600","新店區"
"231054","260-TV","2019/10/14 18:59:59","新北市新店區新店路27-1號","121.540015","24.9527733333333","6500600","新店區"
"231042","268-BY","2019/10/14 18:59:55","新北市新店區中興路一段285號","121.545493333333","24.9685333333333","6500600","新店區"
"231064","278-BY","2019/10/14 18:59:53","新北市新店區安康路一段266巷4號","121.519808333333","24.96401","6500600","新店區"
"231050","AAD-862","2019/10/14 18:59:40","新北市新店區新烏路一段9-1號","121.54721","24.951525","6500600","新店區"
"231045","355-BY","2019/10/14 18:59:46","新北市新店區安康路一段90號","121.527941666667","24.9619516666667","6500600","新店區"
"231055","4716-K9","2019/10/14 18:59:51","新北市新店區北新路一段271巷8號","121.540505","24.9668033333333","6500600","新店區"
"231056","4715-K9","2019/10/14 19:00:02","新北市新店區二十張路46巷37弄21-5號","121.535433333333","24.9812783333333","6500600","新店區"
"231067","4772-VM","2019/10/14 18:59:50","新北市新店區安康路一段76巷10-1號","121.528508333333","24.9624","6500600","新店區"
"231052","512-UM","2019/10/14 18:59:55","新北市新店區屈尺路28號","121.548508333333","24.9226266666667","6500600","新店區"
"231040","617-UM","2019/10/14 19:00:02","新北市新店區中央路45號","121.532906666667","24.9775866666667","6500600","新店區"
"231041","619-UM","2019/10/14 18:59:44","新北市新店區環河路29巷1號","121.53685","24.9613266666667","6500600","新店區"
"231063","641-BX","2019/10/14 18:59:52","新北市新店區安華路16號","121.51563","24.9579533333333","6500600","新店區"
"231047","KED-0819","2019/10/14 18:59:58","新北市新店區德正街23巷12-1號","121.544716666667","24.9721533333333","6500600","新店區"
"231046","719-UM","2019/10/14 18:59:59","新北市新店區直潭二街23號","121.53551","24.94206","6500600","新店區"
"231057","720-UM","2019/10/14 18:59:44","新北市新店區百齡一路12號","121.553046666667","24.9324733333333","6500600","新店區"
"231059","897-TW","2019/10/14 18:59:48","新北市新店區安華路28-1號","121.519596666667","24.960805","6500600","新店區"
"231043","899-TW","2019/10/14 18:59:50","新北市新店區北新路一段89號","121.53845","24.9616833333333","6500600","新店區"
"231066","AKT-0513","2019/10/14 18:59:45","新北市新店區安豐路22巷2號","121.501603333333","24.9557966666667","6500600","新店區"
"241035","462-BY","2019/10/14 18:59:45","新北市三重區重新路四段121號","121.48496","25.0519666666667","6500200","三重區"
"241012","743-BX","2019/10/14 18:59:56","新北市三重區公園街55號","121.498685","25.074975","6500200","三重區"
"235066","003-UY","2019/10/14 18:59:56","新北市中和區中山路二段131巷5弄14號","121.503266666667","25.00314","6500300","中和區"
"235063","006-UY","2019/10/14 19:00:01","新北市中和區中正路532號","121.487686666667","24.9944366666667","6500300","中和區"
"235056","096-UM","2019/10/14 18:59:52","新北市板橋區三民路二段228號","121.478741666667","25.01133","6500300","中和區"
"235039","097-UM","2019/10/14 18:59:46","新北市中和區自強路60號","121.52004","24.9944466666667","6500300","中和區"
"235065","098-UM","2019/10/14 18:59:58","新北市中和區福祥路136號","121.498906666667","25.0069216666667","6500300","中和區"
"235040","150-BY","2019/10/14 18:59:58","新北市中和區宜安路1巷29號","121.51247","24.9941716666667","6500300","中和區"
"235058","151-BY","2019/10/14 18:59:39","新北市中和區員山路75號","121.480786666667","24.99416","6500300","中和區"
"235055","183-VK","2019/10/14 19:00:00","新北市中和區德光路79號","121.469348333333","25.0037183333333","6500300","中和區"
"235038","185-VK","2019/10/14 18:59:59","新北市中和區立人街24-5號","121.518796666667","24.9941633333333","6500300","中和區"
"235067","255-BX","2019/10/14 18:59:51","新北市中和區新生街177巷5號","121.484085","25.0007166666667","6500300","中和區"
"235044","293-VK","2019/10/14 18:59:46","新北市中和區中興街161巷8弄2號","121.500891666667","24.9908966666667","6500300","中和區"
"235072","301-VK","2019/10/14 18:59:49","新北市中和區永和路52號","121.499178333333","25.004065","6500300","中和區"
"235043","352-BY","2019/10/14 18:59:52","新北市中和區景平路4號","121.524203333333","24.990555","6500300","中和區"
"235042","KEA-2878","2019/10/14 18:59:54","新北市中和區秀朗路三段22巷12號","121.525803333333","24.99627","6500300","中和區"
"235050","4979-A6","2019/10/14 18:59:47","新北市中和區華新街97號","121.50877","24.9830166666667","6500300","中和區"
"235069","4980-A6","2019/10/14 19:00:00","新北市中和區圓通路109巷1弄4號","121.499903333333","24.996405","6500300","中和區"
"235070","558-UM","2019/10/14 18:59:47","新北市中和區中和路98號","121.501465","25.0003116666667","6500300","中和區"
"235045","565-BX","2019/10/14 18:59:51","新北市中和區景新街467巷35弄2號","121.514665","24.9891216666667","6500300","中和區"
"235060","KED-0823","2019/10/14 19:00:00","新北市中和區中山路三段101號","121.475213333333","25.006085","6500300","中和區"
"235054","640-BX","2019/10/14 18:59:58","新北市中和區國光街38號","121.471116666667","25.0002633333333","6500300","中和區"
"235047","732-UM","2019/10/14 18:59:54","新北市中和區興南路二段74巷14號","121.505313333333","24.9850416666667","6500300","中和區"
"235046","733-UM","2019/10/14 18:59:54","新北市中和區興南路二段33號","121.507873333333","24.9856033333333","6500300","中和區"
"235057","801-TS","2019/10/14 18:59:57","新北市中和區民利街78號","121.478216666667","24.998215","6500300","中和區"
"235041","802-TS","2019/10/14 18:59:53","新北市中和區景安路65號","121.507033333333","24.9978333333333","6500300","中和區"
"235052","805-TS","2019/10/14 18:59:51","新北市中和區興南路二段256號","121.502876666667","24.981675","6500300","中和區"
"235048","896-TW","2019/10/14 18:59:46","新北市中和區華新街109巷5號","121.509071666667","24.9819066666667","6500300","中和區"
"235053","900-TW","2019/10/14 18:59:51","新北市板橋區五權街1-8號","121.46389","24.995015","6500300","中和區"
"235064","911-UM","2019/10/14 18:59:51","新北市中和區中和路24號","121.499738333333","25.0017366666667","6500300","中和區"
"235051","157-BY","2019/10/14 18:59:45","新北市中和區忠孝街19巷24-1號","121.51001","24.9834816666667","6500300","中和區"
"235037","AAC-213","2019/10/14 18:59:49","新北市中和區秀朗路三段58-2號","121.525928333333","24.9951183333333","6500300","中和區"
"235059","AAC-215","2019/10/14 18:59:45","新北市中和區圓通路367巷20弄31號","121.491305","24.9881083333333","6500300","中和區"
"220086","015-TV","2019/10/14 18:59:57","新北市板橋區大智街14號","121.456018333333","25.0148216666667","6500100","板橋區"
"220065","072-UY","2019/10/14 18:59:48","新北市板橋區漢生東路324號","121.471818333333","25.0079666666667","6500100","板橋區"
"220106","075-UY","2019/10/14 19:00:00","新北市板橋區雙十路三段10巷16號","121.472298333333","25.0309566666667","6500100","板橋區"
"220069","AAD-861","2019/10/14 18:59:48","新北市板橋區四川路一段126號","121.459865","25.0040566666667","6500100","板橋區"
"220068","120-SR","2019/10/14 18:59:55","新北市板橋區大同街23號","121.477485","25.027075","6500100","板橋區"
"226004","312-R5","2019/10/14 18:59:56","新北市平溪區靜安路二段462巷27號","121.741151666667","25.02483","6502400","平溪區"
"235049","251-BX","2019/10/14 18:59:59","新北市中和區景安路72號","121.505815","24.9965766666667","6500300","中和區"
"228003","097-TW","2019/10/14 19:00:00","新北市貢寮區和美里龍洞街60號","121.913768333333","25.1157466666667","6502600","貢寮區"
"228002","663-BX","2019/10/14 19:00:01","新北市貢寮區福隆里東興街106巷25弄1號","121.946423333333","25.0182933333333","6502600","貢寮區"
"228001","670-TC","2019/10/14 18:59:58","新北市貢寮區仁理村保健街87號","121.923906666667","25.052275","6502600","貢寮區"
"224006","676-BX","2019/10/14 18:59:58","新北市瑞芳區三爪子坑路118-3號","121.806488333333","25.1053016666667","6501200","瑞芳區"
"224007","285-BY","2019/10/14 18:59:56","新北市瑞芳區中央路48巷174號","121.759058333333","25.1032883333333","6501200","瑞芳區"
"224009","275-VK","2019/10/14 18:59:58","新北市瑞芳區長仁路40號","121.864473333333","25.118405","6501200","瑞芳區"
"224008","273-VK","2019/10/14 18:59:47","新北市瑞芳區逢甲路340-9號","121.798198333333","25.1162816666667","6501200","瑞芳區"
"224005","271-BY","2019/10/14 18:59:43","新北市瑞芳區豎崎路32-5號","121.82468","25.1208816666667","6501200","瑞芳區"
"227002","642-TC","2019/10/14 18:59:59","新北市雙溪區平林里康福家園1號","121.858288333333","25.0377233333333","6502500","雙溪區"
"227001","400-TW","2019/10/14 18:59:44","新北市雙溪區牡丹里中正路58巷41號","121.866458333333","25.0420016666667","6502500","雙溪區"
"253005","032-BX","2019/10/14 18:59:50","新北市石門區尖子鹿76號","121.571723333333","25.2968116666667","6502200","石門區"
"253006","295-VK","2019/10/14 18:59:57","新北市石門區下員坑42號","121.517971666667","25.2776216666667","6502200","石門區"
"222001","KEA-2212","2019/10/14 18:59:51","新北市深坑區北深路一段300號","121.624316666667","25.00576","6501800","深坑區"
"208002","KEA-2872","2019/10/14 18:59:56","新北市金山區仁愛路67巷2號","121.63464","25.2208433333333","6502700","金山區"
"208003","665-BX","2019/10/14 18:59:58","新北市金山區中山路273號","121.636318333333","25.2229533333333","6502700","金山區"
"251009","008-UM","2019/10/14 18:59:55","新北市淡水區重建街140號","121.440488333333","25.1733733333333","6501000","淡水區"
"251002","012-UM","2019/10/14 18:59:59","新北市淡水區中正東路43號","121.446353333333","25.168045","6501000","淡水區"
"251015","KEA-2871","2019/10/14 18:59:51","新北市淡水區糞箕湖60號","121.485176666667","25.1723016666667","6501000","淡水區"
"251016","179-VK","2019/10/14 18:59:44","新北市淡水區淡金路三段305號","121.448921666667","25.2054166666667","6501000","淡水區"
"251013","182-VK","2019/10/14 18:59:53","新北市淡水區安子內3號","121.487591666667","25.2156216666667","6501000","淡水區"
"251010","413-VK","2019/10/14 18:59:54","新北市淡水區中正路一段156巷8號","121.421656666667","25.1807366666667","6501000","淡水區"
"251007","442-VK","2019/10/14 18:59:56","新北市淡水區民生路113巷1弄32號","121.463386666667","25.1386933333333","6501000","淡水區"
"251012","443-VK","2019/10/14 19:00:01","新北市淡水區新春街126巷15弄1號","121.440568333333","25.1808566666667","6501000","淡水區"
"251001","559-UM","2019/10/14 19:00:00","新北市淡水區自強路58號","121.463196666667","25.1275183333333","6501000","淡水區"
"251014","577-R6","2019/10/14 18:59:43","新北市淡水區崙頂3號","121.491263333333","25.2239016666667","6501000","淡水區"
"251011","650-BX","2019/10/14 18:59:42","新北市淡水區鄧公路30巷2弄28號","121.453745","25.16903","6501000","淡水區"
"251003","673-BX","2019/10/14 18:59:52","新北市淡水區中山北路一段149巷24號","121.442986666667","25.1779433333333","6501000","淡水區"
"207003","550-UM","2019/10/14 18:59:59","新北市萬里區大鵬里頂社2-1號","121.660376666667","25.2071433333333","6502800","萬里區"
"207004","291-VK","2019/10/14 18:59:43","新北市萬里區萬里里獅頭路23號","121.693213333333","25.1783016666667","6502800","萬里區"
"252002","178-VK","2019/10/14 18:59:40","新北市三芝區中正路一段38號","121.503305","25.2583033333333","6502100","三芝區"
"252003","249-BX","2019/10/14 19:00:03","新北市三芝區後厝里北勢子42-4號","121.472293333333","25.2526066666667","6502100","三芝區"
"208001","170-UY","2019/10/14 18:59:50","新北市金山區民生路61號","121.640766666667","25.22056","6502700","金山區"
"237004","KEA-2597","2019/10/14 18:59:47","新北市三峽區有木212號","121.440158333333","24.8519783333333","6500900","三峽區"
"237007","153-BY","2019/10/14 18:59:43","新北市三峽區中正路二段169號","121.36608","24.91461","6500900","三峽區"
"237013","252-BX","2019/10/14 18:59:56","新北市三峽區大義路5號","121.378936666667","24.943625","6500900","三峽區"
"237012","275-BY","2019/10/14 18:59:55","新北市三峽區三樹路255號","121.379036666667","24.942675","6500900","三峽區"
"237008","302-VK","2019/10/14 18:59:46","新北市三峽區大同路174巷25號","121.372795","24.9276583333333","6500900","三峽區"
"237014","433-BY","2019/10/14 18:59:43","新北市三峽區隆恩街158巷44號","121.365748333333","24.94589","6500900","三峽區"
"237006","5529-G3","2019/10/14 18:59:50","新北市三峽區溪東路211巷31弄11號","121.405455","24.93431","6500900","三峽區"
"237011","KEA-2596","2019/10/14 18:59:40","新北市三峽區溪東路329號","121.410821666667","24.9300383333333","6500900","三峽區"
"237015","649-BX","2019/10/14 18:59:44","新北市三峽區建安77-1號","121.45105","24.92376","6500900","三峽區"
"237010","706-TV","2019/10/14 18:59:53","新北市三峽區復興路449號","121.362558333333","24.9385633333333","6500900","三峽區"
"237005","AKY-6261","2019/10/14 19:00:03","新北市三峽區中山路459巷135號","121.349243333333","24.933455","6500900","三峽區"
"236042","KED-0685","2019/10/14 18:59:57","新北市土城區學府路一段229巷9號","121.45163","24.9837533333333","6501300","土城區"
"236078","166-UM","2019/10/14 18:59:53","新北市土城區中央路四段291號","121.411296666667","24.9523483333333","6501300","土城區"
"236030","253-BX","2019/10/14 18:59:43","新北市土城區慶利街9號","121.43953","24.973625","6501300","土城區"
"236026","269-VK","2019/10/14 18:59:51","新北市土城區光明街26號","121.442093333333","24.97392","6501300","土城區"
"236014","270-VK","2019/10/14 19:00:00","新北市土城區延和路15號","121.464003333333","24.9880666666667","6501300","土城區"
"236039","271-VK","2019/10/14 18:59:46","新北市土城區仁愛路2號","121.459746666667","24.9812983333333","6501300","土城區"
"236069","KEA-2877","2019/10/14 18:59:56","新北市土城區清水路78號","121.456808333333","24.9818266666667","6501300","土城區"
"252001","KED-0821","2019/10/14 18:59:52","新北市三芝區中興街二段260號","121.501796666667","25.2530133333333","6502100","三芝區"
"236020","401-BY","2019/10/14 18:59:50","新北市土城區明峰街50號","121.467806666667","24.9864316666667","6501300","土城區"
"236063","752-BX","2019/10/14 18:57:43","新北市土城區延和路110號","121.467141666667","24.98972","6501300","土城區"
"236059","912-UM","2019/10/14 19:00:00","新北市土城區金城路二段266號","121.45827","24.9841083333333","6501300","土城區"
"236048","913-UM","2019/10/14 18:59:54","新北市土城區青雲路252號","121.459041666667","24.979875","6501300","土城區"
"236055","AAC-216","2019/10/14 19:00:01","新北市土城區學成路130號","121.44913","24.9895816666667","6501300","土城區"
"238023","601-UM","2019/10/14 18:59:58","新北市樹林區大慶街158號","121.39678","25.0130716666667","6500700","樹林區"
"238019","599-UM","2019/10/14 18:59:51","新北市樹林區東榮街169號","121.413995","24.9813716666667","6500700","樹林區"
"238024","5061-A6","2019/10/14 18:59:50","新北市樹林區八德街475-1號","121.403636666667","24.9704383333333","6500700","樹林區"
"238022","KEA-2213","2019/10/14 18:59:45","新北市樹林區東順街20號","121.412043333333","24.9786133333333","6500700","樹林區"
"238021","KEA-2539","2019/10/14 18:59:58","新北市樹林區柑園街二段316號","121.373383333333","24.95174","6500700","樹林區"
"238017","283-BY","2019/10/14 18:59:48","新北市樹林區八德街678號","121.39596","24.968875","6500700","樹林區"
"238014","282-BY","2019/10/14 18:59:41","新北市樹林區潭興街143巷1-1號","121.42575","24.9997316666667","6500700","樹林區"
"238020","268-VK","2019/10/14 18:59:52","新北市樹林區俊英街238號","121.424701666667","25.0104433333333","6500700","樹林區"
"238026","172-UY","2019/10/14 18:59:52","新北市樹林區中和街11號","121.392053333333","24.9729133333333","6500700","樹林區"
"238016","169-UY","2019/10/14 18:59:46","新北市樹林區文化街45號","121.418185","24.9882016666667","6500700","樹林區"
"239008","527-UM","2019/10/14 18:59:48","新北市鶯歌區朝陽街4號","121.336253333333","24.97662","6500800","鶯歌區"
"239005","526-UM","2019/10/14 18:59:53","新北市鶯歌區鳳吉一街18號","121.325335","24.9732933333333","6500800","鶯歌區"
"239001","417-VK","2019/10/14 18:59:55","新北市鶯歌區國中街195號","121.338245","24.9391783333333","6500800","鶯歌區"
"239003","360-BY","2019/10/14 19:00:03","新北市鶯歌區鶯桃路401號","121.333293333333","24.9641533333333","6500800","鶯歌區"
"239002","359-BY","2019/10/14 18:59:57","新北市鶯歌區中山路82號","121.351123333333","24.957085","6500800","鶯歌區"
"239004","193-VK","2019/10/14 18:59:43","新北市鶯歌區中正三路152號","121.335923333333","24.9397016666667","6500800","鶯歌區"
"221008","489-VK","2019/10/14 18:59:50","新北市汐止區康寧街582號","121.634991666667","25.06987","6501100","汐止區"
"221036","130-UY","2019/10/14 18:59:51","新北市汐止區水碓街59號","121.665156666667","25.0690633333333","6501100","汐止區"
"221015","131-UY","2019/10/14 18:59:59","新北市汐止區鄉長路一段285號","121.66862","25.078795","6501100","汐止區"
"244019","KED-0667","2019/10/14 18:59:54","新北市林口區文化一路一段166號","121.37629","25.0733516666667","6501700","林口區"
"221032","280-BY","2019/10/14 18:59:43","新北市汐止區橫科路407巷30弄28-5號","121.627358333333","25.0484533333333","6501100","汐止區"
"221029","298-VK","2019/10/14 18:59:49","新北市汐止區樟樹一路244號","121.64244","25.0669683333333","6501100","汐止區"
"221031","353-TW","2019/10/14 18:59:51","新北市汐止區福德一路300巷47號","121.630295","25.0646","6501100","汐止區"
"221035","622-UM","2019/10/14 18:59:43","新北市汐止區大同路二段298號","121.655273333333","25.0665416666667","6501100","汐止區"
"221002","707-TV","2019/10/14 18:59:54","新北市汐止區大同路一段2號","121.621056666667","25.055105","6501100","汐止區"
"220079","145-BY","2019/10/14 18:59:46","新北市板橋區南雅西路二段192巷24號","121.45266","25.013945","6500100","板橋區"
"220082","610-BX","2019/10/14 18:59:44","新北市板橋區篤行路三段8號","121.429336666667","24.987815","6500100","板橋區"
"220075","256-TC","2019/10/14 18:59:44","新北市板橋區後菜園街32巷2號","121.456796666667","25.0103133333333","6500100","板橋區"
"224002","257-TC","2019/10/14 18:59:59","新北市瑞芳區靜安路四段10號","121.795948333333","25.0858883333333","6501200","瑞芳區"
"220056","276-BY","2019/10/14 19:00:02","新北市板橋區信義路169號","121.458868333333","24.9920866666667","6500100","板橋區"
"220101","280-UM","2019/10/14 18:59:52","新北市板橋區民生路二段188號","121.470208333333","25.0207933333333","6500100","板橋區"
"220071","283-VK","2019/10/14 18:59:55","新北市板橋區忠孝路196巷45號","121.465548333333","25.001595","6500100","板橋區"
"220094","285-UM","2019/10/14 18:59:52","新北市板橋區光武街169號","121.46527","25.03007","6500100","板橋區"
"220083","286-VK","2019/10/14 18:59:51","新北市板橋區大觀路一段38巷156弄75號","121.442791666667","25.0068466666667","6500100","板橋區"
"220081","287-VK","2019/10/14 18:59:44","新北市板橋區南雅西路二段98-5號","121.45236","25.0114233333333","6500100","板橋區"
"220090","288-VK","2019/10/14 18:59:50","新北市板橋區裕民街23-3號","121.462093333333","25.028965","6500100","板橋區"
"220061","293-UM","2019/10/14 19:00:01","新北市板橋區中山路二段295巷17號","121.47777","25.018725","6500100","板橋區"
"220053","295-UM","2019/10/14 18:59:47","新北市板橋區永豐街89巷5弄2號","121.4731","25.0196383333333","6500100","板橋區"
"220084","296-UM","2019/10/14 18:59:52","新北市板橋區大觀路二段146-5號","121.441863333333","24.9987433333333","6500100","板橋區"
"242046","281-VK","2019/10/14 18:59:53","新北市板橋區大觀路三段50巷59號","121.431876666667","24.9960733333333","6500500","新莊區"
"220062","305-R5","2019/10/14 19:00:01","新北市板橋區三民路二段245巷3號","121.479538333333","25.0125733333333","6500100","板橋區"
"220092","307-R5","2019/10/14 18:59:57","新北市板橋區文化路二段225巷60弄73號","121.468923333333","25.0300433333333","6500100","板橋區"
"220098","317-R6","2019/10/14 18:59:43","新北市板橋區萬板路51號","121.471418333333","25.0215583333333","6500100","板橋區"
"220089","487-VK","2019/10/14 18:59:43","新北市板橋區文化路二段173號","121.470555","25.02763","6500100","板橋區"
"220088","491-VK","2019/10/14 18:59:55","新北市板橋區文化路二段182巷1弄30號","121.472011666667","25.028285","6500100","板橋區"
"220035","560-BX","2019/10/14 18:59:55","新北市板橋區中正路303號","121.455256666667","25.0195666666667","6500100","板橋區"
"220103","561-BX","2019/10/14 18:59:43","新北市板橋區介壽街42號","121.468603333333","25.0197866666667","6500100","板橋區"
"220080","568-UM","2019/10/14 18:59:44","新北市板橋區大觀路二段205號","121.444866666667","24.9993216666667","6500100","板橋區"
"220063","609-BX","2019/10/14 18:59:46","新北市板橋區三民路二段72號","121.479266666667","25.01714","6500100","板橋區"
"220072","630-UY","2019/10/14 19:00:00","新北市板橋區大觀路三段50巷63號","121.431725","24.9961583333333","6500100","板橋區"
"220091","637-BX","2019/10/14 18:59:49","新北市板橋區大同街18號","121.477591666667","25.0267583333333","6500100","板橋區"
"220057","686-BX","2019/10/14 18:59:56","新北市板橋區重慶路308巷20號","121.463423333333","24.9974933333333","6500100","板橋區"
"220077","687-BX","2019/10/14 18:59:56","新北市板橋區龍興街65巷1號","121.44339","25.001325","6500100","板橋區"
"220093","689-BX","2019/10/14 19:00:01","新北市板橋區民生路三段251號","121.464478333333","25.0291266666667","6500100","板橋區"
"220054","741-BX","2019/10/14 19:00:00","新北市板橋區重慶路127巷10號","121.463201666667","25.0048533333333","6500100","板橋區"
"220102","KEA-2699","2019/10/14 18:59:53","新北市板橋區萬板路818巷2號","121.482896666667","25.0272333333333","6500100","板橋區"
"220055","827-TW","2019/10/14 18:59:59","新北市板橋區新民街13號","121.463988333333","25.0098516666667","6500100","板橋區"
"220067","831-TW","2019/10/14 18:59:47","新北市板橋區民享街116巷8號","121.478285","25.0154933333333","6500100","板橋區"
"220074","895-R6","2019/10/14 18:59:53","新北市板橋區倉後街3號","121.455503333333","25.00953","6500100","板橋區"
"220073","985-R7","2019/10/14 18:59:44","新北市板橋區中正路99號","121.456451666667","25.01464","6500100","板橋區"
"220097","AAC-210","2019/10/14 18:59:48","新北市板橋區新海路135巷37號","121.459591666667","25.022735","6500100","板橋區"
"220064","AAC-253","2019/10/14 18:59:57","新北市板橋區板新路40號","121.473893333333","25.0137916666667","6500100","板橋區"
"235068","KEA-2873","2019/10/14 18:59:30","新北市中和區圓通路218號","121.495271666667","24.99324","6500300","中和區"
"235061","KEA-2875","2019/10/14 18:59:43","新北市中和區中山路三段81號","121.475848333333","25.00588","6500300","中和區"
"235062","KEA-2876","2019/10/14 18:59:29","新北市中和區中山路二段359巷2號","121.488361666667","25.0045016666667","6500300","中和區"
