"lineid","car","time","location","longitude","latitude","cityid","cityname"
"234046","148-BY","2019/10/14 19:39:24","新北市永和區永元路96號","121.522513333333","25.0018366666667","6500400","永和區"
"234081","298-R6","2019/10/14 19:39:30","新北市永和區國中路104巷12弄15號","121.525566666667","25.006555","6500400","永和區"
"234038","336-UY","2019/10/14 19:39:15","新北市永和區成功路二段3號","121.526796666667","25.0014116666667","6500400","永和區"
"234086","338-UY","2019/10/14 19:39:24","新北市永和區永亨路165巷8號","121.526231666667","25.0041416666667","6500400","永和區"
"234070","552-UM","2019/10/14 19:39:19","新北市永和區永和路二段198號","121.51563","25.0138233333333","6500400","永和區"
"234064","553-UM","2019/10/14 19:39:23","新北市永和區秀朗路一段192巷6弄12號","121.519055","25.00232","6500400","永和區"
"234017","745-BX","2019/10/14 19:39:22","新北市永和區環河西路一段51巷24號","121.514183333333","25.0175466666667","6500400","永和區"
"234030","746-BX","2019/10/14 19:39:22","新北市永和區民生路67巷34號","121.524471666667","24.99733","6500400","永和區"
"234054","KEA-2590","2019/10/14 19:39:31","新北市永和區竹林路41號","121.518001666667","25.0142533333333","6500400","永和區"
"234007","KED-0605","2019/10/14 19:39:22","新北市永和區中和路451號","121.509921666667","25.0013416666667","6500400","永和區"
"234013","KEA-2591","2019/10/14 19:39:21","新北市永和區仁愛路235號","121.509166666667","25.0121483333333","6500400","永和區"
"234061","AAD-866","2019/10/14 19:39:13","新北市永和區中正路446號","121.517468333333","25.0027516666667","6500400","永和區"
"234042","862-TW","2019/10/14 19:39:19","新北市永和區中和路409號","121.50899","25.0004966666667","6500400","永和區"
"234050","863-TW","2019/10/14 19:39:16","新北市永和區保安路35號","121.509783333333","25.016165","6500400","永和區"
"234026","9371-KE","2019/10/14 19:39:23","新北市永和區中和路501巷5號","121.510495","25.0025816666667","6500400","永和區"
"234011","9373-KE","2019/10/14 19:39:20","新北市永和區仁愛路310號","121.503128333333","25.00753","6500400","永和區"
"249002","305-UY","2019/10/14 19:39:29","新北市八里區頂寮二街33-1號","121.450325","25.1252016666667","6502300","八里區"
"249003","593-UM","2019/10/14 19:39:14","新北市八里區華峰三街25號","121.39944","25.1459616666667","6502300","八里區"
"248014","025-BX","2019/10/14 19:39:25","新北市五股區五福路42巷37號","121.434933333333","25.09013","6501500","五股區"
"248016","026-BX","2019/10/14 19:39:10","新北市五股區成泰路三段476號","121.451838333333","25.1014316666667","6501500","五股區"
"248008","KED-0815","2019/10/14 19:39:15","新北市五股區四維路153號","121.46764","25.0745783333333","6501500","五股區"
"248018","KED-0813","2019/10/14 19:39:21","新北市五股區外寮路3-2號","121.424538333333","25.077245","6501500","五股區"
"248012","247-BX","2019/10/14 19:39:20","新北市五股區成泰路一段241巷9號","121.436025","25.0809266666667","6501500","五股區"
"248004","677-BX","2019/10/14 19:39:16","新北市五股區成泰路一段208號","121.435958333333","25.07888","6501500","五股區"
"248002","678-BX","2019/10/14 19:39:25","新北市五股區成泰路三段577巷81號","121.449646666667","25.1037066666667","6501500","五股區"
"248010","682-TV","2019/10/14 19:39:21","新北市五股區明德路12巷26弄5號","121.432883333333","25.0725833333333","6501500","五股區"
"234023","9380-KE","2019/10/14 19:39:24","新北市永和區保生路55號","121.504735","25.0099266666667","6500400","永和區"
"234077","969-R7","2019/10/14 19:39:19","新北市永和區民族街67巷7號","121.518868333333","24.9972566666667","6500400","永和區"
"234074","AAC-211","2019/10/14 19:39:29","新北市永和區竹林路225巷7號","121.521326666667","25.0085216666667","6500400","永和區"
"234067","AAC-212","2019/10/14 19:39:26","新北市永和區永平路173巷9號","121.510113333333","25.0082666666667","6500400","永和區"
"234003","AAC-295","2019/10/14 19:39:27","新北市永和區福和路346號","121.51501","25.0072816666667","6500400","永和區"
"244023","483-VK","2019/10/14 19:38:00","新北市林口區民有街30號","121.3721","25.07671","6501700","林口區"
"243012","AAD-798","2019/10/14 19:39:22","新北市泰山區全興路199-1號","121.434821666667","25.0550416666667","6501600","泰山區"
"243010","297-R6","2019/10/14 19:19:45","新北市泰山區明志路一段509號","121.430503333333","25.0544233333333","6501600","泰山區"
"243016","421-VK","2019/10/14 19:39:31","新北市新莊區新北大道七段36號","121.419596666667","25.032225","6501600","泰山區"
"243009","KEA-2215","2019/10/14 19:39:18","新北市泰山區美寧街60號","121.430955","25.0646433333333","6501600","泰山區"
"243011","KEA-2216","2019/10/14 19:39:22","新北市泰山區中山路六段767-9號","121.427858333333","25.0381033333333","6501600","泰山區"
"243015","680-BX","2019/10/14 19:39:14","新北市泰山區民權街23號","121.428625","25.0507283333333","6501600","泰山區"
"222003","436-BY","2019/10/14 19:31:59","新北市深坑區深南路51-1號","121.621115","25.0098983333333","6501800","深坑區"
"222002","659-BX","2019/10/14 19:39:13","新北市深坑區北深路一段177號","121.632581666667","25.0108683333333","6501800","深坑區"
"231061","002-UM","2019/10/14 19:39:14","新北市新店區安康路二段3-7號","121.515565","24.9637116666667","6500600","新店區"
"231058","0293-UT","2019/10/14 19:39:19","新北市新店區中正路76巷11弄19號","121.543673333333","24.9716866666667","6500600","新店區"
"231044","046-UY","2019/10/14 19:39:10","新北市新店區北新路三段129號","121.541266666667","24.9827533333333","6500600","新店區"
"231060","106-UY","2019/10/14 19:39:15","新北市新店區安康路二段145號","121.511433333333","24.9599866666667","6500600","新店區"
"231051","107-UY","2019/10/14 19:39:28","新北市新店區中央四街77號","121.526581666667","24.975795","6500600","新店區"
"231049","108-UY","2019/10/14 19:39:17","新北市新店區大豐路47號","121.540058333333","24.9798166666667","6500600","新店區"
"231065","110-UY","2019/10/14 19:39:24","新北市新店區安祥路109巷90弄98號","121.475955","24.95747","6500600","新店區"
"231062","256-BX","2019/10/14 19:39:14","新北市新店區太平路25-6號","121.533671666667","24.9579533333333","6500600","新店區"
"231054","260-TV","2019/10/14 19:39:18","新北市新店區文中路40號","121.539746666667","24.956555","6500600","新店區"
"231042","268-BY","2019/10/14 19:39:15","新北市新店區中興路一段202號","121.543581666667","24.9653633333333","6500600","新店區"
"231064","278-BY","2019/10/14 19:39:13","新北市新店區安和路二段115號","121.518693333333","24.9703833333333","6500600","新店區"
"231050","AAD-862","2019/10/14 19:39:20","新北市新店區秀水路2號","121.555011666667","24.9538333333333","6500600","新店區"
"231045","355-BY","2019/10/14 19:39:26","新北市新店區北宜路二段207號","121.553111666667","24.9533583333333","6500600","新店區"
"231056","4715-K9","2019/10/14 19:39:22","新北市新店區中正路489號","121.533835","24.9822916666667","6500600","新店區"
"231067","4772-VM","2019/10/14 19:39:30","新北市新店區柴埕路59號","121.513536666667","24.9649783333333","6500600","新店區"
"231052","512-UM","2019/10/14 19:39:15","新北市新店區新烏路三段1號","121.551628333333","24.907175","6500600","新店區"
"231040","617-UM","2019/10/14 19:39:22","新北市新店區北新路一段40號","121.541003333333","24.9659983333333","6500600","新店區"
"231041","619-UM","2019/10/14 19:39:24","新北市新店區中正路485號","121.534021666667","24.9819866666667","6500600","新店區"
"231063","641-BX","2019/10/14 19:39:12","新北市新店區達觀路41號","121.502753333333","24.9382283333333","6500600","新店區"
"231047","KED-0819","2019/10/14 19:39:18","新北市新店區五峰路149號","121.544966666667","24.965645","6500600","新店區"
"231046","719-UM","2019/10/14 19:39:19","新北市新店區中正路329巷1弄2號","121.535561666667","24.9748666666667","6500600","新店區"
"231057","720-UM","2019/10/14 19:39:24","新北市新店區橘園一路11號","121.547891666667","24.934025","6500600","新店區"
"231059","897-TW","2019/10/14 19:39:29","新北市新店區安和路三段91號","121.517766666667","24.9840333333333","6500600","新店區"
"231043","899-TW","2019/10/14 19:39:30","新北市新店區北新路二段156號","121.543085","24.9753483333333","6500600","新店區"
"231066","AKT-0513","2019/10/14 19:39:25","新北市新店區安康路三段355巷1號","121.484326666667","24.9510216666667","6500600","新店區"
"241011","013-R5","2019/10/14 19:39:18","新北市三重區秀江街121號","121.49933","25.0720783333333","6500200","三重區"
"241028","022-UY","2019/10/14 19:39:17","新北市三重區中正南路115號","121.494075","25.057505","6500200","三重區"
"241008","059-VK","2019/10/14 19:39:27","新北市三重區永福街133號","121.478801666667","25.0768033333333","6500200","三重區"
"241031","061-VK","2019/10/14 19:39:14","新北市三重區重新路四段244巷33號","121.487316666667","25.05336","6500200","三重區"
"241017","063-VK","2019/10/14 19:39:21","新北市三重區重陽路三段5巷30號","121.491333333333","25.06535","6500200","三重區"
"241024","065-VK","2019/10/14 19:39:15","新北市三重區大勇街82巷15弄30號","121.481226666667","25.07198","6500200","三重區"
"241007","066-VK","2019/10/14 19:39:30","新北市三重區仁美街63號","121.486601666667","25.0783466666667","6500200","三重區"
"241015","742-BX","2019/10/14 19:39:22","新北市三重區福德北路34號","121.502078333333","25.0652633333333","6500200","三重區"
"241006","262-UM","2019/10/14 19:39:24","新北市三重區聯華街105號","121.485226666667","25.0752033333333","6500200","三重區"
"241009","267-UM","2019/10/14 19:39:30","新北市三重區三和路四段406巷22號","121.480228333333","25.0793433333333","6500200","三重區"
"241018","268-UM","2019/10/14 19:39:20","新北市三重區大智街65號","121.492481666667","25.0681283333333","6500200","三重區"
"241032","269-UM","2019/10/14 19:39:30","新北市三重區重陽路一段60巷53號","121.484713333333","25.0582333333333","6500200","三重區"
"241013","270-UM","2019/10/14 19:39:30","新北市三重區仁賢街30號","121.496406666667","25.07483","6500200","三重區"
"241025","271-UM","2019/10/14 19:39:20","新北市三重區大有街1-1號","121.477626666667","25.0655433333333","6500200","三重區"
"241030","KED-0822","2019/10/14 19:39:25","新北市三重區新興路28巷8號","121.491881666667","25.05297","6500200","三重區"
"241035","462-BY","2019/10/14 19:39:25","新北市三重區正義北路61-1號","121.49721","25.0644766666667","6500200","三重區"
"241020","478-VK","2019/10/14 19:39:17","新北市三重區自強路三段41號","121.487151666667","25.0727766666667","6500200","三重區"
"241026","480-VK","2019/10/14 19:39:16","新北市三重區文化南路67號","121.500276666667","25.0608566666667","6500200","三重區"
"241014","543-UM","2019/10/14 19:39:18","新北市三重區長榮路121號","121.503581666667","25.0693283333333","6500200","三重區"
"241023","545-UM","2019/10/14 19:39:16","新北市三重區忠孝路三段99巷21號","121.479475","25.06432","6500200","三重區"
"241001","547-UM","2019/10/14 19:39:27","新北市三重區仁愛街315巷53號","121.494355","25.0802283333333","6500200","三重區"
"241019","KEA-2593","2019/10/14 19:39:27","新北市三重區六張街194巷1弄1號","121.488443333333","25.0682266666667","6500200","三重區"
"241012","743-BX","2019/10/14 19:39:16","新北市三重區仁義街15號","121.500178333333","25.075825","6500200","三重區"
"241029","942-UM","2019/10/14 19:39:25","新北市三重區重安街90號","121.49232","25.0564633333333","6500200","三重區"
"235066","003-UY","2019/10/14 19:39:16","新北市中和區景新街164號","121.50577","24.997045","6500300","中和區"
"235063","006-UY","2019/10/14 19:39:21","新北市中和區連城路263巷4弄1號","121.492125","24.9960116666667","6500300","中和區"
"235056","096-UM","2019/10/14 19:39:27","新北市中和區中山路三段114巷14號","121.475965","25.00675","6500300","中和區"
"235039","097-UM","2019/10/14 19:39:26","新北市中和區景平路123號","121.515298333333","24.9918116666667","6500300","中和區"
"235065","098-UM","2019/10/14 19:39:18","新北市中和區中山路二段183號","121.500661666667","25.0027316666667","6500300","中和區"
"235040","150-BY","2019/10/14 19:39:18","新北市中和區宜安路121號","121.51006","24.9979366666667","6500300","中和區"
"235058","151-BY","2019/10/14 19:39:19","新北市中和區員山路148巷44弄7號","121.48259","24.9965883333333","6500300","中和區"
"235055","183-VK","2019/10/14 19:39:20","新北市中和區莒光路37巷5號","121.47255","25.0052616666667","6500300","中和區"
"235038","185-VK","2019/10/14 19:39:19","新北市中和區自立路141巷4號","121.522381666667","24.9934933333333","6500300","中和區"
"235067","255-BX","2019/10/14 19:39:31","新北市中和區新生街213號","121.483798333333","24.9996733333333","6500300","中和區"
"235044","293-VK","2019/10/14 19:39:26","新北市中和區南山路314號","121.507903333333","24.9867966666667","6500300","中和區"
"235072","301-VK","2019/10/14 19:39:09","新北市中和區連城路249-6號","121.492916666667","24.9967733333333","6500300","中和區"
"235043","352-BY","2019/10/14 19:39:26","新北市中和區華新街230號","121.506005","24.981635","6500300","中和區"
"235042","KEA-2878","2019/10/14 19:39:14","新北市中和區景安路79巷37弄4號","121.507665","24.9963016666667","6500300","中和區"
"235070","558-UM","2019/10/14 19:39:26","新北市中和區景平路493號","121.500138333333","24.9978083333333","6500300","中和區"
"235060","KED-0823","2019/10/14 19:39:20","新北市中和區新生街30巷4號","121.48297","25.003875","6500300","中和區"
"235054","640-BX","2019/10/14 19:39:18","新北市中和區莒光路63-1號","121.4722","25.0040683333333","6500300","中和區"
"235047","732-UM","2019/10/14 19:39:14","新北市中和區景安路201號","121.50485","24.992715","6500300","中和區"
"235046","733-UM","2019/10/14 19:39:14","新北市中和區景新街496巷17號","121.51337","24.986625","6500300","中和區"
"235071","783-BX","2019/10/14 19:39:16","新北市中和區中正路839巷29號","121.48355","25.0023683333333","6500300","中和區"
"235057","801-TS","2019/10/14 19:39:17","新北市中和區中正路796號","121.485216666667","25.001435","6500300","中和區"
"235041","802-TS","2019/10/14 19:39:13","新北市中和區永貞路229號","121.513425","25.003685","6500300","中和區"
"235052","805-TS","2019/10/14 19:39:11","新北市中和區華新街206巷21弄2號","121.505921666667","24.9827616666667","6500300","中和區"
"235048","896-TW","2019/10/14 19:39:26","新北市中和區華新街48號","121.507916666667","24.984095","6500300","中和區"
"235053","900-TW","2019/10/14 19:39:11","新北市中和區國光街215巷24弄1號","121.466938333333","25.000445","6500300","中和區"
"235051","157-BY","2019/10/14 19:39:26","新北市中和區南山路130號","121.503793333333","24.9929383333333","6500300","中和區"
"235037","AAC-213","2019/10/14 19:39:28","新北市中和區秀朗路三段142號","121.524383333333","24.9913333333333","6500300","中和區"
"235059","AAC-215","2019/10/14 19:39:25","新北市中和區錦和路356號","121.490683333333","24.991395","6500300","中和區"
"220086","015-TV","2019/10/14 19:39:17","新北市板橋區中正路216巷8號","121.456366666667","25.0184616666667","6500100","板橋區"
"220065","072-UY","2019/10/14 19:39:28","新北市板橋區國泰街38巷4弄6號","121.468088333333","25.0066683333333","6500100","板橋區"
"220106","075-UY","2019/10/14 19:39:20","新北市板橋區文化路二段608巷64號","121.480146666667","25.034045","6500100","板橋區"
"220069","AAD-861","2019/10/14 19:39:28","新北市板橋區南雅南路二段7巷12號","121.454285","25.0029283333333","6500100","板橋區"
"220068","120-SR","2019/10/14 19:39:17","新北市板橋區中山路二段557號","121.484003333333","25.02178","6500100","板橋區"
"247004","336-TH","2019/10/14 19:39:14","新北市蘆洲區長安街98巷16號","121.462855","25.0816333333333","6501400","蘆洲區"
"226004","312-R5","2019/10/14 19:36:56","新北市平溪區十分里十分街281-1號","121.780255","25.0458983333333","6502400","平溪區"
"235049","251-BX","2019/10/14 19:39:19","新北市中和區南華路15號","121.502591666667","24.9956216666667","6500300","中和區"
"228003","097-TW","2019/10/14 19:39:20","新北市貢寮區真理里美艷山街15-3號","121.92376","25.06798","6502600","貢寮區"
"228001","670-TC","2019/10/14 19:39:18","新北市貢寮區真理里新港街31巷10號","121.925761666667","25.055895","6502600","貢寮區"
"224010","AGQ-8101","2019/10/14 19:39:27","新北市瑞芳區豎崎路18號","121.843516666667","25.1087116666667","6501200","瑞芳區"
"227002","642-TC","2019/10/14 19:39:19","新北市雙溪區雙溪里太平路60號","121.865018333333","25.0357466666667","6502500","雙溪區"
"227001","400-TW","2019/10/14 19:39:24","新北市雙溪區新基里新基北街20號","121.867188333333","25.0388683333333","6502500","雙溪區"
"222001","KEA-2212","2019/10/14 19:39:11","新北市深坑區深坑街142號","121.613058333333","25.0015283333333","6501800","深坑區"
"208002","KEA-2872","2019/10/14 19:39:28","新北市金山區三民街17號","121.634651666667","25.2229333333333","6502700","金山區"
"208003","665-BX","2019/10/14 19:39:17","新北市金山區仁愛路23號","121.63735","25.2191633333333","6502700","金山區"
"251009","008-UM","2019/10/14 19:39:15","新北市淡水區中山北路一段180巷11號","121.445156666667","25.178155","6501000","淡水區"
"251005","010-UM","2019/10/14 19:39:27","新北市淡水區原德路108巷2號","121.443368333333","25.1735","6501000","淡水區"
"251002","012-UM","2019/10/14 19:39:19","新北市淡水區下圭柔山91-3號","121.4311","25.20989","6501000","淡水區"
"251015","KEA-2871","2019/10/14 19:39:11","新北市淡水區山子頂24-1號","121.491408333333","25.187185","6501000","淡水區"
"251008","181-VK","2019/10/14 19:39:10","新北市淡水區中正路一段8巷2弄2號","121.428148333333","25.177125","6501000","淡水區"
"251013","182-VK","2019/10/14 19:39:14","新北市淡水區店子後9號","121.460111666667","25.21898","6501000","淡水區"
"251010","413-VK","2019/10/14 19:39:14","新北市淡水區崁頂三路117號","121.431606666667","25.2009016666667","6501000","淡水區"
"251007","442-VK","2019/10/14 19:39:15","新北市淡水區淡金路51-1號","121.456115","25.1609833333333","6501000","淡水區"
"251001","559-UM","2019/10/14 19:39:20","新北市淡水區民權路51號","121.459753333333","25.1390133333333","6501000","淡水區"
"251006","561-UM","2019/10/14 19:39:26","新北市淡水區中山北路一段207巷41號","121.442618333333","25.1790183333333","6501000","淡水區"
"251014","577-R6","2019/10/14 19:39:23","新北市淡水區北勢子14號","121.475991666667","25.2307366666667","6501000","淡水區"
"251011","650-BX","2019/10/14 19:39:19","新北市淡水區中正東路二段143巷2弄1號","121.460653333333","25.1471766666667","6501000","淡水區"
"207003","550-UM","2019/10/14 19:39:19","新北市萬里區大鵬里萬里加投287-2號","121.64567","25.21769","6502800","萬里區"
"207004","291-VK","2019/10/14 19:39:23","新北市萬里區萬里里瑪鋉路21號","121.68726","25.1753166666667","6502800","萬里區"
"252002","178-VK","2019/10/14 19:39:20","新北市三芝區中正路一段36巷25號","121.504105","25.2588183333333","6502100","三芝區"
"208001","170-UY","2019/10/14 19:39:30","新北市金山區重和里牛埔仔1-2號","121.606828333333","25.222785","6502700","金山區"
"237004","KEA-2597","2019/10/14 19:39:27","新北市三峽區有木2-2號","121.417328333333","24.8657466666667","6500900","三峽區"
"237007","153-BY","2019/10/14 19:39:23","新北市三峽區二鬮路136巷24弄1號","121.35589","24.9099616666667","6500900","三峽區"
"237009","210-TH","2019/10/14 19:39:22","新北市三峽區民權街147號","121.368663333333","24.9317066666667","6500900","三峽區"
"237013","252-BX","2019/10/14 19:39:16","新北市三峽區介壽路二段6巷2-1號","121.389503333333","24.9345783333333","6500900","三峽區"
"237012","275-BY","2019/10/14 19:39:15","新北市三峽區民生街3號","121.374615","24.9354033333333","6500900","三峽區"
"237008","302-VK","2019/10/14 19:39:26","新北市三峽區永安街214號","121.373128333333","24.9271033333333","6500900","三峽區"
"237014","433-BY","2019/10/14 19:39:23","新北市三峽區中山路63巷12號","121.366935","24.9342966666667","6500900","三峽區"
"237006","5529-G3","2019/10/14 19:39:20","新北市三峽區中正路一段336巷15弄2號","121.369983333333","24.9249616666667","6500900","三峽區"
"237011","KEA-2596","2019/10/14 19:39:20","新北市三峽區介壽路一段385-1號","121.388365","24.9341833333333","6500900","三峽區"
"237015","649-BX","2019/10/14 19:39:24","新北市三峽區成福路251巷5號","121.427225","24.9242933333333","6500900","三峽區"
"237010","706-TV","2019/10/14 19:39:14","新北市三峽區復興路130號","121.371993333333","24.938005","6500900","三峽區"
"237005","AKY-6261","2019/10/14 19:39:23","新北市三峽區中山路167號","121.36458","24.936475","6500900","三峽區"
"236042","KED-0685","2019/10/14 19:39:30","新北市土城區裕民路253號","121.454688333333","24.9830766666667","6501300","土城區"
"236078","166-UM","2019/10/14 19:39:13","新北市土城區中州路27巷81號","121.412663333333","24.9563466666667","6501300","土城區"
"236030","253-BX","2019/10/14 19:39:30","新北市土城區福祥街56號","121.441513333333","24.9813433333333","6501300","土城區"
"236039","271-VK","2019/10/14 19:39:14","新北市土城區清水路98巷3弄24號","121.45823","24.98082","6501300","土城區"
"236069","KEA-2877","2019/10/14 19:39:16","新北市土城區學士路62號","121.451036666667","24.9804633333333","6501300","土城區"
"252001","KED-0821","2019/10/14 19:39:12","新北市三芝區公正街66號","121.499831666667","25.257425","6502100","三芝區"
"236020","401-BY","2019/10/14 19:39:30","新北市土城區峰廷街3號","121.469063333333","24.9873166666667","6501300","土城區"
"236063","752-BX","2019/10/14 19:39:23","新北市土城區延平街19號","121.468218333333","24.9911633333333","6501300","土城區"
"236059","912-UM","2019/10/14 19:39:20","新北市土城區中央路二段5號","121.443041666667","24.980835","6501300","土城區"
"236048","913-UM","2019/10/14 19:39:14","新北市土城區明德路一段22號","121.465121666667","24.984985","6501300","土城區"
"236055","AAC-216","2019/10/14 19:39:21","新北市土城區學府路一段12號","121.459375","24.988445","6501300","土城區"
"242004","751-BX","2019/10/14 19:39:23","新北市新莊區化成路82號","121.465206666667","25.0438566666667","6500500","新莊區"
"242039","442-UM","2019/10/14 19:39:23","新北市新莊區建國二路108號","121.430845","25.0271783333333","6500500","新莊區"
"242017","173-VK","2019/10/14 19:39:21","新北市新莊區三和路12-21號","121.442006666667","25.038715","6500500","新莊區"
"242031","175-VK","2019/10/14 19:39:27","新北市新莊區新泰路209號","121.445621666667","25.038645","6500500","新莊區"
"238015","755-BX","2019/10/14 19:39:30","新北市樹林區中興街63-3號","121.42112","24.9914433333333","6500700","樹林區"
"238023","601-UM","2019/10/14 19:39:26","新北市樹林區三福街125巷2號","121.404921666667","25.0159266666667","6500700","樹林區"
"238019","599-UM","2019/10/14 19:39:11","新北市樹林區鎮前街323號","121.417188333333","24.9845833333333","6500700","樹林區"
"238024","5061-A6","2019/10/14 19:39:10","新北市樹林區福德街7號","121.401046666667","24.9756666666667","6500700","樹林區"
"238022","KEA-2213","2019/10/14 19:39:25","新北市樹林區名園街20號","121.419316666667","24.9792833333333","6500700","樹林區"
"238021","KEA-2539","2019/10/14 19:39:14","新北市樹林區佳園路三段147號","121.385795","24.9493783333333","6500700","樹林區"
"238025","303-VK","2019/10/14 19:39:16","新北市樹林區中山路一段112號","121.422863333333","24.9906283333333","6500700","樹林區"
"238017","283-BY","2019/10/14 19:39:28","新北市樹林區光興街11巷1號","121.412453333333","25.0028566666667","6500700","樹林區"
"238014","282-BY","2019/10/14 19:39:23","新北市樹林區千歲街28巷11號","121.425971666667","24.995705","6500700","樹林區"
"238020","268-VK","2019/10/14 19:39:12","新北市樹林區俊英街2號","121.43006","24.99893","6500700","樹林區"
"238026","172-UY","2019/10/14 19:39:32","新北市樹林區佳園路三段79號","121.387685","24.952585","6500700","樹林區"
"238016","169-UY","2019/10/14 19:39:26","新北市樹林區東和街31號","121.40213","24.9822416666667","6500700","樹林區"
"239007","AAC-297","2019/10/14 19:39:17","新北市鶯歌區中山路138巷3-10號","121.349628333333","24.9584983333333","6500800","鶯歌區"
"239006","891-R6","2019/10/14 19:39:32","新北市鶯歌區鶯桃路65-5號","121.340998333333","24.9526816666667","6500800","鶯歌區"
"239008","527-UM","2019/10/14 19:39:28","新北市鶯歌區大湖路560號","121.336961666667","24.9732733333333","6500800","鶯歌區"
"239005","526-UM","2019/10/14 19:39:13","新北市鶯歌區東湖路13號","121.352903333333","24.971915","6500800","鶯歌區"
"239001","417-VK","2019/10/14 19:39:14","新北市鶯歌區永安街19號","121.337898333333","24.9556366666667","6500800","鶯歌區"
"239003","360-BY","2019/10/14 19:39:22","新北市鶯歌區八德路37號","121.334318333333","24.9535766666667","6500800","鶯歌區"
"239002","359-BY","2019/10/14 19:39:18","新北市鶯歌區湖山路63巷1號","121.339505","24.97573","6500800","鶯歌區"
"239004","193-VK","2019/10/14 19:39:23","新北市鶯歌區鶯華新村24號","121.330211666667","24.934525","6500800","鶯歌區"
"221008","489-VK","2019/10/14 19:39:30","新北市汐止區康寧街145號","121.622065","25.0666416666667","6501100","汐止區"
"221010","269-BY","2019/10/14 19:39:25","新北市汐止區連峰街7號","121.646373333333","25.0772933333333","6501100","汐止區"
"221027","281-BY","2019/10/14 19:39:24","新北市汐止區忠孝東路9號","121.658268333333","25.065905","6501100","汐止區"
"221021","299-VK","2019/10/14 19:39:27","新北市汐止區連興街134號","121.653911666667","25.0616616666667","6501100","汐止區"
"221031","353-TW","2019/10/14 19:39:30","新北市汐止區康寧街901號","121.650778333333","25.075295","6501100","汐止區"
"221025","623-UM","2019/10/14 19:39:27","新北市汐止區福安街7號","121.662416666667","25.0653766666667","6501100","汐止區"
"221038","646-BX","2019/10/14 19:39:21","新北市汐止區忠孝東路248號","121.662868333333","25.0673816666667","6501100","汐止區"
"221033","647-BX","2019/10/14 19:39:30","新北市汐止區南勢街3號","121.6271","25.0373966666667","6501100","汐止區"
"220079","145-BY","2019/10/14 19:39:26","新北市板橋區公館街27號","121.461055","25.01529","6500100","板橋區"
"220082","610-BX","2019/10/14 19:39:24","新北市板橋區金門街24號","121.433275","24.9940266666667","6500100","板橋區"
"220075","256-TC","2019/10/14 19:39:24","新北市板橋區南雅西路二段301巷50弄25號","121.452456666667","25.01712","6500100","板橋區"
"224002","257-TC","2019/10/14 19:39:25","新北市瑞芳區三爪子坑路35號","121.813345","25.10749","6501200","瑞芳區"
"220056","276-BY","2019/10/14 19:39:20","新北市板橋區和平路25號","121.459525","24.99532","6500100","板橋區"
"220101","280-UM","2019/10/14 19:39:25","新北市板橋區莒光路200巷2號","121.474186666667","25.022195","6500100","板橋區"
"220071","283-VK","2019/10/14 19:39:15","新北市板橋區四川路一段325巷3弄5號","121.459406666667","25.0005466666667","6500100","板橋區"
"220094","285-UM","2019/10/14 19:35:58","新北市板橋區宏國路41號","121.468295","25.0317883333333","6500100","板橋區"
"220083","286-VK","2019/10/14 19:39:29","新北市板橋區龍興街71巷17號","121.443033333333","25.0021666666667","6500100","板橋區"
"220081","287-VK","2019/10/14 19:39:24","新北市板橋區大觀路一段29巷179弄32號","121.449951666667","25.0040316666667","6500100","板橋區"
"220090","288-VK","2019/10/14 19:39:30","新北市板橋區龍泉街54巷5號","121.456843333333","25.026605","6500100","板橋區"
"220061","293-UM","2019/10/14 19:39:21","新北市板橋區中山路一段265巷16號","121.468691666667","25.0146666666667","6500100","板橋區"
"220053","295-UM","2019/10/14 19:39:27","新北市板橋區民享街27號","121.475366666667","25.0146233333333","6500100","板橋區"
"220084","296-UM","2019/10/14 19:39:12","新北市板橋區滿平街84巷98號","121.426536666667","24.9867916666667","6500100","板橋區"
"242046","281-VK","2019/10/14 19:39:13","新北市樹林區三俊街172號","121.417743333333","25.015335","6500500","新莊區"
"220062","305-R5","2019/10/14 19:39:21","新北市板橋區三民路二段29巷31弄3號","121.481443333333","25.0177216666667","6500100","板橋區"
"220092","307-R5","2019/10/14 19:39:09","新北市板橋區四維路259巷67號","121.460741666667","25.0267866666667","6500100","板橋區"
"220098","317-R6","2019/10/14 19:39:23","新北市板橋區民生路三段263巷7號","121.463491666667","25.0290533333333","6500100","板橋區"
"220072","461-BY","2019/10/14 19:39:25","新北市板橋區金門街236號","121.430661666667","24.9873516666667","6500100","板橋區"
"220089","487-VK","2019/10/14 19:39:20","新北市板橋區新海路385巷10弄11號","121.458075","25.0264583333333","6500100","板橋區"
"220088","491-VK","2019/10/14 19:39:23","新北市板橋區仁化街88號","121.476283333333","25.0319566666667","6500100","板橋區"
"220035","560-BX","2019/10/14 19:39:15","新北市板橋區中正路413巷2弄2號","121.454001666667","25.0226966666667","6500100","板橋區"
"220103","561-BX","2019/10/14 19:39:23","新北市板橋區自由路40號","121.465678333333","25.0231816666667","6500100","板橋區"
"220080","568-UM","2019/10/14 19:39:24","新北市板橋區大觀路二段37巷282號","121.4498","25.0013016666667","6500100","板橋區"
"220063","609-BX","2019/10/14 19:39:26","新北市板橋區中山路二段497號","121.482691666667","25.0208683333333","6500100","板橋區"
"220091","637-BX","2019/10/14 19:39:28","新北市板橋區懷德街139巷20弄1號","121.480013333333","25.0307883333333","6500100","板橋區"
"220057","686-BX","2019/10/14 19:39:12","新北市板橋區信義路88號","121.457838333333","24.993105","6500100","板橋區"
"220077","687-BX","2019/10/14 19:39:31","新北市板橋區僑中二街88巷2號","121.446461666667","25.0094233333333","6500100","板橋區"
"220093","689-BX","2019/10/14 19:39:17","新北市板橋區長江路二段153號","121.466105","25.0318483333333","6500100","板橋區"
"220054","741-BX","2019/10/14 19:39:19","新北市板橋區四川路一段265號","121.459538333333","25.0022216666667","6500100","板橋區"
"220102","KEA-2699","2019/10/14 19:39:30","新北市板橋區松柏街39號","121.475451666667","25.030225","6500100","板橋區"
"220055","827-TW","2019/10/14 19:39:19","新北市板橋區國慶路149巷6號","121.461258333333","24.9968933333333","6500100","板橋區"
"220067","831-TW","2019/10/14 19:39:30","新北市板橋區長安街251巷40號","121.47184","25.011335","6500100","板橋區"
"220074","895-R6","2019/10/14 19:39:25","新北市板橋區福德街39號","121.456126666667","25.0086116666667","6500100","板橋區"
"220073","985-R7","2019/10/14 19:39:24","新北市板橋區中正路274號","121.45522","25.0197783333333","6500100","板橋區"
"220097","AAC-210","2019/10/14 19:39:28","新北市板橋區漢生西路56號","121.463025","25.01879","6500100","板橋區"
"220064","AAC-253","2019/10/14 19:39:24","新北市板橋區實踐路165號","121.46433","25.0038566666667","6500100","板橋區"
"235068","KEA-2873","2019/10/14 19:39:00","新北市中和區景平路624-1號","121.50029","24.997665","6500300","中和區"
"235061","KEA-2875","2019/10/14 19:39:13","新北市中和區民安街1號","121.480891666667","25.0009166666667","6500300","中和區"
