"lineid","car","time","location","longitude","latitude","cityid","cityname"
"234046","148-BY","2019/10/14 20:29:24","新北市新店區安興路112號","121.515068333333","24.977585","6500400","永和區"
"234081","298-R6","2019/10/14 20:29:11","新北市永和區福和路57巷14弄2號","121.52286","25.0070883333333","6500400","永和區"
"234038","336-UY","2019/10/14 20:29:28","新北市永和區民樂街31巷19弄1號","121.528598333333","25.0022583333333","6500400","永和區"
"234086","338-UY","2019/10/14 20:29:24","新北市永和區永和路二段326號","121.516251666667","25.0164616666667","6500400","永和區"
"234070","552-UM","2019/10/14 20:29:19","新北市永和區永亨路7號","121.519366666667","25.0057166666667","6500400","永和區"
"234017","745-BX","2019/10/14 20:29:22","新北市永和區仁愛路87號","121.513131666667","25.013145","6500400","永和區"
"234030","746-BX","2019/10/14 20:29:22","新北市新店區安興路137-1號","121.516185","24.9794833333333","6500400","永和區"
"234054","KEA-2590","2019/10/14 20:29:23","新北市永和區博愛街45巷25弄1號","121.519028333333","25.0168416666667","6500400","永和區"
"234061","AAD-866","2019/10/14 20:29:33","新北市永和區得和路45巷16弄4號","121.516173333333","25.0007983333333","6500400","永和區"
"234042","862-TW","2019/10/14 20:29:19","新北市永和區安樂路250號","121.51468","25.0035233333333","6500400","永和區"
"234050","863-TW","2019/10/14 20:29:16","新北市永和區環河西路二段93號","121.506558333333","25.0148616666667","6500400","永和區"
"249005","172-UM","2019/10/14 20:29:27","新北市八里區中山路三段275號","121.378986666667","25.138475","6502300","八里區"
"249001","173-UM","2019/10/14 20:29:25","新北市八里區下罟子1-16號","121.389778333333","25.1422066666667","6502300","八里區"
"249004","303-UY","2019/10/14 20:29:16","新北市八里區中山路一段129巷27號","121.413976666667","25.1585583333333","6502300","八里區"
"249002","305-UY","2019/10/14 20:29:09","新北市八里區龍米路二段32巷11號","121.449143333333","25.140355","6502300","八里區"
"249003","593-UM","2019/10/14 20:29:14","新北市八里區舊城路21號","121.399888333333","25.1469033333333","6502300","八里區"
"248002","678-BX","2019/10/14 20:29:25","新北市五股區新五路二段331號","121.443738333333","25.087315","6501500","五股區"
"234023","9380-KE","2019/10/14 20:29:24","新北市永和區博愛街32巷17-1號","121.518836666667","25.015285","6500400","永和區"
"234074","AAC-211","2019/10/14 20:29:29","新北市永和區豫溪街191巷7弄22號","121.523246666667","25.011075","6500400","永和區"
"234067","AAC-212","2019/10/14 20:29:25","新北市永和區保平路292巷46弄2號","121.507491666667","25.0053583333333","6500400","永和區"
"234003","AAC-295","2019/10/14 20:29:27","新北市永和區中正路618號","121.517091666667","25.0077216666667","6500400","永和區"
"243012","AAD-798","2019/10/14 20:29:21","新北市泰山區楓江路24號","121.43413","25.0623266666667","6501600","泰山區"
"243014","KEA-2801","2019/10/14 20:29:18","新北市泰山區泰林路二段455號","121.425666666667","25.0640333333333","6501600","泰山區"
"243016","421-VK","2019/10/14 20:29:31","新北市泰山區文程路30號","121.42901","25.0490483333333","6501600","泰山區"
"243009","KEA-2215","2019/10/14 20:29:18","新北市泰山區忠孝街42巷2號","121.428718333333","25.0654383333333","6501600","泰山區"
"243011","KEA-2216","2019/10/14 20:29:22","新北市泰山區漢口街50號","121.424313333333","25.0362266666667","6501600","泰山區"
"243013","646-TV","2019/10/14 20:29:20","新北市泰山區中央路5巷46號","121.428425","25.0427666666667","6501600","泰山區"
"243015","680-BX","2019/10/14 20:29:31","新北市泰山區仁德路84號","121.433073333333","25.0564516666667","6501600","泰山區"
"222003","436-BY","2019/10/14 20:29:28","新北市深坑區深坑街42號","121.615058333333","25.001765","6501800","深坑區"
"222002","659-BX","2019/10/14 20:29:13","新北市深坑區萬福路16巷36-1號","121.610738333333","25.0080483333333","6501800","深坑區"
"231061","002-UM","2019/10/14 20:29:14","新北市新店區安興路33-1號","121.51582","24.97046","6500600","新店區"
"231058","0293-UT","2019/10/14 20:29:19","新北市新店區中央路15號","121.533351666667","24.9783333333333","6500600","新店區"
"231044","046-UY","2019/10/14 20:29:30","新北市新店區建國路151號","121.53881","24.9788066666667","6500600","新店區"
"231060","106-UY","2019/10/14 20:29:15","新北市新店區錦秀路11巷92弄1號","121.480275","24.9426616666667","6500600","新店區"
"231051","107-UY","2019/10/14 20:29:28","新北市新店區中央七街49號","121.528608333333","24.97592","6500600","新店區"
"231049","108-UY","2019/10/14 20:28:56","新北市新店區永業路62號","121.53188","24.9531916666667","6500600","新店區"
"231065","110-UY","2019/10/14 20:29:23","新北市新店區安祥路102巷46弄48號","121.486361666667","24.9635016666667","6500600","新店區"
"231068","187-VK","2019/10/14 20:29:15","新北市新店區民權路7號","121.542675","24.9828733333333","6500600","新店區"
"231062","256-BX","2019/10/14 20:29:14","新北市新店區安泰路60巷21號","121.483581666667","24.94648","6500600","新店區"
"231054","260-TV","2019/10/14 20:29:18","新北市新店區檳榔路113號","121.544615","24.961495","6500600","新店區"
"231042","268-BY","2019/10/14 20:29:17","新北市新店區寶橋路174號","121.549286666667","24.977455","6500600","新店區"
"231064","278-BY","2019/10/14 20:29:13","新北市新店區新和街59巷17號","121.51924","24.9859666666667","6500600","新店區"
"231050","AAD-862","2019/10/14 20:29:20","新北市新店區建興街9巷11號","121.53986","24.9762066666667","6500600","新店區"
"231045","355-BY","2019/10/14 20:29:26","新北市新店區新坡一街46號","121.5494","24.9626633333333","6500600","新店區"
"231055","4716-K9","2019/10/14 20:29:22","新北市新店區光明街147號","121.539371666667","24.9622883333333","6500600","新店區"
"231056","4715-K9","2019/10/14 20:29:22","新北市新店區中央六街36號","121.52883","24.97529","6500600","新店區"
"231067","4772-VM","2019/10/14 20:29:30","新北市新店區安華路28-1號","121.519835","24.960595","6500600","新店區"
"231052","512-UM","2019/10/14 20:29:15","新北市新店區松林路36號","121.546206666667","24.91026","6500600","新店區"
"231040","617-UM","2019/10/14 20:29:19","新北市新店區三民路119號","121.53488","24.97231","6500600","新店區"
"231041","619-UM","2019/10/14 20:29:24","新北市新店區民權路101號","121.536826666667","24.9827683333333","6500600","新店區"
"231063","641-BX","2019/10/14 20:29:12","新北市新店區玫瑰路4-1號","121.493593333333","24.9513533333333","6500600","新店區"
"231047","KED-0819","2019/10/14 20:29:18","新北市新店區寶元路一段65號","121.542183333333","24.9858283333333","6500600","新店區"
"231057","720-UM","2019/10/14 20:29:31","新北市新店區花園十路二段2號","121.555468333333","24.9334916666667","6500600","新店區"
"231059","897-TW","2019/10/14 20:29:29","新北市新店區安德街116巷36號","121.50856","24.96116","6500600","新店區"
"231043","899-TW","2019/10/14 20:29:30","新北市新店區民族路26號","121.540733333333","24.9787466666667","6500600","新店區"
"231066","AKT-0513","2019/10/14 20:29:25","新北市新店區安民街315號","121.517511666667","24.9742116666667","6500600","新店區"
"241011","013-R5","2019/10/14 20:29:18","新北市三重區龍門路89號","121.49721","25.072575","6500200","三重區"
"241028","022-UY","2019/10/14 20:29:17","新北市三重區光興街91號","121.497423333333","25.059915","6500200","三重區"
"241008","059-VK","2019/10/14 20:29:27","新北市三重區下竹圍街91號","121.481105","25.0749066666667","6500200","三重區"
"241002","060-VK","2019/10/14 20:29:10","新北市三重區仁義街211巷51號","121.498131666667","25.082585","6500200","三重區"
"241031","061-VK","2019/10/14 20:29:14","新北市三重區三寧街15號","121.489478333333","25.0598516666667","6500200","三重區"
"241017","063-VK","2019/10/14 20:29:21","新北市三重區自強路一段288號","121.49168","25.0681966666667","6500200","三重區"
"241024","065-VK","2019/10/14 20:29:15","新北市三重區忠孝路三段15巷21號","121.480913333333","25.067695","6500200","三重區"
"241007","066-VK","2019/10/14 20:29:10","新北市三重區溪尾街108巷10號","121.489041666667","25.0786433333333","6500200","三重區"
"241015","742-BX","2019/10/14 20:29:22","新北市三重區文化北路41-2號","121.499053333333","25.0653016666667","6500200","三重區"
"241006","262-UM","2019/10/14 20:29:24","新北市三重區車路頭街135-1號","121.484256666667","25.0761766666667","6500200","三重區"
"241016","266-UM","2019/10/14 20:29:14","新北市三重區正義北路190巷12號","121.496031666667","25.06663","6500200","三重區"
"241009","267-UM","2019/10/14 20:29:09","新北市三重區永福街23號","121.481691666667","25.0781216666667","6500200","三重區"
"241018","268-UM","2019/10/14 20:29:20","新北市三重區正義北路220號","121.496271666667","25.06753","6500200","三重區"
"241032","269-UM","2019/10/14 20:29:30","新北市三重區重陽路一段120巷44號","121.48512","25.060125","6500200","三重區"
"241013","270-UM","2019/10/14 20:29:29","新北市三重區三和路四段1號","121.491653333333","25.074165","6500200","三重區"
"241025","271-UM","2019/10/14 20:29:20","新北市三重區頂崁街210巷36號","121.475783333333","25.0678766666667","6500200","三重區"
"241030","KED-0822","2019/10/14 20:29:25","新北市三重區成功路62號","121.488621666667","25.0508783333333","6500200","三重區"
"241035","462-BY","2019/10/14 20:29:25","新北市三重區正義北路110號","121.496983333333","25.0651466666667","6500200","三重區"
"241004","475-VK","2019/10/14 20:29:21","新北市三重區溪尾街200號","121.48826","25.0810733333333","6500200","三重區"
"241020","478-VK","2019/10/14 20:29:17","新北市三重區忠孝路一段2號","121.492651666667","25.071695","6500200","三重區"
"241026","480-VK","2019/10/14 20:29:16","新北市三重區福德南路24巷13號","121.503373333333","25.0630666666667","6500200","三重區"
"241014","543-UM","2019/10/14 20:29:17","新北市三重區長壽街120巷23號","121.502358333333","25.0693333333333","6500200","三重區"
"241023","545-UM","2019/10/14 20:29:16","新北市三重區自由街17巷1號","121.479886666667","25.0665866666667","6500200","三重區"
"241001","547-UM","2019/10/14 20:29:27","新北市三重區福隆路15號","121.489791666667","25.07713","6500200","三重區"
"241019","KEA-2593","2019/10/14 20:29:26","新北市三重區重陽路四段124號","121.49245","25.0710016666667","6500200","三重區"
"241005","AAD-863","2019/10/14 20:29:21","新北市三重區碧華街347號","121.491918333333","25.084925","6500200","三重區"
"241012","743-BX","2019/10/14 20:29:16","新北市三重區龍濱路287號","121.50082","25.0736583333333","6500200","三重區"
"241022","KED-0820","2019/10/14 20:29:09","新北市三重區中正北路20巷9號","121.488055","25.0630233333333","6500200","三重區"
"241003","887-TS","2019/10/14 20:29:26","新北市三重區富華街89號","121.491961666667","25.0840633333333","6500200","三重區"
"241029","942-UM","2019/10/14 20:29:25","新北市三重區集美街225號","121.49199","25.0551483333333","6500200","三重區"
"241033","AAC-255","2019/10/14 20:29:17","新北市三重區五谷王北街80巷60號","121.474693333333","25.0526333333333","6500200","三重區"
"235066","003-UY","2019/10/14 20:29:16","新北市中和區保平路340巷18號","121.50603","25.004505","6500300","中和區"
"235055","183-VK","2019/10/14 20:29:20","新北市林口區太平里180號","121.36832","25.1344383333333","6500300","中和區"
"247016","KEA-2869","2019/10/14 20:29:20","新北市蘆洲區光華路89號","121.467606666667","25.0825133333333","6501400","蘆洲區"
"247010","KED-0682","2019/10/14 20:29:21","新北市蘆洲區信義路218號","121.479046666667","25.0851966666667","6501400","蘆洲區"
"235050","4979-A6","2019/10/14 20:29:27","新北市中和區景新街160巷12號","121.505085","24.996825","6500300","中和區"
"235069","4980-A6","2019/10/14 20:29:20","新北市中和區中正路424號","121.491733333333","24.994175","6500300","中和區"
"235059","AAC-215","2019/10/14 20:29:25","新北市中和區員山路31-10號","121.481521666667","24.9887366666667","6500300","中和區"
"247006","893-R6","2019/10/14 20:29:27","新北市蘆洲區九芎街111號","121.465631666667","25.07963","6501400","蘆洲區"
"247020","341-TH","2019/10/14 20:29:25","新北市蘆洲區水湳街375巷1號","121.469316666667","25.093895","6501400","蘆洲區"
"247012","337-TH","2019/10/14 20:29:19","新北市蘆洲區復興路280號","121.480583333333","25.0898066666667","6501400","蘆洲區"
"247004","336-TH","2019/10/14 20:29:14","新北市蘆洲區長安街222號","121.45816","25.08492","6501400","蘆洲區"
"247024","057-VK","2019/10/14 20:29:19","新北市蘆洲區長興路50巷16號","121.464921666667","25.0847116666667","6501400","蘆洲區"
"247014","056-VK","2019/10/14 20:29:18","新北市蘆洲區和平路72號","121.469768333333","25.0790433333333","6501400","蘆洲區"
"247018","053-VK","2019/10/14 20:29:13","新北市蘆洲區民族路314巷3弄13號","121.476926666667","25.0906233333333","6501400","蘆洲區"
"247022","007-UY","2019/10/14 20:29:15","新北市蘆洲區中正路194號","121.466835","25.0881016666667","6501400","蘆洲區"
"247008","002-UY","2019/10/14 20:29:31","新北市蘆洲區永安北路二段76巷8號","121.48323","25.0850166666667","6501400","蘆洲區"
"247002","001-UY","2019/10/14 20:29:26","新北市蘆洲區長安街361巷16號","121.456408333333","25.08751","6501400","蘆洲區"
"222001","KEA-2212","2019/10/14 20:29:11","新北市深坑區北深路三段329號","121.597213333333","25.0050066666667","6501800","深坑區"
"251002","012-UM","2019/10/14 20:29:19","新北市淡水區中正路63號","121.441565","25.1694933333333","6501000","淡水區"
"251015","KEA-2871","2019/10/14 20:29:11","新北市淡水區埤島80-2號","121.449176666667","25.1893566666667","6501000","淡水區"
"251016","179-VK","2019/10/14 20:29:24","新北市淡水區新埔子11-11號","121.44705","25.2287366666667","6501000","淡水區"
"251008","181-VK","2019/10/14 20:29:27","新北市淡水區淡海路206巷20號","121.421453333333","25.1855316666667","6501000","淡水區"
"251013","182-VK","2019/10/14 20:29:13","新北市淡水區後坑子7號","121.46398","25.2057216666667","6501000","淡水區"
"251010","413-VK","2019/10/14 20:29:14","新北市淡水區沙崙路200號","121.424791666667","25.18406","6501000","淡水區"
"251012","443-VK","2019/10/14 20:29:21","新北市淡水區頂田寮路17號","121.454343333333","25.2165883333333","6501000","淡水區"
"251001","559-UM","2019/10/14 20:29:20","新北市淡水區中山北路一段382號","121.44481","25.182915","6501000","淡水區"
"251006","561-UM","2019/10/14 20:29:26","新北市淡水區商工路393號","121.474205","25.1848216666667","6501000","淡水區"
"251014","577-R6","2019/10/14 20:29:23","新北市淡水區石頭厝9-6號","121.460425","25.2375616666667","6501000","淡水區"
"251003","673-BX","2019/10/14 20:29:27","新北市淡水區新生街29號","121.439495","25.1750516666667","6501000","淡水區"
"207004","291-VK","2019/10/14 20:29:23","新北市萬里區北基里忠二街15號","121.685171666667","25.1752666666667","6502800","萬里區"
"252002","178-VK","2019/10/14 20:29:20","新北市三芝區淡金路二段47-2號","121.503693333333","25.2605383333333","6502100","三芝區"
"236069","KEA-2877","2019/10/14 20:29:16","新北市土城區福安街106號","121.417356666667","24.9638816666667","6501300","土城區"
"252001","KED-0821","2019/10/14 20:29:12","新北市三芝區中山路一段37號","121.500703333333","25.2579066666667","6502100","三芝區"
"236020","401-BY","2019/10/14 20:29:10","新北市土城區中華路二段2號","121.439408333333","24.979635","6501300","土城區"
"242060","986-R7","2019/10/14 20:29:24","新北市新莊區民安東路152號","121.431595","25.02058","6500500","新莊區"
"242004","751-BX","2019/10/14 20:29:23","新北市新莊區頭前路15巷14號","121.467993333333","25.051715","6500500","新莊區"
"242029","615-BX","2019/10/14 20:29:30","新北市新莊區中華路二段157號","121.452918333333","25.0515683333333","6500500","新莊區"
"242027","613-BX","2019/10/14 20:29:25","新北市新莊區幸福路589號","121.453633333333","25.0492033333333","6500500","新莊區"
"242058","612-BX","2019/10/14 20:29:26","新北市新莊區四維路169號","121.422421666667","25.0215666666667","6500500","新莊區"
"242048","566-BX","2019/10/14 20:29:10","新北市新莊區四維路297號","121.421168333333","25.0196883333333","6500500","新莊區"
"242053","497-BY","2019/10/14 20:29:14","新北市新莊區民安西路229巷12號","121.426766666667","25.01419","6500500","新莊區"
"242039","442-UM","2019/10/14 20:29:23","新北市新莊區民安路296號","121.428131666667","25.021755","6500500","新莊區"
"242002","441-UM","2019/10/14 20:29:21","新北市新莊區中正路147-18號","121.457078333333","25.0370333333333","6500500","新莊區"
"242007","440-UM","2019/10/14 20:29:29","新北市新莊區福壽街124巷14號","121.458568333333","25.0512733333333","6500500","新莊區"
"242044","415-TV","2019/10/14 20:29:20","新北市新莊區中正路新建巷43號","121.414523333333","25.0217416666667","6500500","新莊區"
"242013","413-TV","2019/10/14 20:29:30","新北市新莊區中和街186巷2弄2號","121.447635","25.0497433333333","6500500","新莊區"
"242050","400-BY","2019/10/14 20:29:23","新北市新莊區民安西路263號","121.426113333333","25.013035","6500500","新莊區"
"242025","362-BY","2019/10/14 20:29:14","新北市新莊區五工二路57號","121.460488333333","25.06545","6500500","新莊區"
"242023","353-BY","2019/10/14 20:29:29","新北市新莊區化成路812號","121.465111666667","25.0596266666667","6500500","新莊區"
"242015","132-UY","2019/10/14 20:29:14","新北市新莊區永樂街239巷15號","121.446078333333","25.043835","6500500","新莊區"
"242056","172-VK","2019/10/14 20:29:14","新北市新莊區新莊路751巷49號","121.442765","25.0314983333333","6500500","新莊區"
"242017","173-VK","2019/10/14 20:29:21","新北市新莊區中港二街141號","121.448186666667","25.04554","6500500","新莊區"
"242031","175-VK","2019/10/14 20:29:27","新北市新莊區三和路60-23號","121.437398333333","25.03908","6500500","新莊區"
"242021","KED-0687","2019/10/14 20:29:17","新北市新莊區公園路12號","121.447945","25.0388","6500500","新莊區"
"242042","346-TH","2019/10/14 20:29:30","新北市新莊區壽山路162號","121.415566666667","25.030685","6500500","新莊區"
"242036","347-TH","2019/10/14 20:29:12","新北市新莊區後港一路76巷14弄2號","121.427341666667","25.0256616666667","6500500","新莊區"
"242009","349-TH","2019/10/14 20:29:27","新北市新莊區昌盛街81巷2弄1號","121.455526666667","25.0503566666667","6500500","新莊區"
"242034","350-TH","2019/10/14 20:29:18","新北市新莊區公園一路146號","121.446641666667","25.0383","6500500","新莊區"
"242019","351-TH","2019/10/14 20:29:19","新北市新莊區民樂街79號","121.457923333333","25.0428966666667","6500500","新莊區"
"221008","489-VK","2019/10/14 20:29:22","新北市汐止區康寧街65號","121.618795","25.0666333333333","6501100","汐止區"
"221036","130-UY","2019/10/14 20:29:19","新北市汐止區福安街37巷12號","121.66345","25.0650666666667","6501100","汐止區"
"221015","131-UY","2019/10/14 20:29:19","新北市汐止區建成路160巷16號","121.661928333333","25.0739466666667","6501100","汐止區"
"221010","269-BY","2019/10/14 20:29:25","新北市汐止區八連路二段163號","121.63396","25.0953316666667","6501100","汐止區"
"221012","278-VK","2019/10/14 20:29:21","新北市汐止區汐平路二段70號","121.699083333333","25.0608283333333","6501100","汐止區"
"221023","279-VK","2019/10/14 20:29:29","新北市汐止區明峰街190號","121.62815","25.06961","6501100","汐止區"
"221032","280-BY","2019/10/14 20:29:23","新北市汐止區民權街二段43號","121.61943","25.0492433333333","6501100","汐止區"
"221027","281-BY","2019/10/14 20:29:24","新北市汐止區中正路214號","121.658195","25.06889","6501100","汐止區"
"221029","298-VK","2019/10/14 20:29:20","新北市汐止區樟樹一路129巷31號","121.64053","25.0650433333333","6501100","汐止區"
"221021","299-VK","2019/10/14 20:29:27","新北市汐止區水源路一段293號","121.654403333333","25.05824","6501100","汐止區"
"221031","353-TW","2019/10/14 20:29:10","新北市汐止區中興路150巷13號","121.632935","25.0649","6501100","汐止區"
"221035","622-UM","2019/10/14 20:29:23","新北市汐止區長江街79巷16號","121.65787","25.0729516666667","6501100","汐止區"
"221025","623-UM","2019/10/14 20:29:27","新北市汐止區水源路二段90號","121.65646","25.0560466666667","6501100","汐止區"
"221038","646-BX","2019/10/14 20:29:21","新北市汐止區水源路一段56-1號","121.65714","25.06539","6501100","汐止區"
"221033","647-BX","2019/10/14 20:29:30","新北市汐止區林森街73巷5號","121.623511666667","25.0409216666667","6501100","汐止區"
"221002","707-TV","2019/10/14 20:29:13","新北市汐止區福德二路49號","121.634241666667","25.0672666666667","6501100","汐止區"
"221018","753-BX","2019/10/14 20:27:44","新北市汐止區茄苳路225巷11弄4號","121.67142","25.0693916666667","6501100","汐止區"
"224002","257-TC","2019/10/14 20:29:19","新北市瑞芳區東和路11號","121.804691666667","25.1061233333333","6501200","瑞芳區"
"220083","286-VK","2019/10/14 20:29:29","新北市板橋區僑中二街102巷10號","121.445646666667","25.0084083333333","6500100","板橋區"
"220081","287-VK","2019/10/14 20:29:24","新北市板橋區僑中一街80巷8號","121.447935","25.0123283333333","6500100","板橋區"
"220084","296-UM","2019/10/14 20:29:12","新北市五股區新城一路12號","121.441046666667","25.082875","6500100","板橋區"
"242046","281-VK","2019/10/14 20:29:13","新北市新莊區裕民街90巷13號","121.41788","25.023735","6500500","新莊區"
"242011","280-VK","2019/10/14 20:29:25","新北市新莊區幸福路678巷3弄7號","121.45021","25.0500066666667","6500500","新莊區"
"235068","KEA-2873","2019/10/14 20:29:30","新北市中和區福祥路77號","121.499195","25.0055716666667","6500300","中和區"
