"lineid","car","time","location","longitude","latitude","cityid","cityname"
"244002","248-BX","2019/10/15 07:39:16","新北市林口區下福里7號","121.322571666667","25.0968316666667","6501700","林口區"
"222005","289-BY","2019/10/15 07:39:33","新北市深坑區文化街39巷13號","121.619085","25.0010733333333","6501800","深坑區"
"231009","192-VK","2019/10/15 07:39:21","新北市新店區安一路一段1-1號","121.51972","24.9614216666667","6500600","新店區"
"226005","5620-A6","2019/10/15 07:39:30","新北市平溪區嶺腳里中華街40號","121.739106666667","25.02524","6502400","平溪區"
"226002","APG-9813","2019/10/15 07:39:25","新北市平溪區平湖里大厝6號","121.779138333333","25.03963","6502400","平溪區"
"226006","AGD-0702","2019/10/15 07:39:23","新北市平溪區新寮里頂寮子4號","121.773736666667","25.0518666666667","6502400","平溪區"
"223003","205-TH","2019/10/15 07:39:24","新北市石碇區烏塗窟8號","121.655905","24.9750566666667","6501900","石碇區"
"223008","406-TH","2019/10/15 07:35:46","新北市石碇區靜安路一段337號","121.69887","25.014615","6501900","石碇區"
"223001","592-UM","2019/10/15 07:39:19","新北市石碇區烏塗窟8號","121.655891666667","24.975025","6501900","石碇區"
"223004","660-BX","2019/10/15 07:39:22","新北市石碇區八分寮35-1號","121.64499","25.01579","6501900","石碇區"
"223007","661-BX","2019/10/15 07:39:25","新北市石碇區靜安路一段337號","121.69886","25.0144433333333","6501900","石碇區"
"227004","282-VK","2019/10/15 07:39:27","新北市雙溪區雙溪里太平路56號","121.864846666667","25.0356066666667","6502500","雙溪區"
"252004","249-BX","2019/10/15 07:39:15","新北市三芝區興華里車埕1號","121.501255","25.2029583333333","6502100","三芝區"
"252007","AAC-283","2019/10/15 07:39:28","新北市三芝區古庄里四棧橋41號","121.482223333333","25.263945","6502100","三芝區"
"237014","760-BX","2019/10/15 07:39:16","新北市三峽區三層坪路13-2號","121.436023333333","24.9063533333333","6500900","三峽區"
