"lineid","car","time","location","longitude","latitude","cityid","cityname"
"244004","248-BX","2019/06/28 07:59:33","新北市林口區下福里153-1號","121.30112","25.115865","6501700","林口區"
"222005","289-BY","2019/06/28 07:59:41","新北市深坑區文化街102號","121.61678","25.00194","6501800","深坑區"
"231009","512-UM","2019/06/28 07:56:04","新北市新店區安康路一段222-3號","121.522548333333","24.9637416666667","6500600","新店區"
"231007","719-UM","2019/06/28 07:59:23","新北市新店區安康路一段293號","121.522618333333","24.9636966666667","6500600","新店區"
"226001","7418-A5","2019/06/28 07:59:23","新北市平溪區南山里南山坪136號","121.782976666667","25.0464766666667","6502400","平溪區"
"226006","AGD-0702","2019/06/28 07:59:36","新北市平溪區十分里十分街57號","121.775426666667","25.0416583333333","6502400","平溪區"
"223003","205-TH","2019/06/28 07:55:45","新北市石碇區樟空子10-2號","121.66696","24.9621966666667","6501900","石碇區"
"223001","592-UM","2019/06/28 07:59:36","新北市石碇區樟空子10-2號","121.666948333333","24.9623333333333","6501900","石碇區"
"223004","660-BX","2019/06/28 07:59:30","新北市深坑區文山路一段10號","121.64302","25.0087","6501900","石碇區"
"223007","661-BX","2019/06/28 07:37:15","新北市石碇區靜安路一段337號","121.698873333333","25.0144483333333","6501900","石碇區"
"223005","677-TV","2019/06/28 07:59:21","新北市石碇區楓子林1-2號","121.642483333333","25.00893","6501900","石碇區"
"227003","282-VK","2019/06/28 07:59:29","新北市雙溪區平林里梅竹蹊16號","121.861983333333","25.0360266666667","6502500","雙溪區"
"237014","760-BX","2019/06/28 07:59:22","新北市三峽區竹崙路156巷10號","121.431841666667","24.9018983333333","6500900","三峽區"
"226005","ANY-2373","2019/06/28 07:59:33","新北市平溪區靜安路二段551號","121.748838333333","25.0245766666667","6502400","平溪區"
