"lineid","car","time","location","longitude","latitude","cityid","cityname"
"222005","289-BY","2019/06/28 09:39:41","新北市深坑區北深路一段278巷32號","121.628248333333","25.01307","6501800","深坑區"
"231009","512-UM","2019/06/28 09:37:27","新北市新店區平廣路一段310巷2號","121.503291666667","24.8844533333333","6500600","新店區"
"223001","592-UM","2019/06/28 09:39:36","新北市石碇區北宜路四段6號","121.613413333333","24.95968","6501900","石碇區"
"227003","282-VK","2019/06/28 09:36:29","新北市雙溪區泰平里溪尾寮2-2號","121.81908","24.9644883333333","6502500","雙溪區"
"237014","760-BX","2019/06/28 09:39:42","新北市三峽區成福路6巷11號","121.415711666667","24.9269283333333","6500900","三峽區"
