"lineid","car","time","location","longitude","latitude","cityid","cityname"
"234025","9371-KE","2019/06/28 14:59:42","新北市永和區水源街27巷9號","121.511281666667","25.0040066666667","6500400","永和區"
"248019","KED-0813","2019/06/28 14:59:30","新北市五股區中直路53-2號","121.41924","25.11736","6501500","五股區"
"244004","248-BX","2019/06/28 14:59:33","新北市林口區林口路76號","121.389688333333","25.080675","6501700","林口區"
"231030","002-UM","2019/06/28 14:59:31","新北市新店區安民街365巷1弄8號","121.51623","24.9749916666667","6500600","新店區"
"231028","046-UY","2019/06/28 14:59:32","新北市新店區安德街173號","121.508748333333","24.9589633333333","6500600","新店區"
"231029","106-UY","2019/06/28 14:59:41","新北市新店區錦秀路1-3號","121.479015","24.9454983333333","6500600","新店區"
"231018","107-UY","2019/06/28 14:59:39","新北市新店區中央六街12號","121.53003","24.9745983333333","6500600","新店區"
"231013","108-UY","2019/06/28 14:59:31","新北市新店區溪洲路55號","121.533436666667","24.960565","6500600","新店區"
"231039","187-VK","2019/06/28 14:59:35","新北市新店區寶興路42巷37號","121.547621666667","24.9719266666667","6500600","新店區"
"231036","KEA-2219","2019/06/28 14:59:40","新北市新店區安祥路102巷46弄2號","121.485201666667","24.9639033333333","6500600","新店區"
"231023","260-TV","2019/06/28 14:59:42","新北市新店區檳榔路109號","121.544396666667","24.9617433333333","6500600","新店區"
"231003","268-BY","2019/06/28 14:59:41","新北市新店區五峰路57-1號","121.547261666667","24.971115","6500600","新店區"
"231035","278-BY","2019/06/28 14:59:37","新北市新店區安和路三段29-3號","121.517443333333","24.9811866666667","6500600","新店區"
"231016","AAD-862","2019/06/28 14:59:43","新北市新店區北宜路三段214號","121.590151666667","24.9522716666667","6500600","新店區"
"231006","355-BY","2019/06/28 14:59:38","新北市新店區北宜路一段20號","121.538123333333","24.95718","6500600","新店區"
"231038","3713-VJ","2019/06/28 14:59:45","新北市新店區安華路28-1號","121.519575","24.960775","6500600","新店區"
"231024","4716-K9","2019/06/28 14:59:32","新北市新店區中華路83巷67號","121.538338333333","24.9673016666667","6500600","新店區"
"231025","4715-K9","2019/06/28 14:59:37","新北市新店區二十張路33巷16號","121.538916666667","24.981005","6500600","新店區"
"231022","513-UM","2019/06/28 14:59:35","新北市新店區桂山路73-1號","121.566191666667","24.9008983333333","6500600","新店區"
"231002","619-UM","2019/06/28 14:59:38","新北市新店區民權路117號","121.535981666667","24.98282","6500600","新店區"
"231034","641-BX","2019/06/28 14:59:42","新北市新店區玫瑰路4-1號","121.493646666667","24.9514133333333","6500600","新店區"
"231012","KED-0819","2019/06/28 14:59:31","新北市新店區寶橋路132號","121.547328333333","24.97609","6500600","新店區"
"231032","718-UY","2019/06/28 14:59:35","新北市新店區安泰路60巷1號","121.484051666667","24.9467766666667","6500600","新店區"
"231026","720-UM","2019/06/28 14:59:38","新北市新店區中正路146號","121.541761666667","24.9715283333333","6500600","新店區"
"231005","897-TW","2019/06/28 14:59:28","新北市新店區復興路51-8號","121.53655","24.987135","6500600","新店區"
"231001","898-TW","2019/06/28 14:59:36","新北市新店區中正路261號","121.538755","24.9735833333333","6500600","新店區"
"231004","899-TW","2019/06/28 14:59:28","新北市新店區民族路39號","121.540675","24.9786816666667","6500600","新店區"
"231037","AKT-0513","2019/06/28 14:59:43","新北市新店區安民街133巷7號","121.51614","24.969195","6500600","新店區"
"241011","013-R5","2019/06/28 14:59:38","新北市三重區重新路四段121號","121.48525","25.0520666666667","6500200","三重區"
"235030","003-UY","2019/06/28 14:59:26","新北市永和區保平路292巷42號","121.507576666667","25.005195","6500300","中和區"
"235020","096-UM","2019/06/28 14:59:31","新北市中和區漢民路401號","121.472265","25.007165","6500300","中和區"
"235003","097-UM","2019/06/28 14:59:41","新北市中和區安平路38號","121.509738333333","24.994985","6500300","中和區"
"235029","098-UM","2019/06/28 14:59:38","新北市中和區永和路67-2號","121.496516666667","25.0054933333333","6500300","中和區"
"235004","150-BY","2019/06/28 14:59:40","新北市中和區保健路10巷20-3號","121.507775","24.99672","6500300","中和區"
"235031","255-BX","2019/06/28 14:59:29","新北市五股區成泰路三段436號","121.452121666667","25.0995316666667","6500300","中和區"
"235036","301-VK","2019/06/28 14:59:42","新北市中和區連城路89巷1號","121.496635","25.0001083333333","6500300","中和區"
"235007","352-BY","2019/06/28 14:59:32","新北市中和區興南路二段159巷12號","121.50524","24.9830883333333","6500300","中和區"
"235014","4979-A6","2019/06/28 14:59:38","新北市中和區景平路155巷2弄2號","121.513238333333","24.9919083333333","6500300","中和區"
"235034","558-UM","2019/06/28 14:59:39","新北市中和區中正路252號","121.495658333333","24.9939633333333","6500300","中和區"
"235009","565-BX","2019/06/28 14:59:41","新北市中和區中正路456號","121.490753333333","24.9940716666667","6500300","中和區"
"235010","733-UM","2019/06/28 14:59:32","新北市中和區忠孝街31巷41號","121.509803333333","24.9850783333333","6500300","中和區"
"235035","783-BX","2019/06/28 14:59:37","新北市中和區中正路772號","121.485326666667","24.9999733333333","6500300","中和區"
"235012","896-TW","2019/06/28 14:59:27","新北市中和區忠孝街1巷2-1號","121.509083333333","24.9830233333333","6500300","中和區"
"235015","157-BY","2019/06/28 14:59:40","新北市中和區中正路406號","121.492446666667","24.9942666666667","6500300","中和區"
"235001","AAC-213","2019/06/28 14:59:42","新北市中和區立人街1號","121.521918333333","24.993865","6500300","中和區"
"235023","AAC-215","2019/06/28 14:59:29","新北市中和區圓通路335巷3弄2號","121.49253","24.9900633333333","6500300","中和區"
"220013","072-UY","2019/06/28 14:59:30","新北市板橋區民族路61號","121.464876666667","25.0086666666667","6500100","板橋區"
"220034","073-UY","2019/06/28 14:59:44","新北市板橋區南雅西路二段4號","121.453623333333","25.009085","6500100","板橋區"
"220105","075-UY","2019/06/28 14:59:35","新北市板橋區文聖街58號","121.476701666667","25.0310333333333","6500100","板橋區"
"220017","AAD-861","2019/06/28 14:59:33","新北市板橋區大明街25巷2弄19號","121.457433333333","25.002385","6500100","板橋區"
"220016","120-SR","2019/06/28 14:59:40","新北市板橋區光復街230號","121.484745","25.0213466666667","6500100","板橋區"
"208001","AAC-292","2019/06/28 14:59:40","新北市新店區太平路28巷5號","121.533641666667","24.959345","6502700","金山區"
"207002","749-BX","2019/06/28 14:59:39","新北市萬里區崁腳里崁腳路5號","121.648018333333","25.164835","6502800","萬里區"
"207001","662-BX","2019/06/28 14:59:41","新北市萬里區雙興里二坪路9號","121.646123333333","25.1749933333333","6502800","萬里區"
"236040","KED-0685","2019/06/28 14:55:55","新北市土城區裕民路214巷18弄10號","121.452291666667","24.9841966666667","6501300","土城區"
"236077","166-UM","2019/06/28 14:59:29","新北市土城區中州路1-5號","121.414523333333","24.957225","6501300","土城區"
"236029","253-BX","2019/06/28 14:59:26","新北市土城區中央路二段152巷6號","121.441655","24.9768933333333","6501300","土城區"
"236024","269-VK","2019/06/28 14:59:40","新北市土城區中正路74巷3弄2號","121.444826666667","24.974675","6501300","土城區"
"236013","270-VK","2019/06/28 14:59:40","新北市土城區立德路13巷22號","121.461553333333","24.9888033333333","6501300","土城區"
"236032","271-VK","2019/06/28 14:59:37","新北市土城區清水路145號","121.458383333333","24.9817883333333","6501300","土城區"
"236067","KEA-2877","2019/06/28 14:59:42","新北市土城區中央路一段291巷14號","121.444975","24.9837466666667","6501300","土城區"
"236016","401-BY","2019/06/28 14:59:24","新北市土城區延安街33巷24號","121.468586666667","24.9849283333333","6501300","土城區"
"236057","912-UM","2019/06/28 14:59:25","新北市土城區明德路一段385-1號","121.452865","24.9801933333333","6501300","土城區"
"236045","913-UM","2019/06/28 14:59:43","新北市土城區明德路一段365-1號","121.453648333333","24.9790766666667","6501300","土城區"
"236060","915-UM","2019/06/28 14:59:38","新北市土城區延和路88巷10弄1號","121.466755","24.9888033333333","6501300","土城區"
"236054","AAC-216","2019/06/28 14:59:40","新北市土城區學成路10號","121.453365","24.9866116666667","6501300","土城區"
"221029","298-VK","2019/06/28 14:57:06","新北市八里區中山路三段409號","121.368616666667","25.1356183333333","6501100","汐止區"
"220027","145-BY","2019/06/28 14:59:14","新北市板橋區復興街24號","121.458008333333","25.0173533333333","6500100","板橋區"
"220028","200-UY","2019/06/28 14:59:40","新北市板橋區大觀路二段169巷9號","121.445851666667","25.0001516666667","6500100","板橋區"
"220030","610-BX","2019/06/28 14:59:38","新北市板橋區存德街3號","121.429906666667","24.9919883333333","6500100","板橋區"
"220050","245-BX","2019/06/28 14:59:44","新北市板橋區雙十路二段47巷4弄17號","121.474996666667","25.026305","6500100","板橋區"
"220040","267-BY","2019/06/28 14:59:38","新北市板橋區文聖街131號","121.47811","25.0286566666667","6500100","板橋區"
"220004","276-BY","2019/06/28 14:59:31","新北市板橋區德興街20號","121.45334","24.994305","6500100","板橋區"
"220020","277-BY","2019/06/28 14:59:42","新北市板橋區篤行路二段78號","121.431581666667","24.9919366666667","6500100","板橋區"
"220019","283-VK","2019/06/28 14:59:32","新北市板橋區五權街30巷3號","121.464595","24.9933833333333","6500100","板橋區"
"220043","285-UM","2019/06/28 14:59:33","新北市板橋區陽明街5號","121.466575","25.0215983333333","6500100","板橋區"
"220001","285-VK","2019/06/28 14:59:39","新北市板橋區懷仁街32-3號","121.47652","25.0192733333333","6500100","板橋區"
"220031","286-VK","2019/06/28 14:59:41","新北市板橋區僑中二街88巷27號","121.444911666667","25.009605","6500100","板橋區"
"220029","287-VK","2019/06/28 14:59:44","新北市板橋區僑中一街102巷7弄1號","121.446731666667","25.012855","6500100","板橋區"
"220009","293-UM","2019/06/28 14:59:33","新北市板橋區觀光街2-5號","121.472215","25.0156933333333","6500100","板橋區"
"220010","295-UM","2019/06/28 14:59:37","新北市板橋區中山路二段494號","121.485568333333","25.02213","6500100","板橋區"
"220014","299-UM","2019/06/28 14:59:30","新北市板橋區中山路一段272巷18-1號","121.469375","25.0136283333333","6500100","板橋區"
"220023","303-R5","2019/06/28 14:59:28","新北市板橋區大勇街3號","121.455718333333","25.0176883333333","6500100","板橋區"
"220041","307-R5","2019/06/28 14:59:41","新北市板橋區光正街45巷35號","121.461763333333","25.0157166666667","6500100","板橋區"
"220047","317-R6","2019/06/28 14:59:24","新北市板橋區龍泉街139號","121.457953333333","25.024165","6500100","板橋區"
"220038","487-VK","2019/06/28 14:59:25","新北市板橋區四維路253號","121.463545","25.0278616666667","6500100","板橋區"
"220037","491-VK","2019/06/28 14:59:26","新北市板橋區民治街108號","121.478513333333","25.031245","6500100","板橋區"
"220052","561-BX","2019/06/28 14:59:27","新北市板橋區漢生東路33巷17號","121.465821666667","25.0174466666667","6500100","板橋區"
"220011","609-BX","2019/06/28 14:59:27","新北市板橋區三民路一段107號","121.479356666667","25.0213783333333","6500100","板橋區"
"220104","630-UY","2019/06/28 14:59:31","新北市板橋區新生街53巷1弄10號","121.457015","25.0215416666667","6500100","板橋區"
"220005","686-BX","2019/06/28 14:57:27","新北市板橋區四川路二段245巷63號","121.452473333333","24.99215","6500100","板橋區"
"220025","687-BX","2019/06/28 14:59:35","新北市板橋區僑中一街124巷22號","121.446285","25.01433","6500100","板橋區"
"220042","689-BX","2019/06/28 14:59:44","新北市板橋區長江路二段280-13號","121.470466666667","25.0330383333333","6500100","板橋區"
"220002","741-BX","2019/06/28 14:59:37","新北市板橋區實踐路93巷15號","121.464761666667","25.005535","6500100","板橋區"
"220051","KEA-2699","2019/06/28 14:59:35","新北市板橋區莒光路40巷17弄8號","121.470726666667","25.0236866666667","6500100","板橋區"
"220003","827-TW","2019/06/28 14:59:27","新北市板橋區仁愛路76巷2號","121.46048","24.9993983333333","6500100","板橋區"
"220022","895-R6","2019/06/28 14:59:31","新北市板橋區文化路一段46巷23號","121.460341666667","25.0114833333333","6500100","板橋區"
"220021","985-R7","2019/06/28 14:59:39","新北市板橋區南雅西路二段91號","121.45258","25.010355","6500100","板橋區"
"220046","AAC-210","2019/06/28 14:59:44","新北市板橋區光正街45巷2弄4號","121.461706666667","25.0174816666667","6500100","板橋區"
"220012","AAC-253","2019/06/28 14:59:34","新北市板橋區民族路258號","121.469433333333","25.0071583333333","6500100","板橋區"
"235032","KEA-2873","2019/06/28 14:59:32","新北市中和區錦和路142巷3號","121.489035","24.9974383333333","6500300","中和區"
