"lineid","car","time","location","longitude","latitude","cityid","cityname"
"234025","9371-KE","2019/06/28 15:19:42","新北市永和區保生路55-1號","121.504496666667","25.0109033333333","6500400","永和區"
"244001","658-BX","2019/06/28 15:08:48","新北市林口區粉寮69號","121.404801666667","25.0908466666667","6501700","林口區"
"231030","002-UM","2019/06/28 15:19:31","新北市新店區安民街339號","121.516888333333","24.974845","6500600","新店區"
"231028","046-UY","2019/06/28 15:19:32","新北市新店區僑愛三路2號","121.499888333333","24.9446983333333","6500600","新店區"
"231029","106-UY","2019/06/28 15:19:41","新北市新店區安康路三段738號","121.473846666667","24.9419833333333","6500600","新店區"
"231018","107-UY","2019/06/28 15:19:39","新北市新店區中央七街61巷1號","121.5281","24.9764333333333","6500600","新店區"
"231039","187-VK","2019/06/28 15:19:35","新北市新店區中興路三段307號","121.54211","24.9857483333333","6500600","新店區"
"231036","KEA-2219","2019/06/28 15:19:40","新北市新店區安祥路69巷15號","121.481906666667","24.96142","6500600","新店區"
"231023","260-TV","2019/06/28 15:19:42","新北市新店區行政街45號","121.543078333333","24.96547","6500600","新店區"
"231003","268-BY","2019/06/28 15:19:41","新北市新店區寶高路106號","121.553941666667","24.9763966666667","6500600","新店區"
"231035","278-BY","2019/06/28 15:19:37","新北市新店區永平街14號","121.516961666667","24.9835566666667","6500600","新店區"
"231016","AAD-862","2019/06/28 15:19:43","新北市新店區北宜路二段599號","121.56813","24.9555166666667","6500600","新店區"
"231038","3713-VJ","2019/06/28 15:19:45","新北市新店區安華路28-1號","121.519676666667","24.96079","6500600","新店區"
"231024","4716-K9","2019/06/28 15:19:32","新北市新店區北新路一段311-1號","121.541521666667","24.9680166666667","6500600","新店區"
"231025","4715-K9","2019/06/28 15:19:37","新北市新店區環河路113-1號","121.531108333333","24.9710266666667","6500600","新店區"
"231022","513-UM","2019/06/28 15:19:35","新北市新店區永福路54-2號","121.558081666667","24.9287233333333","6500600","新店區"
"231002","619-UM","2019/06/28 15:19:38","新北市新店區中正路700巷3號","121.533843333333","24.9913216666667","6500600","新店區"
"231034","641-BX","2019/06/28 15:19:41","新北市新店區如意街5巷2號","121.495396666667","24.9489466666667","6500600","新店區"
"231012","KED-0819","2019/06/28 15:19:31","新北市新店區寶慶街2-1號","121.544041666667","24.9867533333333","6500600","新店區"
"231032","718-UY","2019/06/28 15:19:34","新北市新店區安泰路11巷1號","121.485543333333","24.9502333333333","6500600","新店區"
"231026","720-UM","2019/06/28 15:19:38","新北市新店區中正路247巷19號","121.538596666667","24.9725566666667","6500600","新店區"
"231005","897-TW","2019/06/28 15:19:28","新北市新店區建國路130號","121.539125","24.978745","6500600","新店區"
"231001","898-TW","2019/06/28 15:19:36","新北市新店區北新路一段331號","121.541783333333","24.9685133333333","6500600","新店區"
"231004","899-TW","2019/06/28 15:19:27","新北市新店區建國路29號","121.540208333333","24.9740783333333","6500600","新店區"
"241011","013-R5","2019/06/28 15:19:38","新北市三重區重新路四段121號","121.485213333333","25.051975","6500200","三重區"
"235030","003-UY","2019/06/28 15:19:26","新北市中和區光華街31巷22弄4號","121.505458333333","25.0046333333333","6500300","中和區"
"235031","255-BX","2019/06/28 15:19:29","新北市林口區太平里180號","121.368108333333","25.1346483333333","6500300","中和區"
"235014","4979-A6","2019/06/28 15:19:38","新北市中和區景平路464巷2弄1-4號","121.505853333333","24.9940116666667","6500300","中和區"
"235033","4980-A6","2019/06/28 15:19:41","新北市中和區圓通路172號","121.497316666667","24.9946466666667","6500300","中和區"
"235035","783-BX","2019/06/28 15:19:37","新北市中和區立德街313-1號","121.48238","25.0103883333333","6500300","中和區"
"235026","800-TS","2019/06/28 15:19:34","新北市中和區錦和路216號","121.49024","24.9941","6500300","中和區"
"235012","896-TW","2019/06/28 15:19:27","新北市中和區景新街368號","121.512151666667","24.9903483333333","6500300","中和區"
"235023","AAC-215","2019/06/28 15:19:29","新北市中和區圓通路320-1號","121.485321666667","24.9878166666667","6500300","中和區"
"220034","073-UY","2019/06/28 15:19:44","新北市樹林區環河路2號","121.427706666667","24.9786916666667","6500100","板橋區"
"208001","AAC-292","2019/06/28 15:19:00","基隆市七堵區大同街45號","121.699011666667","25.1303083333333","6502700","金山區"
"207002","749-BX","2019/06/28 15:19:39","新北市萬里區崁腳里內中福路14-1號","121.663128333333","25.165455","6502800","萬里區"
"207001","662-BX","2019/06/28 15:19:41","新北市萬里區大鵬里萬里加投29號","121.648043333333","25.2059683333333","6502800","萬里區"
"236040","KED-0685","2019/06/28 15:19:35","新北市土城區學府路一段143巷16號","121.454025","24.9856166666667","6501300","土城區"
"236077","166-UM","2019/06/28 15:19:45","新北市土城區溪頭路131號","121.40969","24.9512916666667","6501300","土城區"
"236029","253-BX","2019/06/28 15:19:36","新北市土城區中央路一段250巷9號","121.443798333333","24.9847116666667","6501300","土城區"
"236024","269-VK","2019/06/28 15:19:40","新北市土城區員林街61巷2弄13號","121.444628333333","24.9778083333333","6501300","土城區"
"236013","270-VK","2019/06/28 15:19:40","新北市土城區廣福街68巷20號","121.458226666667","24.9902166666667","6501300","土城區"
"236032","271-VK","2019/06/28 15:19:43","新北市土城區國際路98號","121.467153333333","24.9757866666667","6501300","土城區"
"236067","KEA-2877","2019/06/28 15:19:42","新北市土城區裕民路185巷36弄10號","121.454403333333","24.9844916666667","6501300","土城區"
"236016","401-BY","2019/06/28 15:19:44","新北市土城區金城路三段198號","121.468416666667","24.9881033333333","6501300","土城區"
"236057","912-UM","2019/06/28 15:19:25","新北市土城區中央路三段38號","121.438431666667","24.9685883333333","6501300","土城區"
"236045","913-UM","2019/06/28 15:19:43","新北市土城區明德路一段151號","121.465055","24.9800333333333","6501300","土城區"
"236060","915-UM","2019/06/28 15:19:38","新北市土城區延和路238-1號","121.469536666667","24.9900483333333","6501300","土城區"
"236054","AAC-216","2019/06/28 15:19:40","新北市土城區立德路20號","121.462763333333","24.9878366666667","6501300","土城區"
"221029","298-VK","2019/06/28 15:18:25","新北市五股區凌雲路二段18巷62-2號","121.442061666667","25.1061783333333","6501100","汐止區"
"220031","286-VK","2019/06/28 15:19:41","新北市板橋區僑中二街104巷36號","121.444678333333","25.00813","6500100","板橋區"
"220009","293-UM","2019/06/28 15:19:33","新北市板橋區四川路一段290號","121.45854","25.0007633333333","6500100","板橋區"
"220025","687-BX","2019/06/28 15:19:30","新北市板橋區華東街1-10號","121.448363333333","24.994935","6500100","板橋區"
"220003","827-TW","2019/06/28 15:19:27","新北市板橋區仁愛路23號","121.458918333333","24.9994466666667","6500100","板橋區"
"220022","895-R6","2019/06/28 15:19:46","新北市板橋區縣民大道一段183號","121.457966666667","25.0069216666667","6500100","板橋區"
