"lineid","car","time","location","longitude","latitude","cityid","cityname"
"249005","172-UM","2019/06/28 17:09:07","新北市八里區華富山6-1號","121.419568333333","25.1424983333333","6502300","八里區"
"249001","173-UM","2019/06/28 17:09:03","新北市八里區中華路二段316號","121.40374","25.1481633333333","6502300","八里區"
"249004","303-UY","2019/06/28 17:09:00","新北市八里區忠孝路133號","121.423956666667","25.1606683333333","6502300","八里區"
"249002","305-UY","2019/06/28 17:08:58","新北市八里區米倉18號","121.439955","25.1499233333333","6502300","八里區"
"249003","593-UM","2019/06/28 17:09:11","新北市八里區中山路二段508號","121.398041666667","25.14692","6502300","八里區"
"244007","080-UY","2019/06/28 17:09:14","新北市林口區菁埔17鄰18號","121.378026666667","25.0963166666667","6501700","林口區"
"244019","402-UM","2019/06/28 17:09:08","新北市林口區四維路156-2號","121.38076","25.0752333333333","6501700","林口區"
"244013","KEA-2802","2019/06/28 17:09:15","新北市林口區粉寮69號","121.404786666667","25.0907866666667","6501700","林口區"
"244017","485-VK","2019/06/28 17:09:13","新北市林口區粉寮69號","121.405033333333","25.09085","6501700","林口區"
"244009","656-BX","2019/06/28 17:09:05","新北市林口區中華路96號","121.384745","25.0904333333333","6501700","林口區"
"244025","837-TS","2019/06/28 17:09:05","新北市林口區中山路248號","121.386706666667","25.0793483333333","6501700","林口區"
"244021","838-TS","2019/06/28 17:09:13","新北市林口區粉寮路二段160巷18號","121.405641666667","25.092595","6501700","林口區"
"231046","719-UM","2019/06/28 17:02:29","新北市新店區灣潭路15-2號","121.542601666667","24.9430583333333","6500600","新店區"
"241011","013-R5","2019/06/28 17:08:58","新北市三重區河邊北街110巷5號","121.503738333333","25.0710866666667","6500200","三重區"
"241028","022-UY","2019/06/28 17:09:09","新北市三重區重新路三段110號","121.492338333333","25.0603316666667","6500200","三重區"
"241008","059-VK","2019/06/28 17:09:09","新北市三重區力行路二段136巷3號","121.482265","25.0757933333333","6500200","三重區"
"241016","060-VK","2019/06/28 17:09:09","新北市三重區大同北路54巷1號","121.494181666667","25.0635583333333","6500200","三重區"
"241031","061-VK","2019/06/28 17:09:13","新北市三重區重陽路一段113巷2弄2號","121.48753","25.0598833333333","6500200","三重區"
"241015","062-VK","2019/06/28 17:08:59","新北市三重區長生街8號","121.49912","25.0663383333333","6500200","三重區"
"241017","063-VK","2019/06/28 17:09:00","新北市三重區明志街37號","121.491921666667","25.0641033333333","6500200","三重區"
"241024","065-VK","2019/06/28 17:09:16","新北市三重區大勇街82巷26弄41號","121.47824","25.0719666666667","6500200","三重區"
"241001","066-VK","2019/06/28 17:08:58","新北市三重區仁愛街269巷62號","121.494885","25.079785","6500200","三重區"
"241002","090-VK","2019/06/28 17:09:01","新北市三重區自強路五段39-1號","121.493935","25.0812733333333","6500200","三重區"
"241003","091-VK","2019/06/28 17:09:07","新北市三重區進安街198號","121.49388","25.0859933333333","6500200","三重區"
"241005","262-UM","2019/06/28 17:09:18","新北市三重區仁愛街656號","121.482595","25.0805566666667","6500200","三重區"
"241009","267-UM","2019/06/28 17:09:14","新北市三重區仁愛街604號","121.483896666667","25.080765","6500200","三重區"
"241018","268-UM","2019/06/28 17:09:10","新北市三重區六張街89號","121.492658333333","25.0700516666667","6500200","三重區"
"241032","269-UM","2019/06/28 17:09:07","新北市三重區三陽路13巷7號","121.486008333333","25.0597666666667","6500200","三重區"
"241013","270-UM","2019/06/28 17:09:16","新北市三重區仁愛街88號","121.495485","25.073885","6500200","三重區"
"241025","271-UM","2019/06/28 17:09:03","新北市三重區中正北路560巷9號","121.47089","25.0715933333333","6500200","三重區"
"241007","398-BY","2019/06/28 17:09:17","新北市三重區仁美街83號","121.486108333333","25.07945","6500200","三重區"
"241004","475-VK","2019/06/28 17:09:08","新北市三重區五華街124號","121.491823333333","25.0832016666667","6500200","三重區"
"241020","478-VK","2019/06/28 17:09:15","新北市三重區自強路三段29號","121.48703","25.0724233333333","6500200","三重區"
"241026","480-VK","2019/06/28 17:09:15","新北市三重區重新路一段51-2號","121.501848333333","25.0638166666667","6500200","三重區"
"241014","543-UM","2019/06/28 17:09:09","新北市三重區龍濱路189號","121.502128333333","25.0710333333333","6500200","三重區"
"241023","545-UM","2019/06/28 17:09:12","新北市三重區忠孝路三段84巷1號","121.480263333333","25.0645883333333","6500200","三重區"
"241006","AAD-863","2019/06/28 17:09:06","新北市三重區三和路四段250號","121.486183333333","25.076925","6500200","三重區"
"241019","743-BX","2019/06/28 17:09:14","新北市三重區三張街108號","121.487571666667","25.0699183333333","6500200","三重區"
"241022","KED-0820","2019/06/28 17:09:14","新北市三重區三民街131號","121.48499","25.06403","6500200","三重區"
"241012","941-UM","2019/06/28 17:09:08","新北市三重區仁壽街245號","121.501186666667","25.07491","6500200","三重區"
"241029","942-UM","2019/06/28 17:09:06","新北市三重區過圳街3-1號","121.489458333333","25.058515","6500200","三重區"
"241033","AAC-255","2019/06/28 17:09:07","新北市三重區中興北街271號","121.469098333333","25.0606083333333","6500200","三重區"
"247014","KEA-2869","2019/06/28 17:09:04","新北市蘆洲區中央路37巷15號","121.473255","25.08249","6501400","蘆洲區"
"247008","KED-0682","2019/06/28 17:09:06","新北市蘆洲區信義路30巷15號","121.474428333333","25.0786783333333","6501400","蘆洲區"
"235062","800-TS","2019/06/28 17:02:29","新北市中和區員山路36巷16-2號","121.485183333333","24.9913416666667","6500300","中和區"
"247004","893-R6","2019/06/28 17:09:05","新北市蘆洲區長安街201-1號","121.460088333333","25.0818033333333","6501400","蘆洲區"
"247018","546-UM","2019/06/28 17:09:07","新北市蘆洲區復興路101號","121.476628333333","25.0875983333333","6501400","蘆洲區"
"247006","341-TH","2019/06/28 17:09:01","新北市蘆洲區中華街6巷28號","121.462838333333","25.0822216666667","6501400","蘆洲區"
"247024","337-TH","2019/06/28 17:09:00","新北市蘆洲區長興路62號","121.463248333333","25.0837966666667","6501400","蘆洲區"
"247002","336-TH","2019/06/28 17:09:02","新北市蘆洲區永樂街45-1號","121.456931666667","25.0885266666667","6501400","蘆洲區"
"247022","057-VK","2019/06/28 17:09:03","新北市蘆洲區民族路411號","121.468906666667","25.08978","6501400","蘆洲區"
"247012","056-VK","2019/06/28 17:09:15","新北市蘆洲區信義路294號","121.477861666667","25.0876816666667","6501400","蘆洲區"
"247016","053-VK","2019/06/28 17:09:13","新北市蘆洲區光華路67號","121.468325","25.08255","6501400","蘆洲區"
"247020","007-UY","2019/06/28 17:09:13","新北市蘆洲區民族路426巷66號","121.472588333333","25.0941333333333","6501400","蘆洲區"
"228001","212-TW","2019/06/28 17:09:03","新北市貢寮區仁理村研海街45號","121.92658","25.04038","6502600","貢寮區"
"228002","663-BX","2019/06/28 17:09:11","新北市貢寮區龍崗里嵩陽街55號","121.907621666667","25.0165966666667","6502600","貢寮區"
"228003","828-UM","2019/06/28 17:09:09","新北市貢寮區福隆里東興街10-1號","121.95087","25.0191216666667","6502600","貢寮區"
"224006","676-BX","2019/06/28 17:09:04","新北市瑞芳區大寮路24號","121.7816","25.0992116666667","6501200","瑞芳區"
"224007","285-BY","2019/06/28 17:09:19","新北市瑞芳區粗坑口路2號","121.761918333333","25.0987483333333","6501200","瑞芳區"
"224009","275-VK","2019/06/28 17:09:15","新北市瑞芳區濱二路30號","121.841145","25.1148516666667","6501200","瑞芳區"
"224008","273-VK","2019/06/28 17:09:15","新北市瑞芳區侯硐路49號","121.830128333333","25.0890433333333","6501200","瑞芳區"
"224005","271-BY","2019/06/28 17:09:14","新北市瑞芳區鼻頭路99號","121.915923333333","25.12388","6501200","瑞芳區"
"227002","642-TC","2019/06/28 17:09:02","新北市雙溪區上林里新寮子6號","121.838478333333","25.0309216666667","6502500","雙溪區"
"227001","400-TW","2019/06/28 17:09:18","新北市雙溪區三貂里政光路3號","121.85145","25.06321","6502500","雙溪區"
"251004","009-UM","2019/06/28 17:08:18","新北市淡水區中正東路二段88巷15號","121.459041666667","25.150505","6501000","淡水區"
"251005","010-UM","2019/06/28 17:09:17","新北市淡水區鄧公路12-2號","121.449626666667","25.1699916666667","6501000","淡水區"
"251008","181-VK","2019/06/28 17:09:11","新北市淡水區樹梅坑6號","121.47242","25.1454383333333","6501000","淡水區"
"251010","413-VK","2019/06/28 17:09:16","新北市淡水區中正路二段31號","121.4195","25.1814983333333","6501000","淡水區"
"251012","441-VK","2019/06/28 17:09:19","新北市淡水區中山北路一段158號","121.444236666667","25.1778566666667","6501000","淡水區"
"251007","442-VK","2019/06/28 17:09:17","新北市淡水區民權路20號","121.459865","25.1378566666667","6501000","淡水區"
"251006","561-UM","2019/06/28 17:09:02","新北市淡水區新民街21號","121.439175","25.1753166666667","6501000","淡水區"
"251009","575-R6","2019/06/28 17:09:05","新北市淡水區中正路一段87巷1-2號","121.421218333333","25.17875","6501000","淡水區"
"251011","650-BX","2019/06/28 17:09:15","新北市淡水區坪頂路49號","121.457906666667","25.1626516666667","6501000","淡水區"
"251003","766-UM","2019/06/28 17:09:11","新北市淡水區中正路二段31號","121.419373333333","25.18149","6501000","淡水區"
"252002","178-VK","2019/06/28 17:09:04","新北市三芝區忠孝街1-14號","121.505475","25.2539816666667","6502100","三芝區"
"233002","762-BX","2019/06/28 17:09:10","新北市烏來區野要街88號","121.547191666667","24.8540516666667","6502900","烏來區"
"247010","KED-0683","2019/06/28 17:09:09","新北市蘆洲區民族路16號","121.475973333333","25.084105","6501400","蘆洲區"
"252001","KED-0821","2019/06/28 17:09:07","新北市三芝區淡金路一段4-5號","121.497981666667","25.26002","6502100","三芝區"
"242039","AAC-296","2019/06/28 17:09:02","新北市新莊區三和路12-11號","121.442053333333","25.0369916666667","6500500","新莊區"
"242060","986-R7","2019/06/28 17:09:03","新北市新莊區新泰路357巷3弄57號","121.442193333333","25.039175","6500500","新莊區"
"242048","751-BX","2019/06/28 17:09:13","新北市新莊區中正路481號","121.441326666667","25.033845","6500500","新莊區"
"242058","612-BX","2019/06/28 17:09:10","新北市新莊區新泰路357巷3弄57號","121.442121666667","25.039185","6500500","新莊區"
"242046","566-BX","2019/06/28 17:09:08","新北市新莊區三和路12-21號","121.442218333333","25.0384366666667","6500500","新莊區"
"242050","497-BY","2019/06/28 17:09:01","新北市新莊區新泰路357巷3號","121.441951666667","25.041585","6500500","新莊區"
"242056","442-UM","2019/06/28 17:09:13","新北市新莊區新泰路255巷83號","121.442346666667","25.03862","6500500","新莊區"
"242041","415-TV","2019/06/28 17:09:02","新北市新莊區新泰路255巷83號","121.442171666667","25.03884","6500500","新莊區"
"242011","413-TV","2019/06/28 17:09:13","新北市新莊區三和路12-21號","121.442053333333","25.0386483333333","6500500","新莊區"
"242025","362-BY","2019/06/28 17:09:15","新北市新莊區新泰路357巷3弄57號","121.441926666667","25.0390483333333","6500500","新莊區"
"242023","353-BY","2019/06/28 17:09:00","新北市新莊區三和路18-25號","121.441823333333","25.0391216666667","6500500","新莊區"
"242037","135-UY","2019/06/28 17:08:08","新北市新莊區三和路18-21號","121.441706666667","25.0387766666667","6500500","新莊區"
"242015","173-VK","2019/06/28 17:09:08","新北市新莊區三和路12-21號","121.441811666667","25.0386933333333","6500500","新莊區"
"242021","175-VK","2019/06/28 17:09:02","新北市新莊區三和路12-21號","121.441946666667","25.038675","6500500","新莊區"
"242019","KED-0687","2019/06/28 17:09:04","新北市新莊區三和路12-21號","121.44207","25.0380666666667","6500500","新莊區"
"242002","347-TH","2019/06/28 17:09:08","新北市新莊區三和路12-21號","121.442218333333","25.0381566666667","6500500","新莊區"
"242034","348-TH","2019/06/28 17:09:19","新北市新莊區三和路12-21號","121.441913333333","25.0388183333333","6500500","新莊區"
"242007","349-TH","2019/06/28 17:09:16","新北市新莊區三和路12-21號","121.442255","25.0383616666667","6500500","新莊區"
"242017","351-TH","2019/06/28 17:09:07","新北市新莊區新泰路357巷3弄57號","121.441861666667","25.0395033333333","6500500","新莊區"
"238018","KEA-2217","2019/06/28 17:08:59","新北市樹林區環河路10號","121.426841666667","24.97794","6500700","樹林區"
"238022","KEA-2213","2019/06/28 17:09:13","新北市樹林區忠孝街31號","121.42375","24.9821816666667","6500700","樹林區"
"238021","KEA-2539","2019/06/28 17:09:10","新北市樹林區西圳街一段165巷20弄11號","121.395636666667","24.9601783333333","6500700","樹林區"
"238017","283-BY","2019/06/28 17:09:09","新北市樹林區保安街一段219號","121.42044","24.996345","6500700","樹林區"
"238014","282-BY","2019/06/28 17:09:11","新北市樹林區中山路二段111號","121.410648333333","24.9809783333333","6500700","樹林區"
"238020","268-VK","2019/06/28 17:08:57","新北市樹林區大安路201號","121.420616666667","24.9956983333333","6500700","樹林區"
"238016","169-UY","2019/06/28 17:09:04","新北市樹林區中山路二段34號","121.417201666667","24.984985","6500700","樹林區"
"239007","AAC-297","2019/06/28 17:09:15","新北市鶯歌區行政路40號","121.352796666667","24.955955","6500800","鶯歌區"
"239006","891-R6","2019/06/28 17:09:09","新北市鶯歌區八德路2巷20弄2號","121.336378333333","24.946675","6500800","鶯歌區"
"239002","661-UM","2019/06/28 17:09:13","新北市鶯歌區建國路252號","121.347766666667","24.9534216666667","6500800","鶯歌區"
"239008","527-UM","2019/06/28 17:09:02","新北市鶯歌區尖山路56號","121.349735","24.9496433333333","6500800","鶯歌區"
"239001","417-VK","2019/06/28 17:09:07","新北市鶯歌區尖山路156巷6號","121.346111666667","24.9487","6500800","鶯歌區"
"239003","360-BY","2019/06/28 17:09:06","新北市鶯歌區德昌二街70巷32弄89號","121.329983333333","24.9569883333333","6500800","鶯歌區"
"239004","193-VK","2019/06/28 17:09:07","新北市鶯歌區文化路501-28號","121.353685","24.9482233333333","6500800","鶯歌區"
"221033","297-VK","2019/06/28 17:09:08","新北市汐止區汐萬路一段256巷1號","121.651791666667","25.0747833333333","6501100","汐止區"
"233001","KEA-2870","2019/06/28 17:09:02","新北市烏來區溫泉街86巷16號","121.549586666667","24.86283","6502900","烏來區"
"242044","281-VK","2019/06/28 17:09:15","新北市新莊區中正路471號","121.441741666667","25.0338766666667","6500500","新莊區"
"242009","280-VK","2019/06/28 17:09:14","新北市新莊區三和路12-21號","121.44178","25.03829","6500500","新莊區"
