"lineid","car","time","location","longitude","latitude","cityid","cityname"
"249005","172-UM","2019/06/28 17:19:07","新北市五股區民義路二段132號","121.409855","25.1209116666667","6502300","八里區"
"249001","173-UM","2019/06/28 17:19:03","新北市八里區中華路二段165巷3號","121.407646666667","25.1508633333333","6502300","八里區"
"249004","303-UY","2019/06/28 17:19:16","新北市八里區賢三街98號","121.416938333333","25.1578466666667","6502300","八里區"
"249002","305-UY","2019/06/28 17:19:18","新北市八里區龍米路二段133-1號","121.44485","25.147955","6502300","八里區"
"249003","593-UM","2019/06/28 17:19:12","新北市八里區商港路48號","121.396058333333","25.145505","6502300","八里區"
"244007","080-UY","2019/06/28 17:19:14","新北市林口區湖子18-3號","121.385605","25.09221","6501700","林口區"
"244019","402-UM","2019/06/28 17:19:08","新北市林口區文化二路一段338號","121.372698333333","25.0748316666667","6501700","林口區"
"244013","KEA-2802","2019/06/28 17:19:15","新北市林口區粉寮69號","121.40479","25.0907716666667","6501700","林口區"
"244023","483-VK","2019/06/28 17:19:19","新北市林口區仁愛路一段649號","121.388333333333","25.0761766666667","6501700","林口區"
"244017","485-VK","2019/06/28 17:19:13","新北市林口區中山路63號","121.393935","25.0785316666667","6501700","林口區"
"244009","656-BX","2019/06/28 17:19:05","新北市林口區中華路355號","121.380946666667","25.092585","6501700","林口區"
"244011","701-TV","2019/06/28 17:19:10","新北市林口區仁愛路一段285巷116號","121.395515","25.0758233333333","6501700","林口區"
"244025","837-TS","2019/06/28 17:19:05","新北市林口區仁愛二路96號","121.368576666667","25.0754466666667","6501700","林口區"
"244021","838-TS","2019/06/28 17:19:12","新北市林口區宏昌街79號","121.402028333333","25.0856466666667","6501700","林口區"
"231046","719-UM","2019/06/28 17:13:29","新北市新店區直潭路85號","121.531838333333","24.9420433333333","6500600","新店區"
"241011","013-R5","2019/06/28 17:19:00","新北市三重區介壽路39巷252號","121.50364","25.071245","6500200","三重區"
"241028","022-UY","2019/06/28 17:19:09","新北市三重區中正南路77號","121.494066666667","25.0587383333333","6500200","三重區"
"241008","059-VK","2019/06/28 17:19:09","新北市三重區永福街72巷33號","121.480168333333","25.0762766666667","6500200","三重區"
"241016","060-VK","2019/06/28 17:19:09","新北市三重區大同北路54巷1號","121.494151666667","25.0635433333333","6500200","三重區"
"241015","062-VK","2019/06/28 17:19:19","新北市三重區福德北路89號","121.501831666667","25.06622","6500200","三重區"
"241017","063-VK","2019/06/28 17:19:00","新北市三重區大同北路91號","121.494666666667","25.0636466666667","6500200","三重區"
"241024","065-VK","2019/06/28 17:19:17","新北市三重區中正北路205號","121.476785","25.07006","6500200","三重區"
"241001","066-VK","2019/06/28 17:18:58","新北市三重區碧華街446號","121.493185","25.085925","6500200","三重區"
"241002","090-VK","2019/06/28 17:19:01","新北市三重區仁義街307號","121.495503333333","25.0840133333333","6500200","三重區"
"241003","091-VK","2019/06/28 17:19:07","新北市三重區富福街46號","121.491518333333","25.084245","6500200","三重區"
"241005","262-UM","2019/06/28 17:18:59","新北市三重區永安北路二段42-6號","121.48205","25.08175","6500200","三重區"
"241009","267-UM","2019/06/28 17:19:14","新北市三重區車路頭街135-1號","121.484216666667","25.07591","6500200","三重區"
"241018","268-UM","2019/06/28 17:19:10","新北市三重區安慶街185號","121.493296666667","25.0684033333333","6500200","三重區"
"241032","269-UM","2019/06/28 17:19:07","新北市三重區中華路2巷29號","121.482285","25.06049","6500200","三重區"
"241013","270-UM","2019/06/28 17:19:16","新北市三重區三和路三段107巷25號","121.495136666667","25.0731216666667","6500200","三重區"
"241025","271-UM","2019/06/28 17:19:03","新北市三重區中正北路189號","121.477353333333","25.0696566666667","6500200","三重區"
"241007","398-BY","2019/06/28 17:19:14","新北市三重區三和路四段155巷11號","121.484448333333","25.0786566666667","6500200","三重區"
"241020","478-VK","2019/06/28 17:19:15","新北市三重區忠孝路一段121號","121.488835","25.072015","6500200","三重區"
"241026","480-VK","2019/06/28 17:19:15","新北市三重區正義南路10號","121.498236666667","25.0614916666667","6500200","三重區"
"241014","543-UM","2019/06/28 17:19:09","新北市三重區長榮路8號","121.500256666667","25.0685583333333","6500200","三重區"
"241023","545-UM","2019/06/28 17:19:15","新北市三重區三民街150號","121.48244","25.06541","6500200","三重區"
"241019","743-BX","2019/06/28 17:19:13","新北市三重區三張街115號","121.487996666667","25.0700283333333","6500200","三重區"
"241022","KED-0820","2019/06/28 17:19:14","新北市三重區重陽路二段34巷18號","121.486453333333","25.0633166666667","6500200","三重區"
"241012","941-UM","2019/06/28 17:19:08","新北市三重區仁興街31巷34號","121.500061666667","25.0755716666667","6500200","三重區"
"241033","AAC-255","2019/06/28 17:19:07","新北市三重區中興北街193巷2號","121.469071666667","25.05661","6500200","三重區"
"247014","KEA-2869","2019/06/28 17:19:04","新北市蘆洲區中正路96號","121.470076666667","25.08387","6501400","蘆洲區"
"247008","KED-0682","2019/06/28 17:19:06","新北市蘆洲區信義路34巷118號","121.475603333333","25.0767366666667","6501400","蘆洲區"
"235062","800-TS","2019/06/28 17:18:59","新北市中和區員山路36巷16-2號","121.485268333333","24.9913583333333","6500300","中和區"
"247004","893-R6","2019/06/28 17:19:08","新北市蘆洲區中原路93號","121.45765","25.0816133333333","6501400","蘆洲區"
"247018","546-UM","2019/06/28 17:19:07","新北市蘆洲區民權路96巷3弄1號","121.474481666667","25.08831","6501400","蘆洲區"
"247006","341-TH","2019/06/28 17:19:01","新北市蘆洲區長安街73巷9號","121.462275","25.0796033333333","6501400","蘆洲區"
"247024","337-TH","2019/06/28 17:19:00","新北市蘆洲區長榮路256號","121.460541666667","25.0859333333333","6501400","蘆洲區"
"247002","336-TH","2019/06/28 17:19:02","新北市蘆洲區永樂街38巷33弄12號","121.457578333333","25.0895966666667","6501400","蘆洲區"
"247022","057-VK","2019/06/28 17:19:03","新北市蘆洲區民族路377號","121.470078333333","25.0904283333333","6501400","蘆洲區"
"247012","056-VK","2019/06/28 17:19:15","新北市蘆洲區信義路319巷10弄6號","121.47767","25.0864383333333","6501400","蘆洲區"
"247016","053-VK","2019/06/28 17:19:10","新北市蘆洲區正和街96巷23號","121.46765","25.0813016666667","6501400","蘆洲區"
"247020","007-UY","2019/06/28 17:19:13","新北市蘆洲區仁愛街35巷15弄2號","121.471475","25.092605","6501400","蘆洲區"
"228001","212-TW","2019/06/28 17:19:03","新北市貢寮區仁理村尖山腳街18-3號","121.925456666667","25.0483316666667","6502600","貢寮區"
"228002","663-BX","2019/06/28 17:19:11","新北市貢寮區雙玉里下雙溪街26號","121.924043333333","25.01017","6502600","貢寮區"
"228003","828-UM","2019/06/28 17:19:09","新北市貢寮區福隆里興隆街15號","121.94385","25.0166566666667","6502600","貢寮區"
"224006","676-BX","2019/06/28 17:19:16","新北市瑞芳區大寮路37號","121.782256666667","25.0984883333333","6501200","瑞芳區"
"224007","285-BY","2019/06/28 17:19:19","新北市瑞芳區頂坪路157號","121.78178","25.0965416666667","6501200","瑞芳區"
"224009","275-VK","2019/06/28 17:19:15","新北市瑞芳區汽車路116號","121.839985","25.1104033333333","6501200","瑞芳區"
"224008","273-VK","2019/06/28 17:19:15","新北市瑞芳區侯硐路236號","121.829311666667","25.0883716666667","6501200","瑞芳區"
"224005","271-BY","2019/06/28 17:19:14","新北市瑞芳區鼻頭路247號","121.91263","25.1239433333333","6501200","瑞芳區"
"227002","642-TC","2019/06/28 17:19:02","新北市雙溪區平林里梅竹蹊3號","121.862793333333","25.03481","6502500","雙溪區"
"227001","400-TW","2019/06/28 17:18:58","新北市雙溪區三貂里定福路1-2號","121.850768333333","25.063435","6502500","雙溪區"
"251004","009-UM","2019/06/28 17:08:18","新北市淡水區中正東路二段88巷15號","121.459041666667","25.150505","6501000","淡水區"
"251005","010-UM","2019/06/28 17:19:17","新北市淡水區鄧公路29巷2號","121.45169","25.169905","6501000","淡水區"
"251008","181-VK","2019/06/28 17:19:11","新北市淡水區大同路272號","121.466991666667","25.1415566666667","6501000","淡水區"
"251010","413-VK","2019/06/28 17:19:16","新北市淡水區沙崙路133號","121.42294","25.1826066666667","6501000","淡水區"
"251012","441-VK","2019/06/28 17:18:59","新北市淡水區中山北路一段158號","121.444248333333","25.177895","6501000","淡水區"
"251007","442-VK","2019/06/28 17:18:57","新北市淡水區民生路60號","121.462078333333","25.137955","6501000","淡水區"
"251006","561-UM","2019/06/28 17:19:02","新北市淡水區新生街53號","121.44046","25.1747633333333","6501000","淡水區"
"251009","575-R6","2019/06/28 17:19:05","新北市淡水區三民街19號","121.439018333333","25.1718833333333","6501000","淡水區"
"251011","650-BX","2019/06/28 17:19:15","新北市淡水區坪頂路111號","121.464665","25.1615766666667","6501000","淡水區"
"251003","766-UM","2019/06/28 17:19:11","新北市淡水區中正路一段116號","121.423376666667","25.178205","6501000","淡水區"
"207003","550-UM","2019/06/28 17:19:15","新北市萬里區萬里里獅頭路23號","121.69332","25.1782333333333","6502800","萬里區"
"252002","178-VK","2019/06/28 17:19:04","新北市三芝區忠孝街1-14號","121.505521666667","25.2539533333333","6502100","三芝區"
"233002","762-BX","2019/06/28 17:19:10","新北市烏來區環山路181-1號","121.549031666667","24.85311","6502900","烏來區"
"247010","KED-0683","2019/06/28 17:19:09","新北市蘆洲區中山一路120巷7弄1號","121.47737","25.0818516666667","6501400","蘆洲區"
"252001","KED-0821","2019/06/28 17:19:07","新北市三芝區長安街119號","121.498011666667","25.25966","6502100","三芝區"
"242039","AAC-296","2019/06/28 17:19:02","新北市新莊區新樹路157號","121.43674","25.0255833333333","6500500","新莊區"
"242060","986-R7","2019/06/28 17:19:03","新北市新莊區新泰路357巷2號","121.44229","25.0416183333333","6500500","新莊區"
"242048","751-BX","2019/06/28 17:19:13","新北市新莊區富國路87號","121.420466666667","25.0259783333333","6500500","新莊區"
"242029","615-BX","2019/06/28 17:19:17","新北市新莊區幸福路606號","121.45196","25.0492933333333","6500500","新莊區"
"242027","613-BX","2019/06/28 17:19:06","新北市新莊區復興路二段189號","121.45915","25.0445466666667","6500500","新莊區"
"242058","612-BX","2019/06/28 17:19:10","新北市新莊區新泰路357巷3弄57號","121.442073333333","25.0391783333333","6500500","新莊區"
"242046","566-BX","2019/06/28 17:19:08","新北市泰山區磚雅厝3號","121.441875","25.041715","6500500","新莊區"
"242050","497-BY","2019/06/28 17:19:01","新北市新莊區瓊林路59-20號","121.440161666667","25.0217683333333","6500500","新莊區"
"242056","442-UM","2019/06/28 17:19:13","新北市新莊區新莊路658號","121.442421666667","25.0329233333333","6500500","新莊區"
"242005","440-UM","2019/06/28 17:19:12","新北市新莊區中平路82巷29號","121.445898333333","25.0449316666667","6500500","新莊區"
"242041","415-TV","2019/06/28 17:19:02","新北市新莊區新莊路805號","121.440668333333","25.0326733333333","6500500","新莊區"
"242011","413-TV","2019/06/28 17:19:13","新北市新莊區中港路352號","121.45184","25.046735","6500500","新莊區"
"242025","362-BY","2019/06/28 17:19:15","新北市新莊區中平路82巷36-2號","121.446338333333","25.0449633333333","6500500","新莊區"
"242023","353-BY","2019/06/28 17:19:00","新北市新莊區中港一街34號","121.450941666667","25.0456833333333","6500500","新莊區"
"242013","132-UY","2019/06/28 17:18:57","新北市新莊區中環路二段392-1號","121.442491666667","25.0454033333333","6500500","新莊區"
"242037","135-UY","2019/06/28 17:19:08","新北市新莊區新莊路781號","121.441486666667","25.0327233333333","6500500","新莊區"
"242054","172-VK","2019/06/28 17:19:14","新北市新莊區中環路一段299號","121.441981666667","25.0321166666667","6500500","新莊區"
"242015","173-VK","2019/06/28 17:19:08","新北市新莊區三和路12-21號","121.442036666667","25.03859","6500500","新莊區"
"242021","175-VK","2019/06/28 17:19:02","新北市新莊區中平路82巷20號","121.445646666667","25.0449183333333","6500500","新莊區"
"242019","KED-0687","2019/06/28 17:19:04","新北市新莊區新泰路202號","121.447023333333","25.0384483333333","6500500","新莊區"
"242002","347-TH","2019/06/28 17:19:08","新北市新莊區瓊林路52號","121.445766666667","25.0287366666667","6500500","新莊區"
"242034","348-TH","2019/06/28 17:18:59","新北市新莊區新莊路771巷10號","121.442045","25.03194","6500500","新莊區"
"242007","349-TH","2019/06/28 17:19:16","新北市新莊區新泰路480號","121.442568333333","25.04544","6500500","新莊區"
"242032","350-TH","2019/06/28 17:19:04","新北市新莊區中環路二段392-1號","121.442386666667","25.0454783333333","6500500","新莊區"
"242017","351-TH","2019/06/28 17:19:07","新北市新莊區新泰路486號","121.442493333333","25.0457383333333","6500500","新莊區"
"238019","599-UM","2019/06/28 17:18:56","新北市樹林區太平路273巷23號","121.421116666667","24.97617","6500700","樹林區"
"238024","5061-A6","2019/06/28 17:19:03","新北市樹林區鎮前街72號","121.425661666667","24.992185","6500700","樹林區"
"238018","KEA-2217","2019/06/28 17:19:10","新北市樹林區鎮前街271號","121.420128333333","24.98571","6500700","樹林區"
"238022","KEA-2213","2019/06/28 17:19:13","新北市樹林區忠孝街13號","121.423426666667","24.9827566666667","6500700","樹林區"
"238021","KEA-2539","2019/06/28 17:19:10","新北市樹林區西圳街一段116巷1號","121.399546666667","24.9646233333333","6500700","樹林區"
"238017","283-BY","2019/06/28 17:19:09","新北市樹林區光武街28號","121.41583","25.0054733333333","6500700","樹林區"
"238014","282-BY","2019/06/28 17:19:11","新北市樹林區長壽街70巷31弄12號","121.421495","24.9947666666667","6500700","樹林區"
"238020","268-VK","2019/06/28 17:19:17","新北市樹林區千歲街101-2號","121.428515","25.000895","6500700","樹林區"
"238026","172-UY","2019/06/28 17:19:15","新北市樹林區東順街87號","121.409261666667","24.9762266666667","6500700","樹林區"
"238016","169-UY","2019/06/28 17:19:04","新北市樹林區中山路一段201號","121.421211666667","24.987415","6500700","樹林區"
"239007","AAC-297","2019/06/28 17:19:00","新北市鶯歌區國慶街115巷21號","121.3512","24.954495","6500800","鶯歌區"
"239006","891-R6","2019/06/28 17:19:09","新北市鶯歌區福昌街21號","121.332883333333","24.9609166666667","6500800","鶯歌區"
"239002","661-UM","2019/06/28 17:19:13","新北市鶯歌區國慶街123號","121.350686666667","24.9539866666667","6500800","鶯歌區"
"239008","527-UM","2019/06/28 17:19:17","新北市鶯歌區西湖街6-2號","121.341111666667","24.957535","6500800","鶯歌區"
"239001","417-VK","2019/06/28 17:19:07","新北市鶯歌區尖山路300-3號","121.340351666667","24.9439683333333","6500800","鶯歌區"
"239003","360-BY","2019/06/28 17:19:06","新北市鶯歌區德昌二街17號","121.333253333333","24.9590966666667","6500800","鶯歌區"
"239004","193-VK","2019/06/28 17:19:07","新北市鶯歌區文化路226巷7弄27號","121.352121666667","24.9479566666667","6500800","鶯歌區"
"221033","297-VK","2019/06/28 17:19:08","新北市汐止區汐萬路一段256巷1號","121.651791666667","25.0747633333333","6501100","汐止區"
"233001","KEA-2870","2019/06/28 17:19:02","新北市烏來區瀑布路1-5號","121.552851666667","24.8512183333333","6502900","烏來區"
"242044","281-VK","2019/06/28 17:19:02","新北市新莊區中正路560號","121.428975","25.0309633333333","6500500","新莊區"
"242009","280-VK","2019/06/28 17:19:14","新北市新莊區新泰路488號","121.442613333333","25.04592","6500500","新莊區"
