"lineid","car","time","location","longitude","latitude","cityid","cityname"
"249005","172-UM","2019/06/28 17:29:07","新北市八里區荖阡坑路28號","121.404148333333","25.1289233333333","6502300","八里區"
"249001","173-UM","2019/06/28 17:29:03","新北市八里區中華路一段5號","121.422756666667","25.1583266666667","6502300","八里區"
"249004","303-UY","2019/06/28 17:29:16","新北市八里區民治街34號","121.414521666667","25.1574933333333","6502300","八里區"
"249002","305-UY","2019/06/28 17:29:18","新北市八里區龍米路二段115號","121.447168333333","25.14313","6502300","八里區"
"249003","593-UM","2019/06/28 17:29:11","新北市八里區中山路二段398號","121.400628333333","25.1478433333333","6502300","八里區"
"232011","375-UM","2019/06/28 17:29:13","新北市坪林區鶯子瀨9-13號","121.710611666667","24.9161183333333","6502000","坪林區"
"244007","080-UY","2019/06/28 17:29:14","新北市林口區中湖39-2號","121.38314","25.0929933333333","6501700","林口區"
"244019","402-UM","2019/06/28 17:29:08","新北市林口區公園路120號","121.3704","25.07113","6501700","林口區"
"244013","KEA-2802","2019/06/28 17:29:15","新北市林口區中山路260號","121.384911666667","25.07981","6501700","林口區"
"244023","483-VK","2019/06/28 17:29:13","新北市林口區興林一街96巷10號","121.391321666667","25.0722383333333","6501700","林口區"
"244017","485-VK","2019/06/28 17:29:13","新北市林口區文化一路一段125-1號","121.373466666667","25.0714083333333","6501700","林口區"
"244009","656-BX","2019/06/28 17:29:05","新北市林口區中北三街136號","121.38371","25.0837783333333","6501700","林口區"
"244011","701-TV","2019/06/28 17:29:10","新北市林口區仁愛路一段408號","121.386705","25.0767116666667","6501700","林口區"
"244025","837-TS","2019/06/28 17:29:05","新北市林口區文化二路一段241巷28號","121.366206666667","25.071745","6501700","林口區"
"244021","838-TS","2019/06/28 17:29:12","新北市林口區中山路2-2號","121.396666666667","25.078755","6501700","林口區"
"231046","719-UM","2019/06/28 17:13:29","新北市新店區直潭路85號","121.531838333333","24.9420433333333","6500600","新店區"
"241008","059-VK","2019/06/28 17:29:09","新北市三重區永福街162號","121.480546666667","25.0743933333333","6500200","三重區"
"241016","060-VK","2019/06/28 17:29:09","新北市三重區信義西街118號","121.495841666667","25.064365","6500200","三重區"
"241015","062-VK","2019/06/28 17:28:59","新北市三重區長元街65巷22弄20號","121.503578333333","25.066025","6500200","三重區"
"241017","063-VK","2019/06/28 17:29:00","新北市三重區中正北路25巷25弄11號","121.493708333333","25.0627766666667","6500200","三重區"
"241024","065-VK","2019/06/28 17:29:16","新北市三重區中正北路201號","121.47709","25.069845","6500200","三重區"
"241005","262-UM","2019/06/28 17:28:58","新北市三重區永安北路二段33號","121.48238","25.08226","6500200","三重區"
"241018","268-UM","2019/06/28 17:29:10","新北市三重區新北大道一段6號","121.489013333333","25.0614316666667","6500200","三重區"
"241013","270-UM","2019/06/28 17:29:16","新北市三重區仁愛街139號","121.495131666667","25.0750766666667","6500200","三重區"
"241007","398-BY","2019/06/28 17:29:14","新北市三重區三和路四段145巷136號","121.48772","25.07934","6500200","三重區"
"241020","478-VK","2019/06/28 17:29:15","新北市三重區忠孝路三段84巷5號","121.480218333333","25.06437","6500200","三重區"
"241014","543-UM","2019/06/28 17:29:09","新北市三重區長壽街78號","121.50148","25.06858","6500200","三重區"
"241023","545-UM","2019/06/28 17:29:12","新北市三重區忠孝路三段50巷41弄13號","121.482128333333","25.0641166666667","6500200","三重區"
"241019","743-BX","2019/06/28 17:29:13","新北市三重區六張街158號","121.489366666667","25.0688216666667","6500200","三重區"
"241012","941-UM","2019/06/28 17:29:08","新北市三重區仁興街31巷2號","121.499336666667","25.0752966666667","6500200","三重區"
"241033","AAC-255","2019/06/28 17:29:07","新北市三重區興德路133號","121.470155","25.0528783333333","6500200","三重區"
"247014","KEA-2869","2019/06/28 17:29:04","新北市蘆洲區三民路33號","121.475468333333","25.0829983333333","6501400","蘆洲區"
"247008","KED-0682","2019/06/28 17:29:17","新北市蘆洲區民生街99號","121.473675","25.0786733333333","6501400","蘆洲區"
"235062","800-TS","2019/06/28 17:24:47","新北市中和區員山路36巷16-3號","121.485046666667","24.9913083333333","6500300","中和區"
"247004","893-R6","2019/06/28 17:29:05","新北市蘆洲區長安街227號","121.459471666667","25.08269","6501400","蘆洲區"
"247006","341-TH","2019/06/28 17:29:01","新北市蘆洲區長安街68巷33號","121.463956666667","25.0810166666667","6501400","蘆洲區"
"247024","337-TH","2019/06/28 17:29:00","新北市蘆洲區長興路349號","121.460948333333","25.09097","6501400","蘆洲區"
"247002","336-TH","2019/06/28 17:29:02","新北市蘆洲區永樂街38巷57弄29號","121.457608333333","25.0904283333333","6501400","蘆洲區"
"247022","057-VK","2019/06/28 17:29:03","新北市蘆洲區三民路301號","121.465466666667","25.09079","6501400","蘆洲區"
"247012","056-VK","2019/06/28 17:29:15","新北市蘆洲區民族路16號","121.475938333333","25.0841966666667","6501400","蘆洲區"
"247020","007-UY","2019/06/28 17:29:13","新北市蘆洲區水湳街397號","121.470133333333","25.0938116666667","6501400","蘆洲區"
"228001","212-TW","2019/06/28 17:29:03","新北市貢寮區仁理村仁愛路62巷1號","121.925591666667","25.0534033333333","6502600","貢寮區"
"228002","663-BX","2019/06/28 17:29:11","新北市貢寮區福隆里興隆街13-7號","121.944061666667","25.016525","6502600","貢寮區"
"228003","828-UM","2019/06/28 17:29:09","新北市貢寮區仁理村研海街62-2號","121.925745","25.0442716666667","6502600","貢寮區"
"224010","AGQ-8101","2019/06/28 17:28:37","新北市瑞芳區明燈路二段2巷8號","121.81378","25.108605","6501200","瑞芳區"
"224006","676-BX","2019/06/28 17:29:04","新北市瑞芳區傑魚坑路93號","121.792516666667","25.1104116666667","6501200","瑞芳區"
"224007","285-BY","2019/06/28 17:28:59","新北市瑞芳區靜安路四段10號","121.79524","25.0865666666667","6501200","瑞芳區"
"224009","275-VK","2019/06/28 17:29:15","新北市瑞芳區汽車路18號","121.845328333333","25.1100933333333","6501200","瑞芳區"
"224008","273-VK","2019/06/28 17:29:15","新北市瑞芳區九芎橋路19號","121.832818333333","25.0927766666667","6501200","瑞芳區"
"224005","271-BY","2019/06/28 17:29:14","新北市瑞芳區洞頂路136號","121.862346666667","25.124405","6501200","瑞芳區"
"227001","400-TW","2019/06/28 17:28:58","新北市雙溪區三貂里定福路1-2號","121.85077","25.0634183333333","6502500","雙溪區"
"251004","009-UM","2019/06/28 17:08:18","新北市淡水區中正東路二段88巷15號","121.459041666667","25.150505","6501000","淡水區"
"251005","010-UM","2019/06/28 17:28:57","新北市淡水區鄧公路31巷1號","121.451243333333","25.1709483333333","6501000","淡水區"
"251008","181-VK","2019/06/28 17:29:11","新北市淡水區大同路89號","121.462421666667","25.1402033333333","6501000","淡水區"
"251010","413-VK","2019/06/28 17:29:16","新北市淡水區中正路二段206號","121.426241666667","25.1891033333333","6501000","淡水區"
"251012","441-VK","2019/06/28 17:28:59","新北市淡水區北新路111號","121.447996666667","25.1783733333333","6501000","淡水區"
"251007","442-VK","2019/06/28 17:29:17","新北市淡水區民生路47-4號","121.462055","25.1380033333333","6501000","淡水區"
"251006","561-UM","2019/06/28 17:29:02","新北市淡水區大仁街9號","121.442281666667","25.1749316666667","6501000","淡水區"
"251009","575-R6","2019/06/28 17:29:05","新北市淡水區建設街6號","121.439","25.17259","6501000","淡水區"
"251011","650-BX","2019/06/28 17:29:15","新北市淡水區三空泉8-1號","121.475903333333","25.161255","6501000","淡水區"
"251003","766-UM","2019/06/28 17:29:11","新北市淡水區中山路157號","121.4407","25.1727683333333","6501000","淡水區"
"207004","681-TV","2019/06/28 17:29:03","新北市萬里區萬里里景美路11-2號","121.685351666667","25.1730883333333","6502800","萬里區"
"207003","550-UM","2019/06/28 17:29:15","新北市萬里區龜吼里翡翠路17號","121.683418333333","25.1870516666667","6502800","萬里區"
"252002","178-VK","2019/06/28 17:29:04","新北市三芝區忠孝街1-14號","121.505508333333","25.2539366666667","6502100","三芝區"
"233002","762-BX","2019/06/28 17:29:10","新北市烏來區環山路82巷5號","121.548336666667","24.8632583333333","6502900","烏來區"
"247010","KED-0683","2019/06/28 17:29:09","新北市蘆洲區鷺江街16-3號","121.478643333333","25.082515","6501400","蘆洲區"
"252001","KED-0821","2019/06/28 17:29:07","新北市三芝區長安街119號","121.498023333333","25.259655","6502100","三芝區"
"242039","AAC-296","2019/06/28 17:29:02","新北市新莊區民安路272號","121.427603333333","25.0214266666667","6500500","新莊區"
"242060","986-R7","2019/06/28 17:29:03","新北市新莊區瓊林路172-2號","121.440793333333","25.0228433333333","6500500","新莊區"
"242048","751-BX","2019/06/28 17:29:13","新北市新莊區四維路210號","121.421541666667","25.0200683333333","6500500","新莊區"
"242029","615-BX","2019/06/28 17:28:57","新北市新莊區復興路二段190號","121.459165","25.0444483333333","6500500","新莊區"
"242027","613-BX","2019/06/28 17:29:06","新北市新莊區思源路32號","121.460408333333","25.040535","6500500","新莊區"
"242058","612-BX","2019/06/28 17:29:10","新北市新莊區中正路400號","121.441916666667","25.0344283333333","6500500","新莊區"
"242046","566-BX","2019/06/28 17:29:08","新北市新莊區新樹路65-5號","121.43943","25.0308033333333","6500500","新莊區"
"242050","497-BY","2019/06/28 17:29:01","新北市新莊區新樹路449巷5號","121.433106666667","25.0136483333333","6500500","新莊區"
"242056","442-UM","2019/06/28 17:29:13","新北市新莊區景德路208號","121.449071666667","25.0338066666667","6500500","新莊區"
"242005","440-UM","2019/06/28 17:29:12","新北市新莊區中港路287號","121.452838333333","25.0439666666667","6500500","新莊區"
"242041","415-TV","2019/06/28 17:29:02","新北市新莊區新樹路113巷29號","121.43953","25.026475","6500500","新莊區"
"242011","413-TV","2019/06/28 17:29:13","新北市新莊區中港路469號","121.45239","25.04908","6500500","新莊區"
"242025","362-BY","2019/06/28 17:29:16","新北市新莊區中港路276號","121.45311","25.0440566666667","6500500","新莊區"
"242023","353-BY","2019/06/28 17:29:00","新北市新莊區中華路一段110號","121.452428333333","25.0402066666667","6500500","新莊區"
"242013","132-UY","2019/06/28 17:29:17","新北市新莊區中誠街16巷2號","121.45194","25.048345","6500500","新莊區"
"242037","135-UY","2019/06/28 17:29:08","新北市新莊區建國一路288巷60號","121.434038333333","25.0260916666667","6500500","新莊區"
"242054","172-VK","2019/06/28 17:29:14","新北市新莊區環河路48-4號","121.436395","25.008925","6500500","新莊區"
"242015","173-VK","2019/06/28 17:29:08","新北市新莊區建中街92號","121.446895","25.03661","6500500","新莊區"
"242021","175-VK","2019/06/28 17:29:02","新北市新莊區中正路134號","121.452683333333","25.0361766666667","6500500","新莊區"
"242019","KED-0687","2019/06/28 17:29:04","新北市新莊區中正路96號","121.455116666667","25.0367716666667","6500500","新莊區"
"242002","347-TH","2019/06/28 17:29:08","新北市新莊區大觀街2號","121.454503333333","25.034105","6500500","新莊區"
"242034","348-TH","2019/06/28 17:28:59","新北市新莊區瓊林路6號","121.4497","25.031865","6500500","新莊區"
"242007","349-TH","2019/06/28 17:29:16","新北市新莊區自強街32號","121.454766666667","25.0462133333333","6500500","新莊區"
"242032","350-TH","2019/06/28 17:29:04","新北市新莊區新泰路464號","121.443278333333","25.04494","6500500","新莊區"
"242017","351-TH","2019/06/28 17:29:07","新北市新莊區中港路287號","121.45272","25.0439783333333","6500500","新莊區"
"238015","755-BX","2019/06/28 17:29:06","新北市樹林區復興路9號","121.422656666667","24.9946116666667","6500700","樹林區"
"238023","601-UM","2019/06/28 17:29:16","新北市樹林區三福街114號","121.406463333333","25.016355","6500700","樹林區"
"238019","599-UM","2019/06/28 17:29:16","新北市樹林區八德街96號","121.420878333333","24.980235","6500700","樹林區"
"238024","5061-A6","2019/06/28 17:29:02","新北市樹林區鎮前街158號","121.424476666667","24.9901566666667","6500700","樹林區"
"238018","KEA-2217","2019/06/28 17:29:19","新北市樹林區鎮前街143號","121.424211666667","24.9888366666667","6500700","樹林區"
"238022","KEA-2213","2019/06/28 17:29:13","新北市樹林區仁愛街22號","121.422343333333","24.98209","6500700","樹林區"
"238021","KEA-2539","2019/06/28 17:29:10","新北市樹林區西圳街一段203巷7號","121.392973333333","24.9602616666667","6500700","樹林區"
"238025","303-VK","2019/06/28 17:29:05","新北市樹林區保安街一段286號","121.419365","24.9971483333333","6500700","樹林區"
"238017","283-BY","2019/06/28 17:29:09","新北市樹林區中正路417號","121.416888333333","25.0074616666667","6500700","樹林區"
"238014","282-BY","2019/06/28 17:29:11","新北市樹林區保安街一段294巷20號","121.420256666667","24.9986933333333","6500700","樹林區"
"238020","268-VK","2019/06/28 17:28:57","新北市樹林區千歲街101-2號","121.428516666667","25.00088","6500700","樹林區"
"238026","172-UY","2019/06/28 17:29:15","新北市樹林區味王街10-1號","121.402915","24.9761616666667","6500700","樹林區"
"238016","169-UY","2019/06/28 17:29:04","新北市樹林區長壽街2巷2號","121.424196666667","24.9935783333333","6500700","樹林區"
"239007","AAC-297","2019/06/28 17:29:00","新北市鶯歌區中山路288號","121.343946666667","24.957","6500800","鶯歌區"
"239006","891-R6","2019/06/28 17:29:09","新北市鶯歌區鶯桃路466號","121.33243","24.96561","6500800","鶯歌區"
"239002","661-UM","2019/06/28 17:29:13","新北市鶯歌區國慶街58號","121.349736666667","24.9551066666667","6500800","鶯歌區"
"239008","527-UM","2019/06/28 17:28:57","新北市鶯歌區大湖路534號","121.337471666667","24.9724366666667","6500800","鶯歌區"
"239001","417-VK","2019/06/28 17:29:07","新北市鶯歌區中正三路237號","121.334415","24.9389533333333","6500800","鶯歌區"
"239003","360-BY","2019/06/28 17:29:06","新北市鶯歌區鶯桃路297-4號","121.334305","24.960615","6500800","鶯歌區"
"239004","193-VK","2019/06/28 17:29:07","新北市鶯歌區三鶯路29巷12號","121.35511","24.9407933333333","6500800","鶯歌區"
"221033","297-VK","2019/06/28 17:29:08","新北市汐止區汐萬路一段39-3號","121.65497","25.0693583333333","6501100","汐止區"
"233001","KEA-2870","2019/06/28 17:29:02","新北市烏來區信福路151-1號","121.522778333333","24.8355983333333","6502900","烏來區"
"242044","281-VK","2019/06/28 17:29:02","新北市新莊區富國路101-1號","121.421293333333","25.02554","6500500","新莊區"
"242009","280-VK","2019/06/28 17:29:14","新北市新莊區中原路185號","121.453015","25.0543483333333","6500500","新莊區"
