"lineid","car","time","location","longitude","latitude","cityid","cityname"
"234007","KED-0605","2019/06/28 18:08:58","新北市永和區豫溪街217巷11號","121.52502","25.01003","6500400","永和區"
"234026","9371-KE","2019/06/28 18:09:06","新北市永和區水源街2巷15號","121.512091666667","25.0056433333333","6500400","永和區"
"249005","172-UM","2019/06/28 18:09:07","新北市八里區荖阡坑路15-40號","121.40174","25.13986","6502300","八里區"
"249001","173-UM","2019/06/28 18:09:03","新北市八里區龍米路二段35號","121.448483333333","25.1400233333333","6502300","八里區"
"249004","303-UY","2019/06/28 18:09:16","新北市八里區龍米路二段200巷3號","121.433705","25.1587216666667","6502300","八里區"
"249002","305-UY","2019/06/28 18:09:18","新北市八里區龍米路一段356巷46號","121.45218","25.1304066666667","6502300","八里區"
"249003","593-UM","2019/06/28 18:09:11","新北市八里區松子腳3-2號","121.403073333333","25.1445033333333","6502300","八里區"
"248006","077-UY","2019/06/28 18:09:03","新北市五股區中興路二段53號","121.461865","25.076455","6501500","五股區"
"248008","KED-0815","2019/06/28 18:09:02","新北市五股區中興路二段182巷18-1號","121.456325","25.0815966666667","6501500","五股區"
"248018","KED-0813","2019/06/28 18:09:00","新北市五股區成泰路二段129號","121.438733333333","25.0848683333333","6501500","五股區"
"248014","261-SL","2019/06/28 18:09:02","新北市五股區成泰路一段189巷29號","121.433595","25.0763583333333","6501500","五股區"
"248004","682-TV","2019/06/28 18:09:14","新北市五股區成泰路二段140號","121.438126666667","25.0837616666667","6501500","五股區"
"232011","375-UM","2019/06/28 18:09:12","新北市坪林區國中路4號","121.713468333333","24.9387","6502000","坪林區"
"244007","080-UY","2019/06/28 18:09:14","新北市林口區林口路113巷6弄1號","121.388676666667","25.080615","6501700","林口區"
"244019","402-UM","2019/06/28 18:09:08","新北市林口區忠孝路561巷13號","121.373245","25.0688533333333","6501700","林口區"
"244013","KEA-2802","2019/06/28 18:09:15","新北市林口區中山路188-2號","121.389293333333","25.0789383333333","6501700","林口區"
"244023","483-VK","2019/06/28 18:08:59","新北市林口區隆林街123巷22號","121.384638333333","25.0739933333333","6501700","林口區"
"244017","485-VK","2019/06/28 18:09:13","新北市林口區八德路20巷15號","121.367576666667","25.0677933333333","6501700","林口區"
"244009","656-BX","2019/06/28 18:09:05","新北市林口區中山路492號","121.37998","25.082485","6501700","林口區"
"244011","701-TV","2019/06/28 18:09:10","新北市林口區中正路74巷5弄1號","121.394595","25.07788","6501700","林口區"
"244025","837-TS","2019/06/28 18:09:09","新北市林口區文化北路一段293-2號","121.360195","25.072555","6501700","林口區"
"244021","838-TS","2019/06/28 18:09:13","新北市林口區自強一街69號","121.399843333333","25.0771583333333","6501700","林口區"
"222003","436-BY","2019/06/28 18:09:06","新北市深坑區阿柔洋47號","121.612211666667","24.997865","6501800","深坑區"
"222002","659-BX","2019/06/28 18:09:15","新北市深坑區文化街52號","121.61899","25.0016583333333","6501800","深坑區"
"231058","0293-UT","2019/06/28 18:09:10","新北市新店區安華路28-1號","121.51944","24.9605233333333","6500600","新店區"
"231065","KEA-2219","2019/06/28 18:09:13","新北市新店區安一路一段1-1號","121.51991","24.9611583333333","6500600","新店區"
"231054","260-TV","2019/06/28 18:09:05","新北市新店區安一路一段1-1號","121.51933","24.9614566666667","6500600","新店區"
"231042","268-BY","2019/06/28 18:09:02","新北市新店區安一路一段1-1號","121.51972","24.9613633333333","6500600","新店區"
"231064","278-BY","2019/06/28 18:09:09","新北市新店區安一路一段1-1號","121.51961","24.9610816666667","6500600","新店區"
"231050","AAD-862","2019/06/28 18:09:14","新北市新店區安一路一段1-1號","121.519683333333","24.961115","6500600","新店區"
"231038","3712-VJ","2019/06/28 18:03:36","新北市新店區安華路28-1號","121.51929","24.9605533333333","6500600","新店區"
"231055","4716-K9","2019/06/28 18:09:16","新北市新店區安華路28-1號","121.51954","24.96059","6500600","新店區"
"231056","4715-K9","2019/06/28 18:09:06","新北市新店區安華路1-1號","121.519345","24.9605116666667","6500600","新店區"
"231053","513-UM","2019/06/28 18:09:11","新北市新店區安一路一段1-1號","121.519571666667","24.961155","6500600","新店區"
"231063","641-BX","2019/06/28 18:08:57","新北市新店區安華路28-1號","121.519493333333","24.96055","6500600","新店區"
"231057","720-UM","2019/06/28 18:09:12","新北市新店區安一路一段1-1號","121.519406666667","24.9614416666667","6500600","新店區"
"231040","898-TW","2019/06/28 18:09:13","新北市新店區安華路28-1號","121.519413333333","24.9608766666667","6500600","新店區"
"231043","899-TW","2019/06/28 18:08:57","新北市新店區安華路28-1號","121.519343333333","24.9609033333333","6500600","新店區"
"231066","AKT-0513","2019/06/28 18:09:11","新北市新店區安華路28-1號","121.519386666667","24.9605616666667","6500600","新店區"
"241024","065-VK","2019/06/28 18:09:16","新北市三重區中正北路193巷35弄24號","121.476966666667","25.0710583333333","6500200","三重區"
"241033","AAC-255","2019/06/28 18:09:07","新北市三重區中興北街62號","121.469055","25.0517433333333","6500200","三重區"
"235066","003-UY","2019/06/28 18:08:58","新北市中和區中正路248號","121.495768333333","24.9939966666667","6500300","中和區"
"235064","005-UY","2019/06/28 18:09:06","新北市中和區中正路169號","121.498026666667","24.9936583333333","6500300","中和區"
"235063","006-UY","2019/06/28 18:09:16","新北市中和區員山路36巷16-3號","121.485048333333","24.991175","6500300","中和區"
"235039","097-UM","2019/06/28 18:09:05","新北市中和區中正路169號","121.49797","24.9937366666667","6500300","中和區"
"235065","098-UM","2019/06/28 18:09:02","新北市中和區勝利路13號","121.499606666667","25.0080433333333","6500300","中和區"
"235058","151-BY","2019/06/28 18:08:57","新北市中和區圓通路367巷59弄2號","121.492326666667","24.9834483333333","6500300","中和區"
"235055","183-VK","2019/06/28 18:09:16","新北市中和區員山路36巷16-3號","121.485135","24.991345","6500300","中和區"
"235038","185-VK","2019/06/28 18:09:01","新北市中和區景平路149號","121.513935","24.99232","6500300","中和區"
"235031","255-BX","2019/06/28 18:09:09","新北市中和區和城路一段271巷1號","121.485723333333","24.9917683333333","6500300","中和區"
"235072","301-VK","2019/06/28 18:09:09","新北市中和區中正路531號","121.487905","24.994165","6500300","中和區"
"235043","352-BY","2019/06/28 18:09:09","新北市中和區中正路395號","121.489975","24.9935466666667","6500300","中和區"
"235042","KEA-2878","2019/06/28 18:09:06","新北市中和區中正路226號","121.496158333333","24.9938233333333","6500300","中和區"
"235050","4979-A6","2019/06/28 18:09:13","新北市中和區中正路637巷52弄1號","121.485365","24.9936766666667","6500300","中和區"
"235070","558-UM","2019/06/28 18:09:16","新北市中和區圓通路192號","121.496376666667","24.9944266666667","6500300","中和區"
"235045","565-BX","2019/06/28 18:09:09","新北市中和區中興街130號","121.499848333333","24.9924633333333","6500300","中和區"
"235062","800-TS","2019/06/28 18:09:14","新北市中和區板南路448-1號","121.489656666667","25.00535","6500300","中和區"
"235057","801-TS","2019/06/28 18:09:02","新北市中和區民享街97巷16號","121.475315","24.9998183333333","6500300","中和區"
"235052","805-TS","2019/06/28 18:09:06","新北市中和區中正路2-1號","121.503173333333","24.9934983333333","6500300","中和區"
"235048","896-TW","2019/06/28 18:09:05","新北市中和區員山路36巷16-2號","121.48529","24.9916783333333","6500300","中和區"
"235053","900-TW","2019/06/28 18:09:16","新北市中和區員山路36巷16-3號","121.485155","24.9913383333333","6500300","中和區"
"235054","911-UM","2019/06/28 18:09:12","新北市土城區金城路三段216號","121.472156666667","24.990075","6500300","中和區"
"235051","157-BY","2019/06/28 18:08:58","新北市中和區中興街181號","121.500661666667","24.9900783333333","6500300","中和區"
"235037","AAC-213","2019/06/28 18:09:05","新北市中和區景平路87號","121.517811666667","24.9916066666667","6500300","中和區"
"235059","AAC-215","2019/06/28 18:09:01","新北市中和區員山路36巷16-3號","121.485096666667","24.9912633333333","6500300","中和區"
"226004","312-R5","2019/06/28 18:09:14","新北市平溪區白石里白石腳5號","121.721495","25.0214883333333","6502400","平溪區"
"228001","212-TW","2019/06/28 18:09:03","新北市貢寮區真理里新港街26巷55弄2-1號","121.927386666667","25.05287","6502600","貢寮區"
"228002","663-BX","2019/06/28 18:09:11","新北市貢寮區福連里馬崗街13-1號","122.001881666667","25.0129483333333","6502600","貢寮區"
"228003","828-UM","2019/06/28 18:09:09","新北市貢寮區真理里美艷山街6-2號","121.92881","25.0607616666667","6502600","貢寮區"
"224006","676-BX","2019/06/28 18:09:04","新北市瑞芳區中山路153號","121.802476666667","25.10647","6501200","瑞芳區"
"224007","285-BY","2019/06/28 18:09:19","新北市瑞芳區四腳亭坑路3-1號","121.776785","25.10933","6501200","瑞芳區"
"224009","275-VK","2019/06/28 18:09:15","新北市瑞芳區金光路213號","121.852475","25.1074883333333","6501200","瑞芳區"
"224008","273-VK","2019/06/28 18:09:15","新北市瑞芳區員山子路3-9號","121.820255","25.1037683333333","6501200","瑞芳區"
"224005","271-BY","2019/06/28 18:09:14","新北市瑞芳區建基路二段12-1號","121.815258333333","25.12863","6501200","瑞芳區"
"227002","642-TC","2019/06/28 18:09:05","新北市雙溪區共和里東榮街42號","121.866243333333","25.0337183333333","6502500","雙溪區"
"227001","400-TW","2019/06/28 18:08:58","新北市雙溪區三貂里定福路1-2號","121.850745","25.0633916666667","6502500","雙溪區"
"253006","032-BX","2019/06/28 18:09:10","新北市石門區老梅路52巷25弄2-1號","121.54669","25.2874183333333","6502200","石門區"
"253005","295-VK","2019/06/28 18:09:07","新北市石門區福安街53號","121.568396666667","25.2916833333333","6502200","石門區"
"222001","KEA-2212","2019/06/28 18:07:44","新北市深坑區北深路二段190號","121.613818333333","25.0022583333333","6501800","深坑區"
"208002","KEA-2872","2019/06/28 18:09:08","新北市金山區三界壇路111巷16號","121.618753333333","25.2316016666667","6502700","金山區"
"208003","665-BX","2019/06/28 18:09:17","新北市金山區民生路31號","121.643721666667","25.22154","6502700","金山區"
"251004","009-UM","2019/06/28 18:09:16","新北市淡水區民族路110巷43弄1號","121.46155","25.13516","6501000","淡水區"
"251005","010-UM","2019/06/28 18:08:58","新北市淡水區水源街一段147號","121.44756","25.1717933333333","6501000","淡水區"
"251008","181-VK","2019/06/28 18:09:11","新北市淡水區中正東路二段27-2號","121.458996666667","25.1569016666667","6501000","淡水區"
"251010","413-VK","2019/06/28 18:09:16","新北市淡水區中正路二段52號","121.419815","25.18331","6501000","淡水區"
"251012","441-VK","2019/06/28 18:08:59","新北市淡水區北新路三段122號","121.487385","25.1889033333333","6501000","淡水區"
"251001","559-UM","2019/06/28 18:09:10","新北市淡水區自立路15巷1號","121.462828333333","25.1298333333333","6501000","淡水區"
"251006","561-UM","2019/06/28 18:09:02","新北市淡水區真理街3巷21-1號","121.437703333333","25.1762583333333","6501000","淡水區"
"251009","575-R6","2019/06/28 18:09:05","新北市淡水區大仁街6巷21號","121.442968333333","25.175135","6501000","淡水區"
"251011","650-BX","2019/06/28 18:09:15","新北市淡水區三空泉6-3號","121.476803333333","25.162465","6501000","淡水區"
"251002","672-BX","2019/06/28 18:09:18","新北市淡水區中正東路40號","121.449996666667","25.1652416666667","6501000","淡水區"
"251003","766-UM","2019/06/28 18:09:12","新北市淡水區大忠街113巷10號","121.446935","25.177585","6501000","淡水區"
"207004","681-TV","2019/06/28 18:09:03","新北市萬里區中幅里中福路93號","121.675523333333","25.1697366666667","6502800","萬里區"
"207003","550-UM","2019/06/28 18:09:15","新北市萬里區野柳里港西路701-2號","121.685351666667","25.2045983333333","6502800","萬里區"
"252002","178-VK","2019/06/28 18:09:04","新北市三芝區中山路二段39號","121.50293","25.255135","6502100","三芝區"
"252003","249-BX","2019/06/28 18:09:10","新北市三芝區埔頭里埔頭37號","121.49871","25.2604933333333","6502100","三芝區"
"208001","170-UY","2019/06/28 18:08:58","新北市金山區磺港里磺港路63號","121.64718","25.2269816666667","6502700","金山區"
"237004","KEA-2597","2019/06/28 18:09:11","新北市三峽區圳頭1-1號","121.374313333333","24.8904083333333","6500900","三峽區"
"237007","153-BY","2019/06/28 18:09:01","新北市三峽區中正路二段370巷36號","121.364643333333","24.9111516666667","6500900","三峽區"
"237009","210-TH","2019/06/28 18:09:07","新北市三峽區大仁路49號","121.365508333333","24.9372883333333","6500900","三峽區"
"237013","252-BX","2019/06/28 18:09:04","新北市三峽區長泰街16號","121.378843333333","24.931145","6500900","三峽區"
"237012","275-BY","2019/06/28 18:09:06","新北市三峽區民生街1巷6-8號","121.377105","24.93567","6500900","三峽區"
"237008","302-VK","2019/06/28 18:09:01","新北市三峽區白雞41號","121.381313333333","24.9117216666667","6500900","三峽區"
"237014","433-BY","2019/06/28 18:09:07","新北市三峽區復興路110巷3弄17號","121.372551666667","24.938695","6500900","三峽區"
"237006","5529-G3","2019/06/28 18:09:14","新北市三峽區溪東路34巷13號","121.400378333333","24.93426","6500900","三峽區"
"237011","KEA-2596","2019/06/28 18:09:14","新北市三峽區大同路32號","121.377635","24.92915","6500900","三峽區"
"237015","649-BX","2019/06/28 18:09:13","新北市三峽區紫新路25巷8號","121.422708333333","24.921345","6500900","三峽區"
"237010","706-TV","2019/06/28 18:09:06","新北市三峽區大同路202-2號","121.36804","24.9273383333333","6500900","三峽區"
"237005","AKY-6261","2019/06/28 18:09:11","新北市三峽區忠孝街11號","121.37081","24.9343916666667","6500900","三峽區"
"236042","KED-0685","2019/06/28 18:09:05","新北市土城區裕生路96號","121.447158333333","24.9848233333333","6501300","土城區"
"233002","762-BX","2019/06/28 18:09:10","新北市烏來區新烏路五段132號","121.547233333333","24.8705366666667","6502900","烏來區"
"236079","166-UM","2019/06/28 18:08:58","新北市土城區永寧路29號","121.43049","24.9630166666667","6501300","土城區"
"236030","253-BX","2019/06/28 18:09:12","新北市土城區城林路6巷80號","121.43842","24.97975","6501300","土城區"
"236026","269-VK","2019/06/28 18:09:16","新北市土城區承天路18號","121.439443333333","24.9634083333333","6501300","土城區"
"236014","270-VK","2019/06/28 18:09:17","新北市土城區學府路一段248號","121.451603333333","24.984605","6501300","土城區"
"236039","271-VK","2019/06/28 18:09:16","新北市土城區明德路一段361-3號","121.456215","24.9777883333333","6501300","土城區"
"236069","KEA-2877","2019/06/28 18:09:04","新北市土城區明德路一段128巷2號","121.463191666667","24.9791233333333","6501300","土城區"
"252001","KED-0821","2019/06/28 18:09:07","新北市三芝區中興街二段2號","121.498358333333","25.2565966666667","6502100","三芝區"
"236020","401-BY","2019/06/28 18:09:03","新北市土城區員福街24號","121.441425","24.978685","6501300","土城區"
"236059","912-UM","2019/06/28 18:09:14","新北市土城區中央路四段161號","121.41519","24.9568366666667","6501300","土城區"
"236048","913-UM","2019/06/28 18:09:16","新北市土城區明德路一段365-1號","121.453545","24.9790616666667","6501300","土城區"
"236063","915-UM","2019/06/28 18:09:11","新北市板橋區南雅南路二段43號","121.451446666667","24.9945966666667","6501300","土城區"
"236055","AAC-216","2019/06/28 18:09:13","新北市土城區中華路二段92號","121.438263333333","24.9747183333333","6501300","土城區"
"242039","AAC-296","2019/06/28 18:09:02","新北市新莊區民安西路40號","121.427193333333","25.0209683333333","6500500","新莊區"
"242060","986-R7","2019/06/28 18:09:16","新北市新莊區新樹路262號","121.432743333333","25.01471","6500500","新莊區"
"242048","751-BX","2019/06/28 18:09:13","新北市新莊區富國路105號","121.422878333333","25.0252566666667","6500500","新莊區"
"242029","615-BX","2019/06/28 18:09:17","新北市新莊區幸福路906號","121.442938333333","25.049135","6500500","新莊區"
"242027","613-BX","2019/06/28 18:09:06","新北市新莊區幸福路82號","121.456496666667","25.0495","6500500","新莊區"
"242058","612-BX","2019/06/28 18:09:10","新北市新莊區壽山路47號","121.414383333333","25.0309116666667","6500500","新莊區"
"242046","566-BX","2019/06/28 18:09:08","新北市新莊區福營路303號","121.426743333333","25.0290383333333","6500500","新莊區"
"242050","497-BY","2019/06/28 18:09:10","新北市新莊區民本街11巷2弄29號","121.429141666667","25.0200283333333","6500500","新莊區"
"242056","442-UM","2019/06/28 18:09:13","新北市新莊區豐年街豐1巷35號","121.447733333333","25.0313566666667","6500500","新莊區"
"242005","440-UM","2019/06/28 18:09:12","新北市新莊區自立街83號","121.45457","25.0454683333333","6500500","新莊區"
"242041","415-TV","2019/06/28 18:09:02","新北市新莊區中正路694巷10號","121.418446666667","25.0284366666667","6500500","新莊區"
"242011","413-TV","2019/06/28 18:09:13","新北市新莊區中榮街47號","121.449446666667","25.05276","6500500","新莊區"
"242025","362-BY","2019/06/28 18:09:15","新北市新莊區五權一路5-2號","121.457803333333","25.06593","6500500","新莊區"
"242013","132-UY","2019/06/28 18:09:16","新北市新莊區新泰路255巷83號","121.44206","25.0388666666667","6500500","新莊區"
"242037","135-UY","2019/06/28 18:09:15","新北市新莊區後港一路49巷5弄1號","121.425668333333","25.027165","6500500","新莊區"
"242054","172-VK","2019/06/28 18:09:14","新北市新莊區民安西路372號","121.42761","25.0107333333333","6500500","新莊區"
"242015","173-VK","2019/06/28 18:09:07","新北市新莊區中和街59巷10弄14號","121.446901666667","25.04713","6500500","新莊區"
"242021","175-VK","2019/06/28 18:09:19","新北市新莊區新興街106號","121.45064","25.0390133333333","6500500","新莊區"
"242019","KED-0687","2019/06/28 18:09:08","新北市新莊區民樂街23號","121.45769","25.040695","6500500","新莊區"
"242002","347-TH","2019/06/28 18:09:08","新北市新莊區新莊路2號","121.459386666667","25.0379716666667","6500500","新莊區"
"242034","348-TH","2019/06/28 18:09:19","新北市新莊區景德路308號","121.44751","25.0336316666667","6500500","新莊區"
"242007","349-TH","2019/06/28 18:09:16","新北市新莊區中華路二段40號","121.453996666667","25.0455533333333","6500500","新莊區"
"242032","350-TH","2019/06/28 18:09:16","新北市新莊區新泰路277巷12號","121.445041666667","25.0403416666667","6500500","新莊區"
"242017","351-TH","2019/06/28 18:09:17","新北市新莊區中港路297號","121.45287","25.0443733333333","6500500","新莊區"
"238015","755-BX","2019/06/28 18:09:00","新北市樹林區文德街1巷2號","121.419328333333","24.99124","6500700","樹林區"
"238023","601-UM","2019/06/28 18:09:16","新北市樹林區忠義街25號","121.409616666667","25.0148483333333","6500700","樹林區"
"238019","599-UM","2019/06/28 18:09:16","新北市樹林區中華路1號","121.424931666667","24.9836033333333","6500700","樹林區"
"238018","KEA-2217","2019/06/28 18:09:19","新北市板橋區大觀路三段236-6號","121.429218333333","24.9923483333333","6500700","樹林區"
"238022","KEA-2213","2019/06/28 18:09:13","新北市樹林區太平路174巷29弄1號","121.417756666667","24.9766","6500700","樹林區"
"238021","KEA-2539","2019/06/28 18:09:10","新北市樹林區柑園街二段175號","121.380446666667","24.95289","6500700","樹林區"
"238025","303-VK","2019/06/28 18:09:13","新北市樹林區保安街一段339號","121.417296666667","24.998795","6500700","樹林區"
"238017","283-BY","2019/06/28 18:09:09","新北市樹林區中正路714號","121.409156666667","25.0177966666667","6500700","樹林區"
"238014","282-BY","2019/06/28 18:09:11","新北市樹林區大安路111巷11號","121.423151666667","24.997665","6500700","樹林區"
"238020","268-VK","2019/06/28 18:09:17","新北市樹林區三俊街135巷52號","121.418693333333","25.01719","6500700","樹林區"
"238026","172-UY","2019/06/28 18:09:15","新北市樹林區佳園路一段46號","121.392953333333","24.9709266666667","6500700","樹林區"
"238016","169-UY","2019/06/28 18:08:43","新北市樹林區中山路一段282號","121.420575","24.9868683333333","6500700","樹林區"
"239007","AAC-297","2019/06/28 18:09:00","新北市鶯歌區育英街67號","121.347241666667","24.9522433333333","6500800","鶯歌區"
"239006","891-R6","2019/06/28 18:09:09","新北市鶯歌區鶯桃路365巷98號","121.330745","24.9621616666667","6500800","鶯歌區"
"239002","661-UM","2019/06/28 18:09:13","新北市鶯歌區中山路194-11號","121.347458333333","24.95707","6500800","鶯歌區"
"239008","527-UM","2019/06/28 18:09:18","新北市鶯歌區朝陽街53巷22號","121.338688333333","24.9776383333333","6500800","鶯歌區"
"239001","417-VK","2019/06/28 18:09:07","新北市鶯歌區國中街199號","121.338223333333","24.9391083333333","6500800","鶯歌區"
"239003","360-BY","2019/06/28 18:09:06","新北市鶯歌區福安街32巷34號","121.335318333333","24.963565","6500800","鶯歌區"
"239004","193-VK","2019/06/28 18:09:07","新北市鶯歌區尖山路137巷2號","121.346841666667","24.94869","6500800","鶯歌區"
"221008","489-VK","2019/06/28 18:09:08","新北市汐止區明峰街200-1號","121.627741666667","25.0694183333333","6501100","汐止區"
"221036","130-UY","2019/06/28 18:09:14","新北市汐止區大同路三段116號","121.672066666667","25.076785","6501100","汐止區"
"221015","131-UY","2019/06/28 18:09:08","新北市汐止區長江街283號","121.664968333333","25.0807633333333","6501100","汐止區"
"221010","269-BY","2019/06/28 18:09:03","新北市汐止區汐萬路二段275巷1弄25號","121.646341666667","25.0881666666667","6501100","汐止區"
"221012","278-VK","2019/06/28 18:09:01","新北市汐止區長興街二段50巷10號","121.67452","25.081105","6501100","汐止區"
"221023","279-VK","2019/06/28 18:08:58","新北市汐止區民族五街69號","121.628238333333","25.0703333333333","6501100","汐止區"
"221032","280-BY","2019/06/28 18:09:11","新北市汐止區橫科路53號","121.618545","25.0509466666667","6501100","汐止區"
"221027","281-BY","2019/06/28 18:09:18","新北市汐止區中正路7號","121.663213333333","25.0699783333333","6501100","汐止區"
"221033","297-VK","2019/06/28 18:09:08","新北市汐止區林森街21號","121.621771666667","25.0405","6501100","汐止區"
"221029","298-VK","2019/06/28 18:09:04","新北市汐止區樟樹二路134號","121.639876666667","25.0657683333333","6501100","汐止區"
"221021","299-VK","2019/06/28 18:09:14","新北市汐止區新興路12號","121.656408333333","25.0648016666667","6501100","汐止區"
"221031","353-TW","2019/06/28 18:09:03","新北市汐止區中興路151號","121.631283333333","25.0658833333333","6501100","汐止區"
"221035","622-UM","2019/06/28 18:09:09","新北市汐止區汐萬路一段115巷2號","121.654293333333","25.0707666666667","6501100","汐止區"
"221038","646-BX","2019/06/28 18:09:10","新北市汐止區南興路85號","121.652871666667","25.0589866666667","6501100","汐止區"
"221002","707-TV","2019/06/28 18:09:12","新北市汐止區福德一路221號","121.634468333333","25.065135","6501100","汐止區"
"221018","753-BX","2019/06/28 18:09:02","新北市汐止區招商街19巷25號","121.667481666667","25.06824","6501100","汐止區"
"233001","KEA-2870","2019/06/28 18:09:02","新北市烏來區新烏路五段170號","121.547533333333","24.869865","6502900","烏來區"
"224002","257-TC","2019/06/28 18:09:01","新北市瑞芳區三爪子坑路111巷30號","121.81105","25.1058083333333","6501200","瑞芳區"
"242044","281-VK","2019/06/28 18:09:02","新北市新莊區雙鳳路156號","121.412818333333","25.0273333333333","6500500","新莊區"
"242009","280-VK","2019/06/28 18:09:14","新北市新莊區中華路二段212號","121.452871666667","25.05244","6500500","新莊區"
"235061","KEA-2875","2019/06/28 18:09:01","新北市中和區員山路82巷10弄7號","121.481541666667","24.9936066666667","6500300","中和區"
