"lineid","car","time","location","longitude","latitude","cityid","cityname"
"234046","148-BY","2019/06/28 18:29:11","新北市永和區福和路1號","121.526208333333","25.0097566666667","6500400","永和區"
"234086","338-UY","2019/06/28 18:29:10","新北市永和區福和路152號","121.521676666667","25.0078516666667","6500400","永和區"
"234017","745-BX","2019/06/28 18:29:01","新北市永和區福和路1號","121.52638","25.0096766666667","6500400","永和區"
"234007","KED-0605","2019/06/28 18:28:58","新北市永和區環河西路二段185號","121.502331666667","25.0111833333333","6500400","永和區"
"234013","KEA-2591","2019/06/28 18:29:18","新北市永和區福和路1號","121.526036666667","25.0094916666667","6500400","永和區"
"234061","AAD-866","2019/06/28 18:29:21","新北市永和區福和路1號","121.526085","25.0096283333333","6500400","永和區"
"234026","9371-KE","2019/06/28 18:29:06","新北市永和區豫溪街52巷6號","121.515826666667","25.0095133333333","6500400","永和區"
"234011","9373-KE","2019/06/28 18:29:05","新北市永和區保福路二段158巷1號","121.509125","25.0149916666667","6500400","永和區"
"249005","172-UM","2019/06/28 18:29:07","新北市八里區中華路三段145巷9號","121.39233","25.1331283333333","6502300","八里區"
"249001","173-UM","2019/06/28 18:29:03","新北市八里區龍米路一段132號","121.453031666667","25.12548","6502300","八里區"
"249004","303-UY","2019/06/28 18:29:16","新北市八里區忠孝路71-1號","121.426903333333","25.1603583333333","6502300","八里區"
"249002","305-UY","2019/06/28 18:28:58","新北市八里區龍形三街8號","121.449901666667","25.1316383333333","6502300","八里區"
"248016","026-BX","2019/06/28 18:29:05","新北市五股區凌雲路一段83巷10弄7號","121.45031","25.10112","6501500","五股區"
"248008","KED-0815","2019/06/28 18:29:02","新北市五股區更洲路32巷8弄35-9號","121.459851666667","25.0794466666667","6501500","五股區"
"248018","KED-0813","2019/06/28 18:29:01","新北市五股區御史路285號","121.41993","25.1065966666667","6501500","五股區"
"248012","247-BX","2019/06/28 18:29:08","新北市五股區御成路47號","121.441665","25.0919166666667","6501500","五股區"
"248014","261-SL","2019/06/28 18:29:02","新北市五股區成泰路一段105號","121.435785","25.071345","6501500","五股區"
"248010","272-BY","2019/06/28 18:29:03","新北市五股區水碓路16巷32號","121.43402","25.0729316666667","6501500","五股區"
"248002","678-BX","2019/06/28 18:29:09","新北市五股區西雲路116-3號","121.444573333333","25.0936833333333","6501500","五股區"
"248004","682-TV","2019/06/28 18:29:14","新北市五股區民義路一段152號","121.433131666667","25.0873866666667","6501500","五股區"
"234077","969-R7","2019/06/28 18:28:59","新北市永和區福和路1號","121.526483333333","25.0099016666667","6500400","永和區"
"232011","375-UM","2019/06/28 18:29:13","新北市坪林區坪雙路一段43號","121.711725","24.9424183333333","6502000","坪林區"
"244007","080-UY","2019/06/28 18:29:14","新北市林口區後湖40-2號","121.386615","25.09984","6501700","林口區"
"244019","402-UM","2019/06/28 18:29:08","新北市林口區忠孝路646巷11號","121.3791","25.0674983333333","6501700","林口區"
"244013","KEA-2802","2019/06/28 18:29:15","新北市林口區中正路480號","121.38262","25.07746","6501700","林口區"
"244023","483-VK","2019/06/28 18:28:59","新北市林口區仁愛路二段62巷7號","121.384221666667","25.0759466666667","6501700","林口區"
"244017","485-VK","2019/06/28 18:29:13","新北市林口區文化二路一段289號","121.368321666667","25.071465","6501700","林口區"
"244009","656-BX","2019/06/28 18:29:05","新北市林口區寶林路123號","121.382976666667","25.08544","6501700","林口區"
"244011","701-TV","2019/06/28 18:29:10","新北市林口區興林路17巷6號","121.390323333333","25.0769716666667","6501700","林口區"
"244025","837-TS","2019/06/28 18:29:05","新北市林口區南勢六街55號","121.355821666667","25.07165","6501700","林口區"
"244021","838-TS","2019/06/28 18:29:12","新北市林口區自強二街16號","121.397755","25.07816","6501700","林口區"
"243015","680-BX","2019/06/28 18:29:08","新北市泰山區美寧街50號","121.430531666667","25.064445","6501600","泰山區"
"222003","436-BY","2019/06/28 18:29:06","新北市深坑區翠谷街21巷3號","121.626878333333","25.0083016666667","6501800","深坑區"
"222002","659-BX","2019/06/28 18:29:15","新北市深坑區雲鄉路133號","121.62266","24.998145","6501800","深坑區"
"231061","002-UM","2019/06/28 18:29:04","新北市新店區安華路28-1號","121.519595","24.96082","6500600","新店區"
"231058","0293-UT","2019/06/28 18:29:10","新北市新店區環河路11號","121.537881666667","24.9612866666667","6500600","新店區"
"231060","106-UY","2019/06/28 18:29:17","新北市新店區安華路28-1號","121.519611666667","24.96081","6500600","新店區"
"231051","107-UY","2019/06/28 18:29:00","新北市新店區安一路一段1-1號","121.519483333333","24.96127","6500600","新店區"
"231049","108-UY","2019/06/28 18:29:05","新北市新店區安一路一段1-1號","121.519643333333","24.9610883333333","6500600","新店區"
"231065","KEA-2219","2019/06/28 18:29:13","新北市新店區安一路一段1-1號","121.519725","24.961265","6500600","新店區"
"231054","260-TV","2019/06/28 18:29:05","新北市新店區安一路一段1-1號","121.51934","24.9612483333333","6500600","新店區"
"231042","268-BY","2019/06/28 18:29:02","新北市新店區安康路一段355-10號","121.520571666667","24.9638483333333","6500600","新店區"
"231064","278-BY","2019/06/28 18:29:09","新北市新店區安一路一段1-1號","121.519626666667","24.96108","6500600","新店區"
"231050","AAD-862","2019/06/28 18:29:14","新北市新店區安一路一段1-1號","121.519718333333","24.961145","6500600","新店區"
"231045","355-BY","2019/06/28 18:29:03","新北市新店區安華路28-1號","121.519366666667","24.9609683333333","6500600","新店區"
"231038","3712-VJ","2019/06/28 18:03:36","新北市新店區安華路28-1號","121.51929","24.9605533333333","6500600","新店區"
"231055","4716-K9","2019/06/28 18:29:16","新北市新店區中正路132號","121.542045","24.971375","6500600","新店區"
"231056","4715-K9","2019/06/28 18:29:06","新北市新店區二十張路129巷5弄7號","121.536676666667","24.978885","6500600","新店區"
"231053","513-UM","2019/06/28 18:29:11","新北市新店區北宜路一段124號","121.539376666667","24.9550433333333","6500600","新店區"
"231041","619-UM","2019/06/28 18:29:08","新北市新店區安華路28-1號","121.519495","24.960945","6500600","新店區"
"231063","641-BX","2019/06/28 18:29:17","新北市新店區安華路28-1號","121.519541666667","24.9605533333333","6500600","新店區"
"231048","KED-0819","2019/06/28 18:29:05","新北市新店區安一路一段1-1號","121.519626666667","24.9612866666667","6500600","新店區"
"231057","720-UM","2019/06/28 18:29:13","新北市新店區安一路一段1-1號","121.519413333333","24.9613616666667","6500600","新店區"
"231044","897-TW","2019/06/28 18:29:15","新北市新店區安華路28-1號","121.519548333333","24.9608033333333","6500600","新店區"
"231040","898-TW","2019/06/28 18:29:13","新北市新店區安華路28-1號","121.519451666667","24.96094","6500600","新店區"
"231043","899-TW","2019/06/28 18:29:17","新北市新店區安華路28-1號","121.519353333333","24.9608583333333","6500600","新店區"
"231066","AKT-0513","2019/06/28 18:29:11","新北市新店區安華路28-1號","121.519473333333","24.96066","6500600","新店區"
"235066","003-UY","2019/06/28 18:28:58","新北市中和區中山路二段122號","121.502641666667","25.0036416666667","6500300","中和區"
"235064","005-UY","2019/06/28 18:29:06","新北市中和區連城路139巷52號","121.496671666667","24.9973933333333","6500300","中和區"
"235063","006-UY","2019/06/28 18:29:16","新北市中和區連城路389巷13號","121.48666","24.9950066666667","6500300","中和區"
"235056","096-UM","2019/06/28 18:29:06","新北市板橋區民生路一段1-2號","121.476971666667","25.011915","6500300","中和區"
"235039","097-UM","2019/06/28 18:29:06","新北市中和區安平路202號","121.513463333333","24.9995216666667","6500300","中和區"
"235065","098-UM","2019/06/28 18:29:02","新北市中和區中山路二段64巷20號","121.503065","25.0059483333333","6500300","中和區"
"235040","150-BY","2019/06/28 18:29:13","新北市中和區安平路59號","121.509613333333","24.995115","6500300","中和區"
"235058","151-BY","2019/06/28 18:29:17","新北市中和區圓通路369巷30弄30號","121.488988333333","24.98478","6500300","中和區"
"235055","183-VK","2019/06/28 18:29:16","新北市中和區中山路三段105號","121.474995","25.00607","6500300","中和區"
"235038","185-VK","2019/06/28 18:29:01","新北市中和區立人街21號","121.521335","24.9941116666667","6500300","中和區"
"235049","186-VK","2019/06/28 18:29:12","新北市中和區景安路130號","121.50516","24.9943466666667","6500300","中和區"
"235031","255-BX","2019/06/28 18:29:09","新北市中和區中山路二段471號","121.483405","25.0047983333333","6500300","中和區"
"235044","293-VK","2019/06/28 18:29:06","新北市中和區復興路301巷15號","121.501628333333","24.9896583333333","6500300","中和區"
"235072","301-VK","2019/06/28 18:29:09","新北市中和區連城路171巷41弄1號","121.496045","24.9967183333333","6500300","中和區"
"235043","352-BY","2019/06/28 18:29:16","新北市中和區景平路253號","121.508733333333","24.992795","6500300","中和區"
"235042","KEA-2878","2019/06/28 18:29:06","新北市中和區自立路56巷17號","121.522783333333","24.991615","6500300","中和區"
"235050","4979-A6","2019/06/28 18:29:13","新北市中和區興南路一段1號","121.511473333333","24.9911883333333","6500300","中和區"
"235069","4980-A6","2019/06/28 18:29:09","新北市中和區連城路169號","121.495418333333","24.9984233333333","6500300","中和區"
"235070","558-UM","2019/06/28 18:29:16","新北市中和區安和路159號","121.50604","24.9972616666667","6500300","中和區"
"235045","565-BX","2019/06/28 18:29:09","新北市中和區南山路236巷36弄5號","121.50414","24.9884116666667","6500300","中和區"
"235060","KED-0823","2019/06/28 18:29:11","新北市中和區員山路417號","121.480995","25.0032533333333","6500300","中和區"
"235047","732-UM","2019/06/28 18:29:00","新北市中和區南山路250巷2號","121.507775","24.988845","6500300","中和區"
"235062","800-TS","2019/06/28 18:29:15","新北市中和區中山路二段296號","121.496035","25.0024733333333","6500300","中和區"
"235057","801-TS","2019/06/28 18:29:02","新北市中和區員山路327巷52號","121.48013","25.0018716666667","6500300","中和區"
"235041","802-TS","2019/06/28 18:29:13","新北市中和區景新街137號","121.506098333333","24.9969433333333","6500300","中和區"
"235052","805-TS","2019/06/28 18:29:06","新北市中和區興南路二段96號","121.505191666667","24.9841866666667","6500300","中和區"
"235048","896-TW","2019/06/28 18:29:05","新北市中和區中正路79號","121.500811666667","24.993465","6500300","中和區"
"235053","900-TW","2019/06/28 18:29:16","新北市中和區連城路583巷15號","121.479298333333","24.9934033333333","6500300","中和區"
"235054","911-UM","2019/06/28 18:29:12","新北市中和區莒光路124號","121.472483333333","25.0016966666667","6500300","中和區"
"235051","157-BY","2019/06/28 18:29:18","新北市中和區興南路二段114巷16弄8號","121.503935","24.984845","6500300","中和區"
"235037","AAC-213","2019/06/28 18:29:05","新北市中和區景平路89號","121.51771","24.9915616666667","6500300","中和區"
"235059","AAC-215","2019/06/28 18:29:01","新北市中和區員山路36巷16-2號","121.485366666667","24.99093","6500300","中和區"
"220069","AAD-861","2019/06/28 18:29:15","新北市板橋區華東街1-10號","121.448418333333","24.99505","6500100","板橋區"
"226004","312-R5","2019/06/28 18:29:14","新北市平溪區靜安路二段268號","121.725668333333","25.02202","6502400","平溪區"
"228001","212-TW","2019/06/28 18:29:03","新北市貢寮區仁理村仁和路120號","121.922956666667","25.0511183333333","6502600","貢寮區"
"228002","663-BX","2019/06/28 18:29:11","新北市貢寮區福連里香蘭街11號","121.97845","25.0236666666667","6502600","貢寮區"
"228003","828-UM","2019/06/28 18:29:09","新北市貢寮區和美里和美街43-1號","121.914661666667","25.091625","6502600","貢寮區"
"224010","AGQ-8101","2019/06/28 18:29:17","新北市瑞芳區烏勢巷111號","121.846191666667","25.1085116666667","6501200","瑞芳區"
"224006","676-BX","2019/06/28 18:29:04","新北市瑞芳區明燈路二段38號","121.810201666667","25.107745","6501200","瑞芳區"
"224007","285-BY","2019/06/28 18:28:59","新北市瑞芳區大埔路吉慶公園城32號","121.764391666667","25.0997233333333","6501200","瑞芳區"
"224009","275-VK","2019/06/28 18:29:16","新北市瑞芳區五號路308號","121.856838333333","25.11146","6501200","瑞芳區"
"224008","273-VK","2019/06/28 18:29:15","新北市瑞芳區岳王路1巷23號","121.806063333333","25.11049","6501200","瑞芳區"
"224005","271-BY","2019/06/28 18:29:13","新北市瑞芳區瑞濱路105號","121.8204","25.1203816666667","6501200","瑞芳區"
"227002","642-TC","2019/06/28 18:29:05","新北市雙溪區魚行里坤溪35號","121.87042","25.0307766666667","6502500","雙溪區"
"227001","400-TW","2019/06/28 18:29:18","新北市雙溪區牡丹里牡丹135號","121.851091666667","25.0590416666667","6502500","雙溪區"
"253006","032-BX","2019/06/28 18:29:10","新北市石門區公地46-1號","121.545643333333","25.2900116666667","6502200","石門區"
"253005","295-VK","2019/06/28 18:29:07","新北市石門區老崩山2號","121.553051666667","25.2914783333333","6502200","石門區"
"222001","KEA-2212","2019/06/28 18:29:03","新北市深坑區北深路一段199號","121.630831666667","25.0094666666667","6501800","深坑區"
"208002","KEA-2872","2019/06/28 18:29:08","新北市金山區民生路202號","121.64455","25.2224066666667","6502700","金山區"
"208003","665-BX","2019/06/28 18:29:16","新北市金山區中山路297號","121.635926666667","25.2233766666667","6502700","金山區"
"251004","009-UM","2019/06/28 18:29:16","新北市淡水區民族路31巷36號","121.462508333333","25.1364583333333","6501000","淡水區"
"251005","010-UM","2019/06/28 18:29:17","新北市淡水區中正東路37號","121.446216666667","25.1684566666667","6501000","淡水區"
"251008","181-VK","2019/06/28 18:29:11","新北市淡水區水源街二段346巷1弄1號","121.464375","25.1754816666667","6501000","淡水區"
"251010","413-VK","2019/06/28 18:29:16","新北市淡水區沙崙路181巷2-1號","121.424226666667","25.184145","6501000","淡水區"
"251012","441-VK","2019/06/28 18:29:19","新北市淡水區北新路一段163號","121.458926666667","25.1822766666667","6501000","淡水區"
"251001","559-UM","2019/06/28 18:29:10","新北市淡水區自強路367號","121.464325","25.1331466666667","6501000","淡水區"
"251006","561-UM","2019/06/28 18:29:02","新北市淡水區新生街51巷16號","121.440611666667","25.175295","6501000","淡水區"
"251011","650-BX","2019/06/28 18:29:15","新北市淡水區坪頂路38巷1號","121.457396666667","25.162225","6501000","淡水區"
"251002","672-BX","2019/06/28 18:28:58","新北市淡水區竿蓁二街65號","121.454921666667","25.1633466666667","6501000","淡水區"
"251003","766-UM","2019/06/28 18:29:11","新北市淡水區北新路169巷35-1號","121.449628333333","25.1801333333333","6501000","淡水區"
"207004","681-TV","2019/06/28 18:29:03","新北市萬里區萬里里瑪鋉頂街49號","121.689101666667","25.1790283333333","6502800","萬里區"
"207003","550-UM","2019/06/28 18:29:15","新北市萬里區野柳里港東路155號","121.6897","25.2052683333333","6502800","萬里區"
"252002","178-VK","2019/06/28 18:29:04","新北市三芝區中山路二段39號","121.502943333333","25.2551316666667","6502100","三芝區"
"252003","249-BX","2019/06/28 18:29:10","新北市三芝區後厝里北勢子44-3號","121.47087","25.2517966666667","6502100","三芝區"
"208001","170-UY","2019/06/28 18:29:07","新北市金山區文化一路8號","121.637013333333","25.2243516666667","6502700","金山區"
"237004","KEA-2597","2019/06/28 18:29:11","新北市三峽區五寮61號","121.360863333333","24.8602216666667","6500900","三峽區"
"237007","153-BY","2019/06/28 18:29:01","新北市三峽區中正路三段170巷34號","121.352735","24.9046633333333","6500900","三峽區"
"237009","210-TH","2019/06/28 18:29:07","新北市三峽區大同路221巷1號","121.367451666667","24.92679","6500900","三峽區"
"237013","252-BX","2019/06/28 18:29:03","新北市三峽區光明路69巷25號","121.376643333333","24.9292","6500900","三峽區"
"237012","275-BY","2019/06/28 18:29:06","新北市三峽區三樹路168巷30號","121.3795","24.9405716666667","6500900","三峽區"
"237008","302-VK","2019/06/28 18:29:01","新北市三峽區白雞115-8號","121.400806666667","24.9067216666667","6500900","三峽區"
"237014","433-BY","2019/06/28 18:29:07","新北市三峽區和平街61號","121.370166666667","24.9365433333333","6500900","三峽區"
"237006","5529-G3","2019/06/28 18:29:15","新北市三峽區溪東路371巷2弄1號","121.412066666667","24.9297083333333","6500900","三峽區"
"237011","KEA-2596","2019/06/28 18:29:11","新北市三峽區溪東路218巷24弄2號","121.40686","24.93043","6500900","三峽區"
"237015","649-BX","2019/06/28 18:29:13","新北市三峽區竹崙路116號","121.43395","24.9108166666667","6500900","三峽區"
"237010","706-TV","2019/06/28 18:29:06","新北市三峽區中山路321-2號","121.360896666667","24.93798","6500900","三峽區"
"237005","AKY-6261","2019/06/28 18:29:11","新北市三峽區民族街5巷68號","121.369966666667","24.9326766666667","6500900","三峽區"
"236042","KED-0685","2019/06/28 18:29:07","新北市土城區學成路99巷11號","121.449985","24.9884066666667","6501300","土城區"
"233002","762-BX","2019/06/28 18:29:10","新北市烏來區新烏路五段60號","121.545725","24.8754116666667","6502900","烏來區"
"236079","166-UM","2019/06/28 18:28:59","新北市土城區中央路四段33號","121.423533333333","24.9622033333333","6501300","土城區"
"236030","253-BX","2019/06/28 18:29:12","新北市土城區水源街81巷8號","121.439461666667","24.9762","6501300","土城區"
"236026","269-VK","2019/06/28 18:29:16","新北市土城區南天母路18-4號","121.448568333333","24.9532833333333","6501300","土城區"
"236014","270-VK","2019/06/28 18:29:17","新北市土城區立清街69號","121.46029","24.9873016666667","6501300","土城區"
"236039","271-VK","2019/06/28 18:29:16","新北市土城區明德路一段287巷12號","121.460985","24.976905","6501300","土城區"
"236069","KEA-2877","2019/06/28 18:29:09","新北市土城區永豐路255巷27弄21號","121.476156666667","24.97297","6501300","土城區"
"252001","KED-0821","2019/06/28 18:29:07","新北市三芝區中興街二段2號","121.498305","25.256585","6502100","三芝區"
"236020","401-BY","2019/06/28 18:29:02","新北市土城區永豐路202巷3號","121.466648333333","24.9831383333333","6501300","土城區"
"236059","912-UM","2019/06/28 18:29:14","新北市土城區中央路四段139號","121.415833333333","24.9572566666667","6501300","土城區"
"236048","913-UM","2019/06/28 18:29:16","新北市土城區明德路一段202號","121.461486666667","24.9777583333333","6501300","土城區"
"236063","915-UM","2019/06/28 18:29:11","新北市板橋區四川路二段70號","121.452356666667","24.994975","6501300","土城區"
"236055","AAC-216","2019/06/28 18:29:13","新北市土城區中華路一段247號","121.440951666667","24.98174","6501300","土城區"
"242060","986-R7","2019/06/28 18:29:03","新北市新莊區新樹路69-4號","121.438716666667","25.0297233333333","6500500","新莊區"
"242058","612-BX","2019/06/28 18:29:10","新北市新莊區中正路891-17號","121.412938333333","25.02241","6500500","新莊區"
"242046","566-BX","2019/06/28 18:29:08","新北市新莊區中正路803巷58號","121.421915","25.027735","6500500","新莊區"
"242056","442-UM","2019/06/28 18:29:13","新北市新莊區中環路一段30號","121.442661666667","25.0270866666667","6500500","新莊區"
"242041","415-TV","2019/06/28 18:29:02","新北市新莊區雙鳳路90巷3弄5號","121.414758333333","25.0285966666667","6500500","新莊區"
"242011","413-TV","2019/06/28 18:29:13","新北市新莊區中平路10號","121.444683333333","25.0427666666667","6500500","新莊區"
"242025","362-BY","2019/06/28 18:29:15","新北市新莊區五工路97巷5號","121.456628333333","25.0633233333333","6500500","新莊區"
"242054","172-VK","2019/06/28 18:29:14","新北市樹林區樹新路120巷22號","121.430595","24.9966533333333","6500500","新莊區"
"242007","349-TH","2019/06/28 18:29:16","新北市新莊區新泰路368號","121.444601666667","25.0427516666667","6500500","新莊區"
"242032","350-TH","2019/06/28 18:29:04","新北市新莊區新泰路357巷2號","121.442331666667","25.0414316666667","6500500","新莊區"
"238015","755-BX","2019/06/28 18:29:20","新北市樹林區備內街16號","121.412975","24.987","6500700","樹林區"
"238023","601-UM","2019/06/28 18:29:16","新北市樹林區三福街114號","121.40659","25.0166066666667","6500700","樹林區"
"238019","599-UM","2019/06/28 18:29:16","新北市樹林區八德街82號","121.419968333333","24.981375","6500700","樹林區"
"238024","5061-A6","2019/06/28 18:29:02","新北市樹林區中山路一段149號","121.422133333333","24.9893116666667","6500700","樹林區"
"238018","KEA-2217","2019/06/28 18:29:19","新北市樹林區樹新路50巷5弄9號","121.42969","24.9970533333333","6500700","樹林區"
"238025","303-VK","2019/06/28 18:29:05","新北市樹林區中山路二段121號","121.408446666667","24.9799983333333","6500700","樹林區"
"238017","283-BY","2019/06/28 18:29:09","新北市樹林區光榮街18-1號","121.412378333333","25.004015","6500700","樹林區"
"238014","282-BY","2019/06/28 18:29:11","新北市樹林區大安路111巷23號","121.423261666667","24.9976933333333","6500700","樹林區"
"238020","268-VK","2019/06/28 18:29:17","新北市樹林區三龍街26號","121.411575","25.0178333333333","6500700","樹林區"
"238026","172-UY","2019/06/28 18:29:16","新北市樹林區佳園路一段75巷208號","121.397228333333","24.9705083333333","6500700","樹林區"
"238016","169-UY","2019/06/28 18:29:03","新北市樹林區八德街1號","121.417491666667","24.9849433333333","6500700","樹林區"
"239007","AAC-297","2019/06/28 18:29:00","新北市鶯歌區中正一路320號","121.356931666667","24.9566733333333","6500800","鶯歌區"
"239006","891-R6","2019/06/28 18:29:09","新北市鶯歌區鶯桃路296巷51號","121.33582","24.9614566666667","6500800","鶯歌區"
"239002","661-UM","2019/06/28 18:29:13","新北市鶯歌區國慶街14號","121.349603333333","24.9564383333333","6500800","鶯歌區"
"239008","527-UM","2019/06/28 18:29:17","新北市鶯歌區國際一路179號","121.336281666667","24.9765633333333","6500800","鶯歌區"
"239001","417-VK","2019/06/28 18:29:07","新北市鶯歌區中正二路192-2號","121.339615","24.94336","6500800","鶯歌區"
"239003","360-BY","2019/06/28 18:29:06","新北市鶯歌區福安街58號","121.33553","24.96523","6500800","鶯歌區"
"239004","193-VK","2019/06/28 18:29:07","新北市鶯歌區尖山路267號","121.341088333333","24.94366","6500800","鶯歌區"
"221036","130-UY","2019/06/28 18:29:14","新北市汐止區大同路三段143號","121.669268333333","25.0776416666667","6501100","汐止區"
"221015","131-UY","2019/06/28 18:29:08","新北市汐止區鄉長路二段23巷5號","121.66738","25.0825716666667","6501100","汐止區"
"221010","269-BY","2019/06/28 18:29:03","新北市汐止區汐萬路35號","121.644166666667","25.09157","6501100","汐止區"
"221012","278-VK","2019/06/28 18:29:14","新北市汐止區保長路35巷11號","121.673113333333","25.0798966666667","6501100","汐止區"
"221023","279-VK","2019/06/28 18:29:18","新北市汐止區康寧街474巷7-2號","121.632241666667","25.0678816666667","6501100","汐止區"
"221032","280-BY","2019/06/28 18:29:11","新北市汐止區民權街二段102號","121.618631666667","25.0468483333333","6501100","汐止區"
"221027","281-BY","2019/06/28 18:29:17","新北市汐止區和平街80號","121.661585","25.0708116666667","6501100","汐止區"
"221033","297-VK","2019/06/28 18:29:08","新北市汐止區宜興街51號","121.62252","25.0426066666667","6501100","汐止區"
"221021","299-VK","2019/06/28 18:29:14","新北市汐止區龍安路173號","121.653683333333","25.06311","6501100","汐止區"
"221031","353-TW","2019/06/28 18:29:03","新北市汐止區光復街8巷50-1號","121.637538333333","25.0567066666667","6501100","汐止區"
"221035","622-UM","2019/06/28 18:29:08","新北市汐止區大同路二段322號","121.656106666667","25.066945","6501100","汐止區"
"221038","646-BX","2019/06/28 18:29:19","新北市汐止區忠孝東路266號","121.663268333333","25.0678816666667","6501100","汐止區"
"221002","707-TV","2019/06/28 18:29:10","新北市汐止區福德一路190號","121.635281666667","25.06569","6501100","汐止區"
"221018","753-BX","2019/06/28 18:29:02","新北市汐止區茄苳路88巷32號","121.66761","25.0699516666667","6501100","汐止區"
"220082","610-BX","2019/06/28 18:29:09","新北市板橋區華東街1-9號","121.448223333333","24.994945","6500100","板橋區"
"224002","257-TC","2019/06/28 18:29:01","新北市瑞芳區三爪子坑路29巷20號","121.81352","25.1071366666667","6501200","瑞芳區"
"220056","276-BY","2019/06/28 18:29:06","新北市板橋區華東街1-9號","121.448175","24.9948816666667","6500100","板橋區"
"220071","283-VK","2019/06/28 18:29:06","新北市板橋區華東街1-9號","121.448163333333","24.9948483333333","6500100","板橋區"
"220094","285-UM","2019/06/28 18:29:08","新北市板橋區民生路二段120號","121.471085","25.0198366666667","6500100","板橋區"
"220084","296-UM","2019/06/28 18:29:15","新北市板橋區華東街1-9號","121.448158333333","24.994915","6500100","板橋區"
"242044","281-VK","2019/06/28 18:29:02","新北市新莊區新北大道七段782號","121.412981666667","25.0247733333333","6500500","新莊區"
"220035","560-BX","2019/06/28 18:29:12","新北市板橋區南雅南路二段88號","121.453615","25.00148","6500100","板橋區"
"220063","609-BX","2019/06/28 18:29:01","新北市板橋區民生路二段188號","121.470013333333","25.0202966666667","6500100","板橋區"
"220057","686-BX","2019/06/28 18:28:59","新北市板橋區華東街1-10號","121.448618333333","24.9948833333333","6500100","板橋區"
"220073","985-R7","2019/06/28 18:29:04","新北市板橋區四川路二段140巷20號","121.448901666667","24.9935116666667","6500100","板橋區"
"220064","AAC-253","2019/06/28 18:29:07","新北市板橋區南雅南路二段120-1號","121.452301666667","24.9997083333333","6500100","板橋區"
"235068","KEA-2873","2019/06/28 18:29:10","新北市中和區圓通路275號","121.495611666667","24.99307","6500300","中和區"
"235061","KEA-2875","2019/06/28 18:29:01","新北市中和區民享街110號","121.474655","24.9993183333333","6500300","中和區"
