"lineid","car","time","location","longitude","latitude","cityid","cityname"
"234046","148-BY","2019/06/28 19:39:11","新北市永和區秀朗路二段97號","121.523321666667","25.0018316666667","6500400","永和區"
"234081","298-R6","2019/06/28 19:39:09","新北市永和區國中路104巷8弄11號","121.525133333333","25.0065833333333","6500400","永和區"
"234038","336-UY","2019/06/28 19:39:06","新北市永和區民樂街19號","121.527635","25.002025","6500400","永和區"
"234064","337-UY","2019/06/28 19:38:59","新北市永和區秀朗路一段192巷6弄12號","121.51907","25.0023133333333","6500400","永和區"
"234086","338-UY","2019/06/28 19:39:13","新北市永和區林森路48巷2號","121.5248","25.0046316666667","6500400","永和區"
"234070","552-UM","2019/06/28 19:39:07","新北市永和區永和路二段233號","121.515531666667","25.0142133333333","6500400","永和區"
"234017","745-BX","2019/06/28 19:39:15","新北市永和區永和路二段425巷75弄5號","121.513488333333","25.0170816666667","6500400","永和區"
"234030","746-BX","2019/06/28 19:39:14","新北市永和區民生路37巷11號","121.523833333333","24.99801","6500400","永和區"
"234054","KEA-2590","2019/06/28 19:39:02","新北市永和區竹林路39巷7號","121.518226666667","25.0145183333333","6500400","永和區"
"234007","KED-0605","2019/06/28 19:39:18","新北市永和區中和路471號","121.510243333333","25.0017","6500400","永和區"
"234013","KEA-2591","2019/06/28 19:39:18","新北市永和區永平路220號","121.50903","25.0105633333333","6500400","永和區"
"234061","AAD-866","2019/06/28 19:39:05","新北市永和區永貞路131號","121.516765","25.0042983333333","6500400","永和區"
"234042","862-TW","2019/06/28 19:39:08","新北市中和區中和路260-1號","121.508061666667","24.9995083333333","6500400","永和區"
"234050","863-TW","2019/06/28 19:39:04","新北市永和區文化路165號","121.510023333333","25.0164783333333","6500400","永和區"
"234026","9371-KE","2019/06/28 19:39:06","新北市永和區中和路503號","121.510678333333","25.0023516666667","6500400","永和區"
"249002","305-UY","2019/06/28 19:39:18","新北市八里區頂寮二街83號","121.45006","25.1255516666667","6502300","八里區"
"249003","593-UM","2019/06/28 19:39:05","新北市八里區華峰三街31號","121.399393333333","25.1458266666667","6502300","八里區"
"248016","026-BX","2019/06/28 19:39:05","新北市五股區凌雲路一段41號","121.45182","25.1007483333333","6501500","五股區"
"248008","KED-0815","2019/06/28 19:39:02","新北市五股區四維路118巷9號","121.4688","25.07433","6501500","五股區"
"248018","KED-0813","2019/06/28 19:39:00","新北市五股區外寮路1-1號","121.425876666667","25.076835","6501500","五股區"
"248012","247-BX","2019/06/28 19:39:08","新北市五股區成泰路一段239-10號","121.436688333333","25.08083","6501500","五股區"
"248014","261-SL","2019/06/28 19:39:20","新北市五股區五福路52巷6-1號","121.433951666667","25.0898566666667","6501500","五股區"
"248010","272-BY","2019/06/28 19:39:03","新北市五股區自強路109號","121.43228","25.0706183333333","6501500","五股區"
"248002","678-BX","2019/06/28 19:39:09","新北市五股區成泰路三段577巷81號","121.449646666667","25.103725","6501500","五股區"
"248004","682-TV","2019/06/28 19:39:14","新北市五股區成泰路二段24號","121.436933333333","25.0810616666667","6501500","五股區"
"234023","9380-KE","2019/06/28 19:39:04","新北市永和區保生路55-1號","121.50452","25.0108733333333","6500400","永和區"
"234077","969-R7","2019/06/28 19:39:19","新北市永和區民族街67巷18號","121.519536666667","24.9971016666667","6500400","永和區"
"234074","AAC-211","2019/06/28 19:39:09","新北市永和區福和路71號","121.522623333333","25.0079216666667","6500400","永和區"
"234067","AAC-212","2019/06/28 19:39:06","新北市永和區中山路一段206號","121.508786666667","25.0086366666667","6500400","永和區"
"234003","AAC-295","2019/06/28 19:39:05","新北市永和區自由街2號","121.514905","25.0072033333333","6500400","永和區"
"244023","483-VK","2019/06/28 19:39:19","新北市林口區仁愛路二段522-1號","121.373075","25.07796","6501700","林口區"
"243012","AAD-798","2019/06/28 19:39:07","新北市泰山區仁愛路132號","121.434053333333","25.055885","6501600","泰山區"
"243010","297-R6","2019/06/28 19:39:13","新北市泰山區仁愛路6巷32號","121.431501666667","25.0529516666667","6501600","泰山區"
"243016","421-VK","2019/06/28 19:39:07","新北市泰山區新北大道七段20號","121.42027","25.0321583333333","6501600","泰山區"
"243011","KEA-2216","2019/06/28 19:39:06","新北市泰山區貴子路65號","121.430513333333","25.0396216666667","6501600","泰山區"
"243015","680-BX","2019/06/28 19:39:08","新北市泰山區民權街23號","121.42865","25.0507216666667","6501600","泰山區"
"222003","436-BY","2019/06/28 19:39:06","新北市深坑區深南路51-1號","121.621268333333","25.00987","6501800","深坑區"
"222002","659-BX","2019/06/28 19:39:15","新北市深坑區北深路一段177號","121.632515","25.0108866666667","6501800","深坑區"
"231061","002-UM","2019/06/28 19:39:04","新北市新店區吉安街30號","121.516078333333","24.9659283333333","6500600","新店區"
"231058","0293-UT","2019/06/28 19:39:10","新北市新店區寶橋路85巷5弄3號","121.546021666667","24.9756083333333","6500600","新店區"
"231059","046-UY","2019/06/28 19:39:18","新北市新店區安和路三段139號","121.516896666667","24.985345","6500600","新店區"
"231060","106-UY","2019/06/28 19:39:17","新北市新店區安康路二段147-1號","121.511323333333","24.9597883333333","6500600","新店區"
"231051","107-UY","2019/06/28 19:39:20","新北市新店區中央四街23號","121.529033333333","24.97421","6500600","新店區"
"231049","108-UY","2019/06/28 19:39:05","新北市新店區大豐路52號","121.539931666667","24.97978","6500600","新店區"
"231065","KEA-2219","2019/06/28 19:39:13","新北市新店區安祥路109巷85弄25號","121.47834","24.9600016666667","6500600","新店區"
"231054","260-TV","2019/06/28 19:39:05","新北市新店區文中路45號","121.539641666667","24.956645","6500600","新店區"
"231042","268-BY","2019/06/28 19:39:01","新北市新店區中興路一段203號","121.543595","24.965475","6500600","新店區"
"231064","278-BY","2019/06/28 19:39:09","新北市新店區安和路一段52巷2號","121.517606666667","24.9662216666667","6500600","新店區"
"231050","AAD-862","2019/06/28 19:39:14","新北市新店區秀水路2號","121.555085","24.95379","6500600","新店區"
"231045","355-BY","2019/06/28 19:39:03","新北市新店區北宜路二段207號","121.553121666667","24.9532833333333","6500600","新店區"
"231056","4715-K9","2019/06/28 19:39:06","新北市新店區民權路85號","121.538088333333","24.9829283333333","6500600","新店區"
"231067","4772-VM","2019/06/28 19:39:05","新北市新店區安康路二段1-1號","121.516546666667","24.9637266666667","6500600","新店區"
"231053","513-UM","2019/06/28 19:39:11","新北市新店區新烏路二段300號","121.548586666667","24.912965","6500600","新店區"
"231041","619-UM","2019/06/28 19:39:08","新北市新店區中正路487號","121.533918333333","24.9821983333333","6500600","新店區"
"231063","641-BX","2019/06/28 19:39:17","新北市新店區達觀路38號","121.502745","24.9394833333333","6500600","新店區"
"231048","KED-0819","2019/06/28 19:39:05","新北市新店區五峰路63巷8弄74號","121.54793","24.9684633333333","6500600","新店區"
"231062","718-UY","2019/06/28 19:39:09","新北市新店區精忠路10-1號","121.532721666667","24.9590766666667","6500600","新店區"
"231046","719-UM","2019/06/28 19:39:09","新北市新店區中正路326號","121.536901666667","24.9748683333333","6500600","新店區"
"231057","720-UM","2019/06/28 19:39:12","新北市新店區橘園一路11號","121.547925","24.9340716666667","6500600","新店區"
"231044","897-TW","2019/06/28 19:39:15","新北市新店區北新路三段147-1號","121.541088333333","24.9832766666667","6500600","新店區"
"231040","898-TW","2019/06/28 19:39:13","新北市新店區北新路一段62號","121.541216666667","24.966725","6500600","新店區"
"231043","899-TW","2019/06/28 19:39:17","新北市新店區中正路126號","121.542046666667","24.9712816666667","6500600","新店區"
"231066","AKT-0513","2019/06/28 19:39:11","新北市新店區安康路三段355巷17號","121.484903333333","24.95035","6500600","新店區"
"241011","013-R5","2019/06/28 19:39:18","新北市三重區秀江街192號","121.497676666667","25.0716366666667","6500200","三重區"
"241028","022-UY","2019/06/28 19:39:09","新北市三重區中正南路190號","121.49394","25.05609","6500200","三重區"
"241008","059-VK","2019/06/28 19:39:04","新北市三重區永福街127號","121.478965","25.0770166666667","6500200","三重區"
"241016","060-VK","2019/06/28 19:39:09","新北市三重區正義北路16巷30號","121.49651","25.0628233333333","6500200","三重區"
"241031","061-VK","2019/06/28 19:39:13","新北市三重區重新路四段218號","121.485931666667","25.0542433333333","6500200","三重區"
"241015","062-VK","2019/06/28 19:39:10","新北市三重區福德北路24號","121.502153333333","25.064755","6500200","三重區"
"241017","063-VK","2019/06/28 19:39:20","新北市三重區大同北路120巷1-4號","121.493003333333","25.063985","6500200","三重區"
"241001","066-VK","2019/06/28 19:39:13","新北市三重區仁愛街315巷13號","121.493391666667","25.079635","6500200","三重區"
"241032","269-UM","2019/06/28 19:39:15","新北市三重區重陽路一段60巷73號","121.484256666667","25.0582666666667","6500200","三重區"
"241013","270-UM","2019/06/28 19:39:02","新北市三重區仁愛街117號","121.49559","25.074505","6500200","三重區"
"241025","271-UM","2019/06/28 19:39:14","新北市三重區忠孝路三段84巷5號","121.48025","25.0643766666667","6500200","三重區"
"241007","398-BY","2019/06/28 19:39:14","新北市三重區三和路四段125巷39號","121.48599","25.0781016666667","6500200","三重區"
"241035","462-BY","2019/06/28 19:39:07","新北市三重區信義西街48號","121.498236666667","25.0647033333333","6500200","三重區"
"241020","478-VK","2019/06/28 19:39:15","新北市三重區自強路三段99號","121.487725","25.0753716666667","6500200","三重區"
"241026","480-VK","2019/06/28 19:39:15","新北市三重區文化南路65巷16號","121.499486666667","25.060735","6500200","三重區"
"241014","543-UM","2019/06/28 19:39:08","新北市三重區長壽街196號","121.504221666667","25.0691233333333","6500200","三重區"
"241023","545-UM","2019/06/28 19:39:12","新北市三重區忠孝路三段99巷4號","121.479956666667","25.0642833333333","6500200","三重區"
"241006","AAD-863","2019/06/28 19:39:06","新北市三重區三和路四段160巷67號","121.486063333333","25.0751683333333","6500200","三重區"
"241019","743-BX","2019/06/28 19:39:13","新北市三重區力行路一段65號","121.487506666667","25.067575","6500200","三重區"
"241022","KED-0820","2019/06/28 19:39:12","新北市三重區中正北路154號","121.484783333333","25.0658266666667","6500200","三重區"
"241012","941-UM","2019/06/28 19:39:08","新北市三重區仁興街33巷12號","121.499453333333","25.07555","6500200","三重區"
"241029","942-UM","2019/06/28 19:39:08","新北市三重區同安街145號","121.493088333333","25.0560383333333","6500200","三重區"
"235066","003-UY","2019/06/28 19:39:18","新北市中和區安和路207號","121.505778333333","24.9987833333333","6500300","中和區"
"235064","005-UY","2019/06/28 19:39:06","新北市中和區南山路58號","121.502061666667","24.99734","6500300","中和區"
"235063","006-UY","2019/06/28 19:39:16","新北市中和區連城路263巷5弄2號","121.49218","24.9960616666667","6500300","中和區"
"235056","096-UM","2019/06/28 19:39:06","新北市中和區民富街37號","121.476445","25.0081083333333","6500300","中和區"
"235039","097-UM","2019/06/28 19:39:05","新北市中和區景平路148號","121.518246666667","24.9920883333333","6500300","中和區"
"235065","098-UM","2019/06/28 19:39:02","新北市中和區福祥路38號","121.499413333333","25.0038483333333","6500300","中和區"
"235040","150-BY","2019/06/28 19:39:12","新北市中和區安平路38號","121.509685","24.994955","6500300","中和區"
"235058","151-BY","2019/06/28 19:39:17","新北市中和區員山路142巷13號","121.482011666667","24.9965583333333","6500300","中和區"
"235055","183-VK","2019/06/28 19:39:16","新北市中和區中山路三段181巷30號","121.473115","25.00496","6500300","中和區"
"235038","185-VK","2019/06/28 19:39:01","新北市中和區自立路141巷3號","121.522443333333","24.993575","6500300","中和區"
"235049","186-VK","2019/06/28 19:39:12","新北市中和區景平路385-1號","121.502961666667","24.9941266666667","6500300","中和區"
"235031","255-BX","2019/06/28 19:39:09","新北市中和區新生街232號","121.48384","24.9981733333333","6500300","中和區"
"235044","293-VK","2019/06/28 19:39:06","新北市中和區南山路417號","121.507331666667","24.9895483333333","6500300","中和區"
"235072","301-VK","2019/06/28 19:39:09","新北市中和區連城路265巷6弄3號","121.491281666667","24.99584","6500300","中和區"
"235043","352-BY","2019/06/28 19:39:09","新北市中和區興南路二段94號","121.505271666667","24.9842566666667","6500300","中和區"
"235042","KEA-2878","2019/06/28 19:39:06","新北市中和區景安路79巷37弄16-5號","121.508213333333","24.9960833333333","6500300","中和區"
"235070","558-UM","2019/06/28 19:39:16","新北市中和區連勝街37號","121.498275","24.9977416666667","6500300","中和區"
"235045","565-BX","2019/06/28 19:39:09","新北市中和區景新街423巷36號","121.514838333333","24.9895666666667","6500300","中和區"
"235060","KED-0823","2019/06/28 19:39:10","新北市中和區中山路二段523巷11號","121.48171","25.0041383333333","6500300","中和區"
"235047","732-UM","2019/06/28 19:39:00","新北市中和區景平路355號","121.504725","24.993385","6500300","中和區"
"235046","733-UM","2019/06/28 19:39:06","新北市中和區景新街496巷17號","121.513433333333","24.9866516666667","6500300","中和區"
"235071","783-BX","2019/06/28 19:39:06","新北市中和區中山路二段439巷1號","121.484896666667","25.004615","6500300","中和區"
"235057","801-TS","2019/06/28 19:39:02","新北市中和區民樂路75號","121.484323333333","25.00128","6500300","中和區"
"235041","802-TS","2019/06/28 19:39:13","新北市永和區安樂路250-2號","121.514481666667","25.0037766666667","6500300","中和區"
"235052","805-TS","2019/06/28 19:39:09","新北市中和區華新街202號","121.506718333333","24.9819566666667","6500300","中和區"
"235048","896-TW","2019/06/28 19:39:05","新北市中和區華新街40號","121.507761666667","24.9842066666667","6500300","中和區"
"235053","900-TW","2019/06/28 19:39:17","新北市中和區國光街215巷29號","121.467335","25.0004783333333","6500300","中和區"
"235054","911-UM","2019/06/28 19:39:12","新北市中和區民享街2號","121.47391","25.0056216666667","6500300","中和區"
"235051","157-BY","2019/06/28 19:39:18","新北市中和區中興街132巷26號","121.498763333333","24.99173","6500300","中和區"
"235037","AAC-213","2019/06/28 19:39:04","新北市中和區秀朗路三段173-2號","121.524438333333","24.99145","6500300","中和區"
"235059","AAC-215","2019/06/28 19:39:21","新北市中和區圓通路282號","121.491561666667","24.9905766666667","6500300","中和區"
"220065","072-UY","2019/06/28 19:39:09","新北市板橋區國泰街111巷15號","121.466113333333","25.0059716666667","6500100","板橋區"
"220086","073-UY","2019/06/28 19:39:18","新北市板橋區中正路214號","121.456048333333","25.0183383333333","6500100","板橋區"
"220106","075-UY","2019/06/28 19:39:08","新北市板橋區文化路二段620號","121.478316666667","25.0356833333333","6500100","板橋區"
"220069","AAD-861","2019/06/28 19:39:15","新北市板橋區貴興路101號","121.456238333333","25.0014933333333","6500100","板橋區"
"247004","893-R6","2019/06/28 19:39:14","新北市蘆洲區長安街108巷28號","121.462256666667","25.0825566666667","6501400","蘆洲區"
"226004","312-R5","2019/06/28 19:39:14","新北市平溪區靜安路三段392巷3號","121.784476666667","25.0495716666667","6502400","平溪區"
"228001","212-TW","2019/06/28 19:39:03","新北市貢寮區真理里延平街49號","121.924573333333","25.0556183333333","6502600","貢寮區"
"228003","828-UM","2019/06/28 19:39:09","新北市貢寮區真理里美艷山街53-2號","121.923195","25.0691816666667","6502600","貢寮區"
"224010","AGQ-8101","2019/06/28 19:39:17","新北市瑞芳區豎崎路18號","121.843531666667","25.1087","6501200","瑞芳區"
"227002","642-TC","2019/06/28 19:39:05","新北市雙溪區雙溪里太平路71號","121.865115","25.0359116666667","6502500","雙溪區"
"227001","400-TW","2019/06/28 19:39:17","新北市雙溪區新基里新基北街22號","121.867221666667","25.0389433333333","6502500","雙溪區"
"222001","KEA-2212","2019/06/28 19:39:03","新北市深坑區深坑街156號","121.612923333333","25.00132","6501800","深坑區"
"208002","KEA-2872","2019/06/28 19:39:08","新北市金山區三民街34號","121.634901666667","25.2236083333333","6502700","金山區"
"208003","665-BX","2019/06/28 19:39:16","新北市金山區仁愛路12號","121.638481666667","25.2200133333333","6502700","金山區"
"251005","010-UM","2019/06/28 19:39:17","新北市淡水區原德路117號","121.442918333333","25.1731383333333","6501000","淡水區"
"251008","181-VK","2019/06/28 19:39:11","新北市淡水區中正路一段8巷2弄2號","121.428145","25.17717","6501000","淡水區"
"251010","413-VK","2019/06/28 19:39:16","新北市淡水區崁頂三路135號","121.431435","25.200995","6501000","淡水區"
"243009","549-UM","2019/06/28 19:39:04","新北市泰山區美寧街69號","121.43097","25.0647083333333","6501600","泰山區"
"251007","442-VK","2019/06/28 19:39:17","新北市淡水區中正東路一段111巷23-1號","121.455393333333","25.1610316666667","6501000","淡水區"
"251001","559-UM","2019/06/28 19:39:10","新北市淡水區民權路51號","121.459765","25.1391233333333","6501000","淡水區"
"251006","561-UM","2019/06/28 19:39:02","新北市淡水區中山北路一段207巷37弄3號","121.442976666667","25.1791716666667","6501000","淡水區"
"251009","575-R6","2019/06/28 19:39:04","新北市淡水區中山北路一段180巷11號","121.44522","25.1783166666667","6501000","淡水區"
"251011","650-BX","2019/06/28 19:39:20","新北市淡水區中正東路二段143巷2弄7號","121.460648333333","25.1467383333333","6501000","淡水區"
"251002","672-BX","2019/06/28 19:39:18","新北市淡水區下圭柔山91-3號","121.430878333333","25.2095216666667","6501000","淡水區"
"207004","681-TV","2019/06/28 19:39:16","新北市萬里區萬里里瑪鋉路37號","121.687668333333","25.1756983333333","6502800","萬里區"
"207003","550-UM","2019/06/28 19:39:15","新北市萬里區大鵬里下社36號","121.649198333333","25.216515","6502800","萬里區"
"252002","178-VK","2019/06/28 19:39:09","新北市三芝區中正路一段36巷25號","121.504141666667","25.2587816666667","6502100","三芝區"
"208001","170-UY","2019/06/28 19:39:18","新北市金山區重和里六股林口1號","121.610786666667","25.2219883333333","6502700","金山區"
"237004","KEA-2597","2019/06/28 19:39:11","新北市三峽區插角232號","121.413581666667","24.8688316666667","6500900","三峽區"
"237007","153-BY","2019/06/28 19:39:01","新北市三峽區二鬮路136巷22弄47號","121.357511666667","24.9102483333333","6500900","三峽區"
"237009","210-TH","2019/06/28 19:39:06","新北市三峽區民權街203號","121.367723333333","24.92838","6500900","三峽區"
"237013","252-BX","2019/06/28 19:39:03","新北市三峽區介壽路一段524號","121.386388333333","24.9329433333333","6500900","三峽區"
"237012","275-BY","2019/06/28 19:39:06","新北市三峽區民生街1號","121.37455","24.9353533333333","6500900","三峽區"
"237008","302-VK","2019/06/28 19:39:08","新北市三峽區大同路154號","121.373025","24.92675","6500900","三峽區"
"237014","433-BY","2019/06/28 19:39:07","新北市三峽區嘉添19號","121.3687","24.9116566666667","6500900","三峽區"
"237006","5529-G3","2019/06/28 19:39:14","新北市三峽區中正路一段336巷15弄2號","121.369943333333","24.9249516666667","6500900","三峽區"
"237011","KEA-2596","2019/06/28 19:39:11","新北市三峽區中正路一段316號","121.371361666667","24.92516","6500900","三峽區"
"237015","649-BX","2019/06/28 19:39:13","新北市三峽區成福路118號","121.422341666667","24.9293333333333","6500900","三峽區"
"237010","706-TV","2019/06/28 19:39:06","新北市三峽區復興路29號","121.373863333333","24.9365216666667","6500900","三峽區"
"237005","AKY-6261","2019/06/28 19:39:11","新北市三峽區中山路128號","121.365456666667","24.9360316666667","6500900","三峽區"
"236042","KED-0685","2019/06/28 19:39:05","新北市土城區裕民路256巷1弄2號","121.454151666667","24.9825516666667","6501300","土城區"
"236079","166-UM","2019/06/28 19:39:18","新北市土城區中央路四段254號","121.414978333333","24.9569483333333","6501300","土城區"
"236030","253-BX","2019/06/28 19:39:12","新北市土城區福祥街61號","121.440988333333","24.9803216666667","6501300","土城區"
"236039","271-VK","2019/06/28 19:39:17","新北市土城區青雲路269巷9號","121.459776666667","24.9805183333333","6501300","土城區"
"236069","KEA-2877","2019/06/28 19:39:04","新北市土城區學士路59號","121.451865","24.98126","6501300","土城區"
"252001","KED-0821","2019/06/28 19:39:07","新北市三芝區公正街9號","121.499791666667","25.257495","6502100","三芝區"
"236020","401-BY","2019/06/28 19:39:02","新北市土城區明峰街83號","121.468831666667","24.9873666666667","6501300","土城區"
"236059","912-UM","2019/06/28 19:39:14","新北市土城區中央路二段16-3號","121.442878333333","24.9805366666667","6501300","土城區"
"236048","913-UM","2019/06/28 19:39:18","新北市土城區明德路一段97號","121.46558","24.9828816666667","6501300","土城區"
"236063","915-UM","2019/06/28 19:39:13","新北市土城區延平街58號","121.467925","24.99258","6501300","土城區"
"236055","AAC-216","2019/06/28 19:39:13","新北市土城區學府路一段1巷1號","121.45939","24.988425","6501300","土城區"
"242005","440-UM","2019/06/28 19:39:09","新北市新莊區化成路38號","121.465021666667","25.043295","6500500","新莊區"
"242013","132-UY","2019/06/28 19:39:09","新北市新莊區中泰街107號","121.448735","25.046455","6500500","新莊區"
"242037","135-UY","2019/06/28 19:39:18","新北市新莊區民安路207巷17號","121.426793333333","25.0231016666667","6500500","新莊區"
"242034","348-TH","2019/06/28 19:39:18","新北市新莊區仁愛街2號","121.444295","25.0347333333333","6500500","新莊區"
"242032","350-TH","2019/06/28 19:39:19","新北市新莊區新泰路225巷43弄11號","121.444176666667","25.0385483333333","6500500","新莊區"
"238015","755-BX","2019/06/28 19:39:21","新北市樹林區中山路一段135-4號","121.422436666667","24.9897466666667","6500700","樹林區"
"238023","601-UM","2019/06/28 19:39:15","新北市樹林區三福街114號","121.40652","25.016305","6500700","樹林區"
"238019","599-UM","2019/06/28 19:39:16","新北市樹林區八德街37號","121.418658333333","24.9834366666667","6500700","樹林區"
"238024","5061-A6","2019/06/28 19:39:07","新北市樹林區佳園路一段52-7號","121.39282","24.9700333333333","6500700","樹林區"
"238022","KEA-2213","2019/06/28 19:39:12","新北市樹林區國凱街50巷25號","121.420791666667","24.9780783333333","6500700","樹林區"
"238021","KEA-2539","2019/06/28 19:39:06","新北市樹林區佳園路三段113巷19號","121.387658333333","24.95021","6500700","樹林區"
"238025","303-VK","2019/06/28 19:39:05","新北市樹林區中山路一段174號","121.421916666667","24.98898","6500700","樹林區"
"238017","283-BY","2019/06/28 19:39:09","新北市樹林區光興街8-8號","121.413418333333","25.0030433333333","6500700","樹林區"
"238014","282-BY","2019/06/28 19:39:11","新北市樹林區千歲街57號","121.425691666667","24.9967766666667","6500700","樹林區"
"238020","268-VK","2019/06/28 19:39:17","新北市板橋區大觀路三段54號","121.43321","24.9954983333333","6500700","樹林區"
"238026","172-UY","2019/06/28 19:39:15","新北市樹林區佳園路二段13號","121.393145","24.96395","6500700","樹林區"
"239006","891-R6","2019/06/28 19:39:09","新北市鶯歌區文化路145巷1-1號","121.356578333333","24.9541116666667","6500800","鶯歌區"
"239002","661-UM","2019/06/28 19:39:13","新北市鶯歌區中山路300號","121.342911666667","24.957285","6500800","鶯歌區"
"239001","417-VK","2019/06/28 19:39:07","新北市鶯歌區中正一路460號","121.364453333333","24.9565133333333","6500800","鶯歌區"
"221008","489-VK","2019/06/28 19:39:00","新北市汐止區康寧街145號","121.621856666667","25.0666183333333","6501100","汐止區"
"221010","269-BY","2019/06/28 19:39:02","新北市汐止區連峰街1巷1號","121.646376666667","25.0760016666667","6501100","汐止區"
"221032","280-BY","2019/06/28 19:39:11","新北市汐止區康寧街901號","121.650711666667","25.0753266666667","6501100","汐止區"
"221027","281-BY","2019/06/28 19:39:17","新北市汐止區忠孝東路9號","121.658275","25.0659133333333","6501100","汐止區"
"221033","297-VK","2019/06/28 19:39:08","新北市汐止區南勢街1巷1號","121.627045","25.0374466666667","6501100","汐止區"
"221021","299-VK","2019/06/28 19:39:14","新北市汐止區新興路106號","121.657348333333","25.060755","6501100","汐止區"
"221031","353-TW","2019/06/28 19:39:03","新北市汐止區康寧街901號","121.650811666667","25.075345","6501100","汐止區"
"221038","646-BX","2019/06/28 19:39:10","新北市汐止區忠孝東路231號","121.662503333333","25.0671533333333","6501100","汐止區"
"220079","145-BY","2019/06/28 19:39:21","新北市板橋區民權路302巷9號","121.457441666667","25.016595","6500100","板橋區"
"220080","200-UY","2019/06/28 19:39:14","新北市板橋區大觀路二段37巷228號","121.449481666667","25.0011516666667","6500100","板橋區"
"220082","610-BX","2019/06/28 19:39:17","新北市板橋區大觀路三段198巷1號","121.430855","24.99255","6500100","板橋區"
"220101","245-BX","2019/06/28 19:39:18","新北市板橋區縣民大道三段93巷9號","121.475403333333","25.022155","6500100","板橋區"
"224002","257-TC","2019/06/28 19:39:15","新北市瑞芳區三爪子坑路13巷281-16號","121.815238333333","25.1061916666667","6501200","瑞芳區"
"220091","267-BY","2019/06/28 19:39:15","新北市板橋區懷德街139巷20弄4號","121.480016666667","25.030745","6500100","板橋區"
"220056","276-BY","2019/06/28 19:39:06","新北市板橋區國慶路49巷1號","121.459528333333","24.99564","6500100","板橋區"
"220072","277-BY","2019/06/28 19:39:15","新北市板橋區金門街253巷16弄6號","121.432765","24.9880883333333","6500100","板橋區"
"220071","283-VK","2019/06/28 19:39:06","新北市板橋區忠孝路22號","121.460071666667","25.001805","6500100","板橋區"
"220094","285-UM","2019/06/28 19:39:08","新北市板橋區長江路二段165號","121.46658","25.0319683333333","6500100","板橋區"
"220053","285-VK","2019/06/28 19:39:19","新北市板橋區民享街6號","121.475686666667","25.0148083333333","6500100","板橋區"
"220083","286-VK","2019/06/28 19:39:17","新北市板橋區龍興街71巷29號","121.442533333333","25.002345","6500100","板橋區"
"220081","287-VK","2019/06/28 19:39:05","新北市板橋區大觀路一段75巷1號","121.447391666667","25.00449","6500100","板橋區"
"220090","288-VK","2019/06/28 19:39:10","新北市板橋區龍泉街54巷7弄1號","121.456818333333","25.0265333333333","6500100","板橋區"
"220061","293-UM","2019/06/28 19:39:04","新北市板橋區中山路一段265巷11號","121.468631666667","25.0146766666667","6500100","板橋區"
"220062","295-UM","2019/06/28 19:39:03","新北市板橋區三民路二段79號","121.479413333333","25.01678","6500100","板橋區"
"220084","296-UM","2019/06/28 19:39:15","新北市板橋區滿平二街10巷2弄13號","121.425455","24.9873916666667","6500100","板橋區"
"220067","299-UM","2019/06/28 19:39:06","新北市板橋區漢生東路193巷57號","121.47175","25.0117133333333","6500100","板橋區"
"220075","303-R5","2019/06/28 19:39:05","新北市板橋區中正路253巷7號","121.455363333333","25.0181033333333","6500100","板橋區"
"220092","307-R5","2019/06/28 19:39:17","新北市板橋區四維路259巷55號","121.461266666667","25.0270633333333","6500100","板橋區"
"220098","317-R6","2019/06/28 19:39:12","新北市板橋區民生路三段299巷5號","121.46323","25.0303766666667","6500100","板橋區"
"220089","487-VK","2019/06/28 19:39:20","新北市板橋區龍泉街83-3號","121.45673","25.0249533333333","6500100","板橋區"
"220088","491-VK","2019/06/28 19:39:02","新北市板橋區文聖街64號","121.476795","25.0309116666667","6500100","板橋區"
"220035","560-BX","2019/06/28 19:39:12","新北市板橋區中正路399巷13弄12號","121.453106666667","25.0222566666667","6500100","板橋區"
"220103","561-BX","2019/06/28 19:39:19","新北市板橋區陽明街29巷1弄12號","121.464618333333","25.0217066666667","6500100","板橋區"
"220063","609-BX","2019/06/28 19:39:21","新北市板橋區中山路二段348號","121.48142","25.019895","6500100","板橋區"
"220057","686-BX","2019/06/28 19:38:59","新北市板橋區廣權路1號","121.460603333333","24.99126","6500100","板橋區"
"220077","687-BX","2019/06/28 19:39:06","新北市板橋區僑中二街114巷2號","121.445721666667","25.00686","6500100","板橋區"
"220093","689-BX","2019/06/28 19:39:18","新北市板橋區長江路二段223號","121.46828","25.0324333333333","6500100","板橋區"
"220054","741-BX","2019/06/28 19:39:05","新北市板橋區忠孝路196-2號","121.465428333333","25.0026816666667","6500100","板橋區"
"220102","KEA-2699","2019/06/28 19:39:15","新北市板橋區仁化街45號","121.475086666667","25.031705","6500100","板橋區"
"220055","827-TW","2019/06/28 19:39:06","新北市板橋區國慶路149巷1弄2號","121.461291666667","24.9965666666667","6500100","板橋區"
"220068","831-TW","2019/06/28 19:39:10","新北市板橋區中山路二段416巷2號","121.48299","25.0209083333333","6500100","板橋區"
"220074","895-R6","2019/06/28 19:39:16","新北市板橋區福德街2-1號","121.456108333333","25.0091316666667","6500100","板橋區"
"220073","985-R7","2019/06/28 19:39:04","新北市板橋區國光路35號","121.457361666667","25.0176466666667","6500100","板橋區"
"220097","AAC-210","2019/06/28 19:39:21","新北市板橋區文化路一段203號","121.463355","25.01679","6500100","板橋區"
"220064","AAC-253","2019/06/28 19:39:07","新北市板橋區公園街50號","121.462166666667","25.00795","6500100","板橋區"
"235068","KEA-2873","2019/06/28 19:39:10","新北市中和區中山路二段191號","121.500138333333","25.00261","6500300","中和區"
"235061","KEA-2875","2019/06/28 19:39:01","新北市中和區民安街22巷22-1號","121.479566666667","25.0017133333333","6500300","中和區"
