"lineid","car","time","location","longitude","latitude","cityid","cityname"
"234046","148-BY","2019/06/28 20:19:11","新北市永和區得和路326號","121.523263333333","24.9995383333333","6500400","永和區"
"234081","298-R6","2019/06/28 20:19:09","新北市永和區福和路7巷12弄8號","121.524943333333","25.0074166666667","6500400","永和區"
"234038","336-UY","2019/06/28 20:19:06","新北市永和區成功路一段93巷21弄2號","121.528301666667","25.002685","6500400","永和區"
"234064","337-UY","2019/06/28 20:19:19","新北市永和區得和路120號","121.518656666667","25.000115","6500400","永和區"
"234086","338-UY","2019/06/28 20:19:11","新北市永和區中正路612號","121.51704","25.0074716666667","6500400","永和區"
"234070","552-UM","2019/06/28 20:19:07","新北市永和區永安街7巷2號","121.518831666667","25.0062216666667","6500400","永和區"
"234017","745-BX","2019/06/28 20:19:01","新北市永和區仁愛路33號","121.514188333333","25.0133766666667","6500400","永和區"
"234030","746-BX","2019/06/28 20:19:17","新北市永和區民有街75巷10弄14號","121.518801666667","24.9960866666667","6500400","永和區"
"234054","KEA-2590","2019/06/28 20:19:02","新北市永和區光復街32號","121.516573333333","25.017445","6500400","永和區"
"234013","KEA-2591","2019/06/28 20:19:18","新北市永和區保生路5巷5號","121.505981666667","25.006945","6500400","永和區"
"234061","AAD-866","2019/06/28 20:19:11","新北市永和區得和路45巷2號","121.516556666667","25.0001716666667","6500400","永和區"
"234042","862-TW","2019/06/28 20:19:08","新北市中和區中安街170號","121.51083","24.99983","6500400","永和區"
"234050","863-TW","2019/06/28 20:19:04","新北市永和區保安路4號","121.510738333333","25.0173183333333","6500400","永和區"
"249005","172-UM","2019/06/28 20:19:06","新北市八里區下罟子1-16號","121.389806666667","25.1420033333333","6502300","八里區"
"249001","173-UM","2019/06/28 20:19:12","新北市八里區中華路二段341-10號","121.399285","25.1450166666667","6502300","八里區"
"249004","303-UY","2019/06/28 20:19:04","新北市八里區中山路一段332號","121.412686666667","25.1590233333333","6502300","八里區"
"249002","305-UY","2019/06/28 20:19:18","新北市八里區龍米路一段116-3號","121.45326","25.1250316666667","6502300","八里區"
"249003","593-UM","2019/06/28 20:19:05","新北市八里區訊塘路27號","121.397725","25.1453983333333","6502300","八里區"
"248016","026-BX","2019/06/28 20:19:05","新北市五股區凌雲路一段158巷39弄12號","121.446495","25.104085","6501500","五股區"
"248012","247-BX","2019/06/28 20:19:08","新北市五股區民義路一段71號","121.435575","25.08511","6501500","五股區"
"248002","678-BX","2019/06/28 20:19:09","新北市五股區成泰路三段173號","121.445285","25.0919666666667","6501500","五股區"
"234023","9380-KE","2019/06/28 20:19:06","新北市永和區勵行街34號","121.516408333333","25.0137716666667","6500400","永和區"
"234077","969-R7","2019/06/28 20:19:19","新北市永和區民享街1巷1號","121.514775","24.995825","6500400","永和區"
"234074","AAC-211","2019/06/28 20:19:09","新北市永和區豫溪街160巷2號","121.523203333333","25.0096266666667","6500400","永和區"
"234067","AAC-212","2019/06/28 20:19:06","新北市永和區保平路268巷14號","121.507956666667","25.0059633333333","6500400","永和區"
"234003","AAC-295","2019/06/28 20:19:17","新北市永和區大新街46號","121.515788333333","25.00833","6500400","永和區"
"243012","AAD-798","2019/06/28 20:19:07","新北市泰山區楓江路162號","121.44074","25.0656383333333","6501600","泰山區"
"243010","297-R6","2019/06/28 20:19:13","新北市泰山區明志路二段254巷7號","121.42614","25.0477566666667","6501600","泰山區"
"243014","KEA-2801","2019/06/28 20:19:21","新北市泰山區泰林路二段280巷2號","121.431625","25.0624183333333","6501600","泰山區"
"243016","421-VK","2019/06/28 20:19:17","新北市泰山區明志路三段1號","121.424828333333","25.04347","6501600","泰山區"
"243011","KEA-2216","2019/06/28 20:19:06","新北市新莊區壽山路160巷21號","121.417471666667","25.0320116666667","6501600","泰山區"
"243013","646-TV","2019/06/28 20:19:22","新北市泰山區民國街31號","121.425916666667","25.043815","6501600","泰山區"
"243015","680-BX","2019/06/28 20:19:08","新北市泰山區明志路一段282號","121.431961666667","25.0599933333333","6501600","泰山區"
"222003","436-BY","2019/06/28 20:19:06","新北市深坑區文化街43號","121.617653333333","25.0018983333333","6501800","深坑區"
"222002","659-BX","2019/06/28 20:19:15","新北市深坑區萬福路75巷38號","121.598501666667","25.0097116666667","6501800","深坑區"
"231061","002-UM","2019/06/28 20:19:04","新北市新店區安興路32號","121.515755","24.9703116666667","6500600","新店區"
"231058","0293-UT","2019/06/28 20:19:10","新北市新店區吉安街41號","121.515373333333","24.966125","6500600","新店區"
"231059","046-UY","2019/06/28 20:19:18","新北市新店區安德街60巷35號","121.511238333333","24.963545","6500600","新店區"
"231060","106-UY","2019/06/28 20:19:17","新北市新店區安康路三段578-1號","121.481093333333","24.948685","6500600","新店區"
"231051","107-UY","2019/06/28 20:19:20","新北市新店區中央五街73號","121.52701","24.9761583333333","6500600","新店區"
"231049","108-UY","2019/06/28 20:19:05","新北市新店區北新路二段29巷2弄1號","121.542461666667","24.97267","6500600","新店區"
"231068","187-VK","2019/06/28 20:19:05","新北市新店區寶安街35號","121.541955","24.9825383333333","6500600","新店區"
"231065","KEA-2219","2019/06/28 20:19:13","新北市新店區安祥路102巷32號","121.484153333333","24.9639583333333","6500600","新店區"
"231054","260-TV","2019/06/28 20:19:05","新北市新店區檳榔路150號","121.544415","24.9613316666667","6500600","新店區"
"231042","268-BY","2019/06/28 20:19:01","新北市新店區中興路二段224號","121.54798","24.9751116666667","6500600","新店區"
"231064","278-BY","2019/06/28 20:19:09","新北市新店區安民街382號","121.516465","24.9770033333333","6500600","新店區"
"231050","AAD-862","2019/06/28 20:19:14","新北市新店區博愛街6巷1號","121.541081666667","24.973305","6500600","新店區"
"231045","355-BY","2019/06/28 20:19:03","新北市新店區北宜路一段53號","121.538363333333","24.9568066666667","6500600","新店區"
"231055","4716-K9","2019/06/28 20:19:16","新北市新店區新明街26巷6號","121.541153333333","24.9687683333333","6500600","新店區"
"231056","4715-K9","2019/06/28 20:19:06","新北市新店區中正路334巷7號","121.5369","24.97541","6500600","新店區"
"231067","4772-VM","2019/06/28 20:19:05","新北市新店區安康路一段266巷4號","121.51998","24.9639616666667","6500600","新店區"
"231053","513-UM","2019/06/28 20:19:11","新北市新店區新烏路二段315號","121.54969","24.9111333333333","6500600","新店區"
"231041","619-UM","2019/06/28 20:19:08","新北市新店區民權路46-4號","121.539826666667","24.98312","6500600","新店區"
"231063","641-BX","2019/06/28 20:19:17","新北市新店區薏仁坑路23號","121.497671666667","24.9588916666667","6500600","新店區"
"231048","KED-0819","2019/06/28 20:19:05","新北市新店區寶橋路132號","121.547358333333","24.976025","6500600","新店區"
"231062","718-UY","2019/06/28 20:19:12","新北市新店區安康路二段210-1號","121.510028333333","24.959435","6500600","新店區"
"231057","720-UM","2019/06/28 20:19:13","新北市新店區花園十二路1號","121.554821666667","24.9347083333333","6500600","新店區"
"231044","897-TW","2019/06/28 20:19:15","新北市新店區北新路三段198號","121.541473333333","24.98351","6500600","新店區"
"231040","898-TW","2019/06/28 20:19:12","新北市新店區北新路一段146號","121.542883333333","24.9704766666667","6500600","新店區"
"231043","899-TW","2019/06/28 20:19:17","新北市新店區建國路133號","121.539271666667","24.9783116666667","6500600","新店區"
"231066","AKT-0513","2019/06/28 20:19:11","新北市新店區柴埕路22巷2號","121.513906666667","24.9658116666667","6500600","新店區"
"241011","013-R5","2019/06/28 20:19:18","新北市三重區龍門路199號","121.499783333333","25.073405","6500200","三重區"
"241028","022-UY","2019/06/28 20:19:09","新北市三重區大同南路103-2號","121.496266666667","25.058555","6500200","三重區"
"241008","059-VK","2019/06/28 20:19:04","新北市三重區永福街211巷2弄2號","121.479875","25.0741783333333","6500200","三重區"
"241016","060-VK","2019/06/28 20:19:09","新北市三重區大同北路97-3號","121.494391666667","25.063595","6500200","三重區"
"241031","061-VK","2019/06/28 20:19:13","新北市三重區三寧街15號","121.489453333333","25.0597433333333","6500200","三重區"
"241015","062-VK","2019/06/28 20:19:07","新北市三重區重新路一段118號","121.500465","25.0631083333333","6500200","三重區"
"241017","063-VK","2019/06/28 20:19:00","新北市三重區自強路一段232號","121.493456666667","25.0670183333333","6500200","三重區"
"241024","065-VK","2019/06/28 20:19:16","新北市三重區忠孝路三段1號","121.481945","25.0678666666667","6500200","三重區"
"241001","066-VK","2019/06/28 20:19:13","新北市三重區溪尾街46-1號","121.490696666667","25.0771483333333","6500200","三重區"
"241002","090-VK","2019/06/28 20:19:15","新北市三重區仁義街101巷2號","121.497865","25.08006","6500200","三重區"
"241003","091-VK","2019/06/28 20:19:09","新北市三重區富華街78號","121.490711666667","25.0832816666667","6500200","三重區"
"241005","262-UM","2019/06/28 20:19:18","新北市三重區仁愛街475號","121.48921","25.0822733333333","6500200","三重區"
"241009","267-UM","2019/06/28 20:19:14","新北市三重區三和路四段382巷51號","121.481188333333","25.0786416666667","6500200","三重區"
"241018","268-UM","2019/06/28 20:19:19","新北市三重區雙園街103號","121.493703333333","25.06735","6500200","三重區"
"241032","269-UM","2019/06/28 20:19:15","新北市三重區捷運路37巷20號","121.484115","25.0570216666667","6500200","三重區"
"241013","270-UM","2019/06/28 20:19:22","新北市三重區三和路三段151巷20號","121.492763333333","25.0740266666667","6500200","三重區"
"241025","271-UM","2019/06/28 20:19:14","新北市三重區頂崁街210巷23弄1號","121.475833333333","25.0681383333333","6500200","三重區"
"241007","398-BY","2019/06/28 20:19:14","新北市三重區三和路四段117巷26號","121.48631","25.077995","6500200","三重區"
"241035","462-BY","2019/06/28 20:19:07","新北市三重區正義北路33巷48號","121.498988333333","25.0639666666667","6500200","三重區"
"241004","475-VK","2019/06/28 20:19:08","新北市三重區仁政街201巷3號","121.490678333333","25.08034","6500200","三重區"
"241020","478-VK","2019/06/28 20:19:15","新北市三重區三和路三段170巷13號","121.492088333333","25.072945","6500200","三重區"
"241026","480-VK","2019/06/28 20:19:15","新北市三重區重新路一段12號","121.503981666667","25.0638466666667","6500200","三重區"
"241014","543-UM","2019/06/28 20:19:08","新北市三重區長榮路103號","121.503121666667","25.0692733333333","6500200","三重區"
"241023","545-UM","2019/06/28 20:19:12","新北市三重區忠孝路三段84巷5號","121.480236666667","25.0643583333333","6500200","三重區"
"241006","AAD-863","2019/06/28 20:19:06","新北市三重區車路頭街139巷14號","121.484401666667","25.0762483333333","6500200","三重區"
"241019","743-BX","2019/06/28 20:19:13","新北市三重區重陽路四段128號","121.492511666667","25.0711083333333","6500200","三重區"
"241022","KED-0820","2019/06/28 20:19:12","新北市三重區新北大道一段36號","121.488218333333","25.06148","6500200","三重區"
"241012","941-UM","2019/06/28 20:19:08","新北市三重區河邊北街379-1號","121.501768333333","25.0764816666667","6500200","三重區"
"241029","942-UM","2019/06/28 20:19:08","新北市三重區集美街225號","121.491988333333","25.0551866666667","6500200","三重區"
"241033","AAC-255","2019/06/28 20:19:06","新北市三重區五谷王北街50巷55號","121.474881666667","25.05147","6500200","三重區"
"235066","003-UY","2019/06/28 20:19:18","新北市中和區保平路326巷35號","121.50616","25.0048133333333","6500300","中和區"
"235039","097-UM","2019/06/28 20:19:05","新北市中和區大勇街27巷18號","121.516633333333","24.9939983333333","6500300","中和區"
"235065","098-UM","2019/06/28 20:19:22","新北市中和區橋和路310號","121.497161666667","25.0070166666667","6500300","中和區"
"235055","183-VK","2019/06/28 20:19:16","新北市五股區天乙路101-6號","121.445321666667","25.10701","6500300","中和區"
"235031","255-BX","2019/06/28 20:18:09","新北市五股區中直路13-7號","121.42422","25.110695","6500300","中和區"
"247014","KEA-2869","2019/06/28 20:19:13","新北市蘆洲區中山二路130號","121.47181","25.0817266666667","6501400","蘆洲區"
"247008","KED-0682","2019/06/28 20:19:02","新北市蘆洲區集賢路300號","121.481646666667","25.085315","6501400","蘆洲區"
"235050","4979-A6","2019/06/28 20:19:13","新北市中和區景新街264號","121.509911666667","24.9929866666667","6500300","中和區"
"235069","4980-A6","2019/06/28 20:19:09","新北市中和區圓通路42號","121.500796666667","24.9977383333333","6500300","中和區"
"235026","800-TS","2019/06/28 20:15:23","新北市中和區員山路36巷16-3號","121.485148333333","24.9911483333333","6500300","中和區"
"235059","AAC-215","2019/06/28 20:17:21","新北市中和區圓通路367巷7號","121.492255","24.9881116666667","6500300","中和區"
"247004","893-R6","2019/06/28 20:19:14","新北市蘆洲區長安街297號","121.457846666667","25.0847116666667","6501400","蘆洲區"
"247006","341-TH","2019/06/28 20:19:15","新北市蘆洲區長安街2號","121.464735","25.0787883333333","6501400","蘆洲區"
"247024","337-TH","2019/06/28 20:19:13","新北市蘆洲區光榮路120巷8弄39號","121.464601666667","25.0878916666667","6501400","蘆洲區"
"247002","336-TH","2019/06/28 20:19:10","新北市蘆洲區長安街331巷32號","121.456001666667","25.0866016666667","6501400","蘆洲區"
"247022","057-VK","2019/06/28 20:19:14","新北市蘆洲區民族路540號","121.467918333333","25.0893383333333","6501400","蘆洲區"
"247012","056-VK","2019/06/28 20:19:18","新北市蘆洲區中興街53號","121.481346666667","25.0872416666667","6501400","蘆洲區"
"222001","KEA-2212","2019/06/28 20:18:43","新北市深坑區北深路三段260號","121.59955","25.0045383333333","6501800","深坑區"
"251008","181-VK","2019/06/28 20:19:11","新北市淡水區淡海路180巷18弄1號","121.42117","25.18461","6501000","淡水區"
"251010","413-VK","2019/06/28 20:19:16","新北市淡水區新民街一段134號","121.427486666667","25.1888633333333","6501000","淡水區"
"243009","549-UM","2019/06/28 20:19:04","新北市泰山區福泰街8號","121.432755","25.060275","6501600","泰山區"
"251012","441-VK","2019/06/28 20:19:19","新北市淡水區下圭柔山431-1號","121.449815","25.2102","6501000","淡水區"
"251001","559-UM","2019/06/28 20:19:10","新北市淡水區淡金路二段15號","121.446326666667","25.189225","6501000","淡水區"
"251006","561-UM","2019/06/28 20:19:22","新北市淡水區北新路141巷80弄22號","121.448035","25.18022","6501000","淡水區"
"251009","575-R6","2019/06/28 20:19:04","新北市淡水區中山路135號","121.441111666667","25.1714166666667","6501000","淡水區"
"251002","672-BX","2019/06/28 20:19:18","新北市淡水區中正路177號","121.438623333333","25.1712816666667","6501000","淡水區"
"251003","766-UM","2019/06/28 20:19:10","新北市淡水區中山北路一段229號","121.444486666667","25.1795416666667","6501000","淡水區"
"207004","681-TV","2019/06/28 20:19:09","新北市萬里區北基里仁二街1號","121.682421666667","25.1755833333333","6502800","萬里區"
"207003","550-UM","2019/06/28 20:19:15","新北市萬里區野柳里八斗60號","121.666928333333","25.204285","6502800","萬里區"
"252002","178-VK","2019/06/28 20:19:04","新北市三芝區中正路一段34號","121.503261666667","25.2583266666667","6502100","三芝區"
"237006","5529-G3","2019/06/28 20:19:14","新北市三峽區中正路二段41號","121.366741666667","24.9188216666667","6500900","三峽區"
"236030","253-BX","2019/06/28 20:19:11","新北市土城區學成路128巷11號","121.449548333333","24.9901133333333","6501300","土城區"
"236026","269-VK","2019/06/28 20:19:16","新北市土城區中央路一段249巷24號","121.446405","24.9853316666667","6501300","土城區"
"236014","270-VK","2019/06/28 20:19:17","新北市土城區四川路1號","121.456068333333","24.9958533333333","6501300","土城區"
"247010","KED-0683","2019/06/28 20:19:08","新北市蘆洲區信義路253號","121.47905","25.0844683333333","6501400","蘆洲區"
"236069","KEA-2877","2019/06/28 20:19:04","新北市土城區中山路49號","121.421458333333","24.96302","6501300","土城區"
"252001","KED-0821","2019/06/28 20:19:07","新北市三芝區中山路一段35號","121.500655","25.258","6502100","三芝區"
"236020","401-BY","2019/06/28 20:19:22","新北市土城區峰廷街36號","121.469378333333","24.9866266666667","6501300","土城區"
"236059","912-UM","2019/06/28 20:19:14","新北市土城區大安路101-5號","121.433556666667","24.968515","6501300","土城區"
"242039","AAC-296","2019/06/28 20:19:15","新北市新莊區成功街76號","121.424286666667","25.0190783333333","6500500","新莊區"
"242060","986-R7","2019/06/28 20:19:03","新北市新莊區瓊林路208-1號","121.436173333333","25.02187","6500500","新莊區"
"242048","751-BX","2019/06/28 20:19:13","新北市新莊區萬安街165巷34號","121.4212","25.0207116666667","6500500","新莊區"
"242029","615-BX","2019/06/28 20:19:12","新北市新莊區中華路二段179號","121.452701666667","25.052255","6500500","新莊區"
"242027","613-BX","2019/06/28 20:18:57","新北市新莊區幸福路750號","121.448506666667","25.0492116666667","6500500","新莊區"
"242058","612-BX","2019/06/28 20:19:06","新北市新莊區龍安路266巷11號","121.421571666667","25.0186866666667","6500500","新莊區"
"242046","566-BX","2019/06/28 20:19:16","新北市新莊區裕民街132號","121.417856666667","25.022135","6500500","新莊區"
"242050","497-BY","2019/06/28 20:19:20","新北市新莊區民安西路212巷2弄2號","121.425625","25.014865","6500500","新莊區"
"242056","442-UM","2019/06/28 20:19:13","新北市新莊區新莊路649巷40號","121.444795","25.0315416666667","6500500","新莊區"
"242005","440-UM","2019/06/28 20:19:09","新北市新莊區頭前路2巷6號","121.468568333333","25.0529133333333","6500500","新莊區"
"242041","415-TV","2019/06/28 20:19:10","新北市新莊區天祥街92巷14號","121.415643333333","25.0299966666667","6500500","新莊區"
"242011","413-TV","2019/06/28 20:19:19","新北市新莊區中信街37巷1弄2號","121.450353333333","25.050475","6500500","新莊區"
"242025","362-BY","2019/06/28 20:19:15","新北市新莊區五工二路70巷2號","121.460328333333","25.0658633333333","6500500","新莊區"
"242023","353-BY","2019/06/28 20:19:19","新北市新莊區化成路766號","121.465245","25.058815","6500500","新莊區"
"242013","132-UY","2019/06/28 20:19:09","新北市新莊區幸福路710巷5弄1號","121.449083333333","25.04976","6500500","新莊區"
"242037","135-UY","2019/06/28 20:19:18","新北市新莊區建安街62巷14號","121.426786666667","25.0251766666667","6500500","新莊區"
"242054","172-VK","2019/06/28 20:19:14","新北市新莊區西盛街382巷1號","121.427481666667","25.013","6500500","新莊區"
"242015","173-VK","2019/06/28 20:19:07","新北市新莊區永樂街208號","121.446993333333","25.04444","6500500","新莊區"
"242021","175-VK","2019/06/28 20:19:21","新北市新莊區復興路一段5號","121.44559","25.0415566666667","6500500","新莊區"
"242019","KED-0687","2019/06/28 20:19:04","新北市新莊區復興路二段177號","121.458833333333","25.0445466666667","6500500","新莊區"
"242002","347-TH","2019/06/28 20:19:08","新北市新莊區化成路5-12號","121.464635","25.0425066666667","6500500","新莊區"
"242034","348-TH","2019/06/28 20:19:17","新北市新莊區新泰路199巷4號","121.446796666667","25.0379883333333","6500500","新莊區"
"242007","349-TH","2019/06/28 20:19:15","新北市新莊區福壽街124巷34弄2號","121.459181666667","25.0512316666667","6500500","新莊區"
"242032","350-TH","2019/06/28 20:19:19","新北市新莊區義豐街21號","121.441136666667","25.0350183333333","6500500","新莊區"
"242017","351-TH","2019/06/28 20:19:14","新北市新莊區中港一街73號","121.44982","25.0453566666667","6500500","新莊區"
"221008","489-VK","2019/06/28 20:19:20","台北市內湖區康樂街206號","121.623673333333","25.0793666666667","6501100","汐止區"
"221036","130-UY","2019/06/28 20:19:14","新北市汐止區福安街59巷1號","121.664136666667","25.0636516666667","6501100","汐止區"
"221015","131-UY","2019/06/28 20:19:07","新北市汐止區建成路142巷19弄17號","121.661785","25.073945","6501100","汐止區"
"221010","269-BY","2019/06/28 20:19:02","新北市汐止區八連路一段121-3號","121.643728333333","25.0797166666667","6501100","汐止區"
"221012","278-VK","2019/06/28 20:19:21","新北市汐止區汐平路一段30號","121.682076666667","25.0705983333333","6501100","汐止區"
"221023","279-VK","2019/06/28 20:19:08","新北市汐止區明峰街298巷8弄2號","121.625035","25.06857","6501100","汐止區"
"221032","280-BY","2019/06/28 20:19:11","新北市汐止區弘道街45號","121.618105","25.0485416666667","6501100","汐止區"
"221033","297-VK","2019/06/28 20:19:08","新北市汐止區東勢街201巷104號","121.633623333333","25.04292","6501100","汐止區"
"221029","298-VK","2019/06/28 20:08:06","新北市汐止區樟樹一路135巷22號","121.64133","25.0656683333333","6501100","汐止區"
"221021","299-VK","2019/06/28 20:19:14","新北市汐止區水源路一段284號","121.654158333333","25.0582666666667","6501100","汐止區"
"221031","353-TW","2019/06/28 20:19:03","新北市汐止區福德二路106號","121.632161666667","25.0660683333333","6501100","汐止區"
"221035","622-UM","2019/06/28 20:19:07","新北市汐止區長江街57巷16號","121.656073333333","25.0721266666667","6501100","汐止區"
"221038","646-BX","2019/06/28 20:19:10","新北市汐止區忠孝東路468號","121.66621","25.073165","6501100","汐止區"
"221002","707-TV","2019/06/28 20:19:12","新北市汐止區福德一路86巷14號","121.637475","25.0690633333333","6501100","汐止區"
"221018","753-BX","2019/06/28 20:19:02","新北市汐止區茄安路31號","121.673256666667","25.0680433333333","6501100","汐止區"
"220101","245-BX","2019/06/28 20:19:14","新北市五股區五工一路101號","121.45893","25.0691766666667","6500100","板橋區"
"220083","286-VK","2019/06/28 20:19:16","新北市板橋區僑中二街92巷21號","121.44522","25.0090383333333","6500100","板橋區"
"220081","287-VK","2019/06/28 20:19:07","新北市板橋區僑中一街80巷5弄17號","121.44702","25.0125766666667","6500100","板橋區"
"220061","293-UM","2019/06/28 20:19:04","新北市板橋區中山路一段1號","121.459541666667","25.0076566666667","6500100","板橋區"
"242044","281-VK","2019/06/28 20:19:16","桃園市龜山區萬壽路一段21巷12號","121.410651666667","25.02015","6500500","新莊區"
"242009","280-VK","2019/06/28 20:19:18","新北市新莊區昌隆街58巷1弄2號","121.454891666667","25.0505566666667","6500500","新莊區"
"220077","687-BX","2019/06/28 20:19:06","新北市板橋區金門街215巷57弄22-1號","121.434963333333","24.9898233333333","6500100","板橋區"
"220055","827-TW","2019/06/28 20:19:19","新北市板橋區重慶路290巷7號","121.461335","24.99867","6500100","板橋區"
