"lineid","car","time","location","longitude","latitude","cityid","cityname"
"231061","002-UM","2019/06/28 20:59:04","新北市新店區永安街81號","121.519961666667","24.9866216666667","6500600","新店區"
"231058","0293-UT","2019/06/28 20:59:10","新北市新店區三民路98-5號","121.534116666667","24.9732866666667","6500600","新店區"
"231059","046-UY","2019/06/28 20:59:18","新北市新店區僑信路74巷23號","121.498923333333","24.9480216666667","6500600","新店區"
"231060","106-UY","2019/06/28 20:59:17","新北市新店區安康路三段529-1號","121.482196666667","24.9479133333333","6500600","新店區"
"231051","107-UY","2019/06/28 20:59:20","新北市新店區中正路663巷7弄15號","121.532953333333","24.9900766666667","6500600","新店區"
"231049","108-UY","2019/06/28 20:59:05","新北市新店區安華路28-1號","121.519911666667","24.960925","6500600","新店區"
"231068","187-VK","2019/06/28 20:59:05","新北市新店區寶中路73號","121.547463333333","24.9805516666667","6500600","新店區"
"231065","KEA-2219","2019/06/28 20:59:13","新北市新店區安祥路67巷50弄5號","121.484761666667","24.9589866666667","6500600","新店區"
"231054","260-TV","2019/06/28 20:59:05","新北市新店區中興路一段283號","121.545425","24.9684866666667","6500600","新店區"
"231042","268-BY","2019/06/28 20:59:21","新北市新店區寶興路60巷3號","121.549895","24.97184","6500600","新店區"
"231064","278-BY","2019/06/28 20:59:09","新北市新店區安民街120號","121.516406666667","24.968825","6500600","新店區"
"231050","AAD-862","2019/06/28 20:59:14","新北市新店區三民路24號","121.536968333333","24.9709983333333","6500600","新店區"
"231063","641-BX","2019/06/28 20:59:17","新北市新店區如意街97號","121.495511666667","24.9469","6500600","新店區"
"231062","718-UY","2019/06/28 20:59:12","新北市新店區雙城路80號","121.492241666667","24.949005","6500600","新店區"
"231040","898-TW","2019/06/28 20:59:12","新北市新店區中正路184號","121.540965","24.9721783333333","6500600","新店區"
"231043","899-TW","2019/06/28 20:59:17","新北市新店區中正路367號","121.534953333333","24.976415","6500600","新店區"
"231066","AKT-0513","2019/06/28 20:59:11","新北市新店區吉安街14號","121.516711666667","24.965815","6500600","新店區"
"241011","013-R5","2019/06/28 20:59:18","新北市三重區秀江街119號","121.499713333333","25.07221","6500200","三重區"
"241028","022-UY","2019/06/28 20:59:09","新北市三重區正義南路60-1號","121.498251666667","25.0606066666667","6500200","三重區"
"241008","059-VK","2019/06/28 20:59:04","新北市三重區車路頭街139巷14號","121.484285","25.07619","6500200","三重區"
"241016","060-VK","2019/06/28 20:59:09","新北市三重區信義西街118號","121.495768333333","25.0642466666667","6500200","三重區"
"241031","061-VK","2019/06/28 20:59:13","新北市三重區重陽路一段113巷2弄2號","121.487545","25.0599","6500200","三重區"
"241015","062-VK","2019/06/28 20:59:07","新北市三重區福德北路61號","121.502073333333","25.065485","6500200","三重區"
"241017","063-VK","2019/06/28 20:59:20","新北市三重區自強路一段167號","121.493018333333","25.0673116666667","6500200","三重區"
"241024","065-VK","2019/06/28 20:59:16","新北市三重區大勇街82巷15弄30號","121.481218333333","25.0718783333333","6500200","三重區"
"241001","066-VK","2019/06/28 20:59:13","新北市三重區自強路三段87巷12號","121.488008333333","25.0749933333333","6500200","三重區"
"241002","090-VK","2019/06/28 20:59:14","新北市三重區五華街7巷32-1號","121.49647","25.080885","6500200","三重區"
"241003","091-VK","2019/06/28 20:59:09","新北市三重區五華街141巷57號","121.493478333333","25.0863933333333","6500200","三重區"
"241005","262-UM","2019/06/28 20:59:18","新北市三重區三信路182號","121.48812","25.0861483333333","6500200","三重區"
"241009","267-UM","2019/06/28 20:59:14","新北市三重區車路頭街139巷2號","121.483898333333","25.0764416666667","6500200","三重區"
"241018","268-UM","2019/06/28 20:59:19","新北市三重區雙園街99號","121.493806666667","25.0672883333333","6500200","三重區"
"241032","269-UM","2019/06/28 20:59:17","新北市三重區興華街122號","121.483423333333","25.0597233333333","6500200","三重區"
"241013","270-UM","2019/06/28 20:59:02","新北市三重區仁愛街129巷1號","121.495608333333","25.0749466666667","6500200","三重區"
"241025","271-UM","2019/06/28 20:59:14","新北市三重區貴陽街14號","121.484215","25.0618416666667","6500200","三重區"
"241007","398-BY","2019/06/28 20:59:14","新北市三重區三和路四段155巷25號","121.484635","25.07859","6500200","三重區"
"241004","475-VK","2019/06/28 20:59:08","新北市三重區仁愛街420號","121.490391666667","25.0814","6500200","三重區"
"241020","478-VK","2019/06/28 20:59:15","新北市三重區忠孝路二段34號","121.485816666667","25.0710216666667","6500200","三重區"
"241026","480-VK","2019/06/28 20:59:15","新北市三重區文化南路45號","121.50025","25.0613283333333","6500200","三重區"
"241014","543-UM","2019/06/28 20:59:08","新北市三重區長榮路71號","121.502511666667","25.0689716666667","6500200","三重區"
"241023","545-UM","2019/06/28 20:59:12","新北市三重區洛陽街45巷11號","121.482355","25.063735","6500200","三重區"
"241006","AAD-863","2019/06/28 20:59:06","新北市三重區永福街64-1號","121.480658333333","25.077815","6500200","三重區"
"241019","743-BX","2019/06/28 20:59:13","新北市三重區自強路二段74巷23-1號","121.487973333333","25.0698133333333","6500200","三重區"
"241022","KED-0820","2019/06/28 20:59:12","新北市三重區中正北路20巷12號","121.488023333333","25.0624566666667","6500200","三重區"
"241012","941-UM","2019/06/28 20:59:08","新北市三重區仁信街27號","121.501293333333","25.0755516666667","6500200","三重區"
"241029","942-UM","2019/06/28 20:59:08","新北市三重區正義南路107號","121.498211666667","25.0585366666667","6500200","三重區"
"241033","AAC-255","2019/06/28 20:59:06","新北市三重區光復路二段56號","121.472041666667","25.0558066666667","6500200","三重區"
"235055","183-VK","2019/06/28 20:59:16","新北市三重區重新路5段221巷6弄11-1號","121.479206666667","25.0503033333333","6500300","中和區"
"235031","255-BX","2019/06/28 20:59:09","新北市板橋區民生路一段80號","121.473411666667","25.0155016666667","6500300","中和區"
"247014","KEA-2869","2019/06/28 20:59:13","新北市蘆洲區得勝街69巷8號","121.473855","25.0836133333333","6501400","蘆洲區"
"247008","KED-0682","2019/06/28 20:59:02","新北市蘆洲區民生街76號","121.472838333333","25.07906","6501400","蘆洲區"
"235069","4980-A6","2019/06/28 20:59:12","新北市中和區連城路469巷44弄16號","121.482771666667","24.994195","6500300","中和區"
"235018","911-UM","2019/06/28 20:44:25","新北市中和區員山路36巷16-2號","121.485198333333","24.9917216666667","6500300","中和區"
"247004","893-R6","2019/06/28 20:59:14","新北市蘆洲區永安南路二段268號","121.458648333333","25.0807433333333","6501400","蘆洲區"
"247018","546-UM","2019/06/28 20:59:19","新北市蘆洲區民權路144號","121.472805","25.08916","6501400","蘆洲區"
"247006","341-TH","2019/06/28 20:59:15","新北市蘆洲區永安南路二段16巷8號","121.467765","25.07719","6501400","蘆洲區"
"247024","337-TH","2019/06/28 20:59:12","新北市蘆洲區長興路213號","121.46117","25.0862916666667","6501400","蘆洲區"
"247002","336-TH","2019/06/28 20:59:10","新北市蘆洲區永樂街38巷12號","121.458166666667","25.0889066666667","6501400","蘆洲區"
"247022","057-VK","2019/06/28 20:59:14","新北市蘆洲區中正路263巷2號","121.467335","25.0874033333333","6501400","蘆洲區"
"247012","056-VK","2019/06/28 20:59:18","新北市蘆洲區民權路8-1號","121.476718333333","25.08575","6501400","蘆洲區"
"247016","053-VK","2019/06/28 20:59:19","新北市蘆洲區正和街94號","121.468083333333","25.0807633333333","6501400","蘆洲區"
"247020","007-UY","2019/06/28 20:59:13","新北市蘆洲區民族路488號","121.471115","25.09128","6501400","蘆洲區"
"251005","010-UM","2019/06/28 20:59:17","新北市淡水區學府路65號","121.448225","25.16967","6501000","淡水區"
"251008","181-VK","2019/06/28 20:59:11","新北市淡水區崁頂78-5號","121.42978","25.20642","6501000","淡水區"
"251010","413-VK","2019/06/28 20:59:16","新北市淡水區中正路一段118-3號","121.423893333333","25.178805","6501000","淡水區"
"251012","441-VK","2019/06/28 20:59:19","新北市淡水區淡金路五段110號","121.456503333333","25.236725","6501000","淡水區"
"251007","442-VK","2019/06/28 20:59:16","新北市淡水區仁愛街2巷7號","121.446036666667","25.1705766666667","6501000","淡水區"
"251001","559-UM","2019/06/28 20:59:10","新北市淡水區淡金路二段147號","121.449806666667","25.1827333333333","6501000","淡水區"
"251011","650-BX","2019/06/28 20:59:20","新北市淡水區新民街322巷2號","121.435341666667","25.1836383333333","6501000","淡水區"
"251002","672-BX","2019/06/28 20:59:18","新北市淡水區英專路68號","121.445758333333","25.1711","6501000","淡水區"
"251003","766-UM","2019/06/28 20:59:10","新北市淡水區新春街147號","121.442541666667","25.1814633333333","6501000","淡水區"
"247010","KED-0683","2019/06/28 20:59:08","新北市蘆洲區鷺江街76號","121.476956666667","25.0837666666667","6501400","蘆洲區"
"242056","442-UM","2019/06/28 20:59:13","新北市五股區成泰路三段436號","121.452003333333","25.099115","6500500","新莊區"
"242025","362-BY","2019/06/28 20:59:15","新北市八里區中山路三段386號","121.368515","25.1358366666667","6500500","新莊區"
"242007","349-TH","2019/06/28 20:59:15","新北市新莊區化成路565號","121.46531","25.0659183333333","6500500","新莊區"
"221035","622-UM","2019/06/28 20:59:07","新北市汐止區汐萬路一段136號","121.653341666667","25.0712383333333","6501100","汐止區"
"221038","646-BX","2019/06/28 20:59:10","新北市汐止區汐萬路一段256巷1號","121.652021666667","25.0747633333333","6501100","汐止區"
"220101","245-BX","2019/06/28 20:58:14","新北市八里區荖阡坑路34號","121.402295","25.1286983333333","6500100","板橋區"
"220081","287-VK","2019/06/28 20:59:05","新北市樹林區中山路三段214號","121.379788333333","24.9677516666667","6500100","板橋區"
