"lineid","car","time","location","longitude","latitude","cityid","cityname"
"231059","046-UY","2019/06/28 22:19:18","新北市新店區安平路35巷10號","121.520981666667","24.9670216666667","6500600","新店區"
"251004","009-UM","2019/06/28 22:19:16","新北市淡水區民族路33號","121.462328333333","25.1358516666667","6501000","淡水區"
"251008","181-VK","2019/06/28 22:19:11","新北市淡水區學府路104號","121.44989","25.1718533333333","6501000","淡水區"
"251010","413-VK","2019/06/28 22:19:16","新北市淡水區沙崙路200號","121.424681666667","25.1838683333333","6501000","淡水區"
"251007","442-VK","2019/06/28 22:19:16","新北市淡水區北新路186-3號","121.449556666667","25.1787383333333","6501000","淡水區"
"251011","650-BX","2019/06/28 22:19:20","新北市淡水區水碓街7號","121.44318","25.1771533333333","6501000","淡水區"
