"lineid","car","time","location","longitude","latitude","cityid","cityname"
"231059","046-UY","2019/06/28 22:29:18","新北市新店區薏仁坑路自強巷6號","121.496461666667","24.9582516666667","6500600","新店區"
"251004","009-UM","2019/06/28 22:29:16","新北市淡水區民族路33號","121.462326666667","25.135875","6501000","淡水區"
"251008","181-VK","2019/06/28 22:29:11","新北市淡水區學府路104號","121.449881666667","25.1718866666667","6501000","淡水區"
"251010","413-VK","2019/06/28 22:29:16","新北市淡水區沙崙路200號","121.424738333333","25.1839933333333","6501000","淡水區"
"251007","442-VK","2019/06/28 22:29:16","新北市淡水區北新路180號","121.449408333333","25.1787566666667","6501000","淡水區"
"251011","650-BX","2019/06/28 22:29:20","新北市淡水區水碓街15-1號","121.443211666667","25.1772466666667","6501000","淡水區"
