"lineid","car","time","location","longitude","latitude","cityid","cityname"
"222004","289-BY","2019/08/30 09:29:37","新北市深坑區土庫尖路27-1號","121.63664","25.0166033333333","6501800","深坑區"
"231009","515-UM","2019/08/30 09:29:32","新北市新店區平廣路一段247號","121.508696666667","24.88888","6500600","新店區"
"223003","205-TH","2019/08/30 09:29:42","新北市石碇區北宜路五段12號","121.629556666667","24.9538716666667","6501900","石碇區"
"223008","406-TH","2019/08/30 09:29:30","新北市石碇區光明路32號","121.695548333333","25.0221683333333","6501900","石碇區"
"223001","592-UM","2019/08/30 09:29:38","新北市石碇區北宜路五段12號","121.629481666667","24.9538633333333","6501900","石碇區"
"223004","660-BX","2019/08/30 09:29:27","新北市石碇區碇坪路二段42號","121.687278333333","24.9725183333333","6501900","石碇區"
"223007","661-BX","2019/08/30 09:29:34","新北市石碇區光明路32號","121.695508333333","25.0217566666667","6501900","石碇區"
"227003","282-VK","2019/08/30 09:29:33","新北市雙溪區泰平里溪尾寮2-2號","121.819728333333","24.9662166666667","6502500","雙溪區"
"237014","760-BX","2019/08/30 09:29:37","新北市三峽區安坑109-3號","121.446318333333","24.9401283333333","6500900","三峽區"
