"lineid","car","time","location","longitude","latitude","cityid","cityname"
"234044","148-BY","2019/08/30 12:49:25","新北市永和區秀朗路二段124-3號","121.524831666667","25.001555","6500400","永和區"
"234078","298-R6","2019/08/30 12:49:44","新北市永和區林森路77號","121.524021666667","25.0038216666667","6500400","永和區"
"234036","336-UY","2019/08/30 12:49:29","新北市永和區成功路一段2號","121.52718","25.005635","6500400","永和區"
"234084","338-UY","2019/08/30 12:49:41","新北市永和區中正路80號","121.513738333333","24.9952133333333","6500400","永和區"
"234068","552-UM","2019/08/30 12:49:29","新北市永和區竹林路159號","121.52049","25.01022","6500400","永和區"
"234015","745-BX","2019/08/30 12:49:37","新北市永和區永和路二段299號","121.516066666667","25.016085","6500400","永和區"
"234028","746-BX","2019/08/30 12:49:38","新北市永和區得和路328號","121.523326666667","24.999475","6500400","永和區"
"234052","KEA-2590","2019/08/30 12:49:38","新北市永和區豫溪街217巷3號","121.525226666667","25.0098433333333","6500400","永和區"
"234005","KED-0605","2019/08/30 12:49:37","新北市永和區文化路208號","121.510248333333","25.0166633333333","6500400","永和區"
"234012","KEA-2591","2019/08/30 12:49:38","新北市永和區仁愛路202巷42號","121.508898333333","25.0133366666667","6500400","永和區"
"234060","AAD-866","2019/08/30 12:49:38","新北市永和區福和路311號","121.516135","25.007055","6500400","永和區"
"234040","862-TW","2019/08/30 12:49:38","新北市永和區永貞路304號","121.512013333333","25.0047433333333","6500400","永和區"
"234048","863-TW","2019/08/30 12:49:29","新北市永和區福和路1號","121.526308333333","25.0100516666667","6500400","永和區"
"234025","9371-KE","2019/08/30 12:49:28","新北市永和區中正路657號","121.514873333333","25.0102116666667","6500400","永和區"
"234010","9373-KE","2019/08/30 12:49:38","新北市永和區保福路二段158巷3號","121.509181666667","25.01506","6500400","永和區"
"234022","9380-KE","2019/08/30 12:49:33","新北市永和區竹林路119巷22弄3-3號","121.521873333333","25.0116466666667","6500400","永和區"
"234076","969-R7","2019/08/30 12:49:38","新北市永和區中正路4號","121.512351666667","24.99368","6500400","永和區"
"234066","AAC-212","2019/08/30 12:49:43","新北市永和區永和路一段22號","121.513041666667","25.0048066666667","6500400","永和區"
"234001","AAC-295","2019/08/30 12:49:36","新北市永和區中正路657號","121.514916666667","25.0101933333333","6500400","永和區"
"231029","106-UY","2019/08/30 12:49:41","新北市新店區安華路28-1號","121.519795","24.9607033333333","6500600","新店區"
"231036","110-UY","2019/08/30 12:49:34","新北市新店區安一路一段1-1號","121.519173333333","24.9612633333333","6500600","新店區"
"231023","260-TV","2019/08/30 12:49:33","新北市新店區安一路一段1-1號","121.519068333333","24.9614283333333","6500600","新店區"
"231035","278-BY","2019/08/30 12:49:43","新北市新店區安一路一段1-1號","121.51984","24.9611183333333","6500600","新店區"
"231022","515-UM","2019/08/30 12:49:42","新北市新店區安一路一段1-1號","121.518806666667","24.9613116666667","6500600","新店區"
"231002","619-UM","2019/08/30 12:49:26","新北市新店區安華路28-1號","121.519528333333","24.96092","6500600","新店區"
"231010","719-UM","2019/08/30 12:49:43","新北市新店區安一路一段1-1號","121.5194","24.9612733333333","6500600","新店區"
"231026","720-UM","2019/08/30 12:49:46","新北市新店區安一路一段1-1號","121.518951666667","24.9612283333333","6500600","新店區"
"235028","005-UY","2019/08/30 12:49:45","新北市中和區員山路36巷16-3號","121.485041666667","24.9913216666667","6500300","中和區"
"235027","006-UY","2019/08/30 12:49:31","新北市中和區員山路36巷16-3號","121.484968333333","24.9911683333333","6500300","中和區"
"235029","098-UM","2019/08/30 12:49:32","新北市中和區連城路301號","121.48986","24.9962666666667","6500300","中和區"
"235022","151-BY","2019/08/30 12:49:30","新北市中和區員山路36巷16-2號","121.485295","24.991525","6500300","中和區"
"235002","185-VK","2019/08/30 12:49:44","新北市中和區中正路505號","121.488583333333","24.9941583333333","6500300","中和區"
"235031","911-UM","2019/08/30 12:49:31","新北市中和區新生街40號","121.4832","25.0034833333333","6500300","中和區"
"235001","AAC-213","2019/08/30 12:49:42","新北市中和區錦和路350-1號","121.490238333333","24.9935966666667","6500300","中和區"
"235005","251-BX","2019/08/30 12:49:30","新北市中和區員山路36巷16-2號","121.485205","24.9917616666667","6500300","中和區"
"207002","749-BX","2019/08/30 12:49:31","新北市萬里區雙興里二坪路32號","121.644675","25.16872","6502800","萬里區"
"207001","662-BX","2019/08/30 12:49:41","新北市萬里區萬里里獅頭路23號","121.693561666667","25.1783466666667","6502800","萬里區"
"221029","298-VK","2019/08/30 12:49:40","新北市汐止區汐萬路一段256巷1號","121.651701666667","25.0748283333333","6501100","汐止區"
"235032","KEA-2873","2019/08/30 12:49:42","新北市中和區員山路36巷16-3號","121.485103333333","24.99139","6500300","中和區"
"235025","KEA-2875","2019/08/30 12:26:59","新北市中和區和城路一段271巷1號","121.485398333333","24.9916933333333","6500300","中和區"
