"lineid","car","time","location","longitude","latitude","cityid","cityname"
"234044","148-BY","2019/08/30 13:59:26","新北市永和區成功路一段26號","121.527073333333","25.00481","6500400","永和區"
"234078","298-R6","2019/08/30 13:59:44","新北市永和區永亨路100號","121.523168333333","25.004785","6500400","永和區"
"234036","336-UY","2019/08/30 13:59:29","新北市永和區成功路二段122號","121.526598333333","24.9977083333333","6500400","永和區"
"234062","337-UY","2019/08/30 13:59:46","新北市永和區中正路412巷20弄10號","121.518713333333","25.001585","6500400","永和區"
"234084","338-UY","2019/08/30 13:59:41","新北市永和區福和路152號","121.521801666667","25.007925","6500400","永和區"
"234068","552-UM","2019/08/30 13:59:29","新北市永和區國光路16號","121.519025","25.0083866666667","6500400","永和區"
"234015","745-BX","2019/08/30 13:59:37","新北市永和區文化路22號","121.51528","25.0151166666667","6500400","永和區"
"234028","746-BX","2019/08/30 13:59:38","新北市永和區四維街75號","121.52515","24.997835","6500400","永和區"
"234052","KEA-2590","2019/08/30 13:59:38","新北市永和區竹林路39巷42弄1號","121.520095","25.015225","6500400","永和區"
"234005","KED-0605","2019/08/30 13:59:37","新北市中和區中和路326號","121.509616666667","25.0009216666667","6500400","永和區"
"234012","KEA-2591","2019/08/30 13:59:38","新北市永和區保生路55號","121.50472","25.0106283333333","6500400","永和區"
"234060","AAD-866","2019/08/30 13:59:38","新北市永和區中正路151巷8弄2號","121.516051666667","24.9985316666667","6500400","永和區"
"234040","862-TW","2019/08/30 13:59:37","新北市永和區中和路335巷18弄4號","121.50766","25.0002833333333","6500400","永和區"
"234048","863-TW","2019/08/30 13:59:29","新北市永和區保安路254號","121.506286666667","25.0125766666667","6500400","永和區"
"234010","9373-KE","2019/08/30 13:59:38","新北市永和區仁愛路352巷92弄2號","121.50124","25.0080766666667","6500400","永和區"
"248019","KED-0813","2019/08/30 13:59:30","新北市五股區凌雲路三段59-6號","121.425121666667","25.1249283333333","6501500","五股區"
"234022","9380-KE","2019/08/30 13:59:33","新北市永和區永和路二段170號","121.51538","25.013205","6500400","永和區"
"234076","969-R7","2019/08/30 13:59:38","新北市永和區民族街45號","121.518663333333","24.998445","6500400","永和區"
"234072","AAC-211","2019/08/30 13:59:35","新北市永和區豫溪街163號","121.521506666667","25.0103966666667","6500400","永和區"
"234066","AAC-212","2019/08/30 13:59:43","新北市永和區保平路190號","121.510391666667","25.0065433333333","6500400","永和區"
"234001","AAC-295","2019/08/30 13:59:36","新北市永和區福和路310號","121.516281666667","25.0074516666667","6500400","永和區"
"244004","248-BX","2019/08/30 13:59:19","新北市林口區南勢里33-3號","121.352245","25.0701833333333","6501700","林口區"
"231030","002-UM","2019/08/30 13:59:38","新北市新店區安康路一段302-3號","121.517828333333","24.964075","6500600","新店區"
"231005","046-UY","2019/08/30 13:59:37","新北市新店區中興路三段200號","121.543898333333","24.9818716666667","6500600","新店區"
"231029","106-UY","2019/08/30 13:59:41","新北市新店區安康路二段22號","121.515896666667","24.96375","6500600","新店區"
"231018","107-UY","2019/08/30 13:59:40","新北市新店區中央路113號","121.530948333333","24.974555","6500600","新店區"
"231013","108-UY","2019/08/30 13:59:32","新北市新店區明德路64號","121.54159","24.97943","6500600","新店區"
"231036","110-UY","2019/08/30 13:59:34","新北市新店區安祥路109巷1弄91號","121.47881","24.9602833333333","6500600","新店區"
"231032","256-BX","2019/08/30 13:59:32","新北市新店區莒光路44巷21弄11-3號","121.518556666667","24.9520766666667","6500600","新店區"
"231023","260-TV","2019/08/30 13:59:33","新北市新店區文中路51號","121.539741666667","24.956655","6500600","新店區"
"231003","268-BY","2019/08/30 13:59:28","新北市新店區中興路一段138號","121.542213333333","24.96363","6500600","新店區"
"231035","278-BY","2019/08/30 13:59:43","新北市新店區安和路一段52巷2-1號","121.517668333333","24.96625","6500600","新店區"
"231016","AAD-862","2019/08/30 13:59:38","新北市新店區北宜路二段225號","121.553436666667","24.9533883333333","6500600","新店區"
"231006","355-BY","2019/08/30 13:59:29","新北市新店區北宜路二段60號","121.549431666667","24.95144","6500600","新店區"
"231038","3712-VJ","2019/08/30 13:59:37","新北市新店區安康路一段323-1號","121.521833333333","24.963565","6500600","新店區"
"231027","3713-VJ","2019/08/30 13:59:44","新北市新店區中興路一段24號","121.538696666667","24.9584616666667","6500600","新店區"
"231024","4716-K9","2019/08/30 13:59:39","新北市新店區新生街11號","121.540011666667","24.9661766666667","6500600","新店區"
"231025","4715-K9","2019/08/30 13:59:33","新北市新店區中正路366號","121.535286666667","24.97603","6500600","新店區"
"231022","515-UM","2019/08/30 13:59:42","新北市新店區屈尺路75號","121.54559","24.922705","6500600","新店區"
"231034","616-UM","2019/08/30 13:59:40","新北市新店區達觀路27-1號","121.503708333333","24.9383666666667","6500600","新店區"
"231001","617-UM","2019/08/30 13:59:38","新北市新店區三民路24號","121.537215","24.971","6500600","新店區"
"231002","619-UM","2019/08/30 13:59:26","新北市新店區中正路658號","121.534011666667","24.9894783333333","6500600","新店區"
"231012","KED-0819","2019/08/30 13:59:31","新北市新店區中興路二段79巷12號","121.54634","24.9714016666667","6500600","新店區"
"231010","719-UM","2019/08/30 13:59:23","新北市新店區安康路一段355-3號","121.519728333333","24.9627716666667","6500600","新店區"
"231026","720-UM","2019/08/30 13:59:26","新北市新店區三民路159巷19弄48號","121.532191666667","24.973185","6500600","新店區"
"231028","897-TW","2019/08/30 13:59:42","新北市新店區安和路三段60-1號","121.518091666667","24.98266","6500600","新店區"
"231004","899-TW","2019/08/30 13:59:40","新北市新店區北新路二段152巷2號","121.543011666667","24.9752666666667","6500600","新店區"
"231037","AKT-0513","2019/08/30 13:59:34","新北市新店區安康路三段355巷39號","121.485011666667","24.9495883333333","6500600","新店區"
"235030","003-UY","2019/08/30 13:59:33","新北市中和區廣福路16號","121.505175","25.002695","6500300","中和區"
"235028","005-UY","2019/08/30 13:59:35","新北市中和區中和路26巷9號","121.499436666667","25.0015066666667","6500300","中和區"
"235027","006-UY","2019/08/30 13:59:31","新北市中和區連城路226號","121.489508333333","24.996455","6500300","中和區"
"235020","096-UM","2019/08/30 13:59:30","新北市板橋區三民路二段228號","121.478806666667","25.0114516666667","6500300","中和區"
"235003","097-UM","2019/08/30 13:59:43","新北市中和區秀朗路三段179號","121.524431666667","24.9908","6500300","中和區"
"235029","098-UM","2019/08/30 13:59:32","新北市中和區莊敬路37號","121.500833333333","25.0049616666667","6500300","中和區"
"235004","150-BY","2019/08/30 13:59:39","新北市中和區保健路61巷1號","121.509573333333","24.9973033333333","6500300","中和區"
"235022","151-BY","2019/08/30 13:59:30","新北市中和區連城路569巷9弄13號","121.479776666667","24.9942016666667","6500300","中和區"
"235019","183-VK","2019/08/30 13:59:25","新北市中和區德光路92-2號","121.46878","25.00359","6500300","中和區"
"235002","185-VK","2019/08/30 13:59:44","新北市中和區自強路62巷7號","121.519435","24.9944166666667","6500300","中和區"
"235013","186-VK","2019/08/30 13:59:38","新北市中和區景安路78號","121.505748333333","24.9964133333333","6500300","中和區"
"235008","293-VK","2019/08/30 13:59:24","新北市中和區中興街161巷1弄1號","121.500213333333","24.9908883333333","6500300","中和區"
"235036","301-VK","2019/08/30 13:59:35","新北市中和區中山路二段187號","121.500325","25.0028016666667","6500300","中和區"
"235007","352-BY","2019/08/30 13:59:41","新北市中和區景平路2號","121.524585","24.9904666666667","6500300","中和區"
"235006","KEA-2878","2019/08/30 13:59:25","新北市中和區秀朗路三段130號","121.524556666667","24.99214","6500300","中和區"
"247013","KEA-2869","2019/08/30 13:59:36","新北市蘆洲區中正路166號","121.468656666667","25.0857516666667","6501400","蘆洲區"
"247007","KED-0682","2019/08/30 13:59:33","新北市蘆洲區集賢路269巷4-1號","121.481465","25.0836","6501400","蘆洲區"
"235033","4980-A6","2019/08/30 13:59:37","新北市中和區圓通路71號","121.500123333333","24.9969766666667","6500300","中和區"
"235034","558-UM","2019/08/30 13:59:31","新北市中和區枋寮街2號","121.502475","24.9998316666667","6500300","中和區"
"235009","565-BX","2019/08/30 13:59:27","新北市中和區景新街467巷38弄2號","121.514535","24.9885283333333","6500300","中和區"
"235024","KED-0823","2019/08/30 13:59:23","新北市中和區中山路三段120號","121.475266666667","25.0062083333333","6500300","中和區"
"235018","640-BX","2019/08/30 13:59:46","新北市中和區國光街115號","121.469713333333","25.0005633333333","6500300","中和區"
"235011","732-UM","2019/08/30 13:59:14","新北市中和區興南路二段92號","121.505221666667","24.9843983333333","6500300","中和區"
"235010","733-UM","2019/08/30 13:59:28","新北市中和區興南路二段31巷6號","121.50791","24.9855533333333","6500300","中和區"
"235035","783-BX","2019/08/30 13:59:32","新北市中和區立德街98巷99號","121.488811666667","25.0084666666667","6500300","中和區"
"235026","800-TS","2019/08/30 13:59:30","新北市中和區中山路二段380巷2號","121.490923333333","25.004295","6500300","中和區"
"235021","801-TS","2019/08/30 13:59:31","新北市中和區民利街54號","121.479245","24.9987383333333","6500300","中和區"
"235016","805-TS","2019/08/30 13:59:38","新北市中和區興南路二段261巷6-2號","121.503695","24.9800583333333","6500300","中和區"
"235012","896-TW","2019/08/30 13:59:29","新北市中和區華新街69號","121.508076666667","24.9839933333333","6500300","中和區"
"235017","900-TW","2019/08/30 13:59:36","新北市中和區華福街5號","121.465285","24.9968816666667","6500300","中和區"
"235031","911-UM","2019/08/30 13:59:31","新北市中和區民享街255-3號","121.473346666667","24.995405","6500300","中和區"
"235015","157-BY","2019/08/30 13:59:34","新北市中和區忠孝街19巷47號","121.509336666667","24.9852416666667","6500300","中和區"
"235001","AAC-213","2019/08/30 13:59:45","新北市中和區秀朗路三段50巷2弄2號","121.5262","24.99549","6500300","中和區"
"235023","AAC-215","2019/08/30 13:59:33","新北市中和區圓通路369巷10號","121.4906","24.988135","6500300","中和區"
"220013","072-UY","2019/08/30 13:59:43","新北市板橋區漢生東路319號","121.47189","25.0079366666667","6500100","板橋區"
"220034","073-UY","2019/08/30 13:59:36","新北市板橋區大智街36號","121.455136666667","25.0151083333333","6500100","板橋區"
"220105","075-UY","2019/08/30 13:59:32","新北市板橋區雙十路三段10巷1號","121.471945","25.03074","6500100","板橋區"
"220017","AAD-861","2019/08/30 13:59:36","新北市板橋區貴興路7號","121.457745","25.0043816666667","6500100","板橋區"
"220016","120-SR","2019/08/30 13:59:41","新北市板橋區中山路二段465巷58號","121.48121","25.021795","6500100","板橋區"
"247003","893-R6","2019/08/30 13:59:25","新北市蘆洲區長安街102巷43號","121.462291666667","25.08172","6501400","蘆洲區"
"247017","546-UM","2019/08/30 13:59:37","新北市蘆洲區民族路327巷112弄1號","121.475221666667","25.0897783333333","6501400","蘆洲區"
"247011","337-TH","2019/08/30 13:59:35","新北市蘆洲區民族路87號","121.479473333333","25.08614","6501400","蘆洲區"
"247021","057-VK","2019/08/30 13:59:43","新北市蘆洲區中正路261號","121.467388333333","25.0873716666667","6501400","蘆洲區"
"247015","053-VK","2019/08/30 13:59:40","新北市蘆洲區光華路42號","121.468921666667","25.0831066666667","6501400","蘆洲區"
"247005","002-UY","2019/08/30 13:59:43","新北市蘆洲區永安南路二段14號","121.46736","25.07705","6501400","蘆洲區"
"247023","001-UY","2019/08/30 13:59:38","新北市蘆洲區光榮路120巷9號","121.46514","25.0888083333333","6501400","蘆洲區"
"235005","251-BX","2019/08/30 13:59:30","新北市中和區中安街88號","121.511955","25.00161","6500300","中和區"
"207002","749-BX","2019/08/30 13:59:33","新北市萬里區溪底里溪底路9號","121.620926666667","25.1488216666667","6502800","萬里區"
"207001","662-BX","2019/08/30 13:59:31","新北市萬里區磺潭里公館崙52-3號","121.628745","25.2064366666667","6502800","萬里區"
"236077","166-UM","2019/08/30 13:59:40","新北市土城區永寧路32巷8號","121.429036666667","24.9607733333333","6501300","土城區"
"236029","253-BX","2019/08/30 13:59:41","新北市土城區城林路6巷80號","121.438648333333","24.9797016666667","6501300","土城區"
"236024","269-VK","2019/08/30 13:59:42","新北市土城區承天路47號","121.438903333333","24.96391","6501300","土城區"
"236013","270-VK","2019/08/30 13:59:37","新北市土城區城林路6巷80號","121.43853","24.9796933333333","6501300","土城區"
"236032","271-VK","2019/08/30 13:59:31","新北市土城區中華路一段301號","121.439805","24.979465","6501300","土城區"
"247009","KED-0683","2019/08/30 13:59:27","新北市蘆洲區集賢路219號","121.482645","25.08651","6501400","蘆洲區"
"236067","KEA-2877","2019/08/30 13:59:37","新北市土城區和平路54號","121.445235","24.9689616666667","6501300","土城區"
"236016","401-BY","2019/08/30 13:59:31","新北市土城區城林路6巷80號","121.438536666667","24.979805","6501300","土城區"
"236040","752-BX","2019/08/30 13:59:44","新北市土城區城林路6巷80號","121.438485","24.9797566666667","6501300","土城區"
"236057","912-UM","2019/08/30 13:59:24","新北市土城區中央路三段226號","121.428866666667","24.964455","6501300","土城區"
"236045","913-UM","2019/08/30 13:59:35","新北市土城區城林路6巷80號","121.438448333333","24.9797316666667","6501300","土城區"
"236060","915-UM","2019/08/30 13:59:29","新北市土城區城林路6巷80號","121.438571666667","24.9797683333333","6501300","土城區"
"236054","AAC-216","2019/08/30 13:59:36","新北市土城區城林路6巷80號","121.438475","24.9797783333333","6501300","土城區"
"221029","298-VK","2019/08/30 13:59:40","新北市汐止區福德二路54巷6號","121.633818333333","25.0676166666667","6501100","汐止區"
"220027","145-BY","2019/08/30 13:59:39","新北市板橋區中正路183巷15號","121.455611666667","25.0161033333333","6500100","板橋區"
"220028","200-UY","2019/08/30 13:59:16","新北市板橋區大觀路二段205號","121.444655","24.99944","6500100","板橋區"
"220030","610-BX","2019/08/30 13:59:32","新北市板橋區溪崑一街116號","121.42917","24.9886683333333","6500100","板橋區"
"220040","267-BY","2019/08/30 13:59:24","新北市板橋區大同街14-4號","121.477528333333","25.026885","6500100","板橋區"
"220004","276-BY","2019/08/30 13:59:36","新北市板橋區信義路148號","121.45898","24.9917933333333","6500100","板橋區"
"220020","277-BY","2019/08/30 13:59:43","新北市樹林區樹新路98號","121.42963","24.9977333333333","6500100","板橋區"
"220050","280-UM","2019/08/30 13:59:14","新北市板橋區莊敬路220巷39號","121.472055","25.0202716666667","6500100","板橋區"
"220043","283-UM","2019/08/30 13:59:36","新北市板橋區光武街122號","121.465571666667","25.02955","6500100","板橋區"
"220019","283-VK","2019/08/30 13:59:37","新北市板橋區重慶路245巷57號","121.465335","25.0009966666667","6500100","板橋區"
"220001","285-VK","2019/08/30 13:59:27","新北市板橋區懷仁街10巷30號","121.474753333333","25.0195","6500100","板橋區"
"220031","286-VK","2019/08/30 13:59:45","新北市板橋區大觀路一段38巷156弄76號","121.443033333333","25.0066883333333","6500100","板橋區"
"220029","287-VK","2019/08/30 13:59:23","新北市板橋區南雅西路二段143號","121.452271666667","25.0117083333333","6500100","板橋區"
"220039","288-VK","2019/08/30 13:59:42","新北市板橋區四維路339巷16號","121.461813333333","25.0293633333333","6500100","板橋區"
"220009","293-UM","2019/08/30 13:59:36","新北市板橋區三民路二段21巷8號","121.479891666667","25.018095","6500100","板橋區"
"220010","295-UM","2019/08/30 13:59:37","新北市中和區中板路45號","121.482258333333","25.01224","6500100","板橋區"
"220032","296-UM","2019/08/30 13:59:33","新北市板橋區篤行路一段16號","121.431336666667","24.9955116666667","6500100","板橋區"
"220023","303-R5","2019/08/30 13:59:41","新北市板橋區南興路32號","121.454721666667","25.0076783333333","6500100","板橋區"
"220041","307-R5","2019/08/30 13:59:45","新北市板橋區文化路二段225巷60弄44號","121.469155","25.0294533333333","6500100","板橋區"
"220047","317-R6","2019/08/30 13:59:36","新北市板橋區民生路二段226巷35號","121.471318333333","25.0222466666667","6500100","板橋區"
"220038","487-VK","2019/08/30 13:59:26","新北市板橋區文化路二段355號","121.472865","25.0307316666667","6500100","板橋區"
"220037","491-VK","2019/08/30 13:59:34","新北市板橋區莊敬路40號","121.472823333333","25.0269916666667","6500100","板橋區"
"220104","560-BX","2019/08/30 13:59:35","新北市板橋區中正路341巷35號","121.454173333333","25.0197483333333","6500100","板橋區"
"220052","561-BX","2019/08/30 13:59:36","新北市板橋區介壽街37號","121.46863","25.019795","6500100","板橋區"
"220011","609-BX","2019/08/30 13:59:43","新北市板橋區中山路二段256號","121.478796666667","25.0183766666667","6500100","板橋區"
"220005","686-BX","2019/08/30 13:59:41","新北市板橋區重慶路302號","121.463826666667","24.9983366666667","6500100","板橋區"
"220025","687-BX","2019/08/30 13:59:24","新北市板橋區大觀路二段174巷137號","121.441146666667","25.0020533333333","6500100","板橋區"
"220042","689-BX","2019/08/30 13:59:38","新北市板橋區民生路三段179號","121.465421666667","25.0272166666667","6500100","板橋區"
"220002","741-BX","2019/08/30 13:59:38","新北市板橋區重慶路127巷8號","121.46315","25.004825","6500100","板橋區"
"220051","KEA-2699","2019/08/30 13:59:28","新北市板橋區田單街2巷38號","121.482288333333","25.0276883333333","6500100","板橋區"
"220003","827-TW","2019/08/30 13:59:29","新北市板橋區民安街18號","121.466853333333","25.01162","6500100","板橋區"
"220014","831-TW","2019/08/30 13:59:29","新北市板橋區中山路二段90巷47弄2號","121.476568333333","25.0145616666667","6500100","板橋區"
"220022","895-R6","2019/08/30 13:59:21","新北市板橋區新興路2號","121.456451666667","25.007295","6500100","板橋區"
"220021","985-R7","2019/08/30 13:59:29","新北市板橋區北門街53號","121.455903333333","25.0115883333333","6500100","板橋區"
"220046","AAC-210","2019/08/30 13:59:38","新北市板橋區新海路135巷29號","121.46006","25.0228333333333","6500100","板橋區"
"220012","AAC-253","2019/08/30 13:59:27","新北市板橋區民生路一段35號","121.475561666667","25.0125516666667","6500100","板橋區"
"235032","KEA-2873","2019/08/30 13:59:42","新北市中和區圓通路158巷3-1號","121.497643333333","24.99618","6500300","中和區"
"235025","KEA-2875","2019/08/30 13:59:16","新北市中和區員山路251號","121.481308333333","24.998775","6500300","中和區"
