"lineid","car","time","location","longitude","latitude","cityid","cityname"
"234062","337-UY","2019/08/30 14:59:23","新北市永和區福和路1號","121.526436666667","25.0101516666667","6500400","永和區"
"234025","9371-KE","2019/08/30 14:59:28","新北市永和區水源街21巷6號","121.511485","25.0043183333333","6500400","永和區"
"248019","KED-0813","2019/08/30 14:59:24","新北市五股區中直路51-1號","121.419606666667","25.1163033333333","6501500","五股區"
"244004","248-BX","2019/08/30 14:59:39","新北市林口區林口路76號","121.38966","25.0806533333333","6501700","林口區"
"231030","002-UM","2019/08/30 14:59:38","新北市新店區安民街339號","121.516928333333","24.9748683333333","6500600","新店區"
"231005","046-UY","2019/08/30 14:59:37","新北市新店區復興路44-5號","121.538276666667","24.9867383333333","6500600","新店區"
"231029","106-UY","2019/08/30 14:59:41","新北市新店區錦秀路11巷35號","121.480276666667","24.9446816666667","6500600","新店區"
"231018","107-UY","2019/08/30 14:59:40","新北市新店區中央路192號","121.530886666667","24.974695","6500600","新店區"
"231013","108-UY","2019/08/30 14:59:32","新北市新店區華城路2號","121.530476666667","24.9606466666667","6500600","新店區"
"231036","110-UY","2019/08/30 14:59:34","新北市新店區安祥路102巷19號","121.484696666667","24.9645783333333","6500600","新店區"
"231039","187-VK","2019/08/30 14:59:30","新北市新店區中興路二段99巷1號","121.547183333333","24.9719783333333","6500600","新店區"
"231032","256-BX","2019/08/30 14:59:32","新北市新店區薏仁坑路6號","121.500388333333","24.9578616666667","6500600","新店區"
"231023","260-TV","2019/08/30 14:59:33","新北市新店區檳榔路109號","121.544548333333","24.96157","6500600","新店區"
"231003","268-BY","2019/08/30 14:59:35","新北市新店區中興路二段29號","121.546111666667","24.969575","6500600","新店區"
"231035","278-BY","2019/08/30 14:59:23","新北市新店區安業街17號","121.516833333333","24.9778033333333","6500600","新店區"
"231016","AAD-862","2019/08/30 14:59:38","新北市新店區北宜路三段62號","121.574186666667","24.951185","6500600","新店區"
"231006","355-BY","2019/08/30 14:59:29","新北市新店區中興路一段164號","121.542636666667","24.96419","6500600","新店區"
"231038","3712-VJ","2019/08/30 14:59:37","新北市新店區安華路28-1號","121.519756666667","24.9608766666667","6500600","新店區"
"231024","4716-K9","2019/08/30 14:59:39","新北市新店區力行路12號","121.53942","24.9646283333333","6500600","新店區"
"231025","4715-K9","2019/08/30 14:59:39","新北市新店區二十張路46巷37弄20號","121.536063333333","24.9816333333333","6500600","新店區"
"231022","515-UM","2019/08/30 14:59:42","新北市新店區永福路42號","121.55564","24.9292933333333","6500600","新店區"
"231034","616-UM","2019/08/30 14:59:25","新北市新店區玫瑰路4-1號","121.493598333333","24.9514133333333","6500600","新店區"
"231001","617-UM","2019/08/30 14:59:38","新北市新店區中正路261號","121.538808333333","24.973595","6500600","新店區"
"231002","619-UM","2019/08/30 14:59:26","新北市新店區民權路89號","121.537856666667","24.982905","6500600","新店區"
"231012","KED-0819","2019/08/30 14:59:31","新北市新店區寶橋路132號","121.547306666667","24.9761233333333","6500600","新店區"
"231026","720-UM","2019/08/30 14:59:38","新北市新店區北新路一段62號","121.541305","24.9668116666667","6500600","新店區"
"231028","897-TW","2019/08/30 14:59:42","新北市新店區安德街173號","121.508698333333","24.9588333333333","6500600","新店區"
"231004","899-TW","2019/08/30 14:59:40","新北市新店區民族路6號","121.541653333333","24.9789183333333","6500600","新店區"
"231037","AKT-0513","2019/08/30 14:59:34","新北市新店區安興路81號","121.515531666667","24.97524","6500600","新店區"
"235030","003-UY","2019/08/30 14:59:33","新北市中和區中山路二段17號","121.505056666667","25.00549","6500300","中和區"
"235020","096-UM","2019/08/30 14:59:30","新北市中和區中山路三段170巷8弄13號","121.472943333333","25.0076916666667","6500300","中和區"
"235003","097-UM","2019/08/30 14:59:43","新北市中和區宜安路52巷17號","121.512465","24.9973683333333","6500300","中和區"
"235029","098-UM","2019/08/30 14:59:32","新北市中和區永和路39巷2號","121.498063333333","25.0049533333333","6500300","中和區"
"235004","150-BY","2019/08/30 14:59:37","新北市中和區景安路79巷21號","121.506986666667","24.9967683333333","6500300","中和區"
"235036","301-VK","2019/08/30 14:59:35","新北市中和區中山路二段3巷22弄4號","121.506146666667","25.005225","6500300","中和區"
"235007","352-BY","2019/08/30 14:59:41","新北市中和區興南路二段159巷25號","121.505391666667","24.9828816666667","6500300","中和區"
"235014","4979-A6","2019/08/30 14:59:43","新北市中和區景平路155號","121.513401666667","24.9919283333333","6500300","中和區"
"235033","4980-A6","2019/08/30 14:59:35","新北市中和區南山路4巷5號","121.501486666667","24.99877","6500300","中和區"
"235034","558-UM","2019/08/30 14:59:30","新北市中和區中正路281-3號","121.494676666667","24.9938966666667","6500300","中和區"
"235018","640-BX","2019/08/30 14:59:26","新北市中和區民享街35巷8弄15號","121.474666666667","25.0035816666667","6500300","中和區"
"235010","733-UM","2019/08/30 14:59:28","新北市中和區忠孝街31巷24號","121.510038333333","24.9843216666667","6500300","中和區"
"235035","783-BX","2019/08/30 14:59:32","新北市中和區中正路780-1號","121.485733333333","25.0007633333333","6500300","中和區"
"235012","896-TW","2019/08/30 14:59:29","新北市中和區忠孝街1巷2-1號","121.509195","24.9830516666667","6500300","中和區"
"235015","157-BY","2019/08/30 14:59:34","新北市中和區仁愛街118號","121.511716666667","24.9868716666667","6500300","中和區"
"235001","AAC-213","2019/08/30 14:59:42","新北市中和區自強路52號","121.520086666667","24.9948333333333","6500300","中和區"
"235023","AAC-215","2019/08/30 14:59:37","新北市中和區圓通路335巷3弄1號","121.492296666667","24.9902366666667","6500300","中和區"
"220013","072-UY","2019/08/30 14:59:43","新北市板橋區長安街23號","121.466685","25.00876","6500100","板橋區"
"220034","073-UY","2019/08/30 14:59:30","新北市板橋區南雅西路二段7巷25號","121.451885","25.00951","6500100","板橋區"
"220105","075-UY","2019/08/30 14:59:32","新北市板橋區懷德街76巷8號","121.477536666667","25.0317483333333","6500100","板橋區"
"220016","120-SR","2019/08/30 14:59:33","新北市板橋區中山路二段398號","121.482598333333","25.020725","6500100","板橋區"
"207002","749-BX","2019/08/30 14:59:30","新北市萬里區崁腳里崁腳路73號","121.64757","25.1595883333333","6502800","萬里區"
"207001","662-BX","2019/08/30 14:59:41","新北市萬里區雙興里二坪路1-1號","121.651305","25.1769566666667","6502800","萬里區"
"236077","166-UM","2019/08/30 14:59:40","新北市土城區中州路1-2號","121.414643333333","24.9572216666667","6501300","土城區"
"236029","253-BX","2019/08/30 14:59:40","新北市土城區慶利街16號","121.439695","24.9736233333333","6501300","土城區"
"236024","269-VK","2019/08/30 14:59:42","新北市土城區中正路74巷3弄2號","121.444855","24.9748416666667","6501300","土城區"
"236013","270-VK","2019/08/30 14:59:37","新北市土城區立德路13巷22號","121.461631666667","24.9888166666667","6501300","土城區"
"236032","271-VK","2019/08/30 14:59:31","新北市土城區仁愛路2號","121.459775","24.981285","6501300","土城區"
"236067","KEA-2877","2019/08/30 14:59:37","新北市土城區中央路一段291巷4號","121.444681666667","24.9839366666667","6501300","土城區"
"236016","401-BY","2019/08/30 14:59:31","新北市土城區延吉街217巷9弄2號","121.46885","24.984535","6501300","土城區"
"236040","752-BX","2019/08/30 14:59:43","新北市土城區裕民路214巷20號","121.452641666667","24.98379","6501300","土城區"
"236057","912-UM","2019/08/30 14:59:44","新北市土城區金城路二段266號","121.458346666667","24.9840533333333","6501300","土城區"
"236045","913-UM","2019/08/30 14:59:42","新北市土城區青雲路271號","121.459075","24.9804383333333","6501300","土城區"
"236060","915-UM","2019/08/30 14:59:28","新北市土城區延和路38號","121.464951666667","24.9886433333333","6501300","土城區"
"236054","AAC-216","2019/08/30 14:59:36","新北市土城區學成路139號","121.44905","24.989535","6501300","土城區"
"220027","145-BY","2019/08/30 14:59:41","新北市板橋區建國街21號","121.457865","25.017145","6500100","板橋區"
"220028","200-UY","2019/08/30 14:59:43","新北市板橋區大觀路二段109巷1號","121.447398333333","25.0013816666667","6500100","板橋區"
"220030","610-BX","2019/08/30 14:59:32","新北市板橋區存德街11號","121.429986666667","24.9918516666667","6500100","板橋區"
"220022","256-TC","2019/08/30 14:59:35","新北市板橋區實踐路1號","121.463475","25.0083333333333","6500100","板橋區"
"220040","267-BY","2019/08/30 14:59:24","新北市板橋區懷德街174巷27號","121.478358333333","25.02914","6500100","板橋區"
"220004","276-BY","2019/08/30 14:59:36","新北市板橋區四川路二段99巷2弄2號","121.452698333333","24.9944766666667","6500100","板橋區"
"220020","277-BY","2019/08/30 14:59:43","新北市板橋區篤行路二段1巷11號","121.432283333333","24.9926266666667","6500100","板橋區"
"220050","280-UM","2019/08/30 14:59:34","新北市板橋區莒光路171巷1弄18-2號","121.474565","25.0247116666667","6500100","板橋區"
"220043","283-UM","2019/08/30 14:59:35","新北市板橋區文化路一段371號","121.467028333333","25.021485","6500100","板橋區"
"220019","283-VK","2019/08/30 14:59:34","新北市板橋區五權街30巷7號","121.464486666667","24.993315","6500100","板橋區"
"220001","285-VK","2019/08/30 14:59:30","新北市板橋區永豐街151號","121.475203333333","25.0201583333333","6500100","板橋區"
"220031","286-VK","2019/08/30 14:59:41","新北市板橋區僑中二街48巷26號","121.445316666667","25.01043","6500100","板橋區"
"220029","287-VK","2019/08/30 14:59:43","新北市板橋區僑中一街80巷5弄2-4號","121.447843333333","25.0125616666667","6500100","板橋區"
"220009","293-UM","2019/08/30 14:59:36","新北市板橋區四川路一段286巷24號","121.457886666667","25.0012283333333","6500100","板橋區"
"220010","295-UM","2019/08/30 14:59:37","新北市板橋區中山路二段320號","121.480728333333","25.0194133333333","6500100","板橋區"
"220032","296-UM","2019/08/30 14:59:33","新北市板橋區溪崑二街114號","121.426225","24.98864","6500100","板橋區"
"220023","303-R5","2019/08/30 14:59:41","新北市板橋區金華街1號","121.455485","25.0200483333333","6500100","板橋區"
"220041","307-R5","2019/08/30 14:59:28","新北市板橋區漢生西路73號","121.462941666667","25.0187866666667","6500100","板橋區"
"220047","317-R6","2019/08/30 14:59:29","新北市板橋區新海路403巷12號","121.458036666667","25.02653","6500100","板橋區"
"220038","487-VK","2019/08/30 14:59:27","新北市板橋區四維路179-1號","121.464336666667","25.0266116666667","6500100","板橋區"
"220037","491-VK","2019/08/30 14:59:34","新北市板橋區懷德街56號","121.477446666667","25.0324283333333","6500100","板橋區"
"220104","560-BX","2019/08/30 14:59:34","新北市板橋區新生街37號","121.456716666667","25.02114","6500100","板橋區"
"220052","561-BX","2019/08/30 14:59:36","新北市板橋區漢生東路43巷6號","121.465968333333","25.0170333333333","6500100","板橋區"
"220011","609-BX","2019/08/30 14:59:43","新北市板橋區縣民大道三段310號","121.478568333333","25.0237316666667","6500100","板橋區"
"220005","686-BX","2019/08/30 14:59:41","新北市板橋區四川路二段245巷20-2號","121.451116666667","24.9928233333333","6500100","板橋區"
"220025","687-BX","2019/08/30 14:59:45","新北市板橋區僑中二街106巷1號","121.445911666667","25.00748","6500100","板橋區"
"220042","689-BX","2019/08/30 14:59:38","新北市板橋區長江路二段196號","121.467441666667","25.0321616666667","6500100","板橋區"
"220002","741-BX","2019/08/30 14:59:38","新北市板橋區忠孝路201巷97號","121.464525","25.0049033333333","6500100","板橋區"
"220051","KEA-2699","2019/08/30 14:59:27","新北市板橋區莒光路64號","121.47104","25.0240833333333","6500100","板橋區"
"220003","827-TW","2019/08/30 14:59:39","新北市板橋區仁愛路68號","121.46009","24.9994766666667","6500100","板橋區"
"220014","831-TW","2019/08/30 14:59:29","新北市板橋區漢生東路163號","121.46941","25.0126","6500100","板橋區"
"220022","895-R6","2019/08/30 14:59:44","新北市板橋區縣民大道一段308號","121.461433333333","25.0107533333333","6500100","板橋區"
"220021","985-R7","2019/08/30 14:59:47","新北市板橋區南雅西路二段89號","121.452648333333","25.01033","6500100","板橋區"
"220046","AAC-210","2019/08/30 14:59:38","新北市板橋區光正街45巷6弄11號","121.461261666667","25.0170266666667","6500100","板橋區"
"220012","AAC-253","2019/08/30 14:59:27","新北市板橋區民族路220號","121.468588333333","25.0074833333333","6500100","板橋區"
