"lineid","car","time","location","longitude","latitude","cityid","cityname"
"249005","172-UM","2019/08/30 17:09:32","新北市八里區華富山6-3號","121.420858333333","25.1425616666667","6502300","八里區"
"249001","173-UM","2019/08/30 17:09:38","新北市八里區中華路二段331-5號","121.401875","25.1466233333333","6502300","八里區"
"249004","303-UY","2019/08/30 17:09:30","新北市八里區忠孝路85號","121.42492","25.1604966666667","6502300","八里區"
"249002","305-UY","2019/08/30 17:09:36","新北市八里區米倉18號","121.440036666667","25.1500016666667","6502300","八里區"
"249003","593-UM","2019/08/30 17:09:39","新北市八里區中山路二段401號","121.398015","25.1466833333333","6502300","八里區"
"244007","080-UY","2019/08/30 17:09:21","新北市林口區菁埔9號","121.378855","25.09622","6501700","林口區"
"244019","402-UM","2019/08/30 17:09:27","新北市林口區文化一路一段190巷7弄3號","121.380238333333","25.0749583333333","6501700","林口區"
"244013","KEA-2802","2019/08/30 17:09:38","新北市林口區粉寮69號","121.404753333333","25.09079","6501700","林口區"
"244017","485-VK","2019/08/30 17:09:36","新北市林口區粉寮69號","121.405071666667","25.090805","6501700","林口區"
"244011","701-TV","2019/08/30 17:09:33","新北市林口區粉寮路二段160巷28號","121.405171666667","25.0907633333333","6501700","林口區"
"244025","837-TS","2019/08/30 17:09:40","新北市林口區中山路564-1號","121.378115","25.0836683333333","6501700","林口區"
"244021","838-TS","2019/08/30 17:09:39","新北市林口區粉寮路二段128號","121.404491666667","25.0903666666667","6501700","林口區"
"231046","719-UM","2019/08/30 17:01:34","新北市新店區灣潭路15-2號","121.542598333333","24.9430583333333","6500600","新店區"
"241011","013-R5","2019/08/30 17:09:27","新北市三重區龍濱路253號","121.50176","25.07279","6500200","三重區"
"241028","022-UY","2019/08/30 17:09:41","新北市三重區重新路三段108號","121.492373333333","25.0604983333333","6500200","三重區"
"241008","059-VK","2019/08/30 17:09:31","新北市三重區力行路二段136巷7號","121.482145","25.0757033333333","6500200","三重區"
"241029","060-VK","2019/08/30 17:09:30","新北市三重區重新路三段150號","121.490911666667","25.0593216666667","6500200","三重區"
"241031","061-VK","2019/08/30 17:09:34","新北市三重區重陽路一段113巷1弄1號","121.487458333333","25.0597816666667","6500200","三重區"
"241015","062-VK","2019/08/30 17:09:45","新北市三重區中央北路79號","121.500353333333","25.0665783333333","6500200","三重區"
"241017","063-VK","2019/08/30 17:09:39","新北市三重區大同北路54巷5號","121.494038333333","25.0633716666667","6500200","三重區"
"241024","065-VK","2019/08/30 17:09:27","新北市三重區中正北路171號","121.478096666667","25.0694683333333","6500200","三重區"
"241002","090-VK","2019/08/30 17:09:33","新北市三重區自強路五段29-1號","121.493523333333","25.0810066666667","6500200","三重區"
"241003","091-VK","2019/08/30 17:09:30","新北市三重區富福街108號","121.493425","25.0855866666667","6500200","三重區"
"241004","742-BX","2019/08/30 17:09:29","新北市三重區仁愛街445巷53號","121.491318333333","25.08312","6500200","三重區"
"241006","262-UM","2019/08/30 17:09:38","新北市三重區三和路四段264巷2弄11號","121.485238333333","25.0767666666667","6500200","三重區"
"241016","266-UM","2019/08/30 17:09:23","新北市三重區大同北路54巷1號","121.49417","25.0632966666667","6500200","三重區"
"241009","267-UM","2019/08/30 17:09:42","新北市三重區三和路四段229號","121.481475","25.0799466666667","6500200","三重區"
"241018","268-UM","2019/08/30 17:09:32","新北市三重區正義北路280號","121.495733333333","25.0691166666667","6500200","三重區"
"241032","269-UM","2019/08/30 17:09:34","新北市三重區三陽路13巷1號","121.486028333333","25.059455","6500200","三重區"
"241013","270-UM","2019/08/30 17:09:32","新北市三重區仁福街32號","121.496863333333","25.0746","6500200","三重區"
"241025","271-UM","2019/08/30 17:09:43","新北市三重區中正北路560號","121.470891666667","25.0720383333333","6500200","三重區"
"241007","398-BY","2019/08/30 17:09:39","新北市三重區三和路四段163巷53號","121.484911666667","25.0790733333333","6500200","三重區"
"241030","KED-0822","2019/08/30 17:09:39","新北市三重區集成路13號","121.488768333333","25.05209","6500200","三重區"
"241020","478-VK","2019/08/30 17:09:31","新北市三重區自強路三段72號","121.486778333333","25.073485","6500200","三重區"
"241026","480-VK","2019/08/30 17:09:28","新北市三重區福德南路20號","121.502913333333","25.063255","6500200","三重區"
"241014","543-UM","2019/08/30 17:09:33","新北市三重區龍濱路189號","121.502115","25.0710333333333","6500200","三重區"
"241001","547-UM","2019/08/30 17:09:29","新北市三重區仁愛街269巷47號","121.494303333333","25.0793866666667","6500200","三重區"
"241019","KEA-2593","2019/08/30 17:09:31","新北市三重區自強路二段74巷37號","121.48739","25.0695683333333","6500200","三重區"
"241005","AAD-863","2019/08/30 17:09:35","新北市三重區永安北路二段15號","121.482213333333","25.0814766666667","6500200","三重區"
"241023","743-BX","2019/08/30 17:09:33","新北市三重區忠孝路三段84巷1號","121.480288333333","25.064565","6500200","三重區"
"241022","KED-0820","2019/08/30 17:09:37","新北市三重區三民街111號","121.484826666667","25.0638566666667","6500200","三重區"
"241012","941-UM","2019/08/30 17:09:38","新北市三重區河邊北街246號","121.501686666667","25.075935","6500200","三重區"
"241033","AAC-255","2019/08/30 17:09:41","新北市三重區中興北街271號","121.469006666667","25.0605916666667","6500200","三重區"
"235064","005-UY","2019/08/30 17:09:44","新北市中和區員山路36巷16-3號","121.484966666667","24.991285","6500300","中和區"
"247014","KEA-2869","2019/08/30 17:09:44","新北市蘆洲區中央路37巷15號","121.473311666667","25.0824833333333","6501400","蘆洲區"
"247008","KED-0682","2019/08/30 17:09:40","新北市蘆洲區信義路34巷16號","121.474605","25.0787416666667","6501400","蘆洲區"
"235062","800-TS","2019/08/30 17:09:40","新北市中和區員山路36巷16-3號","121.485121666667","24.9914316666667","6500300","中和區"
"247004","893-R6","2019/08/30 17:09:32","新北市蘆洲區長安街191號","121.46021","25.0819083333333","6501400","蘆洲區"
"247018","546-UM","2019/08/30 17:09:38","新北市蘆洲區復興路134號","121.476768333333","25.0875316666667","6501400","蘆洲區"
"247012","337-TH","2019/08/30 17:09:34","新北市蘆洲區信義路276號","121.477913333333","25.0871083333333","6501400","蘆洲區"
"247002","336-TH","2019/08/30 17:09:36","新北市蘆洲區永樂街83號","121.455801666667","25.08882","6501400","蘆洲區"
"247022","057-VK","2019/08/30 17:09:24","新北市蘆洲區水湳街97號","121.470143333333","25.0903383333333","6501400","蘆洲區"
"247016","053-VK","2019/08/30 17:09:27","新北市蘆洲區光華路68號","121.468118333333","25.0828366666667","6501400","蘆洲區"
"247020","007-UY","2019/08/30 17:09:36","新北市蘆洲區民族路426巷51號","121.472515","25.0940816666667","6501400","蘆洲區"
"247006","002-UY","2019/08/30 17:09:40","新北市蘆洲區長安街102巷65號","121.462706666667","25.0821416666667","6501400","蘆洲區"
"247024","001-UY","2019/08/30 17:09:30","新北市蘆洲區光華路162巷17號","121.464761666667","25.0826483333333","6501400","蘆洲區"
"228003","097-TW","2019/08/30 17:09:37","新北市貢寮區貢寮里朝陽街1-2號","121.912375","25.02137","6502600","貢寮區"
"228001","212-TW","2019/08/30 17:09:26","新北市貢寮區仁理村研海街20號","121.927688333333","25.0376983333333","6502600","貢寮區"
"228002","663-BX","2019/08/30 17:09:32","新北市貢寮區龍崗里泮宮路1號","121.907716666667","25.0183","6502600","貢寮區"
"224006","676-BX","2019/08/30 17:09:39","新北市瑞芳區大寮路116-1號","121.779646666667","25.0985133333333","6501200","瑞芳區"
"224009","275-VK","2019/08/30 17:09:25","新北市瑞芳區濱二路30號","121.841206666667","25.1163916666667","6501200","瑞芳區"
"224008","273-VK","2019/08/30 17:09:36","新北市瑞芳區侯硐路89號","121.830498333333","25.0892866666667","6501200","瑞芳區"
"224005","271-BY","2019/08/30 17:09:32","新北市瑞芳區鼻頭路127號","121.916651666667","25.1219183333333","6501200","瑞芳區"
"227002","642-TC","2019/08/30 17:09:31","新北市雙溪區上林里內平林13號","121.836968333333","25.0294333333333","6502500","雙溪區"
"251004","009-UM","2019/08/30 17:09:31","新北市淡水區中正東路二段95號","121.459253333333","25.152025","6501000","淡水區"
"251008","181-VK","2019/08/30 17:09:28","新北市淡水區樹梅坑7-6號","121.472186666667","25.14399","6501000","淡水區"
"251012","441-VK","2019/08/30 17:09:45","新北市淡水區大義街3號","121.443801666667","25.17788","6501000","淡水區"
"251007","442-VK","2019/08/30 17:09:28","新北市淡水區中正東路二段48巷20號","121.457206666667","25.1585283333333","6501000","淡水區"
"251005","443-VK","2019/08/30 17:09:28","新北市淡水區鄧公路23巷1-5號","121.450248333333","25.1699716666667","6501000","淡水區"
"251006","561-UM","2019/08/30 17:09:42","新北市淡水區新民街19巷12號","121.438468333333","25.1747183333333","6501000","淡水區"
"251009","575-R6","2019/08/30 17:09:41","新北市淡水區中正路一段106號","121.423826666667","25.1779233333333","6501000","淡水區"
"251011","650-BX","2019/08/30 17:09:39","新北市淡水區坪頂路50號","121.457876666667","25.16244","6501000","淡水區"
"252002","178-VK","2019/08/30 17:09:36","新北市三芝區忠孝街1-15號","121.505561666667","25.2539366666667","6502100","三芝區"
"233002","762-BX","2019/08/30 17:09:35","新北市烏來區野要街80-2號","121.545976666667","24.8544483333333","6502900","烏來區"
"247010","KED-0683","2019/08/30 17:09:41","新北市蘆洲區民族路26號","121.476231666667","25.0842133333333","6501400","蘆洲區"
"252001","KED-0821","2019/08/30 17:09:38","新北市三芝區中興街一段2號","121.497903333333","25.25996","6502100","三芝區"
"242039","AAC-296","2019/08/30 17:09:32","新北市新莊區新泰路357巷3弄57號","121.442155","25.0394566666667","6500500","新莊區"
"242029","615-BX","2019/08/30 17:09:30","新北市新莊區新泰路357巷3弄57號","121.441893333333","25.0393166666667","6500500","新莊區"
"242027","613-BX","2019/08/30 17:09:24","新北市新莊區三和路12-21號","121.442343333333","25.0378983333333","6500500","新莊區"
"242046","566-BX","2019/08/30 17:09:31","新北市新莊區三和路12-21號","121.44228","25.038455","6500500","新莊區"
"242050","497-BY","2019/08/30 17:09:31","新北市新莊區中環路一段281號","121.442028333333","25.031615","6500500","新莊區"
"242034","442-UM","2019/08/30 17:09:32","新北市新莊區三和路12-21號","121.441958333333","25.0387183333333","6500500","新莊區"
"242056","441-UM","2019/08/30 17:09:33","新北市泰山區磚雅厝3號","121.44198","25.041755","6500500","新莊區"
"242011","413-TV","2019/08/30 17:09:40","新北市新莊區新泰路357巷3弄57號","121.441955","25.0394383333333","6500500","新莊區"
"242048","400-BY","2019/08/30 17:09:34","新北市新莊區新泰路357巷2-2號","121.442071666667","25.0413333333333","6500500","新莊區"
"242025","362-BY","2019/08/30 17:09:36","新北市新莊區新泰路255巷83號","121.442128333333","25.03899","6500500","新莊區"
"242023","353-BY","2019/08/30 17:09:37","新北市新莊區新泰路357巷3弄57號","121.442035","25.0391716666667","6500500","新莊區"
"242015","173-VK","2019/08/30 17:09:37","新北市新莊區三和路12-21號","121.442011666667","25.0386816666667","6500500","新莊區"
"242021","175-VK","2019/08/30 17:09:26","新北市新莊區三和路12-21號","121.442031666667","25.0386066666667","6500500","新莊區"
"242019","346-TH","2019/08/30 17:09:36","新北市新莊區三和路12-21號","121.4423","25.03817","6500500","新莊區"
"242032","348-TH","2019/08/30 17:09:27","新北市新莊區新泰路462號","121.443288333333","25.044825","6500500","新莊區"
"242007","349-TH","2019/08/30 17:09:23","新北市新莊區三和路12-21號","121.442275","25.0384533333333","6500500","新莊區"
"242017","351-TH","2019/08/30 17:09:36","新北市新莊區三和路18-25號","121.441663333333","25.0395416666667","6500500","新莊區"
"238023","601-UM","2019/08/30 17:09:45","新北市樹林區中山路二段209號","121.4032","24.9784633333333","6500700","樹林區"
"238019","599-UM","2019/08/30 17:09:44","新北市樹林區育德街78號","121.387605","24.9685416666667","6500700","樹林區"
"238018","KEA-2217","2019/08/30 17:09:41","新北市樹林區太平路247巷30號","121.422083333333","24.9746016666667","6500700","樹林區"
"238017","283-BY","2019/08/30 17:09:24","新北市樹林區保安街一段240號","121.420041666667","24.9966433333333","6500700","樹林區"
"238014","282-BY","2019/08/30 17:09:28","新北市樹林區中山路二段157號","121.406221666667","24.9787883333333","6500700","樹林區"
"238020","268-VK","2019/08/30 17:09:39","新北市樹林區大安路305號","121.417753333333","24.99216","6500700","樹林區"
"238016","169-UY","2019/08/30 17:09:31","新北市樹林區中山路二段34號","121.417473333333","24.98495","6500700","樹林區"
"239007","AAC-297","2019/08/30 17:09:28","新北市鶯歌區中正二路3號","121.351811666667","24.95169","6500800","鶯歌區"
"239006","891-R6","2019/08/30 17:09:28","新北市鶯歌區八德路2巷18弄2號","121.336778333333","24.94705","6500800","鶯歌區"
"239008","527-UM","2019/08/30 17:09:25","新北市鶯歌區尖山路99號","121.348268333333","24.9489716666667","6500800","鶯歌區"
"239001","417-VK","2019/08/30 17:09:27","新北市鶯歌區尖山路140巷23號","121.346376666667","24.9491116666667","6500800","鶯歌區"
"239002","359-BY","2019/08/30 17:09:29","新北市鶯歌區建國路141號","121.351266666667","24.953845","6500800","鶯歌區"
"239004","193-VK","2019/08/30 17:09:37","新北市鶯歌區文化路324巷4弄2號","121.349776666667","24.945235","6500800","鶯歌區"
"233001","KEA-2870","2019/08/30 17:09:35","新北市烏來區溫泉街39號","121.550758333333","24.8619766666667","6502900","烏來區"
"242044","281-VK","2019/08/30 17:09:41","新北市新莊區新泰路357巷3弄27號","121.442015","25.0406366666667","6500500","新莊區"
"242009","280-VK","2019/08/30 17:09:39","新北市新莊區三和路12-21號","121.441998333333","25.038325","6500500","新莊區"
"235061","KEA-2875","2019/08/30 17:09:05","新北市中和區員山路36巷16-2號","121.485308333333","24.9916866666667","6500300","中和區"
