"lineid","car","time","location","longitude","latitude","cityid","cityname"
"234046","148-BY","2019/08/30 18:29:37","新北市永和區福和路1號","121.525625","25.00939","6500400","永和區"
"234081","298-R6","2019/08/30 18:29:46","新北市永和區福和路1號","121.526566666667","25.00994","6500400","永和區"
"234086","338-UY","2019/08/30 18:29:41","新北市永和區福和路288號","121.517416666667","25.0074816666667","6500400","永和區"
"234007","KED-0605","2019/08/30 18:29:30","新北市永和區環河西路二段185號","121.502298333333","25.0111866666667","6500400","永和區"
"234013","KEA-2591","2019/08/30 18:29:43","新北市永和區福和路1號","121.526036666667","25.0095516666667","6500400","永和區"
"234026","9371-KE","2019/08/30 18:29:31","新北市永和區永貞路419號","121.507233333333","25.0094416666667","6500400","永和區"
"234011","9373-KE","2019/08/30 18:29:25","新北市永和區保福路二段165號","121.509073333333","25.01498","6500400","永和區"
"249005","172-UM","2019/08/30 18:29:32","新北市八里區中華路三段120-2號","121.39275","25.1378166666667","6502300","八里區"
"249001","173-UM","2019/08/30 18:29:38","新北市八里區龍米路一段152號","121.452815","25.1258633333333","6502300","八里區"
"249004","303-UY","2019/08/30 18:29:29","新北市八里區忠孝路102號","121.425621666667","25.1604633333333","6502300","八里區"
"249002","305-UY","2019/08/30 18:29:36","新北市八里區龍形二街41號","121.450125","25.13272","6502300","八里區"
"248016","026-BX","2019/08/30 18:29:39","新北市五股區凌雲路一段83巷1-5號","121.450303333333","25.10067","6501500","五股區"
"248008","KED-0815","2019/08/30 18:29:41","新北市五股區中興路二段78-5號","121.461373333333","25.0786066666667","6501500","五股區"
"248018","KED-0813","2019/08/30 18:29:40","新北市五股區御史路300號","121.417206666667","25.10855","6501500","五股區"
"248012","247-BX","2019/08/30 18:29:46","新北市五股區御史路37巷2號","121.442253333333","25.091945","6501500","五股區"
"248014","261-SL","2019/08/30 18:29:29","新北市五股區成泰路一段104號","121.435753333333","25.0717283333333","6501500","五股區"
"248004","677-BX","2019/08/30 18:29:42","新北市五股區工商路126號","121.436365","25.085815","6501500","五股區"
"248002","678-BX","2019/08/30 18:29:44","新北市五股區西雲路116-6號","121.444671666667","25.093735","6501500","五股區"
"248010","682-TV","2019/08/30 18:29:31","新北市五股區水碓路1-1號","121.43398","25.0719066666667","6501500","五股區"
"234077","969-R7","2019/08/30 18:29:42","新北市永和區福和路1號","121.526486666667","25.00987","6500400","永和區"
"232011","375-UM","2019/08/30 18:29:26","新北市坪林區坪雙路一段41號","121.711695","24.94243","6502000","坪林區"
"244007","080-UY","2019/08/30 18:29:41","新北市林口區後湖33號","121.387256666667","25.0996216666667","6501700","林口區"
"244019","402-UM","2019/08/30 18:29:27","新北市林口區忠孝路621號","121.379525","25.0688216666667","6501700","林口區"
"244013","KEA-2802","2019/08/30 18:29:38","新北市林口區文化一路二段90號","121.381505","25.0786583333333","6501700","林口區"
"244023","483-VK","2019/08/30 18:29:45","新北市林口區東湖路220號","121.382781666667","25.0738983333333","6501700","林口區"
"244017","485-VK","2019/08/30 18:29:36","新北市林口區八德路78號","121.365698333333","25.065445","6501700","林口區"
"244009","656-BX","2019/08/30 18:29:35","新北市林口區寶林路32號","121.385795","25.0841416666667","6501700","林口區"
"244011","701-TV","2019/08/30 18:29:33","新北市林口區興林路17巷5弄1號","121.390511666667","25.0770483333333","6501700","林口區"
"244025","837-TS","2019/08/30 18:29:40","新北市林口區南勢六街30巷22號","121.356861666667","25.07165","6501700","林口區"
"244021","838-TS","2019/08/30 18:29:39","新北市林口區自強二街25號","121.398318333333","25.0777933333333","6501700","林口區"
"243010","297-R6","2019/08/30 18:29:37","新北市泰山區黎明路25號","121.42228","25.060875","6501600","泰山區"
"243015","680-BX","2019/08/30 18:29:31","新北市泰山區泰林路二段603號","121.421431666667","25.063425","6501600","泰山區"
"222003","436-BY","2019/08/30 18:29:33","新北市深坑區北深路一段288號","121.628163333333","25.0076216666667","6501800","深坑區"
"222002","659-BX","2019/08/30 18:29:31","新北市深坑區雲鄉路133號","121.622768333333","24.99805","6501800","深坑區"
"231058","0293-UT","2019/08/30 18:29:38","新北市新店區環河路19巷24號","121.537508333333","24.960145","6500600","新店區"
"231044","046-UY","2019/08/30 18:29:35","新北市新店區安華路28-1號","121.519438333333","24.9607916666667","6500600","新店區"
"231060","106-UY","2019/08/30 18:29:26","新北市新店區安華路28-1號","121.519605","24.9607633333333","6500600","新店區"
"221031","KEA-2785","2019/08/30 18:29:30","新北市汐止區光復街8巷23-1號","121.637958333333","25.057095","6501100","汐止區"
"231062","256-BX","2019/08/30 18:29:40","新北市新店區安一路一段1-1號","121.519673333333","24.9612","6500600","新店區"
"231054","260-TV","2019/08/30 18:29:40","新北市新店區安一路一段1-1號","121.519253333333","24.9612033333333","6500600","新店區"
"231042","268-BY","2019/08/30 18:29:33","新北市新店區安一路一段1-1號","121.51974","24.9612966666667","6500600","新店區"
"231064","278-BY","2019/08/30 18:29:30","新北市新店區安一路一段1-1號","121.519646666667","24.96115","6500600","新店區"
"231050","AAD-862","2019/08/30 18:29:37","新北市新店區安一路一段1-1號","121.51999","24.961165","6500600","新店區"
"231045","355-BY","2019/08/30 18:29:42","新北市新店區安華路28-1號","121.519356666667","24.96092","6500600","新店區"
"231055","4716-K9","2019/08/30 18:29:40","新北市新店區中正路128巷7弄2號","121.542363333333","24.9718366666667","6500600","新店區"
"231056","4715-K9","2019/08/30 18:29:25","新北市新店區二十張路129巷5弄3號","121.536593333333","24.978765","6500600","新店區"
"231053","515-UM","2019/08/30 18:29:37","新北市新店區新烏路一段9-1號","121.546993333333","24.9515266666667","6500600","新店區"
"231063","616-UM","2019/08/30 18:29:27","新北市新店區安華路1-1號","121.519458333333","24.9604833333333","6500600","新店區"
"231041","619-UM","2019/08/30 18:29:41","新北市新店區安華路28-1號","121.519768333333","24.9607083333333","6500600","新店區"
"231048","KED-0819","2019/08/30 18:29:38","新北市新店區安一路一段1-1號","121.5199","24.961245","6500600","新店區"
"231057","720-UM","2019/08/30 18:29:25","新北市新店區安一路一段1-1號","121.519135","24.9612783333333","6500600","新店區"
"231059","897-TW","2019/08/30 18:29:39","新北市新店區安華路28-1號","121.519686666667","24.9608566666667","6500600","新店區"
"231043","899-TW","2019/08/30 18:29:41","新北市新店區安華路28-1號","121.519343333333","24.960765","6500600","新店區"
"231066","AKT-0513","2019/08/30 18:29:42","新北市新店區安華路28-1號","121.519506666667","24.9605816666667","6500600","新店區"
"235066","003-UY","2019/08/30 18:29:43","新北市中和區中山路二段120號","121.502793333333","25.0037266666667","6500300","中和區"
"235064","005-UY","2019/08/30 18:29:37","新北市中和區連城路97號","121.496461666667","24.9998766666667","6500300","中和區"
"235063","006-UY","2019/08/30 18:29:38","新北市中和區連城路369號","121.487238333333","24.9962533333333","6500300","中和區"
"235056","096-UM","2019/08/30 18:29:39","新北市中和區中正路860號","121.484338333333","25.00553","6500300","中和區"
"235039","097-UM","2019/08/30 18:29:28","新北市中和區安平路182號","121.512871666667","24.998965","6500300","中和區"
"235065","098-UM","2019/08/30 18:29:32","新北市中和區莊敬路49巷20弄22號","121.502706666667","25.0058683333333","6500300","中和區"
"235040","150-BY","2019/08/30 18:29:26","新北市中和區安平路59號","121.50957","24.9951316666667","6500300","中和區"
"235058","151-BY","2019/08/30 18:29:34","新北市中和區圓通路369巷30弄14號","121.489181666667","24.9850083333333","6500300","中和區"
"235055","183-VK","2019/08/30 18:29:38","新北市中和區民生街22號","121.47007","25.005425","6500300","中和區"
"235038","185-VK","2019/08/30 18:29:32","新北市中和區自立路20巷1號","121.522273333333","24.99334","6500300","中和區"
"235049","186-VK","2019/08/30 18:29:36","新北市中和區景安路116號","121.505345","24.9951216666667","6500300","中和區"
"235044","293-VK","2019/08/30 18:29:27","新北市中和區復興路301巷2弄2號","121.501491666667","24.990095","6500300","中和區"
"235072","301-VK","2019/08/30 18:29:31","新北市中和區中山路二段172號","121.501208333333","25.0028616666667","6500300","中和區"
"235043","352-BY","2019/08/30 18:29:36","新北市中和區景平路279-5號","121.50759","24.9930483333333","6500300","中和區"
"235042","KEA-2878","2019/08/30 18:29:40","新北市中和區景平路40號","121.522958333333","24.99064","6500300","中和區"
"235050","4979-A6","2019/08/30 18:29:34","新北市中和區景新街320號","121.511623333333","24.9913766666667","6500300","中和區"
"235069","4980-A6","2019/08/30 18:29:33","新北市中和區連城路125號","121.49611","24.999245","6500300","中和區"
"235070","558-UM","2019/08/30 18:29:37","新北市中和區景新街133號","121.505801666667","24.9972216666667","6500300","中和區"
"235045","565-BX","2019/08/30 18:29:29","新北市中和區南山路236巷36弄5號","121.504133333333","24.9883133333333","6500300","中和區"
"235060","KED-0823","2019/08/30 18:29:27","新北市中和區中山路二段561號","121.480758333333","25.0056133333333","6500300","中和區"
"235054","640-BX","2019/08/30 18:29:28","新北市中和區民享街86巷30弄2號","121.473203333333","25.0008233333333","6500300","中和區"
"235047","732-UM","2019/08/30 18:29:28","新北市中和區南山路499號","121.507953333333","24.9877016666667","6500300","中和區"
"235062","800-TS","2019/08/30 18:29:36","新北市中和區中山路二段316號","121.495633333333","25.0024633333333","6500300","中和區"
"235057","801-TS","2019/08/30 18:29:27","新北市中和區員山路327巷46號","121.480395","25.001695","6500300","中和區"
"235052","805-TS","2019/08/30 18:29:31","新北市中和區興南路二段96號","121.50507","24.98403","6500300","中和區"
"235048","896-TW","2019/08/30 18:29:26","新北市中和區中正路49號","121.501915","24.9935316666667","6500300","中和區"
"235053","900-TW","2019/08/30 18:29:28","新北市中和區員山路77巷1弄11號","121.480481666667","24.99362","6500300","中和區"
"235067","911-UM","2019/08/30 18:29:26","新北市中和區中山路二段552號","121.483595","25.0053616666667","6500300","中和區"
"235051","157-BY","2019/08/30 18:29:40","新北市中和區興南路二段114巷10弄38號","121.504068333333","24.98505","6500300","中和區"
"235037","AAC-213","2019/08/30 18:29:29","新北市中和區景德街47號","121.517841666667","24.991365","6500300","中和區"
"235059","AAC-215","2019/08/30 18:29:42","新北市中和區員山路36巷16-3號","121.484998333333","24.9913366666667","6500300","中和區"
"220065","072-UY","2019/08/30 18:29:45","新北市板橋區南雅南路二段1-1號","121.45486","25.003825","6500100","板橋區"
"220069","AAD-861","2019/08/30 18:29:45","新北市板橋區華東街1-10號","121.448388333333","24.995145","6500100","板橋區"
"226004","312-R5","2019/08/30 18:29:34","新北市平溪區白石里白石腳211號","121.728143333333","25.0226133333333","6502400","平溪區"
"235041","251-BX","2019/08/30 18:29:34","新北市中和區景安路24號","121.507416666667","24.9986233333333","6500300","中和區"
"228003","097-TW","2019/08/30 18:29:37","新北市貢寮區和美里和美街39號","121.912365","25.0894166666667","6502600","貢寮區"
"228001","212-TW","2019/08/30 18:29:46","新北市貢寮區仁理村仁和路166號","121.923575","25.0521466666667","6502600","貢寮區"
"228002","663-BX","2019/08/30 18:29:32","新北市貢寮區福連里福興街31號","121.991493333333","25.0110866666667","6502600","貢寮區"
"224010","AGQ-8101","2019/08/30 18:29:01","新北市瑞芳區烏勢巷108號","121.84621","25.10875","6501200","瑞芳區"
"224006","676-BX","2019/08/30 18:29:39","新北市瑞芳區明燈路三段1號","121.80896","25.1074516666667","6501200","瑞芳區"
"224002","639-TC","2019/08/30 18:29:41","新北市瑞芳區正貿新村15號","121.813618333333","25.1059616666667","6501200","瑞芳區"
"224007","285-BY","2019/08/30 18:29:39","新北市瑞芳區大埔路國宅新村18號","121.764886666667","25.1004066666667","6501200","瑞芳區"
"224009","275-VK","2019/08/30 18:29:25","新北市瑞芳區五號路215號","121.856031666667","25.110385","6501200","瑞芳區"
"224008","273-VK","2019/08/30 18:29:35","新北市瑞芳區岳王路1巷23號","121.806043333333","25.1104283333333","6501200","瑞芳區"
"224005","271-BY","2019/08/30 18:29:32","新北市瑞芳區永龍新村62號","121.818435","25.11897","6501200","瑞芳區"
"227002","642-TC","2019/08/30 18:29:30","新北市雙溪區魚行里坤溪25號","121.870483333333","25.0297216666667","6502500","雙溪區"
"227001","400-TW","2019/08/30 18:29:38","新北市雙溪區牡丹里牡丹39號","121.85252","25.0584166666667","6502500","雙溪區"
"253006","032-BX","2019/08/30 18:29:36","新北市石門區公地47號","121.545388333333","25.2900416666667","6502200","石門區"
"253005","295-VK","2019/08/30 18:29:38","新北市石門區老崩山2-1號","121.554941666667","25.2917916666667","6502200","石門區"
"222001","KEA-2212","2019/08/30 18:29:42","新北市深坑區北深路一段185號","121.632165","25.0106066666667","6501800","深坑區"
"208002","KEA-2872","2019/08/30 18:29:27","新北市金山區民生路151-2號","121.64468","25.2226583333333","6502700","金山區"
"208003","665-BX","2019/08/30 18:29:34","新北市金山區中山路230號","121.637153333333","25.222085","6502700","金山區"
"251004","009-UM","2019/08/30 18:29:41","新北市淡水區民族路31巷21-3號","121.46205","25.136455","6501000","淡水區"
"251001","011-UM","2019/08/30 18:29:24","新北市淡水區自強路369號","121.464396666667","25.1331716666667","6501000","淡水區"
"251002","012-UM","2019/08/30 18:29:43","新北市淡水區竿蓁二街17號","121.453213333333","25.1629816666667","6501000","淡水區"
"251008","181-VK","2019/08/30 18:29:28","新北市淡水區水源街二段346巷1弄1號","121.46437","25.1755466666667","6501000","淡水區"
"251010","413-VK","2019/08/30 18:29:34","新北市淡水區沙崙路181巷2-2號","121.424155","25.184135","6501000","淡水區"
"251012","441-VK","2019/08/30 18:29:45","新北市淡水區北投子55號","121.457811666667","25.1821483333333","6501000","淡水區"
"251006","561-UM","2019/08/30 18:29:42","新北市淡水區新生街51巷26號","121.440666666667","25.1756383333333","6501000","淡水區"
"251011","650-BX","2019/08/30 18:29:39","新北市淡水區坪頂路57號","121.458643333333","25.16261","6501000","淡水區"
"251003","766-UM","2019/08/30 18:29:31","新北市淡水區北新路169巷14號","121.449713333333","25.1801766666667","6501000","淡水區"
"207003","550-UM","2019/08/30 18:29:30","新北市萬里區野柳里港東路61號","121.687601666667","25.2037583333333","6502800","萬里區"
"207004","291-VK","2019/08/30 18:29:40","新北市萬里區萬里里瑪鋉路12-4號","121.687796666667","25.1756766666667","6502800","萬里區"
"252002","178-VK","2019/08/30 18:29:36","新北市三芝區中山路二段37號","121.502903333333","25.2551683333333","6502100","三芝區"
"252003","249-BX","2019/08/30 18:29:25","新北市三芝區後厝里北勢子41-3號","121.472181666667","25.2527833333333","6502100","三芝區"
"208001","170-UY","2019/08/30 18:29:35","新北市金山區文化二路6號","121.636828333333","25.2246066666667","6502700","金山區"
"237004","KEA-2597","2019/08/30 18:29:45","新北市三峽區五寮30-1號","121.373796666667","24.870155","6500900","三峽區"
"237007","153-BY","2019/08/30 18:29:29","新北市三峽區中正路三段170巷9號","121.352511666667","24.904035","6500900","三峽區"
"237009","210-TH","2019/08/30 18:29:27","新北市三峽區大同路277號","121.366095","24.92545","6500900","三峽區"
"237013","252-BX","2019/08/30 18:29:31","新北市三峽區光明路69巷24號","121.376548333333","24.9289633333333","6500900","三峽區"
"237012","275-BY","2019/08/30 18:29:33","新北市三峽區三樹路214巷13號","121.38006","24.9414633333333","6500900","三峽區"
"237008","302-VK","2019/08/30 18:29:33","新北市三峽區白雞79-1號","121.402128333333","24.9102583333333","6500900","三峽區"
"237006","5529-G3","2019/08/30 18:29:41","新北市三峽區溪東路371巷2弄1號","121.412106666667","24.9297783333333","6500900","三峽區"
"237011","KEA-2596","2019/08/30 18:29:28","新北市三峽區溪東路218巷3號","121.407415","24.9314633333333","6500900","三峽區"
"237015","649-BX","2019/08/30 18:29:42","新北市三峽區竹崙路97號","121.432926666667","24.9173033333333","6500900","三峽區"
"237010","706-TV","2019/08/30 18:29:32","新北市三峽區中山路257巷1號","121.36246","24.9372566666667","6500900","三峽區"
"237005","AKY-6261","2019/08/30 18:29:29","新北市三峽區清水街318號","121.37238","24.9343466666667","6500900","三峽區"
"236079","166-UM","2019/08/30 18:29:38","新北市土城區中央路四段27巷10弄2號","121.424691666667","24.9618633333333","6501300","土城區"
"236030","253-BX","2019/08/30 18:29:31","新北市土城區水源街81巷3號","121.439531666667","24.9762916666667","6501300","土城區"
"236026","269-VK","2019/08/30 18:29:32","新北市土城區南天母路135巷24號","121.449261666667","24.9545166666667","6501300","土城區"
"236014","270-VK","2019/08/30 18:29:26","新北市土城區青雲路39巷7號","121.460355","24.9873583333333","6501300","土城區"
"236039","271-VK","2019/08/30 18:29:25","新北市土城區青雲路449-1號","121.458803333333","24.9746766666667","6501300","土城區"
"236069","KEA-2877","2019/08/30 18:29:38","新北市土城區永豐路255巷27弄25號","121.476246666667","24.97331","6501300","土城區"
"252001","KED-0821","2019/08/30 18:29:38","新北市三芝區中興街二段20號","121.498728333333","25.255995","6502100","三芝區"
"236020","401-BY","2019/08/30 18:29:36","新北市土城區永豐路202巷7-1號","121.466173333333","24.9832516666667","6501300","土城區"
"236042","752-BX","2019/08/30 18:29:39","新北市土城區學成路91巷20號","121.450261666667","24.9878316666667","6501300","土城區"
"236059","912-UM","2019/08/30 18:29:35","新北市土城區中央路四段88號","121.41873","24.9593466666667","6501300","土城區"
"236048","913-UM","2019/08/30 18:29:32","新北市土城區青雲路449號","121.458686666667","24.9753183333333","6501300","土城區"
"236063","915-UM","2019/08/30 18:29:34","新北市土城區延壽路77巷6弄9號","121.468486666667","24.99278","6501300","土城區"
"242060","986-R7","2019/08/30 18:29:30","新北市新莊區新樹路138-1號","121.435281666667","25.0235116666667","6500500","新莊區"
"242002","751-BX","2019/08/30 18:29:35","新北市新莊區瓊林路13-3號","121.448881666667","25.0309716666667","6500500","新莊區"
"242058","612-BX","2019/08/30 18:29:38","新北市新莊區新北大道七段772號","121.412783333333","25.0249783333333","6500500","新莊區"
"242046","566-BX","2019/08/30 18:29:30","新北市新莊區中正路803巷55號","121.422166666667","25.0277033333333","6500500","新莊區"
"242056","441-UM","2019/08/30 18:29:33","新北市新莊區新樹路67巷1號","121.441903333333","25.02973","6500500","新莊區"
"242041","415-TV","2019/08/30 18:29:44","新北市新莊區雙鳳路108巷22號","121.414183333333","25.02883","6500500","新莊區"
"242025","362-BY","2019/08/30 18:29:36","新北市新莊區五工五路13號","121.454908333333","25.062135","6500500","新莊區"
"242054","172-VK","2019/08/30 18:29:26","新北市新莊區新樹路446號","121.431501666667","25.0012683333333","6500500","新莊區"
"242007","349-TH","2019/08/30 18:29:43","新北市新莊區中平路16號","121.444986666667","25.0430116666667","6500500","新莊區"
"238015","755-BX","2019/08/30 18:29:24","新北市樹林區備內街16號","121.413018333333","24.9869283333333","6500700","樹林區"
"238023","601-UM","2019/08/30 18:29:24","新北市樹林區三寶街2號","121.40643","25.0161116666667","6500700","樹林區"
"238024","5061-A6","2019/08/30 18:29:23","新北市樹林區育英街2巷52號","121.423671666667","24.9906433333333","6500700","樹林區"
"238018","KEA-2217","2019/08/30 18:29:40","新北市樹林區樹新路81號","121.427731666667","24.9952433333333","6500700","樹林區"
"238025","303-VK","2019/08/30 18:29:38","新北市樹林區保安街一段29號","121.424603333333","24.994435","6500700","樹林區"
"238017","283-BY","2019/08/30 18:29:44","新北市樹林區光榮街3巷1號","121.413091666667","25.004015","6500700","樹林區"
"238014","282-BY","2019/08/30 18:29:28","新北市樹林區大安路111巷41號","121.42332","24.9975616666667","6500700","樹林區"
"238020","268-VK","2019/08/30 18:29:38","桃園市龜山區宏慶街34巷12號","121.410515","25.0180066666667","6500700","樹林區"
"238026","172-UY","2019/08/30 18:29:38","新北市樹林區佳園路一段75巷202號","121.397181666667","24.97058","6500700","樹林區"
"238016","169-UY","2019/08/30 18:29:31","新北市樹林區中山路一段412號","121.417456666667","24.9852","6500700","樹林區"
"239007","AAC-297","2019/08/30 18:29:28","新北市鶯歌區建國路122號","121.351958333333","24.95408","6500800","鶯歌區"
"239006","891-R6","2019/08/30 18:29:33","新北市鶯歌區鶯桃路242巷8號","121.336481666667","24.9598083333333","6500800","鶯歌區"
"239008","527-UM","2019/08/30 18:29:25","新北市鶯歌區朝陽街1號","121.33629","24.9765966666667","6500800","鶯歌區"
"239005","526-UM","2019/08/30 18:21:23","桃園市八德區和平路1127號","121.317873333333","24.9663883333333","6500800","鶯歌區"
"239001","417-VK","2019/08/30 18:29:27","新北市鶯歌區國中街178號","121.338325","24.9392866666667","6500800","鶯歌區"
"239003","360-BY","2019/08/30 18:29:27","新北市鶯歌區福安街13巷1號","121.335541666667","24.9652716666667","6500800","鶯歌區"
"239002","359-BY","2019/08/30 18:29:29","新北市鶯歌區文化路307號","121.352496666667","24.952455","6500800","鶯歌區"
"239004","193-VK","2019/08/30 18:29:36","新北市鶯歌區尖山路240巷24號","121.34251","24.9472466666667","6500800","鶯歌區"
"221036","130-UY","2019/08/30 18:29:32","新北市汐止區大同路三段141號","121.669341666667","25.0777583333333","6501100","汐止區"
"221015","131-UY","2019/08/30 18:29:28","新北市汐止區鄉長路二段23巷13號","121.667693333333","25.082675","6501100","汐止區"
"221010","269-BY","2019/08/30 18:29:39","新北市汐止區汐萬路35號","121.644478333333","25.0911516666667","6501100","汐止區"
"221012","278-VK","2019/08/30 18:29:38","新北市汐止區保長路27巷8號","121.672956666667","25.079855","6501100","汐止區"
"221023","279-VK","2019/08/30 18:29:42","新北市汐止區康寧街474巷9號","121.632168333333","25.0678683333333","6501100","汐止區"
"221032","280-BY","2019/08/30 18:29:30","新北市汐止區民權街二段109巷25號","121.619991666667","25.04606","6501100","汐止區"
"221027","281-BY","2019/08/30 18:29:40","新北市汐止區和平街67號","121.661523333333","25.0706916666667","6501100","汐止區"
"221029","298-VK","2019/08/30 18:29:35","新北市汐止區樟樹二路330巷68號","121.642636666667","25.0700383333333","6501100","汐止區"
"221021","299-VK","2019/08/30 18:29:39","新北市汐止區新台五路一段148號","121.653328333333","25.0620883333333","6501100","汐止區"
"221035","622-UM","2019/08/30 18:29:31","新北市汐止區大同路二段187巷4弄2號","121.652325","25.06504","6501100","汐止區"
"221025","623-UM","2019/08/30 18:29:41","新北市汐止區仁愛路110號","121.66253","25.063495","6501100","汐止區"
"221038","646-BX","2019/08/30 18:29:28","新北市汐止區忠孝東路247號","121.662885","25.0675933333333","6501100","汐止區"
"221033","647-BX","2019/08/30 18:29:40","新北市汐止區宜興街14號","121.621341666667","25.0415433333333","6501100","汐止區"
"221002","707-TV","2019/08/30 18:29:42","新北市汐止區福德一路188-1號","121.634751666667","25.0654416666667","6501100","汐止區"
"221018","753-BX","2019/08/30 18:29:32","新北市汐止區茄苳路120巷2號","121.667733333333","25.0699316666667","6501100","汐止區"
"220079","145-BY","2019/08/30 18:29:22","新北市板橋區華東街1-10號","121.448375","24.9950833333333","6500100","板橋區"
"220082","610-BX","2019/08/30 18:29:42","新北市板橋區華東街1-10號","121.44827","24.9949083333333","6500100","板橋區"
"220056","276-BY","2019/08/30 18:29:30","新北市板橋區華東街1-9號","121.448115","24.9949466666667","6500100","板橋區"
"220094","283-UM","2019/08/30 18:29:41","新北市板橋區民生路二段161巷1號","121.46991","25.0198516666667","6500100","板橋區"
"220071","283-VK","2019/08/30 18:29:27","新北市板橋區華東街1-9號","121.448081666667","24.9949266666667","6500100","板橋區"
"220081","287-VK","2019/08/30 18:29:38","新北市板橋區華東街1-10號","121.448271666667","24.9950066666667","6500100","板橋區"
"220084","296-UM","2019/08/30 18:29:31","新北市板橋區華東街1-9號","121.448166666667","24.9949283333333","6500100","板橋區"
"242044","281-VK","2019/08/30 18:29:41","新北市新莊區中正路732號","121.413923333333","25.0232516666667","6500500","新莊區"
"220035","560-BX","2019/08/30 18:29:36","新北市板橋區南雅南路二段11-23號","121.453938333333","25.0021633333333","6500100","板橋區"
"220057","686-BX","2019/08/30 18:29:38","新北市板橋區四川路二段130巷27號","121.44944","24.99432","6500100","板橋區"
"220055","827-TW","2019/08/30 18:29:26","新北市板橋區四川路二段140巷20號","121.449085","24.9934716666667","6500100","板橋區"
"220074","895-R6","2019/08/30 18:29:41","新北市板橋區華東街1-9號","121.448191666667","24.994995","6500100","板橋區"
"220073","985-R7","2019/08/30 18:29:28","新北市板橋區四川路二段140巷18號","121.449318333333","24.9933183333333","6500100","板橋區"
"220064","AAC-253","2019/08/30 18:29:31","新北市板橋區南雅南路二段120-7號","121.452143333333","24.9995066666667","6500100","板橋區"
"235068","KEA-2873","2019/08/30 18:29:22","新北市中和區中正路271-4號","121.495928333333","24.9934","6500300","中和區"
"235061","KEA-2875","2019/08/30 18:29:29","新北市中和區民享街90巷14號","121.474035","25.0001733333333","6500300","中和區"
