"lineid","car","time","location","longitude","latitude","cityid","cityname"
"234046","148-BY","2019/08/30 19:29:37","新北市永和區秀朗路二段175號","121.525758333333","25.0016083333333","6500400","永和區"
"234081","298-R6","2019/08/30 19:29:35","新北市永和區環河東路三段60號","121.52701","25.0059333333333","6500400","永和區"
"234038","336-UY","2019/08/30 19:29:43","新北市永和區民樂街36號","121.527541666667","25.0008316666667","6500400","永和區"
"234064","337-UY","2019/08/30 19:29:27","新北市永和區中正路368巷1弄75號","121.520445","25.0008","6500400","永和區"
"234086","338-UY","2019/08/30 19:29:41","新北市永和區國中路2號","121.524158333333","25.0041766666667","6500400","永和區"
"234070","552-UM","2019/08/30 19:29:27","新北市永和區警光街5-1號","121.51977","25.009525","6500400","永和區"
"234017","745-BX","2019/08/30 19:29:36","新北市永和區環河西路一段59號","121.513565","25.0182","6500400","永和區"
"234030","746-BX","2019/08/30 19:29:31","新北市永和區民生路53號","121.52268","24.9977066666667","6500400","永和區"
"234054","KEA-2590","2019/08/30 19:29:42","新北市永和區復興街19巷9號","121.516123333333","25.0132066666667","6500400","永和區"
"234007","KED-0605","2019/08/30 19:29:30","新北市永和區永和路一段135巷2號","121.514033333333","25.008715","6500400","永和區"
"234013","KEA-2591","2019/08/30 19:29:43","新北市永和區中山路一段132-1號","121.5103","25.0099883333333","6500400","永和區"
"234061","AAD-866","2019/08/30 19:29:41","新北市永和區中正路512號","121.517366666667","25.0046433333333","6500400","永和區"
"234042","862-TW","2019/08/30 19:29:40","新北市永和區水源街39巷10號","121.510495","25.003845","6500400","永和區"
"234050","863-TW","2019/08/30 19:29:37","新北市永和區信義路113號","121.512338333333","25.0147183333333","6500400","永和區"
"234026","9371-KE","2019/08/30 19:29:31","新北市永和區安樂路68號","121.514826666667","24.9983066666667","6500400","永和區"
"234011","9373-KE","2019/08/30 19:29:45","新北市永和區保生路55號","121.504743333333","25.0106366666667","6500400","永和區"
"249003","593-UM","2019/08/30 19:29:25","新北市八里區商港一路11-3號","121.395808333333","25.147775","6502300","八里區"
"248008","KED-0815","2019/08/30 19:29:41","新北市五股區中興路一段97號","121.466708333333","25.072965","6501500","五股區"
"248018","KED-0813","2019/08/30 19:29:40","新北市五股區外寮路7號","121.423986666667","25.07785","6501500","五股區"
"248012","247-BX","2019/08/30 19:29:34","新北市五股區成泰路二段91巷9號","121.43753","25.08426","6501500","五股區"
"248014","261-SL","2019/08/30 19:29:31","新北市五股區民義路一段158號","121.432983333333","25.0876366666667","6501500","五股區"
"248004","677-BX","2019/08/30 19:29:35","新北市五股區工商路148-1號","121.433876666667","25.0872466666667","6501500","五股區"
"248002","678-BX","2019/08/30 19:29:44","新北市五股區凌雲路一段158巷6號","121.447811666667","25.1029833333333","6501500","五股區"
"248010","682-TV","2019/08/30 19:29:31","新北市五股區水碓一路23號","121.430558333333","25.0712816666667","6501500","五股區"
"234023","9380-KE","2019/08/30 19:29:31","新北市永和區竹林路91巷54號","121.521401666667","25.0127933333333","6500400","永和區"
"234077","969-R7","2019/08/30 19:29:42","新北市永和區民權路58巷2弄1號","121.519493333333","24.998355","6500400","永和區"
"234074","AAC-211","2019/08/30 19:29:32","新北市永和區竹林路1號","121.51629","25.0149283333333","6500400","永和區"
"234067","AAC-212","2019/08/30 19:29:41","新北市永和區永貞路404號","121.509086666667","25.0076633333333","6500400","永和區"
"234003","AAC-295","2019/08/30 19:29:30","新北市永和區福和路385號","121.514248333333","25.0076016666667","6500400","永和區"
"244023","483-VK","2019/08/30 19:29:25","新北市林口區文化三路一段617巷88號","121.370408333333","25.07817","6501700","林口區"
"243012","AAD-798","2019/08/30 19:29:27","新北市泰山區仁義路195號","121.433093333333","25.0539083333333","6501600","泰山區"
"243010","297-R6","2019/08/30 19:29:37","新北市泰山區民生路33號","121.430443333333","25.0522666666667","6501600","泰山區"
"243014","KEA-2801","2019/08/30 19:29:45","新北市泰山區中港西路450號","121.433528333333","25.0535716666667","6501600","泰山區"
"243016","421-VK","2019/08/30 19:29:37","新北市泰山區明志路三段222號","121.421398333333","25.0360133333333","6501600","泰山區"
"243009","KEA-2215","2019/08/30 19:29:24","新北市五股區成泰路一段7巷4號","121.433385","25.0667133333333","6501600","泰山區"
"243011","KEA-2216","2019/08/30 19:29:36","新北市泰山區中山路二段567號","121.429703333333","25.0402033333333","6501600","泰山區"
"243013","646-TV","2019/08/30 19:29:24","新北市泰山區貴子路36巷3弄1號","121.425933333333","25.0414133333333","6501600","泰山區"
"243015","680-BX","2019/08/30 19:29:31","新北市泰山區明志路二段96號","121.4283","25.05198","6501600","泰山區"
"222003","436-BY","2019/08/30 19:29:33","新北市深坑區深南路51-1號","121.621313333333","25.0097416666667","6501800","深坑區"
"222002","659-BX","2019/08/30 19:29:31","新北市深坑區北深路一段177號","121.632528333333","25.0108766666667","6501800","深坑區"
"231061","002-UM","2019/08/30 19:29:28","新北市新店區安康路一段302-2號","121.517381666667","24.9640033333333","6500600","新店區"
"231058","0293-UT","2019/08/30 19:29:38","新北市新店區北新路二段228巷11號","121.543375","24.97719","6500600","新店區"
"231044","046-UY","2019/08/30 19:29:34","新北市新店區北新路二段268號","121.542693333333","24.978645","6500600","新店區"
"231060","106-UY","2019/08/30 19:29:46","新北市新店區安康路二段86號","121.513901666667","24.9632466666667","6500600","新店區"
"231051","107-UY","2019/08/30 19:29:35","新北市新店區中央五街15號","121.52958","24.974365","6500600","新店區"
"231049","108-UY","2019/08/30 19:29:32","新北市新店區北新路三段105巷11號","121.540688333333","24.9820083333333","6500600","新店區"
"231065","110-UY","2019/08/30 19:29:32","新北市新店區安祥路109巷6弄41號","121.475546666667","24.9573883333333","6500600","新店區"
"221031","KEA-2785","2019/08/30 19:25:57","新北市汐止區汐萬路一段39號","121.654976666667","25.0690366666667","6501100","汐止區"
"231062","256-BX","2019/08/30 19:29:40","新北市新店區莒光路99號","121.522116666667","24.953495","6500600","新店區"
"231054","260-TV","2019/08/30 19:29:40","新北市新店區文中路40號","121.539683333333","24.95659","6500600","新店區"
"231042","268-BY","2019/08/30 19:29:33","新北市新店區中興路一段66號","121.53944","24.9597066666667","6500600","新店區"
"231064","278-BY","2019/08/30 19:29:30","新北市新店區安和路一段52巷2號","121.517648333333","24.966225","6500600","新店區"
"231050","AAD-862","2019/08/30 19:29:37","新北市新店區北宜路二段82-1號","121.55349","24.9532733333333","6500600","新店區"
"231045","355-BY","2019/08/30 19:29:42","新北市新店區北宜路二段209號","121.553173333333","24.953235","6500600","新店區"
"231056","4715-K9","2019/08/30 19:29:24","新北市新店區安德街60巷35號","121.511016666667","24.9637916666667","6500600","新店區"
"231053","515-UM","2019/08/30 19:29:27","新北市新店區廣興路60巷8弄2-1號","121.54257","24.9126266666667","6500600","新店區"
"231063","616-UM","2019/08/30 19:29:46","新北市新店區達觀路16號","121.502885","24.9404066666667","6500600","新店區"
"231040","617-UM","2019/08/30 19:29:28","新北市新店區三民路35巷3號","121.53763","24.97055","6500600","新店區"
"231041","619-UM","2019/08/30 19:29:41","新北市新店區中正路616號","121.533935","24.9887383333333","6500600","新店區"
"231048","KED-0819","2019/08/30 19:29:38","新北市新店區五峰路127號","121.544791666667","24.9663133333333","6500600","新店區"
"231046","719-UM","2019/08/30 19:29:34","新北市新店區北新路一段8號","121.540698333333","24.965385","6500600","新店區"
"231057","720-UM","2019/08/30 19:29:29","新北市新店區花園一路二段23號","121.551088333333","24.9326766666667","6500600","新店區"
"231059","897-TW","2019/08/30 19:29:39","新北市新店區安和路三段14號","121.517935","24.981065","6500600","新店區"
"231043","899-TW","2019/08/30 19:29:41","新北市新店區北新路二段190號","121.542955","24.9765266666667","6500600","新店區"
"231066","AKT-0513","2019/08/30 19:29:42","新北市新店區安康路三段359巷12弄29號","121.48393","24.949275","6500600","新店區"
"241028","022-UY","2019/08/30 19:29:28","新北市三重區中寮街30號","121.492606666667","25.05896","6500200","三重區"
"241008","059-VK","2019/08/30 19:29:36","新北市三重區永福街135巷40號","121.4772","25.07729","6500200","三重區"
"241029","060-VK","2019/08/30 19:29:15","新北市三重區重安街144號","121.495521666667","25.0549683333333","6500200","三重區"
"241031","061-VK","2019/08/30 19:29:34","新北市三重區集美街39號","121.488121666667","25.0556016666667","6500200","三重區"
"241017","063-VK","2019/08/30 19:29:39","新北市三重區大同北路112號","121.493216666667","25.0638466666667","6500200","三重區"
"241006","262-UM","2019/08/30 19:29:38","新北市三重區三和路四段156號","121.48796","25.0757516666667","6500200","三重區"
"241009","267-UM","2019/08/30 19:29:42","新北市三重區仁美街121號","121.485821666667","25.0813016666667","6500200","三重區"
"241032","269-UM","2019/08/30 19:29:35","新北市三重區三陽路64號","121.483976666667","25.0587166666667","6500200","三重區"
"241013","270-UM","2019/08/30 19:29:37","新北市三重區仁愛街129巷4號","121.495851666667","25.0751166666667","6500200","三重區"
"241025","271-UM","2019/08/30 19:29:31","新北市三重區頂崁街210巷12弄10號","121.475786666667","25.0672133333333","6500200","三重區"
"241007","398-BY","2019/08/30 19:29:29","新北市三重區溪尾街126巷13號","121.488948333333","25.0792666666667","6500200","三重區"
"241035","KEA-2210","2019/08/30 19:29:36","新北市三重區信義西街1號","121.49814","25.064895","6500200","三重區"
"241030","KED-0822","2019/08/30 19:29:38","新北市三重區成功路41巷13號","121.490351666667","25.05161","6500200","三重區"
"241020","478-VK","2019/08/30 19:29:36","新北市三重區三和路四段20巷20號","121.490303333333","25.07362","6500200","三重區"
"241026","480-VK","2019/08/30 19:29:41","新北市三重區文化南路36號","121.500291666667","25.0614316666667","6500200","三重區"
"241023","743-BX","2019/08/30 19:29:26","新北市三重區頂崁街183號","121.478066666667","25.0637866666667","6500200","三重區"
"241022","KED-0820","2019/08/30 19:29:36","新北市三重區三民街175巷1號","121.483748333333","25.0652183333333","6500200","三重區"
"241012","941-UM","2019/08/30 19:29:38","新北市三重區河邊北街379-1號","121.5017","25.0764866666667","6500200","三重區"
"235066","003-UY","2019/08/30 19:29:23","新北市中和區景新街38號","121.503456666667","24.999285","6500300","中和區"
"235064","005-UY","2019/08/30 19:29:37","新北市中和區南山路127巷35號","121.503818333333","24.9976916666667","6500300","中和區"
"235063","006-UY","2019/08/30 19:29:43","新北市中和區連城路169號","121.495438333333","24.9984766666667","6500300","中和區"
"235056","096-UM","2019/08/30 19:29:41","新北市中和區員山路581巷31弄15號","121.476851666667","25.01033","6500300","中和區"
"235039","097-UM","2019/08/30 19:29:40","新北市中和區秀峰街82號","121.519898333333","24.9909633333333","6500300","中和區"
"235065","098-UM","2019/08/30 19:29:32","新北市中和區莊敬路1-6號","121.49953","25.0043466666667","6500300","中和區"
"235040","150-BY","2019/08/30 19:29:26","新北市中和區保健路46巷35號","121.508801666667","24.995715","6500300","中和區"
"235058","151-BY","2019/08/30 19:29:34","新北市中和區中正路637巷52弄3號","121.485286666667","24.993705","6500300","中和區"
"235055","183-VK","2019/08/30 19:29:25","新北市中和區中山路三段179巷5號","121.473035","25.0058533333333","6500300","中和區"
"235038","185-VK","2019/08/30 19:29:32","新北市中和區立人街3號","121.521753333333","24.99417","6500300","中和區"
"235049","186-VK","2019/08/30 19:29:38","新北市中和區安平路29號","121.509303333333","24.9943916666667","6500300","中和區"
"235044","293-VK","2019/08/30 19:29:27","新北市中和區捷運路28號","121.508445","24.9901816666667","6500300","中和區"
"235072","301-VK","2019/08/30 19:29:31","新北市中和區連城路263巷4弄2號","121.491496666667","24.995905","6500300","中和區"
"235043","352-BY","2019/08/30 19:29:36","新北市中和區安和路5-1號","121.511718333333","24.9934266666667","6500300","中和區"
"235042","KEA-2878","2019/08/30 19:29:40","新北市中和區中和路350巷8弄16號","121.510218333333","25.0001183333333","6500300","中和區"
"235070","558-UM","2019/08/30 19:29:40","新北市中和區景平路626巷1號","121.500453333333","24.9977383333333","6500300","中和區"
"235045","565-BX","2019/08/30 19:29:29","新北市中和區景新街383巷45號","121.513326666667","24.9907","6500300","中和區"
"235060","KED-0823","2019/08/30 19:29:27","新北市中和區中山路二段523巷10弄2號","121.481536666667","25.0045733333333","6500300","中和區"
"235054","640-BX","2019/08/30 19:29:28","新北市中和區莒光路65號","121.47238","25.0036016666667","6500300","中和區"
"235047","732-UM","2019/08/30 19:29:30","新北市中和區景平路259巷52號","121.506315","24.9928533333333","6500300","中和區"
"235046","733-UM","2019/08/30 19:29:44","新北市中和區忠孝街64號","121.511936666667","24.983925","6500300","中和區"
"235071","783-BX","2019/08/30 19:29:34","新北市中和區連城路469巷21弄12號","121.484018333333","24.99504","6500300","中和區"
"235057","801-TS","2019/08/30 19:29:35","新北市中和區員山路150-26號","121.481373333333","24.9981366666667","6500300","中和區"
"235052","805-TS","2019/08/30 19:29:31","新北市中和區華新街143巷71弄27號","121.50791","24.9791066666667","6500300","中和區"
"235048","896-TW","2019/08/30 19:29:30","新北市中和區忠孝街5巷5號","121.509368333333","24.9829866666667","6500300","中和區"
"235053","900-TW","2019/08/30 19:29:28","新北市中和區民德路198號","121.468233333333","24.9988316666667","6500300","中和區"
"235067","911-UM","2019/08/30 19:29:26","新北市中和區新生街220巷3號","121.483341666667","24.998415","6500300","中和區"
"235051","157-BY","2019/08/30 19:29:40","新北市中和區南華路1巷1號","121.501853333333","24.9954483333333","6500300","中和區"
"235037","AAC-213","2019/08/30 19:29:29","新北市中和區秀朗路三段48號","121.526265","24.9955133333333","6500300","中和區"
"235059","AAC-215","2019/08/30 19:29:42","新北市中和區圓通路252-4號","121.49356","24.9912866666667","6500300","中和區"
"220065","072-UY","2019/08/30 19:29:25","新北市板橋區國泰街75巷28弄60號","121.467591666667","25.004515","6500100","板橋區"
"220086","073-UY","2019/08/30 19:29:42","新北市板橋區中正路216巷22號","121.456776666667","25.018615","6500100","板橋區"
"220106","075-UY","2019/08/30 19:29:34","新北市板橋區文化路二段426號","121.474385","25.0320933333333","6500100","板橋區"
"220069","AAD-861","2019/08/30 19:29:35","新北市板橋區貴興路106巷9號","121.455116666667","25.0026466666667","6500100","板橋區"
"220068","120-SR","2019/08/30 19:29:42","新北市板橋區萬安街92號","121.483866666667","25.0239733333333","6500100","板橋區"
"247004","893-R6","2019/08/30 19:29:28","新北市蘆洲區長安街120號","121.460711666667","25.081685","6501400","蘆洲區"
"226004","312-R5","2019/08/30 19:29:34","新北市平溪區十分里十分街238號","121.77812","25.0441166666667","6502400","平溪區"
"235041","251-BX","2019/08/30 19:29:44","新北市中和區中和路458巷8號","121.51235","25.00362","6500300","中和區"
"228003","097-TW","2019/08/30 19:29:36","新北市貢寮區和美里和美街22-1號","121.912828333333","25.08263","6502600","貢寮區"
"228001","212-TW","2019/08/30 19:29:26","新北市貢寮區真理里大澳街23號","121.925056666667","25.0561366666667","6502600","貢寮區"
"224010","AGQ-8101","2019/08/30 19:29:41","新北市瑞芳區基山街185號","121.843153333333","25.1077216666667","6501200","瑞芳區"
"224008","273-VK","2019/08/30 19:29:35","新北市瑞芳區一坑路285號","121.801223333333","25.10845","6501200","瑞芳區"
"227002","642-TC","2019/08/30 19:29:30","新北市雙溪區雙溪里光復街18號","121.865148333333","25.035415","6502500","雙溪區"
"227001","400-TW","2019/08/30 19:29:38","新北市雙溪區新基里新基北街64號","121.8688","25.03973","6502500","雙溪區"
"222001","KEA-2212","2019/08/30 19:29:42","新北市深坑區深坑街10號","121.615973333333","25.0027733333333","6501800","深坑區"
"208002","KEA-2872","2019/08/30 19:29:27","新北市金山區中山路305號","121.635823333333","25.223645","6502700","金山區"
"208003","665-BX","2019/08/30 19:29:33","新北市金山區中山路263巷14號","121.636465","25.2215866666667","6502700","金山區"
"251001","011-UM","2019/08/30 19:29:43","新北市淡水區民權路139號","121.460063333333","25.136525","6501000","淡水區"
"251002","012-UM","2019/08/30 19:29:23","新北市淡水區中正路一段22巷100號","121.427016666667","25.1862933333333","6501000","淡水區"
"251008","181-VK","2019/08/30 19:29:31","新北市淡水區中正路一段33號","121.425926666667","25.1765466666667","6501000","淡水區"
"251010","413-VK","2019/08/30 19:29:34","新北市淡水區中正路二段395號","121.425891666667","25.19091","6501000","淡水區"
"251007","442-VK","2019/08/30 19:29:28","新北市淡水區八勢一街26號","121.460898333333","25.155895","6501000","淡水區"
"251005","443-VK","2019/08/30 19:29:27","新北市淡水區水源街一段47巷41號","121.444108333333","25.1736083333333","6501000","淡水區"
"251006","561-UM","2019/08/30 19:29:42","新北市淡水區大義街51號","121.44143","25.1780783333333","6501000","淡水區"
"251009","575-R6","2019/08/30 19:29:41","新北市淡水區新生街120號","121.440793333333","25.174675","6501000","淡水區"
"251003","766-UM","2019/08/30 19:29:31","新北市淡水區中山北路三段77號","121.444566666667","25.191925","6501000","淡水區"
"207003","550-UM","2019/08/30 19:29:29","新北市萬里區大鵬里萬里加投191-1號","121.644893333333","25.21411","6502800","萬里區"
"207004","291-VK","2019/08/30 19:29:38","新北市萬里區萬里里瑪鋉路89號","121.688721666667","25.17725","6502800","萬里區"
"252002","178-VK","2019/08/30 19:29:36","新北市三芝區淡金路二段18-1號","121.5027","25.2595","6502100","三芝區"
"208001","170-UY","2019/08/30 19:29:35","新北市金山區南勢106號","121.625586666667","25.220135","6502700","金山區"
"237004","KEA-2597","2019/08/30 19:29:25","新北市三峽區有木206號","121.439098333333","24.8516266666667","6500900","三峽區"
"237007","153-BY","2019/08/30 19:29:29","新北市三峽區二鬮路136巷20弄61號","121.357553333333","24.9097683333333","6500900","三峽區"
"237009","210-TH","2019/08/30 19:29:27","新北市三峽區長福街2號","121.369885","24.9338616666667","6500900","三峽區"
"237013","252-BX","2019/08/30 19:29:45","新北市三峽區介壽路一段340號","121.381373333333","24.9300433333333","6500900","三峽區"
"237012","275-BY","2019/08/30 19:29:33","新北市三峽區三樹路98巷169-1號","121.383863333333","24.93966","6500900","三峽區"
"237008","302-VK","2019/08/30 19:29:33","新北市三峽區永安街167巷1號","121.373406666667","24.92732","6500900","三峽區"
"237006","5529-G3","2019/08/30 19:29:27","新北市三峽區中正路一段336巷15弄2號","121.369963333333","24.9249383333333","6500900","三峽區"
"237011","KEA-2596","2019/08/30 19:29:28","新北市三峽區介壽路一段390號","121.383266666667","24.9308366666667","6500900","三峽區"
"237015","649-BX","2019/08/30 19:29:41","新北市三峽區安坑1-3號","121.433538333333","24.9241566666667","6500900","三峽區"
"237010","706-TV","2019/08/30 19:29:32","新北市三峽區復興路179號","121.369675","24.938645","6500900","三峽區"
"237005","AKY-6261","2019/08/30 19:29:29","新北市三峽區中山路219巷17弄6號","121.363406666667","24.936185","6500900","三峽區"
"236079","166-UM","2019/08/30 19:29:38","新北市土城區中州路27巷78號","121.412618333333","24.95637","6501300","土城區"
"236026","269-VK","2019/08/30 19:29:32","新北市土城區中央路二段61巷26號","121.443301666667","24.9786816666667","6501300","土城區"
"236069","KEA-2877","2019/08/30 19:29:38","新北市土城區學府路一段155巷8號","121.45344","24.9856433333333","6501300","土城區"
"252001","KED-0821","2019/08/30 19:29:38","新北市三芝區長勤街62-1號","121.500138333333","25.25611","6502100","三芝區"
"236020","401-BY","2019/08/30 19:29:36","新北市土城區峰廷街3號","121.469091666667","24.98735","6501300","土城區"
"236042","752-BX","2019/08/30 19:29:19","新北市土城區學府路一段276號","121.450166666667","24.9831016666667","6501300","土城區"
"236048","913-UM","2019/08/30 19:29:31","新北市土城區清水路200號","121.460401666667","24.981885","6501300","土城區"
"236063","915-UM","2019/08/30 19:29:34","新北市土城區延平街22號","121.468225","24.9912416666667","6501300","土城區"
"236055","970-R7","2019/08/30 19:29:46","新北市土城區學府路一段276號","121.4502","24.9832033333333","6501300","土城區"
"242032","348-TH","2019/08/30 19:29:43","新北市新莊區新泰路225巷11號","121.44593","25.03918","6500500","新莊區"
"242007","349-TH","2019/08/30 19:29:43","新北市新莊區幸福路914號","121.442363333333","25.0487","6500500","新莊區"
"238015","755-BX","2019/08/30 19:29:41","新北市樹林區復興路231-1號","121.41983","24.9906","6500700","樹林區"
"238023","601-UM","2019/08/30 19:29:24","新北市樹林區三福街39號","121.408363333333","25.01658","6500700","樹林區"
"238019","599-UM","2019/08/30 19:29:33","新北市樹林區東榮街76號","121.416353333333","24.98274","6500700","樹林區"
"238024","5061-A6","2019/08/30 19:29:43","新北市樹林區福德街47號","121.399435","24.9747933333333","6500700","樹林區"
"238022","KEA-2213","2019/08/30 19:29:45","新北市樹林區國凱街74號","121.420958333333","24.97912","6500700","樹林區"
"238021","KEA-2539","2019/08/30 19:29:41","新北市樹林區大雅路7號","121.380668333333","24.9444333333333","6500700","樹林區"
"238025","303-VK","2019/08/30 19:29:37","新北市樹林區中山路二段89號","121.411486666667","24.9828316666667","6500700","樹林區"
"238017","283-BY","2019/08/30 19:29:42","新北市樹林區光興街221號","121.40812","25.0049766666667","6500700","樹林區"
"238014","282-BY","2019/08/30 19:29:39","新北市樹林區千歲街6巷18號","121.425526666667","24.9951933333333","6500700","樹林區"
"238020","268-VK","2019/08/30 19:29:38","新北市樹林區俊英街107號","121.42505","25.0096133333333","6500700","樹林區"
"238026","172-UY","2019/08/30 19:29:38","新北市樹林區佳園路三段63號","121.387766666667","24.9529333333333","6500700","樹林區"
"238016","169-UY","2019/08/30 19:29:31","新北市樹林區復興路464巷46號","121.412806666667","24.9833866666667","6500700","樹林區"
"239007","AAC-297","2019/08/30 19:29:28","新北市鶯歌區大湖路338巷15號","121.346711666667","24.9689866666667","6500800","鶯歌區"
"239006","891-R6","2019/08/30 19:29:28","新北市鶯歌區鶯桃路67巷9號","121.34102","24.952105","6500800","鶯歌區"
"239008","527-UM","2019/08/30 19:29:25","新北市鶯歌區大湖路542號","121.336883333333","24.97288","6500800","鶯歌區"
"239001","417-VK","2019/08/30 19:29:27","新北市鶯歌區建國路375號","121.338861666667","24.9497316666667","6500800","鶯歌區"
"239003","360-BY","2019/08/30 19:29:27","新北市鶯歌區重慶街6-1號","121.351916666667","24.9527083333333","6500800","鶯歌區"
"239002","359-BY","2019/08/30 19:29:29","新北市鶯歌區中山路185-2號","121.347283333333","24.9569183333333","6500800","鶯歌區"
"239004","193-VK","2019/08/30 19:29:36","新北市鶯歌區二甲路中心巷9號","121.337488333333","24.9360133333333","6500800","鶯歌區"
"221008","489-VK","2019/08/30 19:29:37","新北市汐止區康寧街235號","121.623913333333","25.066735","6501100","汐止區"
"221027","281-BY","2019/08/30 19:29:40","新北市汐止區水源路一段42-1號","121.657246666667","25.0661283333333","6501100","汐止區"
"221021","299-VK","2019/08/30 19:29:39","新北市汐止區大同路二段187巷29號","121.651846666667","25.0654933333333","6501100","汐止區"
"221002","707-TV","2019/08/30 19:29:42","新北市汐止區大同路一段337巷17弄1號","121.637365","25.0599","6501100","汐止區"
"220079","145-BY","2019/08/30 19:29:42","新北市板橋區公館街31號","121.46143","25.0156216666667","6500100","板橋區"
"220080","200-UY","2019/08/30 19:29:43","新北市板橋區大觀路二段3巷51號","121.449053333333","25.0034716666667","6500100","板橋區"
"220082","610-BX","2019/08/30 19:29:42","新北市板橋區金門街231號","121.432183333333","24.98959","6500100","板橋區"
"220091","267-BY","2019/08/30 19:29:34","新北市板橋區文聖街149巷22號","121.479525","25.0285283333333","6500100","板橋區"
"220056","276-BY","2019/08/30 19:29:30","新北市板橋區信義路201號","121.459333333333","24.9915966666667","6500100","板橋區"
"220072","277-BY","2019/08/30 19:29:45","新北市板橋區篤行路二段151巷4號","121.429881666667","24.987775","6500100","板橋區"
"220101","280-UM","2019/08/30 19:29:44","新北市板橋區萬板路48號","121.472083333333","25.0227133333333","6500100","板橋區"
"220094","283-UM","2019/08/30 19:29:41","新北市板橋區銘傳街78號","121.469118333333","25.0313133333333","6500100","板橋區"
"220071","283-VK","2019/08/30 19:29:27","新北市板橋區忠孝路48巷36號","121.460891666667","25.0004733333333","6500100","板橋區"
"220053","285-VK","2019/08/30 19:29:38","新北市板橋區中山路二段148巷2號","121.476626666667","25.0167766666667","6500100","板橋區"
"220083","286-VK","2019/08/30 19:29:28","新北市板橋區龍興街73巷26號","121.442955","25.002535","6500100","板橋區"
"220081","287-VK","2019/08/30 19:29:38","新北市板橋區大觀路一段28巷1弄102號","121.451851666667","25.006405","6500100","板橋區"
"220090","288-VK","2019/08/30 19:29:33","新北市板橋區裕民街147號","121.458715","25.02708","6500100","板橋區"
"220061","293-UM","2019/08/30 19:29:38","新北市板橋區中山路二段93號","121.474185","25.01608","6500100","板橋區"
"220062","295-UM","2019/08/30 19:29:38","新北市板橋區三民路二段123巷25號","121.480326666667","25.01562","6500100","板橋區"
"220084","296-UM","2019/08/30 19:29:31","新北市板橋區篤行路三段玉平巷76弄2號","121.42797","24.9855783333333","6500100","板橋區"
"220075","303-R5","2019/08/30 19:29:28","新北市板橋區中正路275巷93號","121.450806666667","25.018115","6500100","板橋區"
"220092","307-R5","2019/08/30 19:29:40","新北市板橋區陽明街164巷15號","121.463995","25.0244783333333","6500100","板橋區"
"220098","317-R6","2019/08/30 19:29:34","新北市板橋區民有街120號","121.464221666667","25.0287516666667","6500100","板橋區"
"220038","487-VK","2019/08/30 19:29:39","新北市板橋區英士路192-1號","121.458365","25.0235383333333","6500100","板橋區"
"220088","491-VK","2019/08/30 19:29:33","新北市板橋區民治街18號","121.477705","25.0343116666667","6500100","板橋區"
"220035","560-BX","2019/08/30 19:29:36","新北市板橋區中正路431號","121.454146666667","25.0231666666667","6500100","板橋區"
"220103","561-BX","2019/08/30 19:29:32","新北市板橋區陽明街29巷26號","121.464038333333","25.0224933333333","6500100","板橋區"
"220063","609-BX","2019/08/30 19:29:42","新北市板橋區中山路二段505巷55號","121.481961666667","25.02303","6500100","板橋區"
"220057","686-BX","2019/08/30 19:29:38","新北市板橋區和平路安樂巷51號","121.462251666667","24.9931433333333","6500100","板橋區"
"220077","687-BX","2019/08/30 19:29:24","新北市板橋區僑中二街52號","121.446653333333","25.0101733333333","6500100","板橋區"
"220093","689-BX","2019/08/30 19:29:45","新北市板橋區長江路一段351號","121.461115","25.0304866666667","6500100","板橋區"
"220054","741-BX","2019/08/30 19:29:41","新北市板橋區重慶路155巷19號","121.462986666667","25.004055","6500100","板橋區"
"220102","KEA-2699","2019/08/30 19:29:30","新北市板橋區雙十路二段130巷2弄76號","121.475651666667","25.0291733333333","6500100","板橋區"
"220055","827-TW","2019/08/30 19:29:46","新北市板橋區重慶路278巷15號","121.46243","24.9995816666667","6500100","板橋區"
"220067","831-TW","2019/08/30 19:29:39","新北市板橋區漢生東路339號","121.472188333333","25.0073716666667","6500100","板橋區"
"220074","895-R6","2019/08/30 19:29:41","新北市板橋區文化路一段27-1號","121.459915","25.0128683333333","6500100","板橋區"
"220073","985-R7","2019/08/30 19:29:31","新北市板橋區中正路302號","121.454923333333","25.020745","6500100","板橋區"
"220097","AAC-210","2019/08/30 19:29:31","新北市板橋區文化路一段285巷1弄4號","121.464201666667","25.0187416666667","6500100","板橋區"
"220064","AAC-253","2019/08/30 19:29:30","新北市板橋區重慶路1號","121.460533333333","25.008195","6500100","板橋區"
"235068","KEA-2873","2019/08/30 19:29:22","新北市中和區景平路624號","121.500523333333","24.9974483333333","6500300","中和區"
"235061","KEA-2875","2019/08/30 19:29:29","新北市中和區員山路327巷7號","121.480568333333","25.001355","6500300","中和區"
