"lineid","car","time","location","longitude","latitude","cityid","cityname"
"234046","148-BY","2019/08/30 19:39:37","新北市永和區秀朗路二段66巷1號","121.522628333333","25.0015783333333","6500400","永和區"
"234081","298-R6","2019/08/30 19:39:33","新北市永和區國中路104巷8弄6號","121.524868333333","25.0067416666667","6500400","永和區"
"234038","336-UY","2019/08/30 19:39:43","新北市永和區民樂街29號","121.527763333333","25.001515","6500400","永和區"
"234064","337-UY","2019/08/30 19:39:27","新北市永和區秀朗路一段192巷6弄14號","121.519106666667","25.002275","6500400","永和區"
"234086","338-UY","2019/08/30 19:39:41","新北市永和區永亨路148號","121.525286666667","25.003865","6500400","永和區"
"234070","552-UM","2019/08/30 19:39:27","新北市永和區文化路115號","121.512746666667","25.01521","6500400","永和區"
"234017","745-BX","2019/08/30 19:39:33","新北市永和區永和路二段425巷75弄5號","121.51347","25.0171166666667","6500400","永和區"
"234030","746-BX","2019/08/30 19:39:31","新北市永和區四維街113號","121.523546666667","24.9980333333333","6500400","永和區"
"234054","KEA-2590","2019/08/30 19:39:42","新北市永和區竹林路39巷14號","121.518533333333","25.0145616666667","6500400","永和區"
"234007","KED-0605","2019/08/30 19:39:30","新北市永和區中和路469號","121.510195","25.001685","6500400","永和區"
"234013","KEA-2591","2019/08/30 19:39:43","新北市永和區永平路246號","121.508725","25.0110016666667","6500400","永和區"
"234061","AAD-866","2019/08/30 19:39:41","新北市永和區中正路446號","121.517558333333","25.0027733333333","6500400","永和區"
"234042","862-TW","2019/08/30 19:39:40","新北市中和區中和路260-1號","121.50797","24.9996266666667","6500400","永和區"
"234050","863-TW","2019/08/30 19:39:37","新北市永和區保安路116號","121.509356666667","25.0157433333333","6500400","永和區"
"234026","9371-KE","2019/08/30 19:39:31","新北市永和區中和路501巷8號","121.510515","25.0026233333333","6500400","永和區"
"234011","9373-KE","2019/08/30 19:39:25","新北市永和區仁愛路352巷92弄2號","121.50124","25.0080633333333","6500400","永和區"
"249002","305-UY","2019/08/30 19:39:35","新北市八里區頂寮二街33-1號","121.45033","25.12517","6502300","八里區"
"249003","593-UM","2019/08/30 19:39:25","新北市八里區華峰三街27號","121.399435","25.1459016666667","6502300","八里區"
"248016","026-BX","2019/08/30 19:39:38","新北市五股區凌雲路一段46號","121.451781666667","25.1007666666667","6501500","五股區"
"248008","KED-0815","2019/08/30 19:39:41","新北市五股區四維路118巷12號","121.469143333333","25.0741933333333","6501500","五股區"
"248018","KED-0813","2019/08/30 19:39:40","新北市五股區外寮路1-5號","121.425895","25.076825","6501500","五股區"
"248012","247-BX","2019/08/30 19:39:34","新北市五股區蓬萊路6巷43號","121.4357","25.0802716666667","6501500","五股區"
"248014","261-SL","2019/08/30 19:39:31","新北市五股區五福路42巷31號","121.434771666667","25.090255","6501500","五股區"
"248004","677-BX","2019/08/30 19:39:41","新北市五股區成泰路二段25號","121.437226666667","25.0815766666667","6501500","五股區"
"248002","678-BX","2019/08/30 19:39:44","新北市五股區成泰路三段577巷82號","121.449683333333","25.103755","6501500","五股區"
"248010","682-TV","2019/08/30 19:39:31","新北市五股區自強路109號","121.432316666667","25.0706183333333","6501500","五股區"
"234023","9380-KE","2019/08/30 19:39:31","新北市永和區仁愛路301號","121.503913333333","25.0080433333333","6500400","永和區"
"234077","969-R7","2019/08/30 19:39:42","新北市永和區民權路82號","121.519913333333","24.997185","6500400","永和區"
"234074","AAC-211","2019/08/30 19:39:44","新北市永和區竹林路225巷42號","121.522125","25.0086516666667","6500400","永和區"
"234067","AAC-212","2019/08/30 19:39:41","新北市永和區中山路一段191巷16弄2號","121.509671666667","25.0079516666667","6500400","永和區"
"234003","AAC-295","2019/08/30 19:39:34","新北市永和區自由街70-8號","121.513471666667","25.00537","6500400","永和區"
"244023","483-VK","2019/08/30 19:39:26","新北市林口區民有街68號","121.372861666667","25.0770983333333","6501700","林口區"
"243012","AAD-798","2019/08/30 19:39:27","新北市泰山區中港西路386號","121.434778333333","25.054915","6501600","泰山區"
"243016","421-VK","2019/08/30 19:39:40","新北市新莊區新北大道七段36號","121.419608333333","25.0322","6501600","泰山區"
"243009","KEA-2215","2019/08/30 19:39:44","新北市泰山區美寧街60號","121.430963333333","25.0646933333333","6501600","泰山區"
"243011","KEA-2216","2019/08/30 19:39:36","新北市泰山區貴子路41-1號","121.429658333333","25.039955","6501600","泰山區"
"243015","680-BX","2019/08/30 19:39:31","新北市泰山區民權街66巷2號","121.428588333333","25.05","6501600","泰山區"
"222003","436-BY","2019/08/30 19:39:33","新北市深坑區深南路51-1號","121.621278333333","25.0098333333333","6501800","深坑區"
"222002","659-BX","2019/08/30 19:39:31","新北市深坑區北深路一段177號","121.632543333333","25.0108666666667","6501800","深坑區"
"231061","002-UM","2019/08/30 19:39:34","新北市新店區碧安街9巷22號","121.516315","24.9684716666667","6500600","新店區"
"231058","0293-UT","2019/08/30 19:39:38","新北市新店區中正路76巷11弄22號","121.543721666667","24.9718683333333","6500600","新店區"
"231044","046-UY","2019/08/30 19:39:34","新北市新店區北新路三段220號","121.541073333333","24.9844033333333","6500600","新店區"
"231060","106-UY","2019/08/30 19:39:26","新北市新店區安康路二段159巷2號","121.510233333333","24.9592533333333","6500600","新店區"
"231051","107-UY","2019/08/30 19:39:35","新北市新店區中央四街36號","121.528263333333","24.9744766666667","6500600","新店區"
"231049","108-UY","2019/08/30 19:39:41","新北市新店區大豐路49號","121.540053333333","24.97972","6500600","新店區"
"231065","110-UY","2019/08/30 19:39:32","新北市新店區安祥路109巷100號","121.477861666667","24.9592066666667","6500600","新店區"
"221031","KEA-2785","2019/08/30 19:39:43","新北市汐止區汐萬路一段256巷3號","121.65305","25.0744033333333","6501100","汐止區"
"231062","256-BX","2019/08/30 19:39:40","新北市新店區太平路57號","121.532643333333","24.958695","6500600","新店區"
"231054","260-TV","2019/08/30 19:39:40","新北市新店區文中路40號","121.53972","24.9565983333333","6500600","新店區"
"231042","268-BY","2019/08/30 19:39:33","新北市新店區中興路一段167號","121.542715","24.9643633333333","6500600","新店區"
"231064","278-BY","2019/08/30 19:39:30","新北市新店區安和路一段52巷2號","121.517653333333","24.96622","6500600","新店區"
"231050","AAD-862","2019/08/30 19:39:36","新北市新店區郵政路1號","121.55759","24.95242","6500600","新店區"
"231045","355-BY","2019/08/30 19:39:42","新北市新店區北宜路二段209號","121.55317","24.9532616666667","6500600","新店區"
"231056","4715-K9","2019/08/30 19:39:45","新北市新店區中正路506號","121.534048333333","24.9828116666667","6500600","新店區"
"231067","4772-VM","2019/08/30 19:39:41","新北市新店區安康路一段355-10號","121.520718333333","24.9637783333333","6500600","新店區"
"231053","515-UM","2019/08/30 19:39:27","新北市新店區新烏路二段395號","121.55109","24.909715","6500600","新店區"
"231063","616-UM","2019/08/30 19:39:26","新北市新店區達觀路16號","121.502781666667","24.94033","6500600","新店區"
"231040","617-UM","2019/08/30 19:39:28","新北市新店區北新路一段40號","121.541023333333","24.966065","6500600","新店區"
"231041","619-UM","2019/08/30 19:39:41","新北市新店區中正路485號","121.533768333333","24.982045","6500600","新店區"
"231048","KED-0819","2019/08/30 19:39:38","新北市新店區五峰路63巷8弄5號","121.547055","24.96925","6500600","新店區"
"231046","719-UM","2019/08/30 19:39:34","新北市新店區中正路331號","121.53599","24.97508","6500600","新店區"
"231057","720-UM","2019/08/30 19:39:25","新北市新店區橘園一路11號","121.547901666667","24.9340216666667","6500600","新店區"
"231059","897-TW","2019/08/30 19:39:39","新北市新店區安和路三段141號","121.516965","24.9854333333333","6500600","新店區"
"231043","899-TW","2019/08/30 19:39:41","新北市新店區中正路137號","121.54174","24.9714733333333","6500600","新店區"
"231066","AKT-0513","2019/08/30 19:39:42","新北市新店區安康路三段355巷9號","121.484726666667","24.9505466666667","6500600","新店區"
"241011","013-R5","2019/08/30 19:39:27","新北市三重區秀江街184號","121.497916666667","25.0716366666667","6500200","三重區"
"241028","022-UY","2019/08/30 19:39:28","新北市三重區中正南路150號","121.494126666667","25.0573316666667","6500200","三重區"
"241008","059-VK","2019/08/30 19:39:36","新北市三重區永福街133號","121.478846666667","25.0767766666667","6500200","三重區"
"241029","060-VK","2019/08/30 19:39:35","新北市三重區光明路123號","121.492341666667","25.0565183333333","6500200","三重區"
"241031","061-VK","2019/08/30 19:39:34","新北市三重區重新路四段244巷18號","121.48648","25.0536266666667","6500200","三重區"
"241015","062-VK","2019/08/30 19:39:42","新北市三重區福德北路72號","121.5018","25.0661333333333","6500200","三重區"
"241017","063-VK","2019/08/30 19:39:39","新北市三重區重陽路三段5巷30號","121.491366666667","25.0653166666667","6500200","三重區"
"241006","262-UM","2019/08/30 19:39:38","新北市三重區聯華街97號","121.485396666667","25.0752783333333","6500200","三重區"
"241009","267-UM","2019/08/30 19:39:42","新北市三重區永安北路一段105-1號","121.480093333333","25.079335","6500200","三重區"
"241032","269-UM","2019/08/30 19:39:35","新北市三重區重陽路一段60巷53號","121.48477","25.058235","6500200","三重區"
"241013","270-UM","2019/08/30 19:39:37","新北市三重區仁賢街33號","121.496546666667","25.0748383333333","6500200","三重區"
"241025","271-UM","2019/08/30 19:39:31","新北市三重區忠孝路三段84巷1號","121.480348333333","25.0648066666667","6500200","三重區"
"241007","398-BY","2019/08/30 19:39:29","新北市三重區三和路四段125巷46號","121.486351666667","25.0782716666667","6500200","三重區"
"241035","KEA-2210","2019/08/30 19:39:43","新北市三重區正義北路61-2號","121.497468333333","25.0645233333333","6500200","三重區"
"241030","KED-0822","2019/08/30 19:39:38","新北市三重區新興路30-1號","121.49179","25.0529916666667","6500200","三重區"
"241026","480-VK","2019/08/30 19:39:41","新北市三重區文化南路65巷22號","121.499301666667","25.0607483333333","6500200","三重區"
"241014","543-UM","2019/08/30 19:39:33","新北市三重區河邊北街82號","121.504146666667","25.068985","6500200","三重區"
"241001","547-UM","2019/08/30 19:39:27","新北市三重區仁愛街315巷55號","121.494485","25.0803166666667","6500200","三重區"
"241019","KEA-2593","2019/08/30 19:39:45","新北市三重區六張街244號","121.48745","25.068175","6500200","三重區"
"241005","AAD-863","2019/08/30 19:39:35","新北市三重區溪尾街300-2號","121.487533333333","25.083585","6500200","三重區"
"241023","743-BX","2019/08/30 19:39:34","新北市三重區忠孝路三段125-1號","121.47993","25.063625","6500200","三重區"
"241012","941-UM","2019/08/30 19:39:38","新北市三重區仁興街28巷11號","121.498771666667","25.0753233333333","6500200","三重區"
"235066","003-UY","2019/08/30 19:39:23","新北市中和區景新街133號","121.505835","24.9971866666667","6500300","中和區"
"235063","006-UY","2019/08/30 19:39:38","新北市中和區連城路263巷11弄2號","121.492466666667","24.9952083333333","6500300","中和區"
"235056","096-UM","2019/08/30 19:39:39","新北市中和區中山路三段114巷46號","121.475806666667","25.0072483333333","6500300","中和區"
"235039","097-UM","2019/08/30 19:39:28","新北市中和區景平路139號","121.514503333333","24.9920783333333","6500300","中和區"
"235065","098-UM","2019/08/30 19:39:32","新北市中和區莊敬路31巷2號","121.500305","25.0048933333333","6500300","中和區"
"235040","150-BY","2019/08/30 19:39:34","新北市中和區宜安路96號","121.510761666667","24.9976133333333","6500300","中和區"
"235058","151-BY","2019/08/30 19:39:34","新北市中和區員山路124巷26號","121.482363333333","24.9959666666667","6500300","中和區"
"235055","183-VK","2019/08/30 19:39:45","新北市中和區中山路三段181巷18弄11號","121.472666666667","25.0048016666667","6500300","中和區"
"235038","185-VK","2019/08/30 19:39:36","新北市中和區自立路141巷3號","121.522465","24.9935916666667","6500300","中和區"
"235049","186-VK","2019/08/30 19:39:36","新北市中和區景平路526號","121.502856666667","24.9942916666667","6500300","中和區"
"235044","293-VK","2019/08/30 19:39:27","新北市中和區南山路421巷1弄1號","121.50737","24.989545","6500300","中和區"
"235072","301-VK","2019/08/30 19:39:31","新北市中和區錦和路91-1號","121.490205","24.9957283333333","6500300","中和區"
"235043","352-BY","2019/08/30 19:39:36","新北市中和區華新街151號","121.506171666667","24.9816033333333","6500300","中和區"
"235042","KEA-2878","2019/08/30 19:39:40","新北市中和區景安路79巷37弄20號","121.507853333333","24.9962483333333","6500300","中和區"
"235070","558-UM","2019/08/30 19:39:37","新北市中和區連勝街21號","121.498618333333","24.9981016666667","6500300","中和區"
"235045","565-BX","2019/08/30 19:39:29","新北市中和區景新街416號","121.512855","24.9889566666667","6500300","中和區"
"235060","KED-0823","2019/08/30 19:39:27","新北市中和區員山路449號","121.480585","25.004155","6500300","中和區"
"235054","640-BX","2019/08/30 19:39:28","新北市中和區莒光路60-4號","121.472201666667","25.003375","6500300","中和區"
"235047","732-UM","2019/08/30 19:39:28","新北市中和區景平路355號","121.504705","24.9934783333333","6500300","中和區"
"235046","733-UM","2019/08/30 19:39:24","新北市中和區景新街496巷26弄1號","121.513388333333","24.986145","6500300","中和區"
"235071","783-BX","2019/08/30 19:39:34","新北市中和區新生街114巷1號","121.483511666667","25.0023533333333","6500300","中和區"
"235057","801-TS","2019/08/30 19:39:26","新北市中和區民樂路81號","121.484863333333","25.0012983333333","6500300","中和區"
"235052","805-TS","2019/08/30 19:39:31","新北市中和區華新街192巷9號","121.506665","24.9825083333333","6500300","中和區"
"235048","896-TW","2019/08/30 19:39:26","新北市中和區興南路二段49號","121.507325","24.985415","6500300","中和區"
"235053","900-TW","2019/08/30 19:39:31","新北市中和區國光街215巷29號","121.46734","25.0004816666667","6500300","中和區"
"235067","911-UM","2019/08/30 19:39:26","新北市中和區員山路150巷2弄45號","121.482168333333","24.997515","6500300","中和區"
"235051","157-BY","2019/08/30 19:39:40","新北市中和區中興街132巷22號","121.49885","24.9918416666667","6500300","中和區"
"235037","AAC-213","2019/08/30 19:39:29","新北市中和區自立路189號","121.523993333333","24.991325","6500300","中和區"
"235059","AAC-215","2019/08/30 19:39:42","新北市中和區圓通路284號","121.491531666667","24.9906066666667","6500300","中和區"
"220065","072-UY","2019/08/30 19:39:25","新北市板橋區國泰街38巷4弄42號","121.468065","25.0066716666667","6500100","板橋區"
"220086","073-UY","2019/08/30 19:39:42","新北市板橋區中正路220號","121.455825","25.0184983333333","6500100","板橋區"
"220106","075-UY","2019/08/30 19:39:34","新北市板橋區民治街57巷32-1號","121.480215","25.034135","6500100","板橋區"
"220069","AAD-861","2019/08/30 19:39:45","新北市板橋區貴興路119巷1弄1號","121.455776666667","25.002235","6500100","板橋區"
"220068","120-SR","2019/08/30 19:39:26","新北市板橋區中山路二段412巷9號","121.483365","25.0206266666667","6500100","板橋區"
"247004","893-R6","2019/08/30 19:39:42","新北市蘆洲區中原路21巷7弄21號","121.461583333333","25.0828233333333","6501400","蘆洲區"
"226004","312-R5","2019/08/30 19:39:34","新北市平溪區十分里十分街116號","121.77692","25.0431283333333","6502400","平溪區"
"235041","251-BX","2019/08/30 19:39:35","新北市中和區中安街32號","121.513211666667","25.0027883333333","6500300","中和區"
"228003","097-TW","2019/08/30 19:39:36","新北市貢寮區真理里美艷山街19-1號","121.923483333333","25.0683966666667","6502600","貢寮區"
"228001","212-TW","2019/08/30 19:39:26","新北市貢寮區真理里延平街49號","121.924626666667","25.0556583333333","6502600","貢寮區"
"224010","AGQ-8101","2019/08/30 19:39:41","新北市瑞芳區豎崎路18號","121.843553333333","25.1087","6501200","瑞芳區"
"224002","639-TC","2019/08/30 19:39:42","新北市瑞芳區三爪子坑路13巷281-5號","121.814445","25.1064066666667","6501200","瑞芳區"
"227002","642-TC","2019/08/30 19:39:30","新北市雙溪區雙溪里光復街5號","121.865423333333","25.0357666666667","6502500","雙溪區"
"227001","400-TW","2019/08/30 19:39:38","新北市雙溪區新基里新基北街22號","121.867218333333","25.038935","6502500","雙溪區"
"222001","KEA-2212","2019/08/30 19:39:42","新北市深坑區北深路二段200號","121.612923333333","25.0016633333333","6501800","深坑區"
"208002","KEA-2872","2019/08/30 19:39:27","新北市金山區三民街34號","121.634911666667","25.2235933333333","6502700","金山區"
"208003","665-BX","2019/08/30 19:39:33","新北市金山區中山路147號","121.638938333333","25.220225","6502700","金山區"
"251001","011-UM","2019/08/30 19:39:43","新北市淡水區民權路41號","121.45979","25.14018","6501000","淡水區"
"251002","012-UM","2019/08/30 19:39:43","新北市淡水區下圭柔山91-3號","121.430983333333","25.2098416666667","6501000","淡水區"
"251008","181-VK","2019/08/30 19:39:28","新北市淡水區中正路一段8巷1弄11號","121.428201666667","25.1757933333333","6501000","淡水區"
"251010","413-VK","2019/08/30 19:39:34","新北市淡水區崁頂三路135號","121.43146","25.2009466666667","6501000","淡水區"
"251007","442-VK","2019/08/30 19:39:28","新北市淡水區中正東路一段111巷29號","121.45553","25.1609983333333","6501000","淡水區"
"251005","443-VK","2019/08/30 19:39:27","新北市淡水區原德路108巷2號","121.443441666667","25.17351","6501000","淡水區"
"251006","561-UM","2019/08/30 19:39:42","新北市淡水區中山北路一段207巷56號","121.442255","25.1791433333333","6501000","淡水區"
"251009","575-R6","2019/08/30 19:39:41","新北市淡水區中山北路一段186巷10號","121.445396666667","25.1787683333333","6501000","淡水區"
"251011","650-BX","2019/08/30 19:39:43","新北市淡水區中正東路二段143巷2弄1號","121.460736666667","25.1470366666667","6501000","淡水區"
"207003","550-UM","2019/08/30 19:39:29","新北市萬里區大鵬里萬里加投289-4號","121.645668333333","25.2187466666667","6502800","萬里區"
"207004","291-VK","2019/08/30 19:39:45","新北市萬里區萬里里瑪鋉路35號","121.687661666667","25.175675","6502800","萬里區"
"252002","178-VK","2019/08/30 19:39:36","新北市三芝區中正路一段18巷56號","121.504268333333","25.25871","6502100","三芝區"
"208001","170-UY","2019/08/30 19:39:35","新北市金山區重和里六股林口25號","121.603365","25.2192233333333","6502700","金山區"
"237004","KEA-2597","2019/08/30 19:39:45","新北市三峽區插角233號","121.412666666667","24.8686366666667","6500900","三峽區"
"237007","153-BY","2019/08/30 19:39:29","新北市三峽區二鬮路136巷22弄27號","121.357051666667","24.91033","6500900","三峽區"
"237009","210-TH","2019/08/30 19:39:27","新北市三峽區中園街59號","121.368191666667","24.925835","6500900","三峽區"
"237013","252-BX","2019/08/30 19:39:31","新北市三峽區橫溪路3號","121.396086666667","24.936115","6500900","三峽區"
"237012","275-BY","2019/08/30 19:39:33","新北市三峽區民生街3號","121.374595","24.935385","6500900","三峽區"
"237008","302-VK","2019/08/30 19:39:33","新北市三峽區大同路176號","121.372541666667","24.92674","6500900","三峽區"
"237014","433-BY","2019/08/30 19:39:29","新北市三峽區中園街55號","121.368156666667","24.925905","6500900","三峽區"
"237006","5529-G3","2019/08/30 19:39:27","新北市三峽區中正路一段336巷15弄2號","121.369955","24.92495","6500900","三峽區"
"237011","KEA-2596","2019/08/30 19:39:28","新北市三峽區中正路一段280號","121.37167","24.9263216666667","6500900","三峽區"
"237015","649-BX","2019/08/30 19:39:41","新北市三峽區成福路94號","121.42078","24.9298866666667","6500900","三峽區"
"237010","706-TV","2019/08/30 19:39:32","新北市三峽區復興路41號","121.373608333333","24.93672","6500900","三峽區"
"237005","AKY-6261","2019/08/30 19:39:46","新北市三峽區文化路144號","121.370551666667","24.9361666666667","6500900","三峽區"
"236079","166-UM","2019/08/30 19:39:38","新北市土城區溪頭路43號","121.412086666667","24.9551083333333","6501300","土城區"
"236030","253-BX","2019/08/30 19:39:25","新北市土城區福祥街64號","121.44158","24.98159","6501300","土城區"
"236039","271-VK","2019/08/30 19:39:28","新北市土城區清水路98巷3弄29號","121.458233333333","24.9808716666667","6501300","土城區"
"236069","KEA-2877","2019/08/30 19:39:38","新北市土城區明德路二段77-8號","121.45032","24.9798033333333","6501300","土城區"
"252001","KED-0821","2019/08/30 19:39:38","新北市三芝區公正街66號","121.49981","25.2574766666667","6502100","三芝區"
"236020","401-BY","2019/08/30 19:39:36","新北市土城區峰廷街3號","121.46908","24.98735","6501300","土城區"
"236042","752-BX","2019/08/30 19:39:39","新北市土城區裕民路242號","121.453933333333","24.9832883333333","6501300","土城區"
"236059","912-UM","2019/08/30 19:39:25","新北市土城區中央路二段15號","121.442948333333","24.9805033333333","6501300","土城區"
"236048","913-UM","2019/08/30 19:39:34","新北市土城區明德路一段97號","121.465566666667","24.9828966666667","6501300","土城區"
"236063","915-UM","2019/08/30 19:39:39","新北市土城區延和路105巷8弄2號","121.467295","24.9912483333333","6501300","土城區"
"236055","970-R7","2019/08/30 19:39:46","新北市土城區立德路22號","121.462826666667","24.9878583333333","6501300","土城區"
"242002","751-BX","2019/08/30 19:39:35","新北市新莊區三和路12-14號","121.441823333333","25.0372416666667","6500500","新莊區"
"242005","440-UM","2019/08/30 19:39:42","新北市新莊區化成路29巷58號","121.462975","25.0438983333333","6500500","新莊區"
"242023","353-BY","2019/08/30 19:39:37","新北市新莊區復興路三段115號","121.464271666667","25.0445133333333","6500500","新莊區"
"242013","132-UY","2019/08/30 19:39:45","新北市新莊區中泰街107號","121.4487","25.04656","6500500","新莊區"
"242037","135-UY","2019/08/30 19:39:39","新北市新莊區民安路207巷21弄2號","121.427098333333","25.0232883333333","6500500","新莊區"
"242032","348-TH","2019/08/30 19:39:43","新北市新莊區新泰路209號","121.445686666667","25.03866","6500500","新莊區"
"242007","349-TH","2019/08/30 19:39:43","新北市新莊區思源路593巷6弄23號","121.457531666667","25.0600066666667","6500500","新莊區"
"238015","755-BX","2019/08/30 19:39:41","新北市樹林區日新街87號","121.42171","24.9903333333333","6500700","樹林區"
"238023","601-UM","2019/08/30 19:39:44","新北市樹林區三寶街2號","121.406465","25.01595","6500700","樹林區"
"238019","599-UM","2019/08/30 19:39:27","新北市樹林區東榮街8號","121.418205","24.9837383333333","6500700","樹林區"
"238024","5061-A6","2019/08/30 19:39:43","新北市樹林區中山路三段155巷3號","121.395636666667","24.9725966666667","6500700","樹林區"
"238022","KEA-2213","2019/08/30 19:39:45","新北市樹林區名園街78巷14號","121.419598333333","24.9776366666667","6500700","樹林區"
"238021","KEA-2539","2019/08/30 19:39:41","新北市樹林區佳園路三段113巷5-1號","121.386971666667","24.9503","6500700","樹林區"
"238025","303-VK","2019/08/30 19:39:40","新北市樹林區保安二街29號","121.424616666667","24.9936383333333","6500700","樹林區"
"238017","283-BY","2019/08/30 19:39:44","新北市樹林區光興街63巷8號","121.41076","25.00204","6500700","樹林區"
"238014","282-BY","2019/08/30 19:39:27","新北市樹林區千歲街14-1號","121.425236666667","24.99587","6500700","樹林區"
"238020","268-VK","2019/08/30 19:39:38","新北市板橋區大觀路三段50巷103號","121.430821666667","24.9967816666667","6500700","樹林區"
"238026","172-UY","2019/08/30 19:39:38","新北市樹林區佳園路二段41號","121.391646666667","24.9625866666667","6500700","樹林區"
"239006","891-R6","2019/08/30 19:39:28","新北市鶯歌區永昌街105號","121.340246666667","24.9501383333333","6500800","鶯歌區"
"239001","417-VK","2019/08/30 19:39:27","新北市鶯歌區尖山埔路237號","121.344428333333","24.9501266666667","6500800","鶯歌區"
"239002","359-BY","2019/08/30 19:39:31","新北市鶯歌區湖山路54巷2號","121.339563333333","24.9751233333333","6500800","鶯歌區"
"239004","193-VK","2019/08/30 19:39:36","新北市鶯歌區二甲路85-8號","121.33981","24.93235","6500800","鶯歌區"
"221008","489-VK","2019/08/30 19:39:37","新北市汐止區康寧街145號","121.621853333333","25.0664916666667","6501100","汐止區"
"221027","281-BY","2019/08/30 19:39:40","新北市汐止區忠孝東路9號","121.658281666667","25.0659133333333","6501100","汐止區"
"221021","299-VK","2019/08/30 19:39:39","新北市汐止區莊敬街29巷9弄1號","121.657321666667","25.060995","6501100","汐止區"
"221025","623-UM","2019/08/30 19:39:41","新北市汐止區新台五路二段88號","121.662445","25.0654433333333","6501100","汐止區"
"221038","646-BX","2019/08/30 19:39:29","新北市汐止區忠孝東路218號","121.662141666667","25.066685","6501100","汐止區"
"221033","647-BX","2019/08/30 19:39:40","新北市汐止區南勢街3號","121.627083333333","25.0374166666667","6501100","汐止區"
"220079","145-BY","2019/08/30 19:39:42","新北市板橋區民權路286號","121.45743","25.015745","6500100","板橋區"
"220080","200-UY","2019/08/30 19:39:16","新北市板橋區大觀路二段37巷314號","121.44979","25.00217","6500100","板橋區"
"220082","610-BX","2019/08/30 19:39:42","新北市板橋區大觀路三段263號","121.429236666667","24.9921716666667","6500100","板橋區"
"220091","267-BY","2019/08/30 19:39:34","新北市板橋區懷德街139巷20弄1號","121.480076666667","25.0307533333333","6500100","板橋區"
"220056","276-BY","2019/08/30 19:39:30","新北市板橋區國慶路49巷25號","121.459708333333","24.9964316666667","6500100","板橋區"
"220072","277-BY","2019/08/30 19:39:45","新北市板橋區金門街253巷17弄9號","121.433425","24.98909","6500100","板橋區"
"220101","280-UM","2019/08/30 19:39:24","新北市板橋區縣民大道三段87號","121.475531666667","25.0219616666667","6500100","板橋區"
"220094","283-UM","2019/08/30 19:39:40","新北市板橋區長江路二段138號","121.466021666667","25.03177","6500100","板橋區"
"220071","283-VK","2019/08/30 19:39:27","新北市板橋區四川路一段283巷23號","121.459478333333","25.00059","6500100","板橋區"
"220053","285-VK","2019/08/30 19:39:38","新北市板橋區中山路二段60巷1弄13號","121.474708333333","25.015615","6500100","板橋區"
"220083","286-VK","2019/08/30 19:39:28","新北市板橋區龍興街71巷11號","121.443216666667","25.001905","6500100","板橋區"
"220081","287-VK","2019/08/30 19:39:40","新北市板橋區大觀路一段29巷137弄1號","121.450221666667","25.0054316666667","6500100","板橋區"
"220090","288-VK","2019/08/30 19:39:33","新北市板橋區綠堤街33-4號","121.455751666667","25.0265383333333","6500100","板橋區"
"220061","293-UM","2019/08/30 19:39:38","新北市板橋區中山路一段265巷16號","121.468596666667","25.0145983333333","6500100","板橋區"
"220062","295-UM","2019/08/30 19:39:38","新北市板橋區三民路二段29巷10號","121.481741666667","25.0179883333333","6500100","板橋區"
"220084","296-UM","2019/08/30 19:39:31","新北市板橋區板林路170號","121.424725","24.9879383333333","6500100","板橋區"
"220075","303-R5","2019/08/30 19:39:28","新北市板橋區大勇街4巷17號","121.454565","25.01787","6500100","板橋區"
"220092","307-R5","2019/08/30 19:39:40","新北市板橋區互助街92號","121.460215","25.02634","6500100","板橋區"
"220098","317-R6","2019/08/30 19:39:34","新北市板橋區四維路290-3號","121.462905","25.0291183333333","6500100","板橋區"
"220089","487-VK","2019/08/30 19:39:43","新北市板橋區新海路380號","121.459205","25.0259316666667","6500100","板橋區"
"220088","491-VK","2019/08/30 19:39:37","新北市板橋區文聖街97號","121.477671666667","25.0296516666667","6500100","板橋區"
"220035","560-BX","2019/08/30 19:39:36","新北市板橋區中正路375巷12號","121.45416","25.0209833333333","6500100","板橋區"
"220103","561-BX","2019/08/30 19:39:32","新北市板橋區自由路52號","121.465686666667","25.0234933333333","6500100","板橋區"
"220063","609-BX","2019/08/30 19:39:43","新北市板橋區中山路二段374號","121.481955","25.02027","6500100","板橋區"
"220057","686-BX","2019/08/30 19:39:41","新北市板橋區信義路18號","121.45706","24.9954816666667","6500100","板橋區"
"220077","687-BX","2019/08/30 19:39:39","新北市板橋區僑中二街106巷1號","121.445906666667","25.0075483333333","6500100","板橋區"
"220093","689-BX","2019/08/30 19:39:37","新北市板橋區長江路二段271號","121.469786666667","25.0330083333333","6500100","板橋區"
"220054","741-BX","2019/08/30 19:39:41","新北市板橋區四川路一段253號","121.459711666667","25.00251","6500100","板橋區"
"220102","KEA-2699","2019/08/30 19:39:45","新北市板橋區仁化街3-1號","121.474635","25.0317133333333","6500100","板橋區"
"220055","827-TW","2019/08/30 19:39:40","新北市板橋區國慶路149巷3弄1號","121.461205","24.9968516666667","6500100","板橋區"
"220067","831-TW","2019/08/30 19:39:39","新北市板橋區長安街138巷1弄21號","121.473448333333","25.00993","6500100","板橋區"
"220074","895-R6","2019/08/30 19:39:42","新北市板橋區倉後街1-11號","121.455381666667","25.00896","6500100","板橋區"
"220073","985-R7","2019/08/30 19:39:28","新北市板橋區國光路49巷17號","121.458895","25.018815","6500100","板橋區"
"220097","AAC-210","2019/08/30 19:39:31","新北市板橋區文化路一段35號","121.46031","25.01307","6500100","板橋區"
"220064","AAC-253","2019/08/30 19:39:33","新北市板橋區重慶路67巷1-1號","121.462225","25.0074966666667","6500100","板橋區"
"235068","KEA-2873","2019/08/30 19:39:22","新北市中和區莊敬路16巷15弄7號","121.500453333333","25.00387","6500300","中和區"
"235061","KEA-2875","2019/08/30 19:39:29","新北市中和區員山路325-3號","121.481233333333","25.0008","6500300","中和區"
