"lineid","car","time","location","longitude","latitude","cityid","cityname"
"234046","148-BY","2019/08/30 19:49:37","新北市永和區永利路135號","121.524131666667","25.0033533333333","6500400","永和區"
"234081","298-R6","2019/08/30 19:49:25","新北市永和區永亨路98號","121.523051666667","25.0048633333333","6500400","永和區"
"234038","336-UY","2019/08/30 19:49:43","新北市永和區成功路二段121巷4號","121.527063333333","24.998275","6500400","永和區"
"234064","337-UY","2019/08/30 19:49:27","新北市永和區中正路368巷24號","121.518648333333","25.00073","6500400","永和區"
"234086","338-UY","2019/08/30 19:49:41","新北市永和區永利路26號","121.5182","25.00578","6500400","永和區"
"234070","552-UM","2019/08/30 19:49:27","新北市永和區竹林路88號","121.519476666667","25.0125866666667","6500400","永和區"
"234017","745-BX","2019/08/30 19:49:33","新北市永和區永和路二段297號","121.516013333333","25.01605","6500400","永和區"
"234030","746-BX","2019/08/30 19:49:31","新北市永和區民生路67巷45號","121.525096666667","24.99749","6500400","永和區"
"234054","KEA-2590","2019/08/30 19:49:31","新北市永和區竹林路72巷2號","121.51892","25.013175","6500400","永和區"
"234007","KED-0605","2019/08/30 19:49:30","新北市中和區光華街49號","121.505545","25.0037766666667","6500400","永和區"
"234013","KEA-2591","2019/08/30 19:49:43","新北市永和區永平路286-1號","121.50761","25.0119933333333","6500400","永和區"
"234061","AAD-866","2019/08/30 19:49:42","新北市永和區中正路39-1號","121.514356666667","24.9959533333333","6500400","永和區"
"234042","862-TW","2019/08/30 19:49:40","新北市永和區中和路389巷12號","121.508118333333","25.001025","6500400","永和區"
"234050","863-TW","2019/08/30 19:49:37","新北市永和區保安路144號","121.508515","25.01491","6500400","永和區"
"234026","9371-KE","2019/08/30 19:49:31","新北市永和區雙和街24號","121.508901666667","25.0024233333333","6500400","永和區"
"234011","9373-KE","2019/08/30 19:49:45","新北市永和區仁愛路352巷110號","121.500576666667","25.0083383333333","6500400","永和區"
"249005","172-UM","2019/08/30 19:49:31","新北市八里區中華路三段186號","121.390498333333","25.1274533333333","6502300","八里區"
"249001","173-UM","2019/08/30 19:49:38","新北市八里區中華路二段199號","121.406378333333","25.1504816666667","6502300","八里區"
"249004","303-UY","2019/08/30 19:49:35","新北市八里區仁愛路31號","121.41366","25.16082","6502300","八里區"
"249002","305-UY","2019/08/30 19:49:35","新北市八里區頂寮五街17號","121.45154","25.1259916666667","6502300","八里區"
"249003","593-UM","2019/08/30 19:49:25","新北市八里區中華路二段552號","121.398626666667","25.1453516666667","6502300","八里區"
"248016","026-BX","2019/08/30 19:49:38","新北市五股區成泰路四段24-5號","121.453656666667","25.106865","6501500","五股區"
"248008","KED-0815","2019/08/30 19:49:41","新北市五股區四維路140號","121.468106666667","25.075385","6501500","五股區"
"248018","KED-0813","2019/08/30 19:49:40","新北市五股區外寮路1-1號","121.425885","25.0768383333333","6501500","五股區"
"248012","247-BX","2019/08/30 19:49:34","新北市五股區蓬萊路2巷1號","121.435748333333","25.07941","6501500","五股區"
"248014","261-SL","2019/08/30 19:49:31","新北市五股區五福路22巷6號","121.434663333333","25.088975","6501500","五股區"
"248004","677-BX","2019/08/30 19:49:45","新北市五股區成泰路一段135號","121.435506666667","25.0727733333333","6501500","五股區"
"248002","678-BX","2019/08/30 19:49:44","新北市五股區成泰路3段651-1號","121.452905","25.10533","6501500","五股區"
"248010","682-TV","2019/08/30 19:49:31","新北市五股區登林路貿商巷1弄6號","121.429615","25.0699366666667","6501500","五股區"
"234023","9380-KE","2019/08/30 19:49:31","新北市永和區豫溪街57巷8弄3號","121.517533333333","25.0105116666667","6500400","永和區"
"234077","969-R7","2019/08/30 19:49:42","新北市永和區智光街55號","121.517191666667","24.9979","6500400","永和區"
"234074","AAC-211","2019/08/30 19:49:23","新北市永和區竹林路213巷13號","121.521711666667","25.0089616666667","6500400","永和區"
"234067","AAC-212","2019/08/30 19:49:41","新北市永和區永貞路353號","121.509023333333","25.0075283333333","6500400","永和區"
"234003","AAC-295","2019/08/30 19:49:42","新北市永和區福和路316-2號","121.515931666667","25.0073366666667","6500400","永和區"
"244023","483-VK","2019/08/30 19:49:25","新北市林口區文林四街一段33巷21號","121.373865","25.085945","6501700","林口區"
"243012","AAD-798","2019/08/30 19:49:27","新北市泰山區福興三街193號","121.433403333333","25.0572983333333","6501600","泰山區"
"243016","421-VK","2019/08/30 19:49:37","新北市泰山區明志路三段513號","121.421345","25.03228","6501600","泰山區"
"243009","KEA-2215","2019/08/30 19:49:24","新北市泰山區美寧街64號","121.430986666667","25.06464","6501600","泰山區"
"243011","KEA-2216","2019/08/30 19:49:36","新北市泰山區明志路三段196巷21弄22號","121.422725","25.0385783333333","6501600","泰山區"
"222003","436-BY","2019/08/30 19:49:33","新北市深坑區深南路51-1號","121.62127","25.0097983333333","6501800","深坑區"
"222002","659-BX","2019/08/30 19:49:31","新北市深坑區北深路一段300號","121.624423333333","25.0058316666667","6501800","深坑區"
"231061","002-UM","2019/08/30 19:49:28","新北市新店區安民街259號","121.517323333333","24.97264","6500600","新店區"
"231044","046-UY","2019/08/30 19:49:34","新北市新店區復興路121號","121.534178333333","24.988005","6500600","新店區"
"231060","106-UY","2019/08/30 19:49:26","新北市新店區安康路二段159巷6號","121.510206666667","24.9592116666667","6500600","新店區"
"231051","107-UY","2019/08/30 19:49:35","新北市新店區中央三街52號","121.527393333333","24.9745733333333","6500600","新店區"
"231049","108-UY","2019/08/30 19:49:32","新北市新店區民權路99號","121.536925","24.9828083333333","6500600","新店區"
"231065","110-UY","2019/08/30 19:49:32","新北市新店區安祥路106巷10號","121.478755","24.962625","6500600","新店區"
"231068","187-VK","2019/08/30 19:49:31","新北市新店區安一路一段1-1號","121.519721666667","24.9612866666667","6500600","新店區"
"221031","KEA-2785","2019/08/30 19:49:43","新北市汐止區連峰街1巷1號","121.646621666667","25.0760566666667","6501100","汐止區"
"231062","256-BX","2019/08/30 19:49:40","新北市新店區永業路49巷2號","121.532136666667","24.9549266666667","6500600","新店區"
"231054","260-TV","2019/08/30 19:49:40","新北市新店區光明街13號","121.53842","24.9593516666667","6500600","新店區"
"231042","268-BY","2019/08/30 19:49:33","新北市新店區中興路一段266號","121.544865","24.967335","6500600","新店區"
"231064","278-BY","2019/08/30 19:49:30","新北市新店區光華街5巷4號","121.517788333333","24.96881","6500600","新店區"
"231050","AAD-862","2019/08/30 19:49:37","新北市新店區北宜路二段461號","121.561855","24.9540183333333","6500600","新店區"
"231045","355-BY","2019/08/30 19:49:42","新北市新店區北宜路二段483號","121.562211666667","24.9539033333333","6500600","新店區"
"231055","4716-K9","2019/08/30 19:49:40","新北市新店區中華路83巷67號","121.538178333333","24.9673083333333","6500600","新店區"
"231056","4715-K9","2019/08/30 19:49:24","新北市新店區民權路42巷35號","121.539168333333","24.9836933333333","6500600","新店區"
"231067","4772-VM","2019/08/30 19:49:41","新北市新店區精忠路10-1號","121.532635","24.9590383333333","6500600","新店區"
"231053","515-UM","2019/08/30 19:49:27","新北市新店區新烏路三段162號","121.551761666667","24.90253","6500600","新店區"
"231063","616-UM","2019/08/30 19:49:26","新北市新店區車子路11號","121.503036666667","24.952005","6500600","新店區"
"231040","617-UM","2019/08/30 19:49:28","新北市新店區中正路75巷71號","121.54315","24.968795","6500600","新店區"
"231041","619-UM","2019/08/30 19:49:41","新北市新店區中央路155號","121.529691666667","24.972675","6500600","新店區"
"231048","KED-0819","2019/08/30 19:49:38","新北市新店區中興路二段100巷1號","121.547653333333","24.9715383333333","6500600","新店區"
"231046","719-UM","2019/08/30 19:46:54","新北市新店區福園街10巷1號","121.532748333333","24.97284","6500600","新店區"
"231057","720-UM","2019/08/30 19:49:45","新北市新店區梅崗三路1號","121.55823","24.931205","6500600","新店區"
"231059","897-TW","2019/08/30 19:49:39","新北市新店區安和路二段227號","121.517198333333","24.97602","6500600","新店區"
"231043","899-TW","2019/08/30 19:49:41","新北市新店區中正路263-3號","121.538375","24.9737566666667","6500600","新店區"
"231066","AKT-0513","2019/08/30 19:49:42","新北市新店區安康路三段165巷4號","121.489613333333","24.9513483333333","6500600","新店區"
"241011","013-R5","2019/08/30 19:49:27","新北市三重區介壽路43號","121.498755","25.0701083333333","6500200","三重區"
"241028","022-UY","2019/08/30 19:49:28","新北市三重區中正南路124號","121.494293333333","25.0579283333333","6500200","三重區"
"241008","059-VK","2019/08/30 19:49:36","新北市三重區永福街155號","121.478715","25.076025","6500200","三重區"
"241029","060-VK","2019/08/30 19:49:35","新北市三重區重安街12號","121.49024","25.0582816666667","6500200","三重區"
"241031","061-VK","2019/08/30 19:49:34","新北市三重區重新路四段101-1號","121.485778333333","25.05432","6500200","三重區"
"241015","062-VK","2019/08/30 19:49:42","新北市三重區三和路一段2號","121.50389","25.0642383333333","6500200","三重區"
"241017","063-VK","2019/08/30 19:49:39","新北市三重區重陽路三段15號","121.489498333333","25.0667016666667","6500200","三重區"
"241024","065-VK","2019/08/30 19:49:27","新北市三重區大勇街82巷10號","121.479283333333","25.071735","6500200","三重區"
"241003","091-VK","2019/08/30 19:49:28","新北市三重區五華街93巷81號","121.493676666667","25.0848316666667","6500200","三重區"
"241006","262-UM","2019/08/30 19:49:38","新北市三重區永福街273號","121.482193333333","25.0741433333333","6500200","三重區"
"241016","266-UM","2019/08/30 19:49:43","新北市三重區正德街58號","121.4955","25.0633516666667","6500200","三重區"
"241009","267-UM","2019/08/30 19:49:42","新北市三重區三和路四段396巷39號","121.479878333333","25.0788666666667","6500200","三重區"
"241018","268-UM","2019/08/30 19:49:32","新北市三重區雙園街57巷1號","121.494911666667","25.0675666666667","6500200","三重區"
"241032","269-UM","2019/08/30 19:49:35","新北市三重區重陽路一段44巷58號","121.484643333333","25.0577316666667","6500200","三重區"
"241013","270-UM","2019/08/30 19:49:37","新北市三重區仁愛街92巷15號","121.494516666667","25.0736883333333","6500200","三重區"
"241025","271-UM","2019/08/30 19:49:31","新北市三重區頂崁街210巷16號","121.476503333333","25.067745","6500200","三重區"
"241007","398-BY","2019/08/30 19:49:29","新北市三重區慈愛街10號","121.48454","25.0784033333333","6500200","三重區"
"241035","KEA-2210","2019/08/30 19:49:36","新北市三重區文化北路8號","121.499281666667","25.06355","6500200","三重區"
"241030","KED-0822","2019/08/30 19:49:38","新北市三重區環河南路254巷40號","121.489765","25.0512433333333","6500200","三重區"
"241020","478-VK","2019/08/30 19:49:26","新北市三重區後竹圍街43號","121.490616666667","25.0733216666667","6500200","三重區"
"241026","480-VK","2019/08/30 19:49:41","新北市三重區中央南路43號","121.501278333333","25.061915","6500200","三重區"
"241014","543-UM","2019/08/30 19:49:33","新北市三重區三和路二段37-8號","121.501361666667","25.067565","6500200","三重區"
"241001","547-UM","2019/08/30 19:49:27","新北市三重區仁愛街283巷6號","121.49329","25.0792966666667","6500200","三重區"
"241019","KEA-2593","2019/08/30 19:49:45","新北市三重區自強路二段74巷23-1號","121.487816666667","25.0697316666667","6500200","三重區"
"241005","AAD-863","2019/08/30 19:49:35","新北市三重區溪尾街334號","121.488265","25.0850683333333","6500200","三重區"
"241023","743-BX","2019/08/30 19:49:26","新北市三重區頂崁街168號","121.477633333333","25.065915","6500200","三重區"
"241012","941-UM","2019/08/30 19:49:38","新北市三重區仁興街41號","121.499193333333","25.07583","6500200","三重區"
"241033","AAC-255","2019/08/30 19:49:41","新北市三重區中興南街60號","121.470535","25.0441133333333","6500200","三重區"
"235066","003-UY","2019/08/30 19:49:43","新北市中和區南工路38號","121.505796666667","25.00116","6500300","中和區"
"235056","096-UM","2019/08/30 19:49:39","新北市中和區中山路三段174號","121.472726666667","25.0064033333333","6500300","中和區"
"235039","097-UM","2019/08/30 19:49:28","新北市中和區大勇街27巷23號","121.516425","24.993795","6500300","中和區"
"235065","098-UM","2019/08/30 19:49:32","新北市中和區福美路269號","121.498121666667","25.0050083333333","6500300","中和區"
"235040","150-BY","2019/08/30 19:49:26","新北市中和區安平路38號","121.5097","24.9949066666667","6500300","中和區"
"235058","151-BY","2019/08/30 19:49:34","新北市中和區員山路221號","121.481243333333","24.9979616666667","6500300","中和區"
"235055","183-VK","2019/08/30 19:49:35","新北市中和區德光路15巷2號","121.47113","25.0041","6500300","中和區"
"235038","185-VK","2019/08/30 19:49:32","新北市中和區自立路6號","121.522421666667","24.9965133333333","6500300","中和區"
"235049","186-VK","2019/08/30 19:49:36","新北市中和區景平路385巷81號","121.501021666667","24.9942966666667","6500300","中和區"
"235044","293-VK","2019/08/30 19:49:27","新北市中和區板南路187-1號","121.500691666667","24.9927283333333","6500300","中和區"
"235072","301-VK","2019/08/30 19:49:31","新北市板橋區光復街192巷11號","121.486255","25.02023","6500300","中和區"
"235043","352-BY","2019/08/30 19:49:36","新北市中和區興南路二段159巷7號","121.505335","24.9831016666667","6500300","中和區"
"235042","KEA-2878","2019/08/30 19:49:40","新北市中和區宜安路35號","121.51235","24.9964216666667","6500300","中和區"
"247014","KEA-2869","2019/08/30 19:49:27","新北市蘆洲區復興路11號","121.472125","25.0853383333333","6501400","蘆洲區"
"235050","4979-A6","2019/08/30 19:49:34","新北市中和區景平路241巷84弄54號","121.50611","24.9924016666667","6500300","中和區"
"235070","558-UM","2019/08/30 19:49:37","新北市中和區景平路481號","121.500193333333","24.99744","6500300","中和區"
"235047","732-UM","2019/08/30 19:49:28","新北市中和區興南路一段71號","121.510208333333","24.9892383333333","6500300","中和區"
"235046","733-UM","2019/08/30 19:49:44","新北市中和區捷運路6號","121.510258333333","24.9896433333333","6500300","中和區"
"235071","783-BX","2019/08/30 19:49:34","新北市中和區中板路5巷7號","121.484991666667","25.0110916666667","6500300","中和區"
"235052","805-TS","2019/08/30 19:49:31","新北市中和區華新街136號","121.50801","24.9825066666667","6500300","中和區"
"235048","896-TW","2019/08/30 19:49:26","新北市中和區興南路一段50號","121.511013333333","24.9905966666667","6500300","中和區"
"235053","900-TW","2019/08/30 19:49:28","新北市中和區民德路216號","121.468178333333","24.9980133333333","6500300","中和區"
"235051","157-BY","2019/08/30 19:49:40","新北市中和區中興街204號","121.499948333333","24.9903283333333","6500300","中和區"
"235037","AAC-213","2019/08/30 19:49:29","新北市中和區自立路135號","121.52201","24.99394","6500300","中和區"
"235059","AAC-215","2019/08/30 19:49:42","新北市中和區圓通路305巷29弄2號","121.495101666667","24.989095","6500300","中和區"
"220065","072-UY","2019/08/30 19:49:25","新北市中和區民生街28巷13號","121.469628333333","25.0059116666667","6500100","板橋區"
"220086","073-UY","2019/08/30 19:49:42","新北市板橋區中正路170號","121.456415","25.0171033333333","6500100","板橋區"
"220106","075-UY","2019/08/30 19:49:34","新北市板橋區民治街57巷2號","121.479446666667","25.0333383333333","6500100","板橋區"
"220069","AAD-861","2019/08/30 19:49:45","新北市板橋區大明街54號","121.457716666667","25.0029033333333","6500100","板橋區"
"220068","120-SR","2019/08/30 19:49:27","新北市板橋區光復街146號","121.484556666667","25.0193633333333","6500100","板橋區"
"247004","893-R6","2019/08/30 19:49:34","新北市蘆洲區永安南路二段350號","121.45633","25.0828466666667","6501400","蘆洲區"
"247002","336-TH","2019/08/30 19:49:40","新北市蘆洲區永樂街38巷57弄2號","121.458516666667","25.09025","6501400","蘆洲區"
"247016","053-VK","2019/08/30 19:49:41","新北市蘆洲區中正路245號","121.46773","25.0869516666667","6501400","蘆洲區"
"226004","312-R5","2019/08/30 19:49:34","新北市平溪區十分里十分街311號","121.775248333333","25.0436733333333","6502400","平溪區"
"235041","251-BX","2019/08/30 19:49:34","新北市中和區中安街166號","121.510893333333","25.0000716666667","6500300","中和區"
"228003","097-TW","2019/08/30 19:49:36","新北市貢寮區真理里美艷山街3-1號","121.925681666667","25.0595833333333","6502600","貢寮區"
"228001","212-TW","2019/08/30 19:49:26","新北市貢寮區真理里新港街101號","121.926923333333","25.0565983333333","6502600","貢寮區"
"224010","AGQ-8101","2019/08/30 19:49:41","新北市瑞芳區輕便路188號","121.845511666667","25.1103966666667","6501200","瑞芳區"
"224002","639-TC","2019/08/30 19:49:42","新北市瑞芳區民享新村6號","121.817185","25.10534","6501200","瑞芳區"
"227002","642-TC","2019/08/30 19:49:30","新北市雙溪區雙溪里內挖路36號","121.863191666667","25.0367566666667","6502500","雙溪區"
"227001","400-TW","2019/08/30 19:49:38","新北市雙溪區新基里中華路55號","121.865775","25.0378766666667","6502500","雙溪區"
"222001","KEA-2212","2019/08/30 19:49:42","新北市深坑區北深路三段83號","121.606585","25.0015283333333","6501800","深坑區"
"208002","KEA-2872","2019/08/30 19:49:27","新北市金山區中正路145號","121.631976666667","25.2214483333333","6502700","金山區"
"208003","665-BX","2019/08/30 19:49:34","新北市金山區海興路188號","121.633218333333","25.24049","6502700","金山區"
"251004","009-UM","2019/08/30 19:49:38","新北市淡水區民權路185巷22號","121.460441666667","25.13375","6501000","淡水區"
"251001","011-UM","2019/08/30 19:49:23","新北市淡水區淡金路65號","121.456265","25.16139","6501000","淡水區"
"251002","012-UM","2019/08/30 19:49:23","新北市淡水區下圭柔山91-3號","121.431063333333","25.2101533333333","6501000","淡水區"
"251008","181-VK","2019/08/30 19:49:28","新北市淡水區中正路一段24巷2-4號","121.426805","25.1770183333333","6501000","淡水區"
"251012","441-VK","2019/08/30 19:49:24","新北市淡水區埤島28號","121.44766","25.1984233333333","6501000","淡水區"
"251007","442-VK","2019/08/30 19:49:28","新北市淡水區竿蓁一街102巷1號","121.453681666667","25.1662033333333","6501000","淡水區"
"251005","443-VK","2019/08/30 19:49:27","新北市淡水區中正東路6號","121.447078333333","25.167205","6501000","淡水區"
"251006","561-UM","2019/08/30 19:49:42","新北市淡水區水碓街15號","121.443496666667","25.1769683333333","6501000","淡水區"
"251009","575-R6","2019/08/30 19:49:41","新北市淡水區中正路36號","121.443763333333","25.1692483333333","6501000","淡水區"
"251011","650-BX","2019/08/30 19:49:43","新北市淡水區紅樹林路177號","121.460563333333","25.1572833333333","6501000","淡水區"
"207003","550-UM","2019/08/30 19:49:29","新北市萬里區大鵬里下社10-1號","121.647698333333","25.2172","6502800","萬里區"
"207004","291-VK","2019/08/30 19:49:38","新北市萬里區萬里里瑪鋉路122號","121.690626666667","25.1790616666667","6502800","萬里區"
"252002","178-VK","2019/08/30 19:49:36","新北市三芝區三民街33號","121.504705","25.258535","6502100","三芝區"
"208001","170-UY","2019/08/30 19:49:35","新北市金山區重和里茅埔頭12號","121.60295","25.2149316666667","6502700","金山區"
"237004","KEA-2597","2019/08/30 19:49:45","新北市三峽區添福261號","121.375473333333","24.8937666666667","6500900","三峽區"
"237007","153-BY","2019/08/30 19:49:29","新北市三峽區二鬮路19號","121.362605","24.911045","6500900","三峽區"
"237009","210-TH","2019/08/30 19:49:27","新北市三峽區清水街435號","121.368508333333","24.9255116666667","6500900","三峽區"
"237013","252-BX","2019/08/30 19:49:31","新北市三峽區介壽路二段112號","121.393261666667","24.9357","6500900","三峽區"
"237012","275-BY","2019/08/30 19:49:33","新北市三峽區中華路26號","121.373921666667","24.9323983333333","6500900","三峽區"
"237008","302-VK","2019/08/30 19:49:33","新北市三峽區中華路43巷1號","121.372858333333","24.930925","6500900","三峽區"
"237014","433-BY","2019/08/30 19:49:29","新北市三峽區添福14-8號","121.373863333333","24.9018283333333","6500900","三峽區"
"237006","5529-G3","2019/08/30 19:49:27","新北市三峽區中正路一段336巷15弄2號","121.369945","24.924915","6500900","三峽區"
"237015","649-BX","2019/08/30 19:49:41","新北市三峽區橫溪路99巷42號","121.400103333333","24.9368633333333","6500900","三峽區"
"237005","AKY-6261","2019/08/30 19:49:29","新北市三峽區民生街1巷3-2號","121.377623333333","24.9365283333333","6500900","三峽區"
"236079","166-UM","2019/08/30 19:49:38","新北市土城區中山路3號","121.412216666667","24.961705","6501300","土城區"
"236030","253-BX","2019/08/30 19:49:25","新北市土城區中央路一段290號","121.443326666667","24.9824716666667","6501300","土城區"
"236026","269-VK","2019/08/30 19:49:39","新北市土城區中央路二段61巷40號","121.443806666667","24.978455","6501300","土城區"
"236069","KEA-2877","2019/08/30 19:49:38","新北市土城區水源街33號","121.440855","24.97556","6501300","土城區"
"252001","KED-0821","2019/08/30 19:49:38","新北市三芝區公正街66號","121.499823333333","25.2574566666667","6502100","三芝區"
"236020","401-BY","2019/08/30 19:49:36","新北市土城區峰廷街39號","121.469688333333","24.9862666666667","6501300","土城區"
"236042","752-BX","2019/08/30 19:49:39","新北市土城區金城路二段231號","121.455593333333","24.9824133333333","6501300","土城區"
"236059","912-UM","2019/08/30 19:49:45","新北市土城區中央路一段102號","121.446745","24.9883316666667","6501300","土城區"
"236048","913-UM","2019/08/30 19:49:31","新北市土城區青雲路165號","121.459183333333","24.9831766666667","6501300","土城區"
"236063","915-UM","2019/08/30 19:49:34","新北市土城區延和路62巷6弄1號","121.466066666667","24.988575","6501300","土城區"
"236055","970-R7","2019/08/30 19:49:26","新北市土城區金城路三段197號","121.47013","24.9891516666667","6501300","土城區"
"242039","AAC-296","2019/08/30 19:49:41","新北市新莊區民安路299巷37號","121.429345","25.0232316666667","6500500","新莊區"
"242060","986-R7","2019/08/30 19:49:23","新北市新莊區瓊林路118號","121.442251666667","25.0255516666667","6500500","新莊區"
"242002","751-BX","2019/08/30 19:49:35","新北市新莊區環漢路二段6號","121.45023","25.0318466666667","6500500","新莊區"
"242034","442-UM","2019/08/30 19:49:45","新北市新莊區仁愛街54巷1號","121.44495","25.037275","6500500","新莊區"
"242005","440-UM","2019/08/30 19:49:36","新北市新莊區化成路63巷24弄13號","121.462726666667","25.0460516666667","6500500","新莊區"
"242048","400-BY","2019/08/30 19:49:34","新北市新莊區後港一路28巷14號","121.42562","25.02504","6500500","新莊區"
"242025","362-BY","2019/08/30 19:49:36","新北市新莊區五權一路12巷21弄4號","121.457885","25.0643916666667","6500500","新莊區"
"242023","353-BY","2019/08/30 19:49:38","新北市新莊區化成路188號","121.465595","25.0459833333333","6500500","新莊區"
"242013","132-UY","2019/08/30 19:49:24","新北市新莊區中泰街64號","121.450166666667","25.046835","6500500","新莊區"
"242037","135-UY","2019/08/30 19:49:39","新北市新莊區建安街71巷17號","121.428118333333","25.0245166666667","6500500","新莊區"
"242015","173-VK","2019/08/30 19:49:29","新北市新莊區三和路12-10號","121.442298333333","25.0367616666667","6500500","新莊區"
"242032","348-TH","2019/08/30 19:49:43","新北市新莊區仁愛街73號","121.444123333333","25.037825","6500500","新莊區"
"242007","349-TH","2019/08/30 19:49:43","新北市新莊區中央路112號","121.456998333333","25.059495","6500500","新莊區"
"238023","601-UM","2019/08/30 19:49:44","新北市樹林區中正路105號","121.42493","25.0011683333333","6500700","樹林區"
"238019","599-UM","2019/08/30 19:49:27","新北市樹林區中華路188-4號","121.41235","24.9805083333333","6500700","樹林區"
"238024","5061-A6","2019/08/30 19:49:43","新北市樹林區佳園路一段72巷6-1號","121.392086666667","24.9696683333333","6500700","樹林區"
"238022","KEA-2213","2019/08/30 19:49:25","新北市樹林區名園街45號","121.419833333333","24.9786633333333","6500700","樹林區"
"238021","KEA-2539","2019/08/30 19:49:41","新北市樹林區田尾街192巷3號","121.400435","24.949035","6500700","樹林區"
"238025","303-VK","2019/08/30 19:49:40","新北市樹林區中山路一段412號","121.417456666667","24.9850483333333","6500700","樹林區"
"238017","283-BY","2019/08/30 19:49:44","新北市樹林區保安街二段167巷26號","121.41418","25.0027666666667","6500700","樹林區"
"238014","282-BY","2019/08/30 19:49:28","新北市樹林區千歲街70巷3弄2號","121.426855","24.997165","6500700","樹林區"
"239006","891-R6","2019/08/30 19:49:28","新北市鶯歌區國慶街186號","121.351321666667","24.9524183333333","6500800","鶯歌區"
"239002","359-BY","2019/08/30 19:49:29","新北市鶯歌區大湖路305號","121.344023333333","24.9734783333333","6500800","鶯歌區"
"221008","489-VK","2019/08/30 19:49:37","新北市汐止區康寧街61巷22弄9號","121.619773333333","25.0669183333333","6501100","汐止區"
"221010","269-BY","2019/08/30 19:49:39","新北市汐止區汐萬路一段411號","121.649211666667","25.07947","6501100","汐止區"
"221012","278-VK","2019/08/30 19:49:38","新北市汐止區大同路三段495號","121.67995","25.0710766666667","6501100","汐止區"
"221023","279-VK","2019/08/30 19:49:26","新北市汐止區中興路278號","121.628616666667","25.0691233333333","6501100","汐止區"
"221029","298-VK","2019/08/30 19:49:35","新北市汐止區康寧街901號","121.651683333333","25.0749566666667","6501100","汐止區"
"221021","299-VK","2019/08/30 19:49:39","新北市汐止區水源路一段143號","121.655985","25.0621316666667","6501100","汐止區"
"221025","623-UM","2019/08/30 19:49:41","新北市汐止區秀峰路81巷15弄4-1號","121.660803333333","25.0646633333333","6501100","汐止區"
"221038","646-BX","2019/08/30 19:49:29","新北市汐止區忠孝東路325號","121.664833333333","25.0694533333333","6501100","汐止區"
"221033","647-BX","2019/08/30 19:49:40","新北市汐止區東勢街216巷24弄17號","121.635095","25.038905","6501100","汐止區"
"220079","145-BY","2019/08/30 19:49:42","新北市板橋區建國街118號","121.460925","25.0175316666667","6500100","板橋區"
"220080","200-UY","2019/08/30 19:49:33","新北市板橋區大觀路二段37巷61號","121.449581666667","25.0025866666667","6500100","板橋區"
"220082","610-BX","2019/08/30 19:49:42","新北市板橋區溪崑一街92號","121.429065","24.9894183333333","6500100","板橋區"
"220091","267-BY","2019/08/30 19:49:41","新北市板橋區民治街83號","121.479715","25.03226","6500100","板橋區"
"220056","276-BY","2019/08/30 19:49:30","新北市板橋區四川路二段47巷2弄1號","121.45408","24.9949266666667","6500100","板橋區"
"220072","277-BY","2019/08/30 19:49:46","新北市板橋區金門街151巷38號","121.433423333333","24.9902116666667","6500100","板橋區"
"220101","280-UM","2019/08/30 19:49:44","新北市板橋區莒光路182號","121.474083333333","25.0227666666667","6500100","板橋區"
"220094","283-UM","2019/08/30 19:49:40","新北市板橋區雨農路19號","121.461876666667","25.0245133333333","6500100","板橋區"
"220071","283-VK","2019/08/30 19:49:27","新北市板橋區和平路174巷29號","121.464793333333","24.9944433333333","6500100","板橋區"
"220053","285-VK","2019/08/30 19:49:38","新北市板橋區永豐街73號","121.473728333333","25.0187116666667","6500100","板橋區"
"220083","286-VK","2019/08/30 19:49:28","新北市板橋區龍興街65巷1號","121.443328333333","25.0013516666667","6500100","板橋區"
"220081","287-VK","2019/08/30 19:49:38","新北市板橋區大觀路一段29巷7號","121.450128333333","25.0081483333333","6500100","板橋區"
"220090","288-VK","2019/08/30 19:49:33","新北市板橋區新海路72巷48號","121.462148333333","25.0230016666667","6500100","板橋區"
"220061","293-UM","2019/08/30 19:49:39","新北市板橋區板新路131號","121.470716666667","25.0152833333333","6500100","板橋區"
"220062","295-UM","2019/08/30 19:49:38","新北市板橋區光復街33巷38號","121.482628333333","25.01885","6500100","板橋區"
"220084","296-UM","2019/08/30 19:49:31","新北市板橋區滿平街46號","121.426893333333","24.98971","6500100","板橋區"
"220075","303-R5","2019/08/30 19:49:28","新北市板橋區大勇街18號","121.454393333333","25.017245","6500100","板橋區"
"220092","307-R5","2019/08/30 19:49:40","新北市板橋區新海路94號","121.461595","25.0221716666667","6500100","板橋區"
"220098","317-R6","2019/08/30 19:49:34","新北市板橋區四維路269巷81-2號","121.460096666667","25.0268383333333","6500100","板橋區"
"220089","487-VK","2019/08/30 19:49:42","新北市板橋區四維路174-1號","121.464675","25.0264116666667","6500100","板橋區"
"220088","491-VK","2019/08/30 19:49:31","新北市板橋區懷德街78巷1號","121.478388333333","25.0314916666667","6500100","板橋區"
"220035","560-BX","2019/08/30 19:49:36","新北市板橋區金華街85巷42號","121.459193333333","25.02142","6500100","板橋區"
"220103","561-BX","2019/08/30 19:49:32","新北市板橋區陽明街279巷15號","121.4614","25.0258283333333","6500100","板橋區"
"220063","609-BX","2019/08/30 19:49:45","新北市板橋區三民路一段3巷2號","121.478911666667","25.0234266666667","6500100","板橋區"
"220057","686-BX","2019/08/30 19:49:38","新北市板橋區四川路二段245巷53號","121.45213","24.992365","6500100","板橋區"
"220077","687-BX","2019/08/30 19:49:44","新北市板橋區僑中三街19號","121.4461","25.004595","6500100","板橋區"
"220093","689-BX","2019/08/30 19:49:45","新北市板橋區民治街57巷32-1號","121.481211666667","25.0357066666667","6500100","板橋區"
"220054","741-BX","2019/08/30 19:49:42","新北市板橋區忠孝路202號","121.465838333333","25.0026433333333","6500100","板橋區"
"220102","KEA-2699","2019/08/30 19:49:30","新北市板橋區文化路二段182巷7弄7號","121.47216","25.0272216666667","6500100","板橋區"
"220055","827-TW","2019/08/30 19:49:26","新北市板橋區和平路31號","121.459983333333","24.9957483333333","6500100","板橋區"
"220067","831-TW","2019/08/30 19:49:39","新北市板橋區長安街138巷1弄292號","121.47493","25.0111783333333","6500100","板橋區"
"220074","895-R6","2019/08/30 19:49:41","新北市板橋區府中路75號","121.457618333333","25.0094283333333","6500100","板橋區"
"220073","985-R7","2019/08/30 19:49:27","新北市板橋區國光路51號","121.458046666667","25.0178133333333","6500100","板橋區"
"220097","AAC-210","2019/08/30 19:49:31","新北市板橋區光正街20巷3號","121.462551666667","25.0176916666667","6500100","板橋區"
"220064","AAC-253","2019/08/30 19:49:40","新北市板橋區民族路111號","121.466871666667","25.0080716666667","6500100","板橋區"
"235068","KEA-2873","2019/08/30 19:49:22","新北市中和區景平路736巷3弄11號","121.497591666667","25.00389","6500300","中和區"
