"lineid","car","time","location","longitude","latitude","cityid","cityname"
"234081","298-R6","2019/08/30 20:29:25","新北市永和區永貞路8號","121.52091","25.007325","6500400","永和區"
"234038","336-UY","2019/08/30 20:29:43","新北市永和區民樂街31巷8弄12號","121.528965","25.0012033333333","6500400","永和區"
"234064","337-UY","2019/08/30 20:29:27","新北市永和區中正路532號","121.517193333333","25.0051716666667","6500400","永和區"
"234086","338-UY","2019/08/30 20:29:41","新北市永和區光復街13號","121.516486666667","25.0173416666667","6500400","永和區"
"234070","552-UM","2019/08/30 20:29:27","新北市永和區永亨路7號","121.519386666667","25.0057216666667","6500400","永和區"
"234030","746-BX","2019/08/30 20:29:31","新北市中和區景平路71-3號","121.519331666667","24.9914466666667","6500400","永和區"
"234054","KEA-2590","2019/08/30 20:29:42","新北市永和區環河東路一段80號","121.519573333333","25.016485","6500400","永和區"
"234061","AAD-866","2019/08/30 20:29:41","新北市永和區得和路45巷16弄3號","121.51596","25.0007933333333","6500400","永和區"
"234042","862-TW","2019/08/30 20:29:40","新北市永和區安樂路431號","121.51432","25.0044266666667","6500400","永和區"
"234050","863-TW","2019/08/30 20:29:37","新北市永和區新生路64號","121.50765","25.0152366666667","6500400","永和區"
"249001","173-UM","2019/08/30 20:29:37","新北市八里區中山路三段106號","121.391235","25.1423583333333","6502300","八里區"
"249004","303-UY","2019/08/30 20:29:25","新北市八里區中山路一段129巷27號","121.414041666667","25.158615","6502300","八里區"
"249002","305-UY","2019/08/30 20:29:35","新北市八里區龍米路二段125巷23號","121.445865","25.1455816666667","6502300","八里區"
"249003","593-UM","2019/08/30 20:29:44","新北市八里區舊城路21號","121.399823333333","25.147025","6502300","八里區"
"248002","678-BX","2019/08/30 20:29:44","新北市五股區成泰路三段52號","121.442675","25.0891416666667","6501500","五股區"
"234023","9380-KE","2019/08/30 20:29:31","新北市永和區博愛街32巷12號","121.518691666667","25.0152866666667","6500400","永和區"
"234074","AAC-211","2019/08/30 20:29:24","新北市永和區豫溪街191巷7弄13號","121.523448333333","25.0107666666667","6500400","永和區"
"234067","AAC-212","2019/08/30 20:29:41","新北市永和區保平路290號","121.508075","25.0044716666667","6500400","永和區"
"234003","AAC-295","2019/08/30 20:29:30","新北市永和區中正路614-1號","121.516961666667","25.0075733333333","6500400","永和區"
"243012","AAD-798","2019/08/30 20:29:27","新北市泰山區楓江路22號","121.434055","25.0623766666667","6501600","泰山區"
"243014","KEA-2801","2019/08/30 20:29:25","新北市泰山區泰林路二段455號","121.425801666667","25.0640766666667","6501600","泰山區"
"243016","421-VK","2019/08/30 20:29:37","新北市泰山區明志路二段202-1號","121.427473333333","25.0493133333333","6501600","泰山區"
"243009","KEA-2215","2019/08/30 20:29:44","新北市泰山區忠孝街16巷11號","121.428033333333","25.0650533333333","6501600","泰山區"
"243011","KEA-2216","2019/08/30 20:29:36","新北市泰山區中山路二段841號","121.425628333333","25.0353216666667","6501600","泰山區"
"243013","646-TV","2019/08/30 20:29:34","新北市泰山區中央路14巷4號","121.426495","25.0437516666667","6501600","泰山區"
"243015","680-BX","2019/08/30 20:29:31","新北市泰山區福興街30號","121.434441666667","25.0573583333333","6501600","泰山區"
"222003","436-BY","2019/08/30 20:29:33","新北市深坑區深坑街42號","121.614918333333","25.0017","6501800","深坑區"
"222002","659-BX","2019/08/30 20:29:31","新北市深坑區萬福路69號","121.601755","25.0082466666667","6501800","深坑區"
"231061","002-UM","2019/08/30 20:29:28","新北市新店區安興路32號","121.515738333333","24.9703666666667","6500600","新店區"
"231058","0293-UT","2019/08/30 20:29:33","新北市新店區安興路112號","121.515205","24.977435","6500600","新店區"
"231044","046-UY","2019/08/30 20:29:34","新北市新店區建國路215號","121.53759","24.9805416666667","6500600","新店區"
"231060","106-UY","2019/08/30 20:29:26","新北市新店區錦秀路11巷38號","121.480811666667","24.943795","6500600","新店區"
"231051","107-UY","2019/08/30 20:29:35","新北市新店區中央路200號","121.530558333333","24.9742533333333","6500600","新店區"
"231049","108-UY","2019/08/30 20:29:32","新北市新店區安康路一段24巷2號","121.532708333333","24.9603916666667","6500600","新店區"
"231065","110-UY","2019/08/30 20:29:32","新北市新店區安祥路102巷46弄11號","121.485143333333","24.9640583333333","6500600","新店區"
"231068","187-VK","2019/08/30 20:29:31","新北市新店區中興路三段223號","121.543086666667","24.9830633333333","6500600","新店區"
"221031","KEA-2785","2019/08/30 20:29:43","新北市汐止區中興路150巷13號","121.63302","25.06504","6501100","汐止區"
"231062","256-BX","2019/08/30 20:29:40","新北市新店區安泰路60巷50號","121.48354","24.9465066666667","6500600","新店區"
"231054","260-TV","2019/08/30 20:29:40","新北市新店區檳榔路109號","121.54455","24.9615666666667","6500600","新店區"
"231042","268-BY","2019/08/30 20:29:37","新北市新店區寶橋路215號","121.548816666667","24.9772266666667","6500600","新店區"
"231064","278-BY","2019/08/30 20:29:30","新北市新店區新和街59巷17號","121.51925","24.98599","6500600","新店區"
"231050","AAD-862","2019/08/30 20:29:36","新北市新店區建興街9巷11號","121.539935","24.9762666666667","6500600","新店區"
"231045","355-BY","2019/08/30 20:29:42","新北市新店區新坡一街65號","121.549956666667","24.96366","6500600","新店區"
"231055","4716-K9","2019/08/30 20:29:40","新北市新店區安康路一段191號","121.526475","24.96285","6500600","新店區"
"231056","4715-K9","2019/08/30 20:29:45","新北市新店區中央路81號","121.532196666667","24.9765833333333","6500600","新店區"
"231067","4772-VM","2019/08/30 20:29:41","新北市新店區安華路28-1號","121.519781666667","24.9609033333333","6500600","新店區"
"231053","515-UM","2019/08/30 20:29:27","新北市新店區松林路38號","121.546243333333","24.9102683333333","6500600","新店區"
"231063","616-UM","2019/08/30 20:29:26","新北市新店區安康路三段31巷2弄24號","121.492751666667","24.9520416666667","6500600","新店區"
"231040","617-UM","2019/08/30 20:29:28","新北市新店區三民路86號","121.534325","24.9726816666667","6500600","新店區"
"231041","619-UM","2019/08/30 20:29:41","新北市新店區民權路149號","121.534621666667","24.9827316666667","6500600","新店區"
"231048","KED-0819","2019/08/30 20:29:38","新北市新店區中興路三段328號","121.54208","24.9863666666667","6500600","新店區"
"231057","720-UM","2019/08/30 20:29:45","新北市新店區花園六路二段9號","121.55581","24.933205","6500600","新店區"
"231059","897-TW","2019/08/30 20:29:41","新北市新店區安德街160號","121.508388333333","24.9592233333333","6500600","新店區"
"231043","899-TW","2019/08/30 20:29:41","新北市新店區明德路67巷17號","121.54052","24.9770633333333","6500600","新店區"
"231066","AKT-0513","2019/08/30 20:29:42","新北市新店區安德街60巷25號","121.510646666667","24.9634033333333","6500600","新店區"
"241011","013-R5","2019/08/30 20:29:27","新北市三重區龍門路20號","121.495331666667","25.0718883333333","6500200","三重區"
"241028","022-UY","2019/08/30 20:29:28","新北市三重區光興街89號","121.497448333333","25.05998","6500200","三重區"
"241008","059-VK","2019/08/30 20:29:36","新北市三重區下竹圍街91號","121.481095","25.07489","6500200","三重區"
"241029","060-VK","2019/08/30 20:29:35","新北市三重區集美街112巷37號","121.490508333333","25.0543683333333","6500200","三重區"
"241031","061-VK","2019/08/30 20:29:34","新北市三重區三寧街22號","121.489486666667","25.05993","6500200","三重區"
"241015","062-VK","2019/08/30 20:29:42","新北市三重區文化北路61號","121.498708333333","25.0661433333333","6500200","三重區"
"241017","063-VK","2019/08/30 20:29:39","新北市三重區自強路一段288號","121.49164","25.06825","6500200","三重區"
"241024","065-VK","2019/08/30 20:29:27","新北市三重區三民街258號","121.479383333333","25.0678016666667","6500200","三重區"
"241002","090-VK","2019/08/30 20:29:33","新北市三重區仁義街211巷43號","121.497946666667","25.0824566666667","6500200","三重區"
"241003","091-VK","2019/08/30 20:29:28","新北市三重區富華街186號","121.492938333333","25.0848933333333","6500200","三重區"
"241004","742-BX","2019/08/30 20:29:29","新北市三重區溪尾街232號","121.48767","25.0816966666667","6500200","三重區"
"241006","262-UM","2019/08/30 20:29:37","新北市三重區車路頭街139巷14號","121.484268333333","25.0761983333333","6500200","三重區"
"241016","266-UM","2019/08/30 20:29:27","新北市三重區正義北路196號","121.496416666667","25.0670916666667","6500200","三重區"
"241009","267-UM","2019/08/30 20:29:42","新北市三重區永安北路二段1號","121.481203333333","25.0802133333333","6500200","三重區"
"241018","268-UM","2019/08/30 20:29:32","新北市三重區正義北路220-1號","121.496081666667","25.0676783333333","6500200","三重區"
"241032","269-UM","2019/08/30 20:29:35","新北市三重區重陽路一段120巷35號","121.485111666667","25.0601716666667","6500200","三重區"
"241013","270-UM","2019/08/30 20:29:37","新北市三重區溪尾街12號","121.491535","25.0747533333333","6500200","三重區"
"241025","271-UM","2019/08/30 20:29:31","新北市三重區頂崁街210巷23弄1號","121.47586","25.0681883333333","6500200","三重區"
"241007","398-BY","2019/08/30 20:29:29","新北市三重區福隆路2號","121.489368333333","25.077415","6500200","三重區"
"241035","KEA-2210","2019/08/30 20:29:36","新北市三重區正義北路15-4號","121.497658333333","25.06302","6500200","三重區"
"241030","KED-0822","2019/08/30 20:29:38","新北市三重區成功路62號","121.48856","25.05096","6500200","三重區"
"241020","478-VK","2019/08/30 20:29:26","新北市三重區重陽路四段162號","121.493351666667","25.0722666666667","6500200","三重區"
"241026","480-VK","2019/08/30 20:29:41","新北市三重區福德南路8巷18號","121.503575","25.0637083333333","6500200","三重區"
"241014","543-UM","2019/08/30 20:29:33","新北市三重區長壽街120巷23號","121.50234","25.0693","6500200","三重區"
"241001","547-UM","2019/08/30 20:29:27","新北市三重區三和路四段160巷83號","121.485525","25.0749483333333","6500200","三重區"
"241019","KEA-2593","2019/08/30 20:29:25","新北市三重區重陽路四段124號","121.492466666667","25.071045","6500200","三重區"
"241005","AAD-863","2019/08/30 20:29:35","新北市三重區五華街141巷43號","121.492813333333","25.0860316666667","6500200","三重區"
"241023","743-BX","2019/08/30 20:29:45","新北市三重區自由街17巷16號","121.479918333333","25.06677","6500200","三重區"
"241022","KED-0820","2019/08/30 20:29:36","新北市三重區中正北路20巷12號","121.488048333333","25.0624933333333","6500200","三重區"
"241012","941-UM","2019/08/30 20:29:38","新北市三重區龍濱路269號","121.501406666667","25.0730866666667","6500200","三重區"
"241033","AAC-255","2019/08/30 20:29:41","新北市三重區五谷王北街80巷1號","121.475926666667","25.0532716666667","6500200","三重區"
"235055","183-VK","2019/08/30 20:29:25","新北市八里區中山路三段378號","121.368581666667","25.1363616666667","6500300","中和區"
"247014","KEA-2869","2019/08/30 20:29:36","新北市蘆洲區中山二路64號","121.473571666667","25.08213","6501400","蘆洲區"
"247008","KED-0682","2019/08/30 20:29:41","新北市蘆洲區永安北路二段76巷22號","121.482738333333","25.0852266666667","6501400","蘆洲區"
"235050","4979-A6","2019/08/30 20:29:34","新北市中和區景新街160巷2號","121.505595","24.9972016666667","6500300","中和區"
"235069","4980-A6","2019/08/30 20:29:32","新北市中和區中正路450號","121.490828333333","24.9942533333333","6500300","中和區"
"235073","800-TS","2019/08/30 20:01:00","新北市中和區員山路36巷16-3號","121.484968333333","24.9914666666667","6500300","中和區"
"235059","AAC-215","2019/08/30 20:29:42","新北市中和區員山路36巷1號","121.482418333333","24.9903916666667","6500300","中和區"
"247004","893-R6","2019/08/30 20:29:28","新北市蘆洲區長安街297號","121.458081666667","25.08488","6501400","蘆洲區"
"247018","546-UM","2019/08/30 20:29:31","新北市蘆洲區民族路317號","121.474431666667","25.0913933333333","6501400","蘆洲區"
"247012","337-TH","2019/08/30 20:29:41","新北市蘆洲區復興路201號","121.479525","25.0895716666667","6501400","蘆洲區"
"247002","336-TH","2019/08/30 20:29:40","新北市蘆洲區長安街361巷22號","121.456206666667","25.0876083333333","6501400","蘆洲區"
"247022","057-VK","2019/08/30 20:29:30","新北市蘆洲區中正路227號","121.468046666667","25.0865016666667","6501400","蘆洲區"
"247016","053-VK","2019/08/30 20:29:41","新北市蘆洲區光華路8號","121.469815","25.0835083333333","6501400","蘆洲區"
"247006","002-UY","2019/08/30 20:29:41","新北市蘆洲區光華路175巷27號","121.465345","25.0812266666667","6501400","蘆洲區"
"247024","001-UY","2019/08/30 20:29:38","新北市蘆洲區光復路78號","121.464433333333","25.0854333333333","6501400","蘆洲區"
"228003","097-TW","2019/08/30 20:29:36","新北市貢寮區貢寮里朝陽街1-2號","121.912411666667","25.02123","6502600","貢寮區"
"222001","KEA-2212","2019/08/30 20:29:42","新北市深坑區北深路三段327號","121.597425","25.00511","6501800","深坑區"
"251001","011-UM","2019/08/30 20:29:43","新北市淡水區新市一路三段117號","121.446851666667","25.183055","6501000","淡水區"
"251002","012-UM","2019/08/30 20:29:43","新北市淡水區公明街5號","121.442723333333","25.1694116666667","6501000","淡水區"
"251008","181-VK","2019/08/30 20:29:35","新北市淡水區淡海路180巷12-3號","121.420425","25.1844983333333","6501000","淡水區"
"251010","413-VK","2019/08/30 20:29:34","新北市淡水區沙崙路181巷15號","121.423976666667","25.184325","6501000","淡水區"
"251012","441-VK","2019/08/30 20:29:24","新北市淡水區頂田寮路37號","121.455411666667","25.2163233333333","6501000","淡水區"
"251006","561-UM","2019/08/30 20:29:42","新北市淡水區商工路356號","121.46844","25.1854283333333","6501000","淡水區"
"251003","766-UM","2019/08/30 20:29:31","新北市淡水區新民街21號","121.439308333333","25.1755283333333","6501000","淡水區"
"252002","178-VK","2019/08/30 20:29:36","新北市三芝區淡金路二段47-2號","121.503698333333","25.2605383333333","6502100","三芝區"
"236014","270-VK","2019/08/30 20:29:26","新北市板橋區四川路二段140巷4號","121.449756666667","24.9933483333333","6501300","土城區"
"247010","KED-0683","2019/08/30 20:29:29","新北市蘆洲區信義路224號","121.478958333333","25.085235","6501400","蘆洲區"
"252001","KED-0821","2019/08/30 20:29:38","新北市三芝區中山路一段36號","121.50085","25.2575016666667","6502100","三芝區"
"242039","AAC-296","2019/08/30 20:29:41","新北市新莊區民安路306號","121.428356666667","25.0218916666667","6500500","新莊區"
"242060","986-R7","2019/08/30 20:29:32","新北市新莊區新樹路244巷52號","121.43126","25.019385","6500500","新莊區"
"242002","751-BX","2019/08/30 20:29:38","新北市新莊區中正路48-1號","121.463971666667","25.04113","6500500","新莊區"
"242029","615-BX","2019/08/30 20:29:37","新北市新莊區昌平街19號","121.454368333333","25.05146","6500500","新莊區"
"242027","613-BX","2019/08/30 20:29:35","新北市新莊區幸福路92號","121.45616","25.049435","6500500","新莊區"
"242058","612-BX","2019/08/30 20:29:37","新北市新莊區四維路149號","121.422658333333","25.0221016666667","6500500","新莊區"
"242046","566-BX","2019/08/30 20:29:41","新北市新莊區裕民街72巷6號","121.418211666667","25.024275","6500500","新莊區"
"242050","497-BY","2019/08/30 20:29:31","新北市新莊區民安西路189巷27號","121.427063333333","25.0153616666667","6500500","新莊區"
"242034","442-UM","2019/08/30 20:29:31","新北市新莊區新泰路127號","121.448258333333","25.0361733333333","6500500","新莊區"
"242056","441-UM","2019/08/30 20:29:33","新北市新莊區新莊路751巷87號","121.442808333333","25.0307433333333","6500500","新莊區"
"242005","440-UM","2019/08/30 20:29:36","新北市新莊區頭前路30號","121.467641666667","25.052505","6500500","新莊區"
"242041","415-TV","2019/08/30 20:29:12","新北市新莊區中正路694巷46號","121.417926666667","25.0290916666667","6500500","新莊區"
"242011","413-TV","2019/08/30 20:29:40","新北市新莊區中義街15號","121.45097","25.0511616666667","6500500","新莊區"
"242048","400-BY","2019/08/30 20:29:38","新北市新莊區龍安路252-2號","121.421243333333","25.0194833333333","6500500","新莊區"
"242025","362-BY","2019/08/30 20:29:36","新北市新莊區化成路585-1號","121.463576666667","25.0664816666667","6500500","新莊區"
"242023","353-BY","2019/08/30 20:29:37","新北市新莊區化成路547號","121.465053333333","25.0648266666667","6500500","新莊區"
"242013","132-UY","2019/08/30 20:29:43","新北市新莊區中平路270巷7弄18號","121.445761666667","25.0508883333333","6500500","新莊區"
"242037","135-UY","2019/08/30 20:29:39","新北市新莊區後港一路94巷3弄4號","121.428103333333","25.0262816666667","6500500","新莊區"
"242054","172-VK","2019/08/30 20:29:46","新北市新莊區西盛街344巷22弄2號","121.427438333333","25.0143316666667","6500500","新莊區"
"242015","173-VK","2019/08/30 20:29:29","新北市新莊區中平路38號","121.444853333333","25.04364","6500500","新莊區"
"242021","175-VK","2019/08/30 20:29:46","新北市新莊區公園路98號","121.450646666667","25.03985","6500500","新莊區"
"242019","346-TH","2019/08/30 20:29:37","新北市新莊區銘德街49巷13號","121.457358333333","25.0429066666667","6500500","新莊區"
"242032","348-TH","2019/08/30 20:29:43","新北市新莊區義豐街35-1號","121.441186666667","25.0353","6500500","新莊區"
"242007","349-TH","2019/08/30 20:29:43","新北市新莊區思源路383號","121.459623333333","25.05135","6500500","新莊區"
"242017","351-TH","2019/08/30 20:29:30","新北市新莊區中港三街7號","121.451158333333","25.0463616666667","6500500","新莊區"
"221008","489-VK","2019/08/30 20:29:36","新北市汐止區康寧街85號","121.619763333333","25.0664266666667","6501100","汐止區"
"221036","130-UY","2019/08/30 20:29:35","新北市汐止區新台五路二段116巷10號","121.66299","25.065785","6501100","汐止區"
"221015","131-UY","2019/08/30 20:29:28","新北市汐止區建成路160巷18號","121.66197","25.0741166666667","6501100","汐止區"
"221010","269-BY","2019/08/30 20:29:39","新北市汐止區八連路二段228巷1-1號","121.632798333333","25.0973683333333","6501100","汐止區"
"221012","278-VK","2019/08/30 20:29:38","新北市汐止區汐平路二段66號","121.698338333333","25.0610916666667","6501100","汐止區"
"221023","279-VK","2019/08/30 20:29:26","新北市汐止區明峰街125號","121.630638333333","25.071025","6501100","汐止區"
"221032","280-BY","2019/08/30 20:29:30","新北市汐止區弘道街53巷16號","121.618721666667","25.049115","6501100","汐止區"
"221027","281-BY","2019/08/30 20:29:40","新北市汐止區中正路214號","121.65837","25.0689266666667","6501100","汐止區"
"221029","298-VK","2019/08/30 20:29:35","新北市汐止區樟樹一路129巷32號","121.64053","25.065255","6501100","汐止區"
"221021","299-VK","2019/08/30 20:29:39","新北市汐止區水源路一段284號","121.65425","25.0583","6501100","汐止區"
"221035","622-UM","2019/08/30 20:29:31","新北市汐止區長江街97號","121.65815","25.07279","6501100","汐止區"
"221025","623-UM","2019/08/30 20:29:41","新北市汐止區水源路二段90號","121.65647","25.0560633333333","6501100","汐止區"
"221038","646-BX","2019/08/30 20:29:29","新北市汐止區忠孝東路9號","121.657693333333","25.0656116666667","6501100","汐止區"
"221033","647-BX","2019/08/30 20:29:40","新北市汐止區林森街72號","121.623093333333","25.0407583333333","6501100","汐止區"
"221002","707-TV","2019/08/30 20:29:42","新北市汐止區福德二路37-1號","121.634843333333","25.0676016666667","6501100","汐止區"
"221018","753-BX","2019/08/30 20:24:40","新北市汐止區茄苳路225巷4號","121.671101666667","25.0689083333333","6501100","汐止區"
"220083","286-VK","2019/08/30 20:29:28","新北市板橋區僑中二街102巷11號","121.44555","25.0083033333333","6500100","板橋區"
"242044","281-VK","2019/08/30 20:29:41","新北市新莊區中正路新建巷14號","121.41402","25.0224016666667","6500500","新莊區"
"242009","280-VK","2019/08/30 20:29:41","新北市新莊區昌盛街103巷4號","121.456201666667","25.0503316666667","6500500","新莊區"
