"lineid","car","time","location","longitude","latitude","cityid","cityname"
"231051","107-UY","2019/08/30 21:19:35","新北市新店區溪園路39號","121.530316666667","24.98833","6500600","新店區"
"231065","110-UY","2019/08/30 21:19:32","新北市新店區薏仁坑路自強巷1號","121.497053333333","24.957835","6500600","新店區"
"231050","AAD-862","2019/08/30 21:19:36","新北市新店區中正路282-7號","121.538126666667","24.974115","6500600","新店區"
"231063","616-UM","2019/08/30 21:19:26","新北市新店區吉祥街5巷2號","121.497305","24.94757","6500600","新店區"
"231059","897-TW","2019/08/30 21:19:39","新北市新店區僑信路2巷2號","121.499773333333","24.953585","6500600","新店區"
"241011","013-R5","2019/08/30 21:19:47","新北市三重區龍濱路199號","121.501855","25.07149","6500200","三重區"
"241028","022-UY","2019/08/30 21:19:42","新北市三重區中正南路157號","121.493781666667","25.05619","6500200","三重區"
"241008","059-VK","2019/08/30 21:19:36","新北市三重區自強路一段232號","121.493436666667","25.0669633333333","6500200","三重區"
"241029","060-VK","2019/08/30 21:19:35","新北市三重區新北大道一段50號","121.487668333333","25.0614583333333","6500200","三重區"
"241031","061-VK","2019/08/30 21:19:34","新北市三重區重新路五段408巷19號","121.475671666667","25.0456133333333","6500200","三重區"
"241015","062-VK","2019/08/30 21:19:42","新北市三重區長元街75-4號","121.50339","25.0665916666667","6500200","三重區"
"241017","063-VK","2019/08/30 21:19:39","新北市三重區中正北路25巷2號","121.49319","25.0626416666667","6500200","三重區"
"241024","065-VK","2019/08/30 21:19:46","新北市三重區中正北路145巷14號","121.484155","25.0677833333333","6500200","三重區"
"241002","090-VK","2019/08/30 21:19:33","新北市三重區自強路五段51-1號","121.494413333333","25.0817583333333","6500200","三重區"
"241003","091-VK","2019/08/30 21:19:28","新北市三重區仁義街220巷1號","121.495241666667","25.084195","6500200","三重區"
"241004","742-BX","2019/08/30 21:19:28","新北市三重區碧華街363號","121.492278333333","25.085185","6500200","三重區"
"241006","262-UM","2019/08/30 21:19:37","新北市新莊區化成路585-15號","121.462511666667","25.0672383333333","6500200","三重區"
"241016","266-UM","2019/08/30 21:19:43","新北市三重區自強路一段95號","121.495888333333","25.066405","6500200","三重區"
"241009","267-UM","2019/08/30 21:19:42","新北市五股區中興路三段2巷10號","121.447913333333","25.0844766666667","6500200","三重區"
"241018","268-UM","2019/08/30 21:19:32","新北市三重區新北大道一段190號","121.482501666667","25.0620033333333","6500200","三重區"
"241032","269-UM","2019/08/30 21:19:35","新北市三重區光復路二段178-1號","121.47215","25.0619616666667","6500200","三重區"
"241013","270-UM","2019/08/30 21:19:37","新北市三重區仁愛街66號","121.495825","25.07317","6500200","三重區"
"241007","398-BY","2019/08/30 21:19:29","新北市三重區正義北路268號","121.495926666667","25.0687566666667","6500200","三重區"
"241030","KED-0822","2019/08/30 21:19:38","新北市三重區光復路二段152號","121.472155","25.06051","6500200","三重區"
"241026","480-VK","2019/08/30 21:19:41","新北市三重區大同南路155號","121.496495","25.0563016666667","6500200","三重區"
"241014","543-UM","2019/08/30 21:19:33","新北市三重區萬全街16號","121.499275","25.0697483333333","6500200","三重區"
"241005","AAD-863","2019/08/30 21:19:35","新北市三重區仁華街85號","121.485661666667","25.0829983333333","6500200","三重區"
"241023","743-BX","2019/08/30 21:19:26","新北市三重區中正北路176巷27號","121.482621666667","25.0659383333333","6500200","三重區"
"241033","AAC-255","2019/08/30 21:19:41","新北市三重區光復路二段102巷23號","121.470413333333","25.0581766666667","6500200","三重區"
"235055","183-VK","2019/08/30 21:19:25","新北市中和區新生街188號","121.48376","24.999585","6500300","中和區"
"247014","KEA-2869","2019/08/30 21:19:27","新北市蘆洲區中正路185巷60號","121.46679","25.0846583333333","6501400","蘆洲區"
"247008","KED-0682","2019/08/30 21:19:46","新北市蘆洲區中山一路135巷8號","121.47577","25.0811166666667","6501400","蘆洲區"
"235018","640-BX","2019/08/30 20:55:54","新北市中和區員山路36巷16-2號","121.485255","24.9916","6500300","中和區"
"235010","733-UM","2019/08/30 20:58:24","新北市中和區員山路36巷13號","121.48413","24.9908016666667","6500300","中和區"
"247004","893-R6","2019/08/30 21:19:28","新北市五股區成泰路三段318-1號","121.450376666667","25.09664","6501400","蘆洲區"
"247012","337-TH","2019/08/30 21:19:41","新北市蘆洲區中興街105號","121.4821","25.0887783333333","6501400","蘆洲區"
"247002","336-TH","2019/08/30 21:19:40","新北市蘆洲區永樂街57號","121.45677","25.08852","6501400","蘆洲區"
"247006","002-UY","2019/08/30 21:19:39","新北市蘆洲區長安街82號","121.462273333333","25.0803083333333","6501400","蘆洲區"
"247024","001-UY","2019/08/30 21:19:37","新北市蘆洲區光明路96號","121.463053333333","25.0879766666667","6501400","蘆洲區"
"251004","009-UM","2019/08/30 21:19:31","新北市淡水區民族路33號","121.462243333333","25.1358016666667","6501000","淡水區"
"251001","011-UM","2019/08/30 21:19:43","新北市淡水區新市二路四段128號","121.443026666667","25.1924016666667","6501000","淡水區"
"251002","012-UM","2019/08/30 21:19:43","新北市淡水區學府路172巷21號","121.448355","25.17494","6501000","淡水區"
"251008","181-VK","2019/08/30 21:19:28","新北市淡水區水源街二段213號","121.458335","25.1763933333333","6501000","淡水區"
"251010","413-VK","2019/08/30 21:19:34","新北市淡水區中正路一段156巷51號","121.421896666667","25.1809283333333","6501000","淡水區"
"251012","441-VK","2019/08/30 21:19:24","新北市淡水區淡金路五段35巷46號","121.452498333333","25.234755","6501000","淡水區"
"251005","443-VK","2019/08/30 21:19:27","新北市淡水區仁愛街18巷8號","121.44699","25.1703783333333","6501000","淡水區"
"251006","561-UM","2019/08/30 21:19:32","新北市淡水區中正路437號","121.432145","25.1747633333333","6501000","淡水區"
"251009","575-R6","2019/08/30 21:19:34","新北市淡水區民族路39號","121.462835","25.1356316666667","6501000","淡水區"
"251011","650-BX","2019/08/30 21:19:23","新北市淡水區新民街120巷29號","121.438845","25.178875","6501000","淡水區"
"251003","766-UM","2019/08/30 21:19:31","新北市淡水區崁頂15-5號","121.438975","25.18593","6501000","淡水區"
"242025","362-BY","2019/08/30 21:19:36","新北市林口區太平里180號","121.366915","25.13498","6500500","新莊區"
