"lineid","car","time","location","longitude","latitude","cityid","cityname"
"251004","009-UM","2019/08/30 22:19:11","新北市淡水區民族路33號","121.462281666667","25.1358133333333","6501000","淡水區"
"251008","181-VK","2019/08/30 22:19:28","新北市淡水區學府路104號","121.449873333333","25.17177","6501000","淡水區"
"251010","413-VK","2019/08/30 22:19:34","新北市淡水區沙崙路200號","121.424661666667","25.1838866666667","6501000","淡水區"
"251007","442-VK","2019/08/30 22:19:28","新北市淡水區北新路180號","121.449436666667","25.1787066666667","6501000","淡水區"
"251011","650-BX","2019/08/30 22:19:43","新北市淡水區水碓街7號","121.44316","25.1771333333333","6501000","淡水區"
