"lineid","car","time","location","longitude","latitude","cityid","cityname"
"251004","009-UM","2019/08/30 22:29:31","新北市淡水區民族路33號","121.462296666667","25.1358166666667","6501000","淡水區"
"251008","181-VK","2019/08/30 22:29:28","新北市淡水區學府路104號","121.44988","25.1717583333333","6501000","淡水區"
"251010","413-VK","2019/08/30 22:29:34","新北市淡水區沙崙路232號","121.425521666667","25.1845383333333","6501000","淡水區"
"251007","442-VK","2019/08/30 22:29:28","新北市淡水區北新路180號","121.449355","25.1786833333333","6501000","淡水區"
"251011","650-BX","2019/08/30 22:29:43","新北市淡水區水碓街7號","121.443193333333","25.1771616666667","6501000","淡水區"
