"lineid","car","time","location","longitude","latitude","cityid","cityname"
"232009","291-BY","2019/08/31 07:29:41","新北市坪林區北宜路七段328號","121.696866666667","24.9325016666667","6502000","坪林區"
"232010","375-UM","2019/08/31 07:29:38","新北市坪林區水聳淒坑13號","121.718591666667","24.9306833333333","6502000","坪林區"
"232016","705-BZ","2019/08/31 07:29:42","新北市坪林區仁里11-1號","121.691118333333","24.928295","6502000","坪林區"
"244005","248-BX","2019/08/31 07:29:42","新北市林口區頂福69-2號","121.334506666667","25.0860666666667","6501700","林口區"
"222007","289-BY","2019/08/31 07:29:42","新北市深坑區深坑街75號","121.614681666667","25.0012116666667","6501800","深坑區"
"226007","7418-A5","2019/08/31 07:17:38","新北市平溪區望古里灰4號","121.762795","25.0301433333333","6502400","平溪區"
"226003","AGD-0702","2019/08/31 07:28:08","新北市平溪區嶺腳里嶺腳寮83-2號","121.750408333333","25.0350066666667","6502400","平溪區"
"223003","205-TH","2019/08/31 07:22:02","新北市石碇區蓬菜寮11-4號","121.650933333333","24.973535","6501900","石碇區"
"223008","406-TH","2019/08/31 07:29:41","新北市石碇區頭7號","121.707626666667","24.99763","6501900","石碇區"
"223001","592-UM","2019/08/31 07:29:31","新北市石碇區中楒子腳2-15號","121.638656666667","24.9734833333333","6501900","石碇區"
"223004","660-BX","2019/08/31 07:29:29","新北市石碇區八分寮55-5號","121.645478333333","25.01657","6501900","石碇區"
"223007","661-BX","2019/08/31 07:29:35","新北市石碇區大溪墘2-4號","121.698895","25.010365","6501900","石碇區"
"227004","282-VK","2019/08/31 07:29:34","新北市雙溪區新基里自強路5號","121.86633","25.039","6502500","雙溪區"
"252004","249-BX","2019/08/31 07:29:29","新北市三芝區興華里楓子林55-1號","121.500883333333","25.21398","6502100","三芝區"
"252007","AAC-283","2019/08/31 07:29:39","新北市三芝區埔頭里埔頭34-1號","121.496856666667","25.2613916666667","6502100","三芝區"
"226005","ANY-2373","2019/08/31 07:29:42","新北市平溪區靜安路二段280號","121.729083333333","25.0231183333333","6502400","平溪區"
