"lineid","car","time","location","longitude","latitude","cityid","cityname"
"244018","402-UM","2019/06/20 09:29:20","新北市林口區忠孝路616巷21號","121.377246666667","25.06753","6501700","林口區"
"244012","KEA-2802","2019/06/20 09:29:30","新北市林口區麗園一街2巷1號","121.3757","25.07175","6501700","林口區"
"244022","483-VK","2019/06/20 09:29:41","新北市林口區四維路251號","121.381516666667","25.0748133333333","6501700","林口區"
"244016","485-VK","2019/06/20 09:29:37","新北市林口區文化二路一段68巷18-2號","121.366248333333","25.0678216666667","6501700","林口區"
"244008","656-BX","2019/06/20 09:29:41","新北市林口區竹林路276巷1號","121.390091666667","25.08153","6501700","林口區"
"244010","701-TV","2019/06/20 09:29:31","新北市林口區仁愛路一段663號","121.387995","25.0766183333333","6501700","林口區"
"222006","016-RS","2019/06/20 09:29:28","新北市深坑區北深路一段274號","121.629003333333","25.0089033333333","6501800","深坑區"
"231008","512-UM","2019/06/20 09:25:19","新北市新店區平廣路一段360號","121.495713333333","24.8809883333333","6500600","新店區"
"226005","5620-A6","2019/06/20 09:29:07","新北市石碇區光明路32號","121.696568333333","25.020425","6502400","平溪區"
"223003","205-TH","2019/06/20 09:29:21","新北市石碇區北宜路五段6號","121.630328333333","24.956765","6501900","石碇區"
"223008","406-TH","2019/06/20 09:29:07","新北市石碇區光明路33號","121.695306666667","25.0234433333333","6501900","石碇區"
"223001","592-UM","2019/06/20 09:29:34","新北市石碇區北宜路五段32號","121.631306666667","24.9543733333333","6501900","石碇區"
"223004","660-BX","2019/06/20 09:29:34","新北市石碇區碇坪路二段26號","121.688598333333","24.974325","6501900","石碇區"
"223007","661-BX","2019/06/20 09:29:29","新北市石碇區光明路32號","121.695116666667","25.02265","6501900","石碇區"
"252004","249-BX","2019/06/20 09:29:35","新北市三芝區店子里店子112-4號","121.510488333333","25.20964","6502100","三芝區"
"252007","AAC-283","2019/06/20 09:29:39","新北市三芝區陽明路2號","121.518581666667","25.2633966666667","6502100","三芝區"
"237014","760-BX","2019/06/20 09:29:34","新北市三峽區中山路184巷8號","121.364151666667","24.9366966666667","6500900","三峽區"
"242038","AAC-296","2019/06/20 09:29:22","新北市新莊區瓊林北路47號","121.438735","25.0210433333333","6500500","新莊區"
"242059","986-R7","2019/06/20 09:29:33","新北市新莊區瓊林路172-6號","121.441021666667","25.0232566666667","6500500","新莊區"
"242001","751-BX","2019/06/20 09:29:33","新北市新莊區中正路145-17號","121.458328333333","25.0376916666667","6500500","新莊區"
"242057","612-BX","2019/06/20 09:29:23","新北市新莊區四維路193號","121.422065","25.0208116666667","6500500","新莊區"
"242045","566-BX","2019/06/20 09:29:39","新北市新莊區裕民街90巷13號","121.417925","25.0237266666667","6500500","新莊區"
"242055","441-UM","2019/06/20 09:29:26","新北市新莊區新莊路713巷5弄1號","121.443708333333","25.0321216666667","6500500","新莊區"
"242003","440-UM","2019/06/20 09:29:38","新北市新莊區頭前路15巷14號","121.467891666667","25.0516916666667","6500500","新莊區"
"242040","415-TV","2019/06/20 09:29:27","新北市新莊區中正路700-37號","121.417585","25.02777","6500500","新莊區"
"242010","413-TV","2019/06/20 09:29:29","新北市新莊區新泰路500號","121.442055","25.0465366666667","6500500","新莊區"
"242047","400-BY","2019/06/20 09:29:25","新北市新莊區裕民街121巷19號","121.419425","25.0222666666667","6500500","新莊區"
"242022","353-BY","2019/06/20 09:29:28","新北市新莊區化成路180號","121.465543333333","25.0457616666667","6500500","新莊區"
"242012","132-UY","2019/06/20 09:29:20","新北市新莊區中和街175巷13號","121.447021666667","25.0506833333333","6500500","新莊區"
"242035","135-UY","2019/06/20 09:29:29","新北市新莊區後港一路94巷3弄3號","121.428065","25.0263233333333","6500500","新莊區"
"242052","172-VK","2019/06/20 09:29:40","新北市新莊區民安西路216號","121.42592","25.0147466666667","6500500","新莊區"
"242020","346-TH","2019/06/20 09:29:39","新北市新莊區中華路一段73號","121.452245","25.040035","6500500","新莊區"
"242030","347-TH","2019/06/20 09:29:27","新北市新莊區中正路380號","121.443051666667","25.0341166666667","6500500","新莊區"
"242033","348-TH","2019/06/20 09:29:34","新北市新莊區中正路334巷25弄8號","121.445368333333","25.036135","6500500","新莊區"
"233003","KEA-2870","2019/06/20 09:29:23","新北市烏來區卡拉模基40號","121.49811","24.783875","6502900","烏來區"
"242043","281-VK","2019/06/20 09:29:23","新北市新莊區中正路895-13號","121.412878333333","25.021145","6500500","新莊區"
