"lineid","car","time","location","longitude","latitude","cityid","cityname"
"234044","148-BY","2019/06/20 12:39:32","新北市永和區永元路68號","121.522541666667","25.0015866666667","6500400","永和區"
"234036","336-UY","2019/06/20 12:39:30","新北市永和區福和路1號","121.526711666667","25.010145","6500400","永和區"
"234062","337-UY","2019/06/20 12:39:29","新北市永和區福和路1號","121.52656","25.0101783333333","6500400","永和區"
"234084","338-UY","2019/06/20 12:39:32","新北市永和區中正路4號","121.512376666667","24.9935466666667","6500400","永和區"
"234068","552-UM","2019/06/20 12:39:23","新北市永和區福和路1號","121.525416666667","25.00956","6500400","永和區"
"234015","745-BX","2019/06/20 12:39:26","新北市永和區福和路1號","121.526368333333","25.0095783333333","6500400","永和區"
"234028","746-BX","2019/06/20 12:39:34","新北市永和區環河東路三段50號","121.526761666667","25.006315","6500400","永和區"
"234012","KEA-2591","2019/06/20 12:39:28","新北市永和區信義路14號","121.51442","25.0120816666667","6500400","永和區"
"234078","748-BX","2019/06/20 12:39:28","新北市永和區林森路66號","121.52386","25.0039783333333","6500400","永和區"
"234040","862-TW","2019/06/20 12:39:35","新北市永和區中和路573號","121.511703333333","25.003445","6500400","永和區"
"234048","863-TW","2019/06/20 12:39:37","新北市永和區福和路1號","121.525821666667","25.0092633333333","6500400","永和區"
"234025","9371-KE","2019/06/20 12:39:33","新北市永和區福和路1號","121.526365","25.00974","6500400","永和區"
"234010","9373-KE","2019/06/20 12:39:30","新北市永和區福和路1號","121.525608333333","25.0093616666667","6500400","永和區"
"234022","9380-KE","2019/06/20 12:39:24","新北市永和區福和路1號","121.526316666667","25.0096416666667","6500400","永和區"
"234076","969-R7","2019/06/20 12:39:40","新北市永和區民有街1號","121.515755","24.9974883333333","6500400","永和區"
"234066","AAC-212","2019/06/20 12:39:24","新北市中和區永貞路292號","121.512803333333","25.0042283333333","6500400","永和區"
"234001","AAC-295","2019/06/20 12:39:32","新北市永和區福和路1號","121.526593333333","25.0099733333333","6500400","永和區"
"244003","248-BX","2019/06/20 12:39:36","新北市林口區粉寮路二段160巷28號","121.405161666667","25.0907683333333","6501700","林口區"
"231023","260-TV","2019/06/20 12:39:38","新北市新店區安一路一段1-1號","121.519406666667","24.9612916666667","6500600","新店區"
"231010","719-UM","2019/06/20 12:39:33","新北市新店區安一路一段1-1號","121.519453333333","24.9611533333333","6500600","新店區"
"235031","255-BX","2019/06/20 12:39:39","新北市中和區新生街136號","121.48357","25.0010366666667","6500300","中和區"
"235028","911-UM","2019/06/20 12:39:34","新北市中和區員山路36巷16-3號","121.48496","24.9913733333333","6500300","中和區"
"228004","212-TW","2019/06/20 12:39:37","新北市貢寮區吉林里枋腳街6-1號","121.887265","25.0047766666667","6502600","貢寮區"
"228005","828-UM","2019/06/20 12:39:27","新北市貢寮區福連里蓬萊街15號","121.994505","25.00243","6502600","貢寮區"
"207002","749-BX","2019/06/20 12:39:22","新北市萬里區雙興里太和路7-2號","121.658556666667","25.174135","6502800","萬里區"
"207001","662-BX","2019/06/20 12:39:28","新北市萬里區萬里里獅頭路15-1號","121.697795","25.1800566666667","6502800","萬里區"
"221025","297-VK","2019/06/20 12:39:37","新北市汐止區汐萬路一段256巷1號","121.651776666667","25.0749333333333","6501100","汐止區"
