"lineid","car","time","location","longitude","latitude","cityid","cityname"
"234044","148-BY","2019/06/20 13:19:32","新北市永和區得和路373巷6弄1號","121.524866666667","24.999925","6500400","永和區"
"234036","336-UY","2019/06/20 13:19:30","新北市永和區民樂街59巷5號","121.527961666667","24.998295","6500400","永和區"
"234062","337-UY","2019/06/20 13:19:29","新北市永和區永元路17巷6弄2號","121.521428333333","25.0006766666667","6500400","永和區"
"234084","338-UY","2019/06/20 13:19:32","新北市永和區永利路62號","121.519288333333","25.005035","6500400","永和區"
"234068","552-UM","2019/06/20 13:19:23","新北市永和區豫溪街76號","121.517323333333","25.009865","6500400","永和區"
"234015","745-BX","2019/06/20 13:19:39","新北市永和區環河西路一段95巷19弄2號","121.511616666667","25.01712","6500400","永和區"
"234028","746-BX","2019/06/20 13:19:34","新北市永和區厚德街93號","121.523785","24.99879","6500400","永和區"
"234052","KEA-2590","2019/06/20 13:19:31","新北市永和區中興街35號","121.51622","25.0118266666667","6500400","永和區"
"234005","KED-0605","2019/06/20 13:19:36","新北市永和區中山路一段320號","121.506615","25.0068533333333","6500400","永和區"
"234012","KEA-2591","2019/06/20 13:19:28","新北市永和區仁愛路88號","121.512578333333","25.0132683333333","6500400","永和區"
"234060","AAD-866","2019/06/20 13:19:34","新北市永和區中正路381號","121.517163333333","25.0036616666667","6500400","永和區"
"234078","748-BX","2019/06/20 13:19:28","新北市永和區福和路30號","121.523838333333","25.008375","6500400","永和區"
"234040","862-TW","2019/06/20 13:19:35","新北市永和區保平路151巷3號","121.510105","25.0056133333333","6500400","永和區"
"234048","863-TW","2019/06/20 13:19:36","新北市永和區信義路79號","121.512465","25.01343","6500400","永和區"
"234025","9371-KE","2019/06/20 13:19:33","新北市永和區豫溪街28巷15號","121.515181666667","25.0092683333333","6500400","永和區"
"234010","9373-KE","2019/06/20 13:19:30","新北市永和區忠孝街34巷25號","121.514468333333","25.0167533333333","6500400","永和區"
"248013","025-BX","2019/06/20 13:19:28","新北市五股區自強路90巷2號","121.432308333333","25.07243","6501500","五股區"
"248015","026-BX","2019/06/20 13:19:39","新北市五股區成泰路三段477巷9號","121.449926666667","25.0988716666667","6501500","五股區"
"248005","077-UY","2019/06/20 13:19:24","新北市五股區中興路一段132號","121.465368333333","25.0735716666667","6501500","五股區"
"248007","KED-0815","2019/06/20 13:19:26","新北市五股區更洲路32巷8弄14號","121.459246666667","25.079615","6501500","五股區"
"248017","KED-0813","2019/06/20 13:19:39","新北市五股區御史路199-5號","121.432841666667","25.0991366666667","6501500","五股區"
"248012","247-BX","2019/06/20 13:19:25","新北市五股區御史路1巷101弄2號","121.441013333333","25.0911566666667","6501500","五股區"
"248003","677-BX","2019/06/20 13:19:31","新北市五股區工商路79號","121.438253333333","25.0849966666667","6501500","五股區"
"248001","678-BX","2019/06/20 13:19:33","新北市五股區西雲路46號","121.443466666667","25.0909866666667","6501500","五股區"
"248009","682-TV","2019/06/20 13:19:33","新北市五股區成泰路一段189巷14-1號","121.433921666667","25.0769383333333","6501500","五股區"
"234022","9380-KE","2019/06/20 13:19:31","新北市永和區竹林路111號","121.520036666667","25.0118983333333","6500400","永和區"
"234076","969-R7","2019/06/20 13:19:20","新北市永和區民有街25巷2號","121.517145","24.9961616666667","6500400","永和區"
"234072","AAC-211","2019/06/20 13:19:38","新北市永和區竹林路94-1號","121.519461666667","25.0122533333333","6500400","永和區"
"234066","AAC-212","2019/06/20 13:19:24","新北市永和區保平路30巷7號","121.51163","25.0075816666667","6500400","永和區"
"234001","AAC-295","2019/06/20 13:19:32","新北市永和區保福路一段92號","121.512148333333","25.01044","6500400","永和區"
"244003","248-BX","2019/06/20 13:16:56","","121.333093333333","25.1157966666667","6501700","林口區"
"243005","646-TV","2019/06/20 13:19:41","新北市泰山區南林路99巷1-1號","121.415336666667","25.0507466666667","6501600","泰山區"
"231029","001-UM","2019/06/20 13:19:32","新北市新店區安華路28-1號","121.519483333333","24.9608933333333","6500600","新店區"
"231030","002-UM","2019/06/20 13:19:26","新北市新店區安華路28-1號","121.519663333333","24.9607716666667","6500600","新店區"
"231028","046-UY","2019/06/20 13:19:36","新北市新店區安華路28-1號","121.519551666667","24.9608966666667","6500600","新店區"
"231003","047-UY","2019/06/20 13:19:31","新北市新店區安康路一段355-3號","121.519803333333","24.9621916666667","6500600","新店區"
"231018","107-UY","2019/06/20 13:19:37","新北市新店區環河路182-3號","121.533731666667","24.9700916666667","6500600","新店區"
"231013","108-UY","2019/06/20 13:19:38","新北市新店區安一路一段1-1號","121.519768333333","24.961245","6500600","新店區"
"231036","110-UY","2019/06/20 13:19:23","新北市新店區安康路三段335號","121.485486666667","24.9515283333333","6500600","新店區"
"231031","256-BX","2019/06/20 13:19:39","新北市新店區安華路16號","121.516933333333","24.958025","6500600","新店區"
"231023","260-TV","2019/06/20 13:19:38","新北市新店區安一路一段1-1號","121.519373333333","24.96123","6500600","新店區"
"231035","278-BY","2019/06/20 13:19:30","新北市新店區安一路一段1-1號","121.519671666667","24.9610816666667","6500600","新店區"
"231017","AAD-862","2019/06/20 13:19:21","新北市新店區安華路28-1號","121.519698333333","24.96104","6500600","新店區"
"231006","355-BY","2019/06/20 13:19:34","新北市新店區安華路28-1號","121.51917","24.96093","6500600","新店區"
"231038","3712-VJ","2019/06/20 13:19:25","新北市新店區安華路28-1號","121.519268333333","24.9606566666667","6500600","新店區"
"231027","3713-VJ","2019/06/20 13:19:33","新北市新店區安康路一段50號","121.530206666667","24.9611266666667","6500600","新店區"
"231024","4716-K9","2019/06/20 13:19:37","新北市新店區安華路28-1號","121.519665","24.9605383333333","6500600","新店區"
"231025","4715-K9","2019/06/20 13:19:28","新北市新店區中央五街15號","121.529658333333","24.9744116666667","6500600","新店區"
"231021","513-UM","2019/06/20 13:19:32","新北市新店區安康路一段355號","121.519826666667","24.962795","6500600","新店區"
"231001","617-UM","2019/06/20 13:19:25","新北市新店區安華路28-1號","121.519466666667","24.9609333333333","6500600","新店區"
"231002","619-UM","2019/06/20 13:19:22","新北市新店區安華路28-1號","121.519506666667","24.96102","6500600","新店區"
"231034","641-BX","2019/06/20 13:19:23","新北市新店區安華路28-1號","121.519533333333","24.9605116666667","6500600","新店區"
"231011","KED-0819","2019/06/20 13:19:40","新北市新店區安一路一段1-1號","121.519921666667","24.9613133333333","6500600","新店區"
"231010","719-UM","2019/06/20 13:19:33","新北市新店區安康路一段111號","121.528563333333","24.9617116666667","6500600","新店區"
"231026","720-UM","2019/06/20 13:19:40","新北市新店區安一路一段1-1號","121.519373333333","24.9612983333333","6500600","新店區"
"231005","897-TW","2019/06/20 13:19:39","新北市新店區安華路28-1號","121.519595","24.9607466666667","6500600","新店區"
"231004","899-TW","2019/06/20 13:19:25","新北市新店區安華路28-1號","121.518843333333","24.96082","6500600","新店區"
"231037","AKT-0513","2019/06/20 13:19:39","新北市新店區安華路1-1號","121.5195","24.9604716666667","6500600","新店區"
"235030","003-UY","2019/06/20 13:19:29","新北市中和區中山路二段120號","121.502758333333","25.00366","6500300","中和區"
"235027","006-UY","2019/06/20 13:19:35","新北市中和區中正路585號","121.486025","24.9944916666667","6500300","中和區"
"235020","096-UM","2019/06/20 13:19:36","新北市中和區中正路637巷52弄11號","121.484928333333","24.99372","6500300","中和區"
"235003","097-UM","2019/06/20 13:19:34","新北市中和區安平路38號","121.509676666667","24.9949433333333","6500300","中和區"
"235004","150-BY","2019/06/20 13:19:31","新北市中和區景安路72號","121.505795","24.9965716666667","6500300","中和區"
"235022","151-BY","2019/06/20 13:19:27","新北市中和區圓通路369巷156弄39號","121.489421666667","24.98208","6500300","中和區"
"235019","183-VK","2019/06/20 13:19:43","新北市中和區莒光路220號","121.47033","24.9962316666667","6500300","中和區"
"235002","185-VK","2019/06/20 13:19:37","新北市中和區大智街38號","121.521748333333","24.9921983333333","6500300","中和區"
"235013","186-VK","2019/06/20 13:19:28","新北市中和區中正路395號","121.489825","24.993545","6500300","中和區"
"235031","255-BX","2019/06/20 13:19:39","新北市中和區連城路340巷14弄15號","121.48302","24.9971533333333","6500300","中和區"
"235036","301-VK","2019/06/20 13:19:24","新北市中和區連城路263巷8弄7號","121.49184","24.9952316666667","6500300","中和區"
"235007","352-BY","2019/06/20 13:19:29","新北市中和區景平路381號","121.503966666667","24.993445","6500300","中和區"
"235006","KEA-2878","2019/06/20 13:19:37","新北市中和區景平路159巷20號","121.51255","24.991885","6500300","中和區"
"235014","4979-A6","2019/06/20 13:19:20","新北市中和區捷運路61巷1號","121.508933333333","24.9896616666667","6500300","中和區"
"235033","4980-A6","2019/06/20 13:19:34","新北市中和區連城路249號","121.492763333333","24.9967633333333","6500300","中和區"
"235034","558-UM","2019/06/20 13:19:27","新北市中和區景平路596號","121.500883333333","24.99625","6500300","中和區"
"235009","565-BX","2019/06/20 13:19:21","新北市中和區景安路249號","121.503945","24.9906233333333","6500300","中和區"
"235024","KED-0823","2019/06/20 13:19:32","新北市中和區員山路473號","121.480195","25.0047733333333","6500300","中和區"
"235011","732-UM","2019/06/20 13:19:38","新北市中和區連城路263號","121.491855","24.9965116666667","6500300","中和區"
"235035","783-BX","2019/06/20 13:19:37","新北市中和區中板路10號","121.484053333333","25.0118683333333","6500300","中和區"
"235026","800-TS","2019/06/20 13:19:37","新北市中和區橋和路158號","121.49415","25.0062833333333","6500300","中和區"
"235021","801-TS","2019/06/20 13:19:26","新北市中和區民享街97巷19號","121.475335","24.9995516666667","6500300","中和區"
"235005","802-TS","2019/06/20 13:19:24","新北市中和區景安路1號","121.508088333333","24.99924","6500300","中和區"
"235016","805-TS","2019/06/20 13:19:23","新北市中和區興南路二段96號","121.505173333333","24.9841716666667","6500300","中和區"
"235017","900-TW","2019/06/20 13:19:27","新北市中和區員山路36巷16-2號","121.485236666667","24.991495","6500300","中和區"
"235028","911-UM","2019/06/20 13:19:34","新北市中和區圓通路141巷48弄23號","121.498065","24.9943583333333","6500300","中和區"
"235015","157-BY","2019/06/20 13:19:22","新北市中和區忠孝街72號","121.511978333333","24.98413","6500300","中和區"
"235001","AAC-213","2019/06/20 13:19:27","新北市中和區景德街95-8號","121.51525","24.9910766666667","6500300","中和區"
"235023","AAC-215","2019/06/20 13:19:18","新北市中和區員山路36巷16-3號","121.485013333333","24.9912983333333","6500300","中和區"
"220017","AAD-861","2019/06/20 13:19:38","新北市板橋區華東街1-10號","121.448348333333","24.99517","6500100","板橋區"
"247011","056-VK","2019/06/20 13:19:26","新北市五股區中興路三段2巷10號","121.449061666667","25.0810066666667","6501400","蘆洲區"
"235018","251-BX","2019/06/20 13:19:31","新北市中和區國光街123號","121.469436666667","25.00091","6500300","中和區"
"228004","212-TW","2019/06/20 13:19:24","新北市貢寮區吉林里內寮街21號","121.9011","24.9832116666667","6502600","貢寮區"
"228005","828-UM","2019/06/20 13:19:27","新北市貢寮區美豐里丹裡街18號","121.912848333333","25.0572033333333","6502600","貢寮區"
"253003","6232-TK","2019/06/20 13:19:23","新北市石門區石崩山20-1號","121.56562","25.2755266666667","6502200","石門區"
"253004","6251-TK","2019/06/20 13:19:29","新北市石門區阿里荖69號","121.612208333333","25.2711683333333","6502200","石門區"
"253002","637-UY","2019/06/20 13:19:34","新北市石門區九芎林29號","121.558438333333","25.26728","6502200","石門區"
"253001","KEC-0718","2019/06/20 13:19:26","新北市石門區楓林17-10號","121.536253333333","25.29306","6502200","石門區"
"207002","749-BX","2019/06/20 13:19:22","新北市萬里區崁腳里崁腳路166號","121.645115","25.1558316666667","6502800","萬里區"
"252005","073-UM","2019/06/20 13:19:22","新北市三芝區八賢里八連溪87號","121.520323333333","25.2292866666667","6502100","三芝區"
"207001","662-BX","2019/06/20 13:17:48","","121.679441666667","25.18882","6502800","萬里區"
"221029","298-VK","2019/06/20 13:19:31","新北市汐止區南陽街120巷9號","121.623931666667","25.0603416666667","6501100","汐止區"
"220030","610-BX","2019/06/20 13:19:26","新北市板橋區華東街1-9號","121.448256666667","24.9949066666667","6500100","板橋區"
"220005","686-BX","2019/06/20 13:19:25","新北市板橋區華東街1-9號","121.448245","24.9948933333333","6500100","板橋區"
"235032","KEA-2873","2019/06/20 13:19:38","新北市中和區員山路36巷16-8號","121.485546666667","24.992455","6500300","中和區"
"235025","KEA-2875","2019/06/20 13:19:36","新北市中和區民享街97巷14號","121.475261666667","24.9997083333333","6500300","中和區"
