"lineid","car","time","location","longitude","latitude","cityid","cityname"
"234028","746-BX","2019/06/20 14:48:54","新北市板橋區民生路三段68-1號","121.466656666667","25.0257133333333","6500400","永和區"
"234025","9371-KE","2019/06/20 14:48:52","新北市永和區雙和街25巷1號","121.509108333333","25.0019866666667","6500400","永和區"
"248013","025-BX","2019/06/20 14:49:08","新北市五股區五福路14巷24號","121.435388333333","25.0887816666667","6501500","五股區"
"248015","026-BX","2019/06/20 14:48:59","新北市五股區成泰路三段577巷80弄72號","121.448915","25.1047633333333","6501500","五股區"
"248007","KED-0815","2019/06/20 14:49:06","新北市五股區中興路一段88巷14號","121.466713333333","25.0737033333333","6501500","五股區"
"248017","KED-0813","2019/06/20 14:48:59","新北市五股區外寮路13-1號","121.424806666667","25.0814483333333","6501500","五股區"
"248012","247-BX","2019/06/20 14:49:05","新北市五股區六合街102號","121.430855","25.0909283333333","6501500","五股區"
"248003","677-BX","2019/06/20 14:48:51","新北市五股區成泰路一段103號","121.435776666667","25.0710066666667","6501500","五股區"
"248001","678-BX","2019/06/20 14:48:53","新北市五股區成泰路三段169號","121.445256666667","25.091925","6501500","五股區"
"244003","248-BX","2019/06/20 14:48:56","新北市林口區竹林路266號","121.389688333333","25.0807666666667","6501700","林口區"
"243004","AAD-798","2019/06/20 14:48:54","新北市泰山區楓江路46巷17號","121.435725","25.0615716666667","6501600","泰山區"
"243002","297-R6","2019/06/20 14:49:08","新北市泰山區明志路二段254號","121.42689","25.0476616666667","6501600","泰山區"
"243006","KEA-2801","2019/06/20 14:48:55","新北市五股區成泰路一段1號","121.433553333333","25.0664583333333","6501600","泰山區"
"243008","421-VK","2019/06/20 14:49:10","新北市泰山區明志路三段313號","121.422473333333","25.0359883333333","6501600","泰山區"
"243001","KEA-2215","2019/06/20 14:49:02","新北市泰山區泰林路二段116巷1弄2號","121.434891666667","25.0594283333333","6501600","泰山區"
"243003","KEA-2216","2019/06/20 14:48:51","新北市泰山區明志路三段196巷54號","121.421543333333","25.0400933333333","6501600","泰山區"
"243007","680-BX","2019/06/20 14:48:59","新北市泰山區明志路二段39號","121.429651666667","25.0530883333333","6501600","泰山區"
"231029","001-UM","2019/06/20 14:49:12","新北市新店區安康路三段578-1號","121.481113333333","24.9487133333333","6500600","新店區"
"231030","002-UM","2019/06/20 14:49:06","","121.51684","24.9708033333333","6500600","新店區"
"231028","046-UY","2019/06/20 14:48:56","新北市新店區安德街60巷27號","121.510975","24.963285","6500600","新店區"
"231003","047-UY","2019/06/20 14:48:51","新北市新店區中興路二段121巷1號","121.54756","24.9720833333333","6500600","新店區"
"231018","107-UY","2019/06/20 14:48:57","新北市新店區中央一街14-1號","121.528496666667","24.9728816666667","6500600","新店區"
"231013","108-UY","2019/06/20 14:48:58","新北市新店區北新路二段121巷1-1號","121.542211666667","24.97497","6500600","新店區"
"231036","110-UY","2019/06/20 14:49:03","新北市新店區安祥路106巷137號","121.47331","24.9585466666667","6500600","新店區"
"231039","187-VK","2019/06/20 14:49:05","新北市新店區安一路一段1-1號","121.51955","24.961085","6500600","新店區"
"231031","256-BX","2019/06/20 14:48:58","新北市新店區薏仁坑路自強巷6號","121.496556666667","24.9583983333333","6500600","新店區"
"231023","260-TV","2019/06/20 14:48:58","新北市新店區檳榔路109號","121.544441666667","24.9616616666667","6500600","新店區"
"231035","278-BY","2019/06/20 14:48:51","新北市新店區安光路10-1號","121.513735","24.9641366666667","6500600","新店區"
"231017","AAD-862","2019/06/20 14:49:01","新北市新店區北宜路三段144號","121.585116666667","24.9504866666667","6500600","新店區"
"231006","355-BY","2019/06/20 14:48:54","新北市新店區北宜路二段32號","121.548363333333","24.9513133333333","6500600","新店區"
"231038","3712-VJ","2019/06/20 14:49:05","新北市新店區安華路28-1號","121.519686666667","24.96097","6500600","新店區"
"231027","3713-VJ","2019/06/20 14:48:52","新北市新店區中正路328巷1號","121.536878333333","24.9753016666667","6500600","新店區"
"231024","4716-K9","2019/06/20 14:48:57","新北市新店區中華路83巷13號","121.53874","24.9682133333333","6500600","新店區"
"231025","4715-K9","2019/06/20 14:49:08","新北市新店區建國路194號","121.537928333333","24.9805","6500600","新店區"
"231021","513-UM","2019/06/20 14:48:52","新北市新店區桂山路71巷2號","121.566651666667","24.90038","6500600","新店區"
"231001","617-UM","2019/06/20 14:49:05","新北市新店區三民路21巷2號","121.538956666667","24.9712933333333","6500600","新店區"
"231002","619-UM","2019/06/20 14:49:02","新北市新店區民權路78號","121.53799","24.98302","6500600","新店區"
"231034","641-BX","2019/06/20 14:49:03","新北市新店區車子路1-1號","121.504651666667","24.9575616666667","6500600","新店區"
"231011","KED-0819","2019/06/20 14:49:00","新北市新店區寶橋路48號","121.54577","24.9749633333333","6500600","新店區"
"231026","720-UM","2019/06/20 14:48:57","新北市新店區安一路一段1-1號","121.519691666667","24.96117","6500600","新店區"
"231005","897-TW","2019/06/20 14:49:00","新北市新店區復興路66號","121.537896666667","24.986805","6500600","新店區"
"231004","899-TW","2019/06/20 14:49:05","新北市新店區建國路131號","121.53945","24.9781383333333","6500600","新店區"
"231037","AKT-0513","2019/06/20 14:48:59","新北市新店區柴埕路60巷1-1號","121.510245","24.963475","6500600","新店區"
"235030","003-UY","2019/06/20 14:48:49","新北市中和區南工路18號","121.505373333333","25.0004216666667","6500300","中和區"
"235020","096-UM","2019/06/20 14:48:56","新北市中和區員山路581巷2弄1號","121.477918333333","25.0094283333333","6500300","中和區"
"235003","097-UM","2019/06/20 14:48:54","新北市中和區宜安路7號","121.513426666667","24.9955383333333","6500300","中和區"
"235029","098-UM","2019/06/20 14:49:03","新北市中和區福美路230號","121.499086666667","25.00526","6500300","中和區"
"235004","150-BY","2019/06/20 14:48:51","新北市中和區安平路59號","121.509536666667","24.9949783333333","6500300","中和區"
"235022","151-BY","2019/06/20 14:49:07","新北市中和區員山路325-5號","121.481235","25.00094","6500300","中和區"
"235019","183-VK","2019/06/20 14:49:02","新北市中和區德光路43號","121.47034","25.0041816666667","6500300","中和區"
"235002","185-VK","2019/06/20 14:46:17","新北市永和區民族街81巷62號","121.520481666667","24.996465","6500300","中和區"
"235013","186-VK","2019/06/20 14:49:08","新北市中和區景平路429號","121.501535","24.9953166666667","6500300","中和區"
"235008","293-VK","2019/06/20 14:49:09","新北市中和區南山路218號","121.50636","24.99034","6500300","中和區"
"235036","301-VK","2019/06/20 14:49:04","新北市中和區中和路74號","121.500755","25.00009","6500300","中和區"
"235007","352-BY","2019/06/20 14:49:09","新北市中和區安和路5-1號","121.511691666667","24.9934883333333","6500300","中和區"
"235006","KEA-2878","2019/06/20 14:48:57","新北市中和區中正路434號","121.491286666667","24.9941733333333","6500300","中和區"
"247013","KEA-2869","2019/06/20 14:49:01","新北市蘆洲區得勝街68號","121.472546666667","25.0835016666667","6501400","蘆洲區"
"235005","551-UM","2019/06/20 14:49:07","新北市中和區宜安路92巷3號","121.51087","24.9976666666667","6500300","中和區"
"235034","558-UM","2019/06/20 14:49:05","新北市中和區連勝街41號","121.498176666667","24.9976","6500300","中和區"
"235010","733-UM","2019/06/20 14:49:10","新北市中和區興南路一段63號","121.510528333333","24.9893933333333","6500300","中和區"
"235035","783-BX","2019/06/20 14:48:57","新北市中和區連城路469巷5號","121.483641666667","24.9957833333333","6500300","中和區"
"235016","805-TS","2019/06/20 14:49:03","新北市中和區華新街28-2號","121.507611666667","24.9844716666667","6500300","中和區"
"235012","896-TW","2019/06/20 14:48:55","新北市中和區忠孝街29號","121.510486666667","24.9830333333333","6500300","中和區"
"235017","900-TW","2019/06/20 14:49:07","新北市中和區國光街150號","121.468073333333","25.00148","6500300","中和區"
"235015","157-BY","2019/06/20 14:49:02","新北市中和區景安路229號","121.504201666667","24.991245","6500300","中和區"
"235001","AAC-213","2019/06/20 14:49:06","","121.52246","24.993035","6500300","中和區"
"235023","AAC-215","2019/06/20 14:48:59","新北市中和區圓通路305巷29弄2號","121.495045","24.9891","6500300","中和區"
"220013","072-UY","2019/06/20 14:48:55","新北市板橋區國泰街104號","121.466665","25.006455","6500100","板橋區"
"220034","073-UY","2019/06/20 14:49:10","新北市板橋區中正路163-1號","121.45668","25.0162216666667","6500100","板橋區"
"220105","075-UY","2019/06/20 14:49:05","新北市板橋區民治街52巷20號","121.478795","25.0328916666667","6500100","板橋區"
"220017","AAD-861","2019/06/20 14:48:57","新北市板橋區貴興路79號","121.45683","25.0029933333333","6500100","板橋區"
"220039","120-SR","2019/06/20 14:49:05","新北市板橋區綠堤街49號","121.455308333333","25.0258","6500100","板橋區"
"247001","500-BY","2019/06/20 14:49:04","新北市蘆洲區長榮路317號","121.459226666667","25.0864483333333","6501400","蘆洲區"
"247021","057-VK","2019/06/20 14:49:03","新北市蘆洲區中正路400號","121.463146666667","25.09347","6501400","蘆洲區"
"247015","053-VK","2019/06/20 14:49:09","新北市蘆洲區光華路151號","121.465663333333","25.08208","6501400","蘆洲區"
"247019","007-UY","2019/06/20 14:49:09","新北市蘆洲區民義街68巷70號","121.474036666667","25.0897566666667","6501400","蘆洲區"
"235018","251-BX","2019/06/20 14:49:11","新北市中和區莒光路222-8號","121.469108333333","24.9948416666667","6500300","中和區"
"228004","212-TW","2019/06/20 14:49:04","新北市貢寮區福隆里裕隆街3-1號","121.946135","25.0159033333333","6502600","貢寮區"
"228005","828-UM","2019/06/20 14:49:07","新北市貢寮區美豐里文秀坑1-3號","121.90562","25.05481","6502600","貢寮區"
"253003","6232-TK","2019/06/20 14:49:03","新北市石門區尖子鹿103-3號","121.582258333333","25.2949283333333","6502200","石門區"
"253004","6251-TK","2019/06/20 14:49:09","新北市石門區內阿里磅22號","121.593668333333","25.2465366666667","6502200","石門區"
"253002","637-UY","2019/06/20 14:48:54","新北市石門區楓林62-1號","121.542565","25.2738433333333","6502200","石門區"
"253001","KEC-0718","2019/06/20 14:48:46","新北市石門區崁子腳53號","121.536721666667","25.2824116666667","6502200","石門區"
"207002","749-BX","2019/06/20 14:49:02","新北市萬里區崁腳里崁腳路73號","121.64769","25.1596316666667","6502800","萬里區"
"252005","073-UM","2019/06/20 14:49:02","新北市三芝區埔坪里埔頭坑142-1號","121.512936666667","25.2477633333333","6502100","三芝區"
"207001","662-BX","2019/06/20 14:48:47","新北市萬里區雙興里豐稟路31-2號","121.642965","25.181695","6502800","萬里區"
"236040","KED-0685","2019/06/20 14:49:04","新北市土城區裕民路114巷29號","121.450351666667","24.985565","6501300","土城區"
"236074","166-UM","2019/06/20 14:48:56","新北市土城區中央路四段185巷32弄1號","121.415866666667","24.9557783333333","6501300","土城區"
"236029","253-BX","2019/06/20 14:48:54","新北市土城區忠義路26巷10號","121.439846666667","24.969915","6501300","土城區"
"236024","269-VK","2019/06/20 14:49:07","新北市土城區中央路二段233號","121.440486666667","24.9723566666667","6501300","土城區"
"236012","270-VK","2019/06/20 14:49:03","新北市土城區金城路二段360-2號","121.461953333333","24.9851683333333","6501300","土城區"
"236032","271-VK","2019/06/20 14:49:09","新北市土城區仁愛路54巷9號","121.462148333333","24.9783766666667","6501300","土城區"
"236068","KEA-2877","2019/06/20 14:48:53","新北市土城區明德路一段369號","121.45571","24.9778466666667","6501300","土城區"
"236017","401-BY","2019/06/20 14:49:09","新北市土城區延安街42-3號","121.467575","24.9852766666667","6501300","土城區"
"236045","752-BX","2019/06/20 14:49:00","新北市板橋區廣權路2號","121.460433333333","24.9904516666667","6501300","土城區"
"236057","912-UM","2019/06/20 14:48:58","新北市土城區忠義路48巷1號","121.440226666667","24.9691583333333","6501300","土城區"
"236060","915-UM","2019/06/20 14:48:55","新北市土城區金城路三段207巷6弄3號","121.470328333333","24.9900416666667","6501300","土城區"
"236054","AAC-216","2019/06/20 14:49:06","新北市土城區裕民路159號","121.45233","24.9858","6501300","土城區"
"238010","601-UM","2019/06/20 14:49:09","","121.396571666667","24.9691216666667","6500700","樹林區"
"238021","KEA-2539","2019/06/20 14:48:55","新北市樹林區育德街78-1號","121.388065","24.9681233333333","6500700","樹林區"
"238001","282-BY","2019/06/20 14:48:59","新北市樹林區中山路三段202號","121.386743333333","24.9682266666667","6500700","樹林區"
"220027","145-BY","2019/06/20 14:48:57","新北市板橋區民權路202巷17弄11號","121.460333333333","25.0165866666667","6500100","板橋區"
"220028","200-UY","2019/06/20 14:48:57","新北市板橋區大觀路二段37巷320號","121.449645","25.0022883333333","6500100","板橋區"
"220030","610-BX","2019/06/20 14:48:46","新北市板橋區大觀路三段261號","121.429273333333","24.992135","6500100","板橋區"
"220050","245-BX","2019/06/20 14:48:57","新北市板橋區縣民大道三段103巷15號","121.475566666667","25.0227466666667","6500100","板橋區"
"220004","276-BY","2019/06/20 14:48:57","新北市板橋區信義路1巷26弄28號","121.458261666667","24.9965766666667","6500100","板橋區"
"220020","277-BY","2019/06/20 14:49:08","新北市板橋區金門街215巷85弄5號","121.43391","24.9889533333333","6500100","板橋區"
"220019","283-VK","2019/06/20 14:49:06","","121.465223333333","24.9944966666667","6500100","板橋區"
"220043","285-UM","2019/06/20 14:49:03","新北市板橋區雨農路13號","121.462246666667","25.02468","6500100","板橋區"
"220001","285-VK","2019/06/20 14:48:57","新北市板橋區中山路二段60巷1弄20號","121.47494","25.0156333333333","6500100","板橋區"
"220031","286-VK","2019/06/20 14:48:55","新北市板橋區僑中二街116巷2號","121.445715","25.0064533333333","6500100","板橋區"
"220029","287-VK","2019/06/20 14:49:05","新北市板橋區大觀路一段29巷33號","121.45026","25.00756","6500100","板橋區"
"220009","293-UM","2019/06/20 14:49:08","新北市板橋區觀光街24號","121.471481666667","25.01626","6500100","板橋區"
"220032","296-UM","2019/06/20 14:48:58","新北市板橋區滿平街28號","121.426566666667","24.9899316666667","6500100","板橋區"
"220023","303-R5","2019/06/20 14:49:07","","121.453496666667","25.0174733333333","6500100","板橋區"
"220010","305-R5","2019/06/20 14:48:57","新北市板橋區三民路二段60號","121.479263333333","25.017475","6500100","板橋區"
"220041","307-R5","2019/06/20 14:48:57","新北市板橋區新海路109巷1弄2號","121.460763333333","25.02241","6500100","板橋區"
"220047","317-R6","2019/06/20 14:49:03","新北市板橋區四維路269巷62號","121.460796666667","25.0272866666667","6500100","板橋區"
"220038","487-VK","2019/06/20 14:48:49","新北市板橋區龍泉街128號","121.45692","25.0239516666667","6500100","板橋區"
"220037","491-VK","2019/06/20 14:49:07","新北市板橋區仁化街189號","121.47849","25.03404","6500100","板橋區"
"220052","561-BX","2019/06/20 14:49:03","新北市板橋區英士路58巷24號","121.460718333333","25.025545","6500100","板橋區"
"220011","609-BX","2019/06/20 14:49:04","新北市板橋區三民路一段31巷17弄6號","121.480186666667","25.0235583333333","6500100","板橋區"
"220104","630-UY","2019/06/20 14:48:59","新北市板橋區金華街85巷42號","121.459205","25.0214083333333","6500100","板橋區"
"220040","637-BX","2019/06/20 14:48:52","新北市板橋區懷德街127巷14弄1號","121.479391666667","25.0311233333333","6500100","板橋區"
"220005","686-BX","2019/06/20 14:49:06","新北市板橋區和平路14巷38號","121.461768333333","24.991545","6500100","板橋區"
"220025","687-BX","2019/06/20 14:49:03","新北市板橋區僑中二街106巷1號","121.445803333333","25.0074466666667","6500100","板橋區"
"220042","689-BX","2019/06/20 14:49:00","新北市板橋區長江路二段216-1號","121.468011666667","25.0324","6500100","板橋區"
"220002","741-BX","2019/06/20 14:48:52","新北市板橋區實踐路93巷62號","121.46633","25.0048766666667","6500100","板橋區"
"220051","KEA-2699","2019/06/20 14:48:54","新北市板橋區文聖街49號","121.476433333333","25.0313833333333","6500100","板橋區"
"220003","827-TW","2019/06/20 14:48:56","新北市板橋區國慶路149巷13弄13號","121.460426666667","24.9969833333333","6500100","板橋區"
"220014","829-TW","2019/06/20 14:48:58","新北市板橋區長安街259巷33號","121.47277","25.0112033333333","6500100","板橋區"
"220016","831-TW","2019/06/20 14:49:08","","121.483953333333","25.01952","6500100","板橋區"
"220022","895-R6","2019/06/20 14:49:02","新北市板橋區府中路29-2號","121.458488333333","25.008215","6500100","板橋區"
"220021","985-R7","2019/06/20 14:48:59","新北市板橋區中正路244號","121.455588333333","25.019095","6500100","板橋區"
"220046","AAC-210","2019/06/20 14:48:54","新北市板橋區光正街11-1號","121.462748333333","25.0171416666667","6500100","板橋區"
"220012","AAC-253","2019/06/20 14:49:05","新北市板橋區實踐路86號","121.463998333333","25.0052033333333","6500100","板橋區"
"235032","KEA-2873","2019/06/20 14:49:08","新北市中和區福祥路83號","121.49919","25.0056433333333","6500300","中和區"
"235025","KEA-2875","2019/06/20 14:49:06","新北市樹林區柑園街二段203巷29號","121.375753333333","24.9505416666667","6500300","中和區"
