"lineid","car","time","location","longitude","latitude","cityid","cityname"
"248007","KED-0815","2019/06/20 15:19:06","新北市五股區四維路30巷17號","121.468005","25.071515","6501500","五股區"
"248001","678-BX","2019/06/20 15:19:13","新北市五股區中興路二段37巷24號","121.460713333333","25.0750283333333","6501500","五股區"
"244003","248-BX","2019/06/20 15:18:56","新北市林口區中山路2號","121.39686","25.07852","6501700","林口區"
"253003","140-BX","2019/06/20 15:05:48","新北市石門區中山路64-1號","121.567678333333","25.2903966666667","6502200","石門區"
"243005","646-TV","2019/06/20 15:18:59","新北市泰山區泰林路三段778號","121.400741666667","25.0715033333333","6501600","泰山區"
"231029","001-UM","2019/06/20 15:19:12","新北市新店區安康路三段740號","121.473861666667","24.941955","6500600","新店區"
"231030","002-UM","2019/06/20 15:19:06","新北市新店區安民街339號","121.516923333333","24.9748383333333","6500600","新店區"
"231028","046-UY","2019/06/20 15:18:56","新北市新店區僑愛一路1號","121.49995","24.944735","6500600","新店區"
"231003","047-UY","2019/06/20 15:18:51","新北市新店區寶橋路236號","121.551615","24.9788166666667","6500600","新店區"
"231018","107-UY","2019/06/20 15:18:57","新北市新店區中央七街27號","121.529518333333","24.9753633333333","6500600","新店區"
"231036","110-UY","2019/06/20 15:19:03","新北市新店區安祥路69巷15號","121.482068333333","24.96141","6500600","新店區"
"231039","187-VK","2019/06/20 15:19:05","新北市新店區寶元路一段65號","121.542161666667","24.9858183333333","6500600","新店區"
"231031","256-BX","2019/06/20 15:18:59","新北市新店區安康路三段269號","121.486363333333","24.9518","6500600","新店區"
"231023","260-TV","2019/06/20 15:18:58","新北市新店區行政街43號","121.5431","24.9656633333333","6500600","新店區"
"231035","278-BY","2019/06/20 15:18:51","新北市新店區安興路141號","121.516871666667","24.9795733333333","6500600","新店區"
"231017","AAD-862","2019/06/20 15:19:01","新北市新店區北宜路二段599號","121.56817","24.95554","6500600","新店區"
"231006","355-BY","2019/06/20 15:18:54","新北市新店區新坡一街16號","121.548456666667","24.9619633333333","6500600","新店區"
"231038","3712-VJ","2019/06/20 15:19:05","新北市新店區安華路28-1號","121.519598333333","24.96091","6500600","新店區"
"231024","4716-K9","2019/06/20 15:18:57","新北市新店區中華路42巷12號","121.540468333333","24.9685416666667","6500600","新店區"
"231025","4715-K9","2019/06/20 15:19:07","新北市新店區安康路一段82號","121.52812","24.96189","6500600","新店區"
"231021","513-UM","2019/06/20 15:19:12","新北市新店區永福路38-1號","121.552991666667","24.9293533333333","6500600","新店區"
"231001","617-UM","2019/06/20 15:19:05","新北市新店區北新路一段353號","121.542008333333","24.96952","6500600","新店區"
"231002","619-UM","2019/06/20 15:19:02","新北市新店區中正路707號","121.533701666667","24.9911066666667","6500600","新店區"
"231034","641-BX","2019/06/20 15:19:03","新北市新店區如意街3巷1號","121.495708333333","24.9494266666667","6500600","新店區"
"231011","KED-0819","2019/06/20 15:19:00","新北市新店區寶慶街35巷1弄11號","121.543578333333","24.986635","6500600","新店區"
"231026","720-UM","2019/06/20 15:18:57","新北市新店區中正路265巷32號","121.537706666667","24.9730983333333","6500600","新店區"
"231005","897-TW","2019/06/20 15:19:00","新北市新店區民族路48巷1號","121.540155","24.9786883333333","6500600","新店區"
"231004","899-TW","2019/06/20 15:19:05","新北市新店區建國路29號","121.540176666667","24.9740533333333","6500600","新店區"
"241011","013-R5","2019/06/20 15:19:07","新北市三重區重新路四段121號","121.485086666667","25.051915","6500200","三重區"
"235030","003-UY","2019/06/20 15:19:09","新北市中和區保平路372號","121.506226666667","25.0035483333333","6500300","中和區"
"235019","183-VK","2019/06/20 15:19:02","新北市五股區中興路三段2-3號","121.452916666667","25.074655","6500300","中和區"
"235006","KEA-2878","2019/06/20 15:18:57","新北市樹林區佳園路三段101巷120-1號","121.397176666667","24.950835","6500300","中和區"
"247013","KEA-2869","2019/06/20 15:19:01","新北市八里區商港路105巷15-1號","121.393378333333","25.1493933333333","6501400","蘆洲區"
"235014","4979-A6","2019/06/20 15:19:00","新北市中和區景平路217號","121.510496666667","24.9927033333333","6500300","中和區"
"235033","4980-A6","2019/06/20 15:18:54","新北市中和區圓通路8號","121.501725","24.9980366666667","6500300","中和區"
"235005","551-UM","2019/06/20 15:19:07","新北市中和區中和路236號","121.50717","24.99961","6500300","中和區"
"235035","783-BX","2019/06/20 15:18:58","新北市中和區建三路12號","121.486096666667","25.0026633333333","6500300","中和區"
"235026","800-TS","2019/06/20 15:18:57","新北市土城區承天路4巷3-3號","121.437526666667","24.962295","6500300","中和區"
"235012","896-TW","2019/06/20 15:18:55","新北市中和區景新街368號","121.512138333333","24.9904433333333","6500300","中和區"
"235023","AAC-215","2019/06/20 15:18:59","新北市中和區圓通路435巷2-1號","121.486421666667","24.98691","6500300","中和區"
"220013","072-UY","2019/06/20 15:19:05","新北市板橋區民族路87號","121.466038333333","25.0084216666667","6500100","板橋區"
"235018","251-BX","2019/06/20 15:18:51","新北市中和區民享街35巷8弄15號","121.474493333333","25.0034483333333","6500300","中和區"
"253004","6251-TK","2019/06/20 15:18:49","新北市石門區小坑31-1號","121.598141666667","25.2697066666667","6502200","石門區"
"207002","749-BX","2019/06/20 15:19:04","新北市萬里區崁腳里內中福路2-1號","121.668883333333","25.1653383333333","6502800","萬里區"
"207001","662-BX","2019/06/20 15:19:08","新北市萬里區大鵬里萬里加投18-3號","121.650346666667","25.2091166666667","6502800","萬里區"
"236040","KED-0685","2019/06/20 15:19:04","新北市土城區裕民路286號","121.455608333333","24.9818566666667","6501300","土城區"
"236074","166-UM","2019/06/20 15:18:56","新北市土城區中州路27巷78號","121.412611666667","24.9563566666667","6501300","土城區"
"236029","253-BX","2019/06/20 15:18:54","新北市土城區中央路一段262巷4號","121.443746666667","24.9840516666667","6501300","土城區"
"236024","269-VK","2019/06/20 15:18:54","新北市土城區中央路二段61巷20號","121.442986666667","24.9787833333333","6501300","土城區"
"236012","270-VK","2019/06/20 15:19:03","新北市土城區廣福街68巷1號","121.457023333333","24.9902416666667","6501300","土城區"
"236032","271-VK","2019/06/20 15:18:49","新北市土城區國際路139巷52號","121.468366666667","24.97754","6501300","土城區"
"236068","KEA-2877","2019/06/20 15:18:53","新北市土城區裕民路185巷36弄10號","121.45436","24.9845066666667","6501300","土城區"
"236017","401-BY","2019/06/20 15:19:09","新北市土城區金城路三段192號","121.46853","24.9878716666667","6501300","土城區"
"236045","752-BX","2019/06/20 15:19:00","新北市土城區清水路332號","121.464046666667","24.98549","6501300","土城區"
"236057","912-UM","2019/06/20 15:18:58","新北市土城區中央路三段38號","121.43825","24.9685616666667","6501300","土城區"
"236060","915-UM","2019/06/20 15:18:55","新北市土城區延平街33巷15號","121.467226666667","24.9915216666667","6501300","土城區"
"236054","AAC-216","2019/06/20 15:19:06","新北市土城區學府路一段148號","121.454665","24.9869916666667","6501300","土城區"
"238010","601-UM","2019/06/20 15:18:58","新北市樹林區中正路433-2號","121.414961666667","25.00846","6500700","樹林區"
"238006","599-UM","2019/06/20 15:18:58","新北市樹林區太平路1-9號","121.418681666667","24.9844233333333","6500700","樹林區"
"238011","5061-A6","2019/06/20 15:18:52","新北市樹林區鎮前街155號","121.423676666667","24.9891283333333","6500700","樹林區"
"238005","KEA-2217","2019/06/20 15:18:49","新北市樹林區樹新路135號","121.428438333333","24.996285","6500700","樹林區"
"238009","KEA-2213","2019/06/20 15:19:10","新北市樹林區八德街247巷24-1號","121.42058","24.9735333333333","6500700","樹林區"
"238008","KEA-2539","2019/06/20 15:18:55","新北市樹林區西圳街一段165巷20弄11號","121.395605","24.9601916666667","6500700","樹林區"
"238004","283-BY","2019/06/20 15:19:01","新北市樹林區保安街二段307號","121.413028333333","25.00668","6500700","樹林區"
"238001","282-BY","2019/06/20 15:18:59","新北市樹林區大安路107號","121.422688333333","24.9979533333333","6500700","樹林區"
"238007","268-VK","2019/06/20 15:19:04","新北市樹林區俊英街80號","121.428126666667","25.0041433333333","6500700","樹林區"
"238013","172-UY","2019/06/20 15:19:10","新北市樹林區中山路三段27巷3弄12-2號","121.401696666667","24.9736483333333","6500700","樹林區"
"238003","169-UY","2019/06/20 15:19:02","新北市樹林區中山路一段176-1號","121.421851666667","24.9888166666667","6500700","樹林區"
"220027","145-BY","2019/06/20 15:18:57","新北市板橋區公館街88號","121.461263333333","25.015335","6500100","板橋區"
"220030","610-BX","2019/06/20 15:19:06","新北市板橋區大觀路三段121號","121.43272","24.994525","6500100","板橋區"
"220031","286-VK","2019/06/20 15:18:55","新北市板橋區僑中二街100巷42號","121.444231666667","25.00874","6500100","板橋區"
"220029","287-VK","2019/06/20 15:19:05","新北市板橋區僑中一街102巷7弄3號","121.446706666667","25.012835","6500100","板橋區"
"220010","305-R5","2019/06/20 15:18:57","新北市板橋區萬安街142-2號","121.483955","25.0265266666667","6500100","板橋區"
"220038","487-VK","2019/06/20 15:19:09","新北市板橋區四維路156號","121.464911666667","25.0259283333333","6500100","板橋區"
"220037","491-VK","2019/06/20 15:19:07","新北市板橋區民治街92號","121.479216666667","25.0317483333333","6500100","板橋區"
"220011","609-BX","2019/06/20 15:19:09","新北市板橋區三民路一段102號","121.479256666667","25.0212983333333","6500100","板橋區"
"220005","686-BX","2019/06/20 15:19:05","新北市土城區廣興街38號","121.453418333333","24.9914133333333","6500100","板橋區"
"220025","687-BX","2019/06/20 15:19:03","新北市板橋區僑中一街124巷62-9號","121.44672","25.017315","6500100","板橋區"
"220042","689-BX","2019/06/20 15:18:51","新北市板橋區長江路一段58號","121.458965","25.0292216666667","6500100","板橋區"
"220003","827-TW","2019/06/20 15:18:56","新北市板橋區國慶路149巷37弄13號","121.460365","24.997945","6500100","板橋區"
"220022","895-R6","2019/06/20 15:19:02","新北市板橋區明德街2號","121.459766666667","25.0101316666667","6500100","板橋區"
"220012","AAC-253","2019/06/20 15:19:03","新北市板橋區漢生東路193巷7-1號","121.470335","25.0118116666667","6500100","板橋區"
