"lineid","car","time","location","longitude","latitude","cityid","cityname"
"234026","9371-KE","2019/06/20 17:58:55","新北市永和區永和路一段45號","121.512883333333","25.00631","6500400","永和區"
"249005","172-UM","2019/06/20 17:59:07","新北市八里區荖阡坑路16號","121.397823333333","25.1382933333333","6502300","八里區"
"249001","173-UM","2019/06/20 17:58:56","新北市八里區龍米路二段35號","121.448483333333","25.1400316666667","6502300","八里區"
"249004","303-UY","2019/06/20 17:58:56","新北市八里區中山路一段10號","121.42325","25.1589666666667","6502300","八里區"
"249002","305-UY","2019/06/20 17:59:01","新北市八里區龍形五街35巷3號","121.449388333333","25.13308","6502300","八里區"
"249003","759-BX","2019/06/20 17:59:04","新北市八里區中華路二段260號","121.405103333333","25.1496133333333","6502300","八里區"
"248014","025-BX","2019/06/20 17:58:54","新北市五股區中興路三段163號","121.448418333333","25.0801583333333","6501500","五股區"
"248016","026-BX","2019/06/20 17:59:09","新北市五股區中興路二段37巷26號","121.460346666667","25.0751983333333","6501500","五股區"
"248006","077-UY","2019/06/20 17:58:48","新北市五股區中興路二段83巷26-6號","121.459886666667","25.075255","6501500","五股區"
"248008","KED-0815","2019/06/20 17:58:56","新北市五股區中興路二段163號","121.457666666667","25.0776016666667","6501500","五股區"
"248004","677-BX","2019/06/20 17:58:59","新北市五股區中興路二段182巷3號","121.457265","25.07842","6501500","五股區"
"248002","678-BX","2019/06/20 17:59:02","新北市五股區中興路二段83巷26-3號","121.460133333333","25.0753116666667","6501500","五股區"
"232011","375-UM","2019/06/20 17:59:05","新北市坪林區北宜路八段213號","121.708665","24.934895","6502000","坪林區"
"244007","080-UY","2019/06/20 17:59:04","新北市林口區竹林路548號","121.387598333333","25.08452","6501700","林口區"
"244019","402-UM","2019/06/20 17:58:57","新北市林口區文化一路一段126號","121.37546","25.0728066666667","6501700","林口區"
"244013","KEA-2802","2019/06/20 17:59:07","新北市林口區中山路18號","121.396231666667","25.07834","6501700","林口區"
"244023","483-VK","2019/06/20 17:59:00","新北市林口區東湖路41巷8號","121.386168333333","25.073715","6501700","林口區"
"244017","485-VK","2019/06/20 17:59:04","新北市林口區忠孝路371-1號","121.36903","25.0720816666667","6501700","林口區"
"244009","656-BX","2019/06/20 17:59:01","新北市林口區佳林路56巷43號","121.385191666667","25.0807183333333","6501700","林口區"
"244011","701-TV","2019/06/20 17:58:58","新北市林口區中正路130號","121.393173333333","25.0772666666667","6501700","林口區"
"244025","837-TS","2019/06/20 17:59:06","新北市林口區文化三路一段39巷126號","121.359538333333","25.0683216666667","6501700","林口區"
"244021","838-TS","2019/06/20 17:59:04","新北市林口區仁愛路一段83巷38號","121.397753333333","25.0706066666667","6501700","林口區"
"222003","436-BY","2019/06/20 17:58:53","新北市深坑區炮子崙24-1號","121.605523333333","24.987965","6501800","深坑區"
"222002","659-BX","2019/06/20 17:59:08","新北市深坑區深坑街35號","121.616008333333","25.0018233333333","6501800","深坑區"
"241016","266-UM","2019/06/20 17:59:00","新北市三重區光復路二段196巷47號","121.466343333333","25.0627833333333","6500200","三重區"
"241024","462-BY","2019/06/20 17:59:02","新北市三重區中正北路193巷35弄78號","121.478613333333","25.0714816666667","6500200","三重區"
"241033","AAC-255","2019/06/20 17:59:06","新北市三重區重新路五段578號","121.469638333333","25.0455733333333","6500200","三重區"
"235063","006-UY","2019/06/20 17:59:09","新北市中和區員山路36巷16-2號","121.485203333333","24.9913533333333","6500300","中和區"
"235058","151-BY","2019/06/20 17:58:52","新北市中和區錦和路400號","121.490998333333","24.9899066666667","6500300","中和區"
"235038","185-VK","2019/06/20 17:58:59","新北市中和區錦和路350-1號","121.490498333333","24.993595","6500300","中和區"
"247014","KEA-2869","2019/06/20 17:59:00","新北市蘆洲區忠孝路31號","121.47144","25.0857016666667","6501400","蘆洲區"
"247008","KED-0682","2019/06/20 17:59:07","新北市蘆洲區中山一路282號","121.471198333333","25.0788266666667","6501400","蘆洲區"
"235045","565-BX","2019/06/20 17:58:19","新北市中和區員山路36巷13號","121.484121666667","24.990715","6500300","中和區"
"235062","800-TS","2019/06/20 17:59:07","新北市中和區員山路36巷16-3號","121.485118333333","24.9912983333333","6500300","中和區"
"235064","911-UM","2019/06/20 17:59:04","新北市中和區員山路36巷16-3號","121.48503","24.9912366666667","6500300","中和區"
"235037","AAC-213","2019/06/20 17:59:10","新北市中和區景平路239巷3號","121.509983333333","24.9927733333333","6500300","中和區"
"247004","893-R6","2019/06/20 17:59:02","新北市蘆洲區永康街75號","121.455781666667","25.0852116666667","6501400","蘆洲區"
"247018","546-UM","2019/06/20 17:59:07","新北市蘆洲區復興路231號","121.480121666667","25.0897683333333","6501400","蘆洲區"
"247002","500-BY","2019/06/20 17:59:04","新北市蘆洲區永平街32巷45弄35號","121.458215","25.0930583333333","6501400","蘆洲區"
"247012","056-VK","2019/06/20 17:59:13","新北市蘆洲區信義路280巷25號","121.478908333333","25.0880266666667","6501400","蘆洲區"
"247016","053-VK","2019/06/20 17:58:55","新北市蘆洲區中正路185巷47號","121.465663333333","25.0839133333333","6501400","蘆洲區"
"247006","002-UY","2019/06/20 17:58:56","新北市蘆洲區永安南路二段156號","121.461766666667","25.078885","6501400","蘆洲區"
"226004","312-R5","2019/06/20 17:59:03","新北市平溪區石底里公園街18-3號","121.733426666667","25.0256983333333","6502400","平溪區"
"228001","212-TW","2019/06/20 17:59:08","新北市貢寮區真理里新港街26巷53號","121.92807","25.05358","6502600","貢寮區"
"228002","663-BX","2019/06/20 17:59:00","新北市貢寮區福隆里桂安街17號","121.96557","25.02179","6502600","貢寮區"
"228003","828-UM","2019/06/20 17:58:55","新北市貢寮區真理里美艷山街6-2號","121.928821666667","25.060735","6502600","貢寮區"
"224010","AGQ-8101","2019/06/20 17:56:44","新北市瑞芳區崙頂路1-5號","121.84664","25.1065783333333","6501200","瑞芳區"
"224006","676-BX","2019/06/20 17:59:08","新北市瑞芳區大寮路356-1號","121.784833333333","25.1032383333333","6501200","瑞芳區"
"224007","285-BY","2019/06/20 17:59:02","新北市瑞芳區大寮路84號","121.78026","25.101295","6501200","瑞芳區"
"224009","275-VK","2019/06/20 17:59:01","新北市瑞芳區山尖路128號","121.851125","25.1131733333333","6501200","瑞芳區"
"224008","273-VK","2019/06/20 17:58:52","新北市瑞芳區員山子路3-5號","121.819936666667","25.105015","6501200","瑞芳區"
"224005","271-BY","2019/06/20 17:59:04","新北市瑞芳區深澳路18號","121.820183333333","25.1325783333333","6501200","瑞芳區"
"253006","032-BX","2019/06/20 17:59:11","新北市石門區大丘田45-1號","121.549805","25.2750883333333","6502200","石門區"
"222001","KEA-2212","2019/06/20 17:58:58","新北市深坑區北深路三段25巷12-1號","121.609088333333","25.00084","6501800","深坑區"
"208002","KEA-2872","2019/06/20 17:58:54","新北市金山區三界壇路14號","121.625796666667","25.2283933333333","6502700","金山區"
"208003","665-BX","2019/06/20 17:58:56","新北市金山區磺港里磺港路305號","121.643846666667","25.2270616666667","6502700","金山區"
"251009","008-UM","2019/06/20 17:59:06","新北市淡水區中山路108巷3號","121.442036666667","25.171065","6501000","淡水區"
"251004","009-UM","2019/06/20 17:59:01","新北市淡水區民權路84號","121.459238333333","25.1335916666667","6501000","淡水區"
"251005","010-UM","2019/06/20 17:58:59","新北市淡水區英專路120號","121.445935","25.1724983333333","6501000","淡水區"
"251001","011-UM","2019/06/20 17:58:55","台北市北投區大度路三段118號","121.469005","25.1231816666667","6501000","淡水區"
"251015","KEA-2871","2019/06/20 17:59:06","新北市淡水區興福寮32-1號","121.490676666667","25.163025","6501000","淡水區"
"251016","179-VK","2019/06/20 17:58:57","新北市淡水區埤島28號","121.4476","25.1983733333333","6501000","淡水區"
"251008","181-VK","2019/06/20 17:59:02","新北市淡水區八勢一街46號","121.461241666667","25.1548666666667","6501000","淡水區"
"251010","413-VK","2019/06/20 17:59:05","新北市淡水區中正路一段87巷15號","121.420486666667","25.17837","6501000","淡水區"
"251012","441-VK","2019/06/20 17:59:04","新北市淡水區北新路三段30號","121.483708333333","25.1865533333333","6501000","淡水區"
"251007","442-VK","2019/06/20 17:58:55","新北市淡水區中正東路二段161巷11弄10號","121.461501666667","25.146065","6501000","淡水區"
"251006","561-UM","2019/06/20 17:59:02","新北市淡水區新生街19號","121.438928333333","25.1736","6501000","淡水區"
"251014","577-R6","2019/06/20 17:58:58","新北市淡水區公埔子16-6號","121.481028333333","25.2245216666667","6501000","淡水區"
"251011","650-BX","2019/06/20 17:58:06","新北市淡水區吳(仔)厝35號","121.479503333333","25.1494033333333","6501000","淡水區"
"251002","672-BX","2019/06/20 17:59:03","新北市淡水區中山路30號","121.444395","25.1697616666667","6501000","淡水區"
"251003","673-BX","2019/06/20 17:58:55","新北市淡水區大忠街35號","121.444216666667","25.176285","6501000","淡水區"
"207003","550-UM","2019/06/20 17:58:54","新北市萬里區港東路野柳風景區攤販68號","121.691298333333","25.2058216666667","6502800","萬里區"
"207004","225-TW","2019/06/20 17:59:06","新北市萬里區中幅里中福路48號","121.68317","25.1739516666667","6502800","萬里區"
"252002","178-VK","2019/06/20 17:58:56","新北市三芝區中山路二段33號","121.502686666667","25.255095","6502100","三芝區"
"208001","170-UY","2019/06/20 17:59:10","新北市金山區磺港里磺港路248號","121.643803333333","25.2250216666667","6502700","金山區"
"237004","KEA-2597","2019/06/20 17:58:57","新北市三峽區中正路二段41號","121.36671","24.918725","6500900","三峽區"
"237007","153-BY","2019/06/20 17:59:11","新北市三峽區中園街88號","121.3674","24.9237016666667","6500900","三峽區"
"237009","210-TH","2019/06/20 17:59:09","新北市三峽區中山路106巷2號","121.366118333333","24.936075","6500900","三峽區"
"237013","252-BX","2019/06/20 17:59:08","新北市三峽區介壽路一段135號","121.376221666667","24.9316383333333","6500900","三峽區"
"237012","275-BY","2019/06/20 17:59:01","新北市三峽區民生街19巷3-1號","121.376208333333","24.936195","6500900","三峽區"
"237008","302-VK","2019/06/20 17:58:51","新北市三峽區正義街193號","121.368088333333","24.9144683333333","6500900","三峽區"
"237006","5529-G3","2019/06/20 17:58:56","新北市三峽區介壽路二段138巷1弄92-1號","121.397763333333","24.9318383333333","6500900","三峽區"
"237011","KEA-2596","2019/06/20 17:59:10","新北市三峽區中正路一段69號","121.375218333333","24.9302016666667","6500900","三峽區"
"237015","649-BX","2019/06/20 17:59:02","新北市三峽區紫微路109號","121.408306666667","24.9113083333333","6500900","三峽區"
"237010","706-TV","2019/06/20 17:58:58","新北市三峽區中山路61號","121.367355","24.9348316666667","6500900","三峽區"
"237005","AKY-6261","2019/06/20 17:59:04","新北市三峽區和平街87號","121.369976666667","24.9375033333333","6500900","三峽區"
"236042","KED-0685","2019/06/20 17:58:55","新北市土城區城林路6巷80號","121.438438333333","24.9797366666667","6501300","土城區"
"233002","762-BX","2019/06/20 17:58:53","新北市烏來區烏來街109號","121.551443333333","24.86357","6502900","烏來區"
"236078","166-UM","2019/06/20 17:58:59","新北市土城區永寧路32巷1號","121.429268333333","24.9604266666667","6501300","土城區"
"236030","253-BX","2019/06/20 17:59:04","新北市土城區城林路6巷80號","121.43866","24.9795583333333","6501300","土城區"
"236026","269-VK","2019/06/20 17:59:04","新北市土城區中央路三段42號","121.437631666667","24.9681983333333","6501300","土城區"
"236014","270-VK","2019/06/20 17:58:50","新北市土城區城林路6巷80號","121.438451666667","24.97955","6501300","土城區"
"236038","271-VK","2019/06/20 17:58:51","新北市土城區城林路6巷80號","121.43819","24.979525","6501300","土城區"
"247010","KED-0683","2019/06/20 17:59:06","新北市蘆洲區信義路259巷15號","121.478226666667","25.0844033333333","6501400","蘆洲區"
"236070","KEA-2877","2019/06/20 17:58:57","新北市土城區青雲路669-3號","121.467171666667","24.9649483333333","6501300","土城區"
"252001","KED-0821","2019/06/20 17:59:03","新北市三芝區中興街二段2號","121.498378333333","25.25665","6502100","三芝區"
"236021","401-BY","2019/06/20 17:58:57","新北市土城區城林路6巷80號","121.438595","24.9795983333333","6501300","土城區"
"236059","912-UM","2019/06/20 17:59:07","新北市土城區中央路三段250號","121.4276","24.9641933333333","6501300","土城區"
"236049","913-UM","2019/06/20 17:59:04","新北市土城區員福街50號","121.440491666667","24.9791116666667","6501300","土城區"
"236055","AAC-216","2019/06/20 17:58:51","新北市土城區城林路6巷80號","121.438581666667","24.97976","6501300","土城區"
"242039","AAC-296","2019/06/20 17:58:53","新北市新莊區民安西路24巷9號","121.426433333333","25.0211016666667","6500500","新莊區"
"242061","986-R7","2019/06/20 17:59:06","新北市新莊區新樹路493號","121.432701666667","25.012245","6500500","新莊區"
"242002","751-BX","2019/06/20 17:59:07","新北市新莊區中正路161號","121.455428333333","25.0367","6500500","新莊區"
"242029","615-BX","2019/06/20 17:58:56","新北市新莊區中平路110巷4-1號","121.445493333333","25.045925","6500500","新莊區"
"242027","613-BX","2019/06/20 17:59:09","新北市新莊區思源路448號","121.460046666667","25.05358","6500500","新莊區"
"242058","612-BX","2019/06/20 17:59:02","新北市新莊區中正路730-5號","121.414771666667","25.0236316666667","6500500","新莊區"
"242046","566-BX","2019/06/20 17:59:02","新北市新莊區福營路165巷16號","121.432576666667","25.0304566666667","6500500","新莊區"
"242056","441-UM","2019/06/20 17:58:55","新北市新莊區豐年街124巷9號","121.445878333333","25.02979","6500500","新莊區"
"242004","440-UM","2019/06/20 17:59:05","新北市新莊區福樂街35-1號","121.457451666667","25.0469516666667","6500500","新莊區"
"242042","415-TV","2019/06/20 17:58:57","新北市新莊區壽山路31號","121.4201","25.0290216666667","6500500","新莊區"
"242011","413-TV","2019/06/20 17:59:01","新北市新莊區中港路中慶巷27弄2號","121.44997","25.053735","6500500","新莊區"
"242048","400-BY","2019/06/20 17:59:00","新北市新莊區萬安街61號","121.421391666667","25.0242383333333","6500500","新莊區"
"242025","362-BY","2019/06/20 17:58:54","新北市新莊區五工路58號","121.458806666667","25.06279","6500500","新莊區"
"242023","353-BY","2019/06/20 17:59:05","新北市新莊區福壽街43號","121.458176666667","25.0486566666667","6500500","新莊區"
"242013","132-UY","2019/06/20 17:59:02","新北市新莊區中和街108巷1號","121.447688333333","25.0468516666667","6500500","新莊區"
"242036","135-UY","2019/06/20 17:59:05","新北市新莊區建福路58巷2號","121.426405","25.0272716666667","6500500","新莊區"
"242053","172-VK","2019/06/20 17:59:10","新北市新莊區光華街41號","121.428781666667","25.0113516666667","6500500","新莊區"
"242015","173-VK","2019/06/20 17:59:09","新北市新莊區中平路87巷2號","121.444698333333","25.0458466666667","6500500","新莊區"
"242007","175-VK","2019/06/20 17:59:00","新北市新莊區自信街36號","121.454466666667","25.0482116666667","6500500","新莊區"
"242019","KED-0687","2019/06/20 17:59:06","新北市新莊區明中街49巷15號","121.456798333333","25.0389833333333","6500500","新莊區"
"242021","346-TH","2019/06/20 17:58:54","新北市新莊區中華路一段6號","121.451983333333","25.036505","6500500","新莊區"
"242031","347-TH","2019/06/20 17:59:07","新北市新莊區新泰路305巷12號","121.444628333333","25.0409816666667","6500500","新莊區"
"242034","348-TH","2019/06/20 17:59:06","新北市新莊區中正路421巷24號","121.444598333333","25.0334583333333","6500500","新莊區"
"242051","350-TH","2019/06/20 17:59:00","新北市新莊區民安西路155巷7弄15號","121.426793333333","25.016825","6500500","新莊區"
"242017","351-TH","2019/06/20 17:59:00","新北市新莊區中和街60巷47號","121.449926666667","25.045025","6500500","新莊區"
"238015","755-BX","2019/06/20 17:59:10","新北市樹林區大安路493號","121.414448333333","24.9869","6500700","樹林區"
"238023","601-UM","2019/06/20 17:58:58","新北市樹林區龍興街27號","121.403083333333","25.0160033333333","6500700","樹林區"
"238019","599-UM","2019/06/20 17:58:58","新北市樹林區太平路243號","121.418698333333","24.9756016666667","6500700","樹林區"
"238018","KEA-2217","2019/06/20 17:59:07","新北市樹林區樹新路205-3號","121.429728333333","24.9979616666667","6500700","樹林區"
"238022","KEA-2213","2019/06/20 17:58:50","新北市樹林區太平路150巷34號","121.41767","24.9776166666667","6500700","樹林區"
"238021","KEA-2539","2019/06/20 17:59:02","新北市樹林區柑園街一段162號","121.39748","24.9568","6500700","樹林區"
"238025","303-VK","2019/06/20 17:59:04","新北市樹林區保安街二段303號","121.412466666667","25.0065316666667","6500700","樹林區"
"238017","283-BY","2019/06/20 17:59:01","新北市樹林區中正路651號","121.412485","25.0127516666667","6500700","樹林區"
"238014","282-BY","2019/06/20 17:58:59","新北市樹林區中正路45巷10號","121.426601666667","24.9992033333333","6500700","樹林區"
"238020","268-VK","2019/06/20 17:59:03","新北市樹林區三俊街199巷31-2號","121.420476666667","25.0176366666667","6500700","樹林區"
"238026","172-UY","2019/06/20 17:58:50","新北市樹林區中洲街16號","121.397355","24.972385","6500700","樹林區"
"238016","169-UY","2019/06/20 17:59:05","新北市樹林區復興路264號","121.418355","24.988725","6500700","樹林區"
"239007","AAC-297","2019/06/20 17:58:53","新北市鶯歌區尖山埔路213號","121.345148333333","24.9504933333333","6500800","鶯歌區"
"239006","891-R6","2019/06/20 17:59:05","新北市鶯歌區鶯桃路413巷78弄8-1號","121.329695","24.96334","6500800","鶯歌區"
"239008","527-UM","2019/06/20 17:59:01","新北市鶯歌區香賓街11巷1號","121.336758333333","24.979485","6500800","鶯歌區"
"239005","526-UM","2019/06/20 17:58:57","新北市鶯歌區鶯桃路668巷74-1號","121.32993","24.9717633333333","6500800","鶯歌區"
"239001","417-VK","2019/06/20 17:59:08","新北市鶯歌區中正三路145-1號","121.336986666667","24.94028","6500800","鶯歌區"
"239003","360-BY","2019/06/20 17:59:08","新北市鶯歌區永吉街19號","121.336016666667","24.9577616666667","6500800","鶯歌區"
"239002","359-BY","2019/06/20 17:29:58","新北市鶯歌區建國路310號","121.344495","24.9526366666667","6500800","鶯歌區"
"221008","489-VK","2019/06/20 17:58:51","新北市汐止區康寧街753巷2弄14號","121.639638333333","25.074145","6501100","汐止區"
"221010","269-BY","2019/06/20 17:58:59","新北市汐止區汐萬路二段247號","121.646475","25.08826","6501100","汐止區"
"221023","279-VK","2019/06/20 17:59:01","新北市汐止區明峰街13號","121.634993333333","25.0713383333333","6501100","汐止區"
"221027","281-BY","2019/06/20 17:59:01","新北市汐止區大同路二段294號","121.655201666667","25.066485","6501100","汐止區"
"221029","298-VK","2019/06/20 17:59:01","新北市汐止區樟樹二路328號","121.64144","25.0702533333333","6501100","汐止區"
"221031","353-TW","2019/06/20 17:58:54","新北市汐止區中興路96巷1-3號","121.635258333333","25.0625083333333","6501100","汐止區"
"221035","622-UM","2019/06/20 17:59:08","新北市汐止區汐萬路一段213號","121.651868333333","25.071975","6501100","汐止區"
"221033","647-BX","2019/06/20 17:58:51","新北市汐止區合順街31號","121.620413333333","25.0432333333333","6501100","汐止區"
"221002","707-TV","2019/06/20 17:59:10","新北市汐止區工建路112號","121.638373333333","25.0634783333333","6501100","汐止區"
"233001","KEA-2870","2019/06/20 17:59:07","新北市烏來區西羅岸路22號","121.549071666667","24.8674966666667","6502900","烏來區"
"224002","257-TC","2019/06/20 17:58:54","新北市瑞芳區三爪子坑路137號","121.810405","25.106615","6501200","瑞芳區"
"242044","281-VK","2019/06/20 17:59:08","新北市新莊區雙鳳路73巷1號","121.414953333333","25.0275416666667","6500500","新莊區"
"242009","280-VK","2019/06/20 17:59:00","新北市新莊區中華路二段260號","121.452616666667","25.0531966666667","6500500","新莊區"
"235068","KEA-2873","2019/06/20 17:58:54","新北市中和區員山路36巷16-3號","121.485218333333","24.991045","6500300","中和區"
"235061","KEA-2875","2019/06/20 17:58:52","新北市中和區員山路36巷16-2號","121.485288333333","24.99174","6500300","中和區"
