"lineid","car","time","location","longitude","latitude","cityid","cityname"
"234046","148-BY","2019/06/20 18:38:59","新北市永和區永元路68號","121.52258","25.00154","6500400","永和區"
"234038","336-UY","2019/06/20 18:38:55","新北市永和區福和路1號","121.526768333333","25.0100083333333","6500400","永和區"
"234064","337-UY","2019/06/20 18:39:02","新北市永和區福和路1號","121.526565","25.010005","6500400","永和區"
"234086","338-UY","2019/06/20 18:39:00","新北市永和區中正路248號","121.516535","24.9983833333333","6500400","永和區"
"234070","552-UM","2019/06/20 18:38:55","新北市永和區福和路1號","121.525651666667","25.0094083333333","6500400","永和區"
"234017","745-BX","2019/06/20 18:38:51","新北市永和區福和路1號","121.526295","25.0096366666667","6500400","永和區"
"234030","746-BX","2019/06/20 18:39:12","新北市永和區豫溪街217巷3號","121.524775","25.00947","6500400","永和區"
"234007","KED-0605","2019/06/20 18:39:10","新北市永和區文化路170號","121.51184","25.01552","6500400","永和區"
"234013","KEA-2591","2019/06/20 18:39:00","新北市永和區保福路二段88巷29號","121.51195","25.0137333333333","6500400","永和區"
"234081","748-BX","2019/06/20 18:39:09","新北市永和區林森路81號","121.523926666667","25.0038033333333","6500400","永和區"
"234042","862-TW","2019/06/20 18:39:08","新北市永和區福和路308號","121.5164","25.0074816666667","6500400","永和區"
"234026","9371-KE","2019/06/20 18:38:55","新北市永和區永貞路393號","121.507938333333","25.00883","6500400","永和區"
"234011","9373-KE","2019/06/20 18:38:57","新北市永和區文化路9巷22弄28號","121.514628333333","25.0145683333333","6500400","永和區"
"249005","172-UM","2019/06/20 18:39:07","新北市八里區中華路三段200號","121.38867","25.12573","6502300","八里區"
"249001","173-UM","2019/06/20 18:38:56","新北市八里區龍米路一段360號","121.451508333333","25.1313416666667","6502300","八里區"
"249004","303-UY","2019/06/20 18:38:56","新北市八里區龍米路三段58號","121.424421666667","25.159125","6502300","八里區"
"249002","305-UY","2019/06/20 18:39:01","新北市八里區龍形二街3巷18號","121.450043333333","25.1309083333333","6502300","八里區"
"248014","025-BX","2019/06/20 18:38:54","新北市五股區民義路一段112-9號","121.435121666667","25.0854083333333","6501500","五股區"
"248016","026-BX","2019/06/20 18:39:09","新北市五股區凌雲路一段149巷7號","121.448936666667","25.10164","6501500","五股區"
"248008","KED-0815","2019/06/20 18:38:56","新北市五股區中興路一段150巷18號","121.464935","25.07463","6501500","五股區"
"248020","KED-0813","2019/06/20 18:38:56","新北市五股區孝義路102號","121.445335","25.1196","6501500","五股區"
"248012","247-BX","2019/06/20 18:39:09","新北市五股區成泰路三段2巷3號","121.440965","25.086385","6501500","五股區"
"248004","677-BX","2019/06/20 18:38:59","新北市五股區民義路一段304-3號","121.424736666667","25.09357","6501500","五股區"
"248002","678-BX","2019/06/20 18:39:01","新北市五股區西雲路205號","121.448573333333","25.0965","6501500","五股區"
"248010","682-TV","2019/06/20 18:38:53","新北市五股區水碓三路120號","121.431758333333","25.0735616666667","6501500","五股區"
"234023","9380-KE","2019/06/20 18:38:52","新北市永和區環河東路二段98號","121.524083333333","25.0103816666667","6500400","永和區"
"234077","969-R7","2019/06/20 18:38:55","新北市永和區中正路179-1號","121.516866666667","24.9989183333333","6500400","永和區"
"234067","AAC-212","2019/06/20 18:38:59","新北市中和區永貞路258號","121.513975","25.0037916666667","6500400","永和區"
"234003","AAC-295","2019/06/20 18:38:55","新北市永和區福和路1號","121.525395","25.0095233333333","6500400","永和區"
"232011","375-UM","2019/06/20 18:39:05","新北市坪林區坪雙路一段43號","121.711685","24.9425383333333","6502000","坪林區"
"244007","080-UY","2019/06/20 18:39:04","新北市林口區湖北里55號","121.385016666667","25.1065966666667","6501700","林口區"
"244019","402-UM","2019/06/20 18:38:56","新北市林口區麗園二街一段60巷32號","121.380963333333","25.0676433333333","6501700","林口區"
"244013","KEA-2802","2019/06/20 18:39:07","新北市林口區文化一路一段120號","121.374435","25.0717866666667","6501700","林口區"
"244023","483-VK","2019/06/20 18:39:00","新北市林口區四維路156號","121.38085","25.0758283333333","6501700","林口區"
"244017","485-VK","2019/06/20 18:39:03","新北市林口區文化二路一段62-4號","121.365405","25.0683933333333","6501700","林口區"
"244009","656-BX","2019/06/20 18:39:01","新北市林口區竹林路326巷12號","121.391968333333","25.0823016666667","6501700","林口區"
"244011","701-TV","2019/06/20 18:38:58","新北市林口區仁愛路一段619號","121.38989","25.0765433333333","6501700","林口區"
"244025","837-TS","2019/06/20 18:39:06","新北市林口區南勢四街328號","121.357471666667","25.0761316666667","6501700","林口區"
"244021","838-TS","2019/06/20 18:39:04","新北市林口區自強三街31號","121.398333333333","25.07726","6501700","林口區"
"243012","AAD-798","2019/06/20 18:39:04","新北市泰山區福興三街11號","121.43449","25.0577833333333","6501600","泰山區"
"222003","436-BY","2019/06/20 18:38:53","新北市深坑區翠谷街34巷10號","121.626761666667","25.00894","6501800","深坑區"
"222002","659-BX","2019/06/20 18:39:08","新北市深坑區雲鄉路28號","121.621491666667","24.99973","6501800","深坑區"
"231060","001-UM","2019/06/20 18:39:01","新北市新店區安華路28-1號","121.519455","24.960805","6500600","新店區"
"231061","002-UM","2019/06/20 18:39:06","新北市新店區安華路28-1號","121.51956","24.960815","6500600","新店區"
"231058","0293-UT","2019/06/20 18:37:55","新北市新店區新店後街16號","121.537973333333","24.9531816666667","6500600","新店區"
"231059","046-UY","2019/06/20 18:39:04","新北市新店區安華路28-1號","121.519515","24.96083","6500600","新店區"
"231042","047-UY","2019/06/20 18:38:53","新北市新店區安華路28-1號","121.519523333333","24.960865","6500600","新店區"
"231051","107-UY","2019/06/20 18:38:55","新北市新店區環河路29巷1號","121.53691","24.9613566666667","6500600","新店區"
"231049","108-UY","2019/06/20 18:39:05","新北市新店區安一路一段1-1號","121.519485","24.961065","6500600","新店區"
"231062","256-BX","2019/06/20 18:39:09","新北市新店區安一路一段1-1號","121.51961","24.961215","6500600","新店區"
"231054","260-TV","2019/06/20 18:38:55","新北市新店區安一路一段1-1號","121.519343333333","24.9612066666667","6500600","新店區"
"231064","278-BY","2019/06/20 18:39:11","新北市新店區安一路一段1-1號","121.519658333333","24.961095","6500600","新店區"
"231050","AAD-862","2019/06/20 18:39:03","新北市新店區安一路一段1-1號","121.519661666667","24.961065","6500600","新店區"
"231045","355-BY","2019/06/20 18:39:08","新北市新店區安華路28-1號","121.519351666667","24.9608966666667","6500600","新店區"
"231055","4716-K9","2019/06/20 18:39:00","新北市新店區中正路154巷6號","121.541863333333","24.972005","6500600","新店區"
"231056","4715-K9","2019/06/20 18:39:02","新北市新店區大豐路68巷19號","121.538315","24.9801916666667","6500600","新店區"
"231067","4772-VM","2019/06/20 18:38:53","新北市新店區安華路28-1號","121.519076666667","24.9605866666667","6500600","新店區"
"231052","513-UM","2019/06/20 18:39:03","新北市新店區新烏路一段58號","121.546141666667","24.9496466666667","6500600","新店區"
"231040","617-UM","2019/06/20 18:39:02","新北市新店區安華路28-1號","121.5194","24.96081","6500600","新店區"
"231041","619-UM","2019/06/20 18:39:02","新北市新店區安華路28-1號","121.519453333333","24.960795","6500600","新店區"
"231063","641-BX","2019/06/20 18:39:08","新北市新店區安華路1-1號","121.519511666667","24.9604983333333","6500600","新店區"
"231047","KED-0819","2019/06/20 18:39:07","新北市新店區安一路一段1-1號","121.519693333333","24.961115","6500600","新店區"
"231046","719-UM","2019/06/20 18:39:00","新北市新店區直潭二街1號","121.535338333333","24.94311","6500600","新店區"
"231057","720-UM","2019/06/20 18:39:07","新北市新店區北宜路一段83號","121.53851","24.9561266666667","6500600","新店區"
"231044","897-TW","2019/06/20 18:38:53","新北市新店區安康路一段319號","121.52216","24.9635766666667","6500600","新店區"
"231043","899-TW","2019/06/20 18:39:07","新北市新店區安華路28-1號","121.51936","24.9608583333333","6500600","新店區"
"231066","AKT-0513","2019/06/20 18:39:07","新北市新店區安華路1-1號","121.51934","24.9604833333333","6500600","新店區"
"235066","003-UY","2019/06/20 18:39:09","新北市中和區水源路39號","121.504538333333","25.0035583333333","6500300","中和區"
"235063","006-UY","2019/06/20 18:39:09","新北市中和區連城路347巷4弄18號","121.487538333333","24.9956733333333","6500300","中和區"
"235056","096-UM","2019/06/20 18:38:51","新北市中和區員山路611巷1號","121.477853333333","25.011245","6500300","中和區"
"235039","097-UM","2019/06/20 18:39:03","新北市中和區宜安路2號","121.513751666667","24.9955716666667","6500300","中和區"
"235065","098-UM","2019/06/20 18:39:06","新北市中和區莊敬路49巷29弄30號","121.500688333333","25.0065616666667","6500300","中和區"
"235040","150-BY","2019/06/20 18:39:03","新北市中和區安平路38號","121.509893333333","24.9950366666667","6500300","中和區"
"235058","151-BY","2019/06/20 18:39:11","新北市中和區員山路143巷9號","121.480325","24.995985","6500300","中和區"
"235055","183-VK","2019/06/20 18:38:57","新北市板橋區民族路308號","121.470663333333","25.0064833333333","6500300","中和區"
"235038","185-VK","2019/06/20 18:38:59","新北市中和區大勇街60巷16號","121.518716666667","24.9946833333333","6500300","中和區"
"235049","186-VK","2019/06/20 18:39:10","新北市中和區景安路157號","121.505476666667","24.9949933333333","6500300","中和區"
"235067","255-BX","2019/06/20 18:39:09","新北市中和區新生街39巷8號","121.483841666667","25.003325","6500300","中和區"
"235044","293-VK","2019/06/20 18:39:09","新北市中和區復興路280巷9號","121.502236666667","24.9911183333333","6500300","中和區"
"235072","301-VK","2019/06/20 18:39:01","新北市中和區中山路二段181號","121.500783333333","25.0027033333333","6500300","中和區"
"235043","352-BY","2019/06/20 18:39:10","新北市中和區景平路111巷2號","121.516561666667","24.9920316666667","6500300","中和區"
"235042","KEA-2878","2019/06/20 18:39:04","新北市中和區成功路41巷1號","121.526238333333","24.993195","6500300","中和區"
"235050","4979-A6","2019/06/20 18:39:09","新北市中和區信義街115號","121.512133333333","24.9868516666667","6500300","中和區"
"235069","4980-A6","2019/06/20 18:38:47","新北市中和區連城路99巷73號","121.497465","24.9983033333333","6500300","中和區"
"235041","551-UM","2019/06/20 18:39:05","新北市中和區中安街178巷3弄1號","121.510655","24.999175","6500300","中和區"
"235070","558-UM","2019/06/20 18:38:53","新北市中和區圓通路55號","121.50071","24.9974116666667","6500300","中和區"
"235045","565-BX","2019/06/20 18:38:50","新北市中和區景安路247號","121.50402","24.9907533333333","6500300","中和區"
"235060","KED-0823","2019/06/20 18:39:02","新北市中和區中山路三段124號","121.474271666667","25.0062483333333","6500300","中和區"
"235047","732-UM","2019/06/20 18:38:54","新北市中和區南山路320巷10弄21號","121.506821666667","24.986735","6500300","中和區"
"235046","733-UM","2019/06/20 18:39:05","新北市中和區忠孝街103號","121.512041666667","24.9862083333333","6500300","中和區"
"235062","800-TS","2019/06/20 18:39:07","新北市中和區中山路二段312巷10弄2號","121.495618333333","25.00301","6500300","中和區"
"235057","801-TS","2019/06/20 18:39:11","新北市中和區民安街42巷40號","121.479281666667","25.0012983333333","6500300","中和區"
"235052","805-TS","2019/06/20 18:39:02","新北市中和區興南路三段62-1號","121.4932","24.9751433333333","6500300","中和區"
"235048","896-TW","2019/06/20 18:39:02","新北市中和區南山路250巷1號","121.507655","24.98911","6500300","中和區"
"235053","900-TW","2019/06/20 18:38:53","新北市中和區民德路264號","121.46804","24.9965983333333","6500300","中和區"
"235064","911-UM","2019/06/20 18:39:04","新北市中和區連城路109巷40號","121.497213333333","24.9978816666667","6500300","中和區"
"235051","157-BY","2019/06/20 18:39:06","新北市中和區華新街143巷106弄39號","121.506971666667","24.97832","6500300","中和區"
"235037","AAC-213","2019/06/20 18:39:10","新北市中和區秀朗路三段128巷2號","121.524671666667","24.9923666666667","6500300","中和區"
"235059","AAC-215","2019/06/20 18:39:08","新北市中和區錦和路350-1號","121.490545","24.9935016666667","6500300","中和區"
"220065","072-UY","2019/06/20 18:39:08","新北市板橋區實踐路79號","121.463876666667","25.0061083333333","6500100","板橋區"
"220086","073-UY","2019/06/20 18:39:06","新北市板橋區南雅南路二段120-1號","121.452383333333","24.9996833333333","6500100","板橋區"
"220069","AAD-861","2019/06/20 18:39:07","新北市板橋區南雅南路二段40號","121.453931666667","25.0025733333333","6500100","板橋區"
"220090","120-SR","2019/06/20 18:39:12","新北市板橋區民生路二段120號","121.470353333333","25.01999","6500100","板橋區"
"226004","312-R5","2019/06/20 18:39:03","新北市平溪區石底里公園街18-3號","121.733285","25.0257916666667","6502400","平溪區"
"235054","251-BX","2019/06/20 18:39:10","新北市中和區民享街32巷5-1號","121.473581666667","25.0031316666667","6500300","中和區"
"228001","212-TW","2019/06/20 18:39:07","新北市貢寮區仁理村保健街69號","121.923628333333","25.0516333333333","6502600","貢寮區"
"228002","663-BX","2019/06/20 18:39:00","新北市貢寮區福隆里東興街6-11號","121.950771666667","25.0210816666667","6502600","貢寮區"
"228003","828-UM","2019/06/20 18:38:54","新北市貢寮區和美里龍洞街40號","121.915173333333","25.1116816666667","6502600","貢寮區"
"224006","676-BX","2019/06/20 18:39:08","新北市瑞芳區明燈路三段118號","121.804801666667","25.10838","6501200","瑞芳區"
"224007","285-BY","2019/06/20 18:39:02","新北市瑞芳區大埔路93號","121.763756666667","25.1012333333333","6501200","瑞芳區"
"224009","275-VK","2019/06/20 18:39:01","新北市瑞芳區祈堂路53-1號","121.85958","25.110425","6501200","瑞芳區"
"224008","273-VK","2019/06/20 18:39:12","新北市瑞芳區瑞芳街139號","121.80508","25.1098983333333","6501200","瑞芳區"
"224005","271-BY","2019/06/20 18:39:04","新北市瑞芳區建基路一段30號","121.819541666667","25.121145","6501200","瑞芳區"
"227002","642-TC","2019/06/20 18:39:06","新北市雙溪區魚行里坤溪3-5號","121.876176666667","25.0208466666667","6502500","雙溪區"
"227001","400-TW","2019/06/20 18:38:54","新北市雙溪區牡丹里下坑11號","121.851018333333","25.05617","6502500","雙溪區"
"253006","032-BX","2019/06/20 18:38:50","新北市石門區楓林28-5號","121.542436666667","25.2896033333333","6502200","石門區"
"253005","295-VK","2019/06/20 18:38:52","新北市石門區石門街22號","121.5661","25.290615","6502200","石門區"
"222001","KEA-2212","2019/06/20 18:38:58","新北市深坑區北深路一段84號","121.636248333333","25.0107616666667","6501800","深坑區"
"208002","KEA-2872","2019/06/20 18:38:54","新北市金山區忠孝一路19巷7號","121.63781","25.217935","6502700","金山區"
"208003","665-BX","2019/06/20 18:38:56","新北市金山區中山路397號","121.633196666667","25.225325","6502700","金山區"
"251004","009-UM","2019/06/20 18:39:01","新北市淡水區大同路1號","121.460968333333","25.1405133333333","6501000","淡水區"
"251001","011-UM","2019/06/20 18:38:55","新北市淡水區自強路415巷2號","121.465525","25.1342933333333","6501000","淡水區"
"251015","KEA-2871","2019/06/20 18:39:06","新北市淡水區興福寮66巷301號","121.48562","25.1616616666667","6501000","淡水區"
"251016","179-VK","2019/06/20 18:38:57","新北市淡水區下圭柔山84號","121.437726666667","25.2059133333333","6501000","淡水區"
"251008","181-VK","2019/06/20 18:38:56","新北市淡水區北投子78-7號","121.458068333333","25.1789616666667","6501000","淡水區"
"251010","413-VK","2019/06/20 18:39:05","新北市淡水區沙崙路126號","121.423466666667","25.1829083333333","6501000","淡水區"
"251012","441-VK","2019/06/20 18:39:04","新北市淡水區北新路180號","121.44908","25.1786133333333","6501000","淡水區"
"251007","442-VK","2019/06/20 18:38:55","新北市淡水區中正東路二段143巷2弄1號","121.460593333333","25.1472816666667","6501000","淡水區"
"251006","561-UM","2019/06/20 18:39:02","新北市淡水區濱海路一段53號","121.443933333333","25.18894","6501000","淡水區"
"251014","577-R6","2019/06/20 18:38:58","新北市淡水區崙頂12-8號","121.495551666667","25.2172516666667","6501000","淡水區"
"251011","650-BX","2019/06/20 18:39:06","新北市淡水區中正東路8-1號","121.447766666667","25.16694","6501000","淡水區"
"251002","672-BX","2019/06/20 18:39:03","新北市淡水區中正東路一段3巷14弄1號","121.450903333333","25.1641333333333","6501000","淡水區"
"251003","673-BX","2019/06/20 18:38:55","新北市淡水區北新路69巷26號","121.446655","25.1800516666667","6501000","淡水區"
"207003","550-UM","2019/06/20 18:38:54","新北市萬里區野柳里港西路48號","121.678603333333","25.20135","6502800","萬里區"
"207004","225-TW","2019/06/20 18:39:06","新北市萬里區萬里里獅頭路7號","121.691991666667","25.178305","6502800","萬里區"
"252002","178-VK","2019/06/20 18:38:56","新北市三芝區民生街64巷10號","121.503645","25.25515","6502100","三芝區"
"252003","249-BX","2019/06/20 18:39:05","新北市三芝區後厝里土地公坑73-2號","121.460656666667","25.2475433333333","6502100","三芝區"
"208001","170-UY","2019/06/20 18:39:03","新北市金山區文化三路7號","121.635176666667","25.2249116666667","6502700","金山區"
"237004","KEA-2597","2019/06/20 18:38:57","新北市三峽區金敏189號","121.392435","24.87379","6500900","三峽區"
"237007","153-BY","2019/06/20 18:38:51","新北市三峽區柑樹路2巷15號","121.362003333333","24.9048033333333","6500900","三峽區"
"237009","210-TH","2019/06/20 18:39:09","新北市三峽區大同路272號","121.365263333333","24.92526","6500900","三峽區"
"237013","252-BX","2019/06/20 18:39:07","新北市三峽區大同路52號","121.376851666667","24.9291283333333","6500900","三峽區"
"237012","275-BY","2019/06/20 18:39:01","新北市三峽區三樹路340號","121.383953333333","24.94331","6500900","三峽區"
"237008","302-VK","2019/06/20 18:38:51","新北市三峽區白雞63-5號","121.400028333333","24.9108133333333","6500900","三峽區"
"237006","5529-G3","2019/06/20 18:38:56","新北市三峽區溪東路315號","121.410388333333","24.9303783333333","6500900","三峽區"
"237011","KEA-2596","2019/06/20 18:39:10","新北市三峽區溪東路424號","121.415161666667","24.9276533333333","6500900","三峽區"
"237015","649-BX","2019/06/20 18:39:02","新北市三峽區成福路317號","121.429671666667","24.923655","6500900","三峽區"
"237010","706-TV","2019/06/20 18:38:58","新北市三峽區復興路487號","121.361288333333","24.9384166666667","6500900","三峽區"
"237005","AKY-6261","2019/06/20 18:39:04","新北市三峽區民生街108號","121.373596666667","24.93531","6500900","三峽區"
"236042","KED-0685","2019/06/20 18:38:55","新北市土城區學成路108巷11號","121.450211666667","24.9897166666667","6501300","土城區"
"236078","166-UM","2019/06/20 18:38:59","新北市土城區中央路四段52巷10號","121.419981666667","24.9608233333333","6501300","土城區"
"236030","253-BX","2019/06/20 18:39:06","新北市土城區福仁街69號","121.439486666667","24.9744233333333","6501300","土城區"
"236026","269-VK","2019/06/20 18:39:04","新北市土城區忠義路53號","121.440508333333","24.9688283333333","6501300","土城區"
"236014","270-VK","2019/06/20 18:39:10","新北市土城區清水路207巷11號","121.459861666667","24.982375","6501300","土城區"
"236038","271-VK","2019/06/20 18:39:11","新北市土城區明德路一段291巷11弄21號","121.461236666667","24.9760866666667","6501300","土城區"
"236070","KEA-2877","2019/06/20 18:38:57","新北市土城區永豐路157巷29弄6-1號","121.468321666667","24.9814783333333","6501300","土城區"
"252001","KED-0821","2019/06/20 18:39:03","新北市三芝區中興街二段260號","121.501868333333","25.2529116666667","6502100","三芝區"
"236021","401-BY","2019/06/20 18:38:57","新北市土城區明德路一段51號","121.465251666667","24.984935","6501300","土城區"
"236063","752-BX","2019/06/20 18:39:02","新北市土城區延壽路75巷21弄1號","121.468758333333","24.992225","6501300","土城區"
"236059","912-UM","2019/06/20 18:39:07","新北市土城區中央路三段282號","121.426533333333","24.96343","6501300","土城區"
"236049","913-UM","2019/06/20 18:39:04","新北市土城區明德路一段137-4號","121.465421666667","24.9809383333333","6501300","土城區"
"236055","AAC-216","2019/06/20 18:38:51","新北市土城區中華路一段129號","121.444303333333","24.9866533333333","6501300","土城區"
"242058","612-BX","2019/06/20 18:39:02","新北市新莊區中正路891-45號","121.413771666667","25.0228666666667","6500500","新莊區"
"242056","441-UM","2019/06/20 18:38:55","新北市新莊區瓊林南路61-71號","121.439376666667","25.0185883333333","6500500","新莊區"
"242007","175-VK","2019/06/20 18:38:59","新北市新莊區環漢路三段532號","121.435378333333","25.00076","6500500","新莊區"
"238023","601-UM","2019/06/20 18:38:58","新北市樹林區三福街114號","121.40643","25.0163883333333","6500700","樹林區"
"238019","599-UM","2019/06/20 18:38:58","新北市樹林區中華路190-16號","121.411733333333","24.9805566666667","6500700","樹林區"
"238024","5061-A6","2019/06/20 18:39:05","新北市樹林區太順街86巷25號","121.416425","24.978125","6500700","樹林區"
"238018","KEA-2217","2019/06/20 18:39:07","新北市樹林區樹新路52-9號","121.42892","24.99688","6500700","樹林區"
"238022","KEA-2213","2019/06/20 18:38:50","新北市樹林區中華路393號","121.41137","24.9804866666667","6500700","樹林區"
"238025","303-VK","2019/06/20 18:38:56","新北市樹林區中山路三段22號","121.39555","24.972855","6500700","樹林區"
"238020","268-VK","2019/06/20 18:39:03","新北市樹林區俊安街26號","121.419318333333","25.0138133333333","6500700","樹林區"
"238026","172-UY","2019/06/20 18:39:09","新北市樹林區育德街78-1號","121.387978333333","24.96811","6500700","樹林區"
"238016","169-UY","2019/06/20 18:39:02","新北市樹林區中山路一段412號","121.41748","24.9851033333333","6500700","樹林區"
"239007","AAC-297","2019/06/20 18:38:53","新北市鶯歌區中正一路建德二巷2號","121.364368333333","24.956675","6500800","鶯歌區"
"239002","661-UM","2019/06/20 18:38:49","新北市鶯歌區中山路329巷6弄17號","121.34373","24.9558116666667","6500800","鶯歌區"
"239008","527-UM","2019/06/20 18:39:01","新北市鶯歌區朝陽街1號","121.33639","24.9766433333333","6500800","鶯歌區"
"239005","526-UM","2019/06/20 18:38:57","新北市鶯歌區鳳吉三街31巷3號","121.327518333333","24.9741633333333","6500800","鶯歌區"
"239001","417-VK","2019/06/20 18:39:08","新北市鶯歌區二橋街30號","121.336551666667","24.9393183333333","6500800","鶯歌區"
"239003","360-BY","2019/06/20 18:39:08","新北市鶯歌區永和街116號","121.334513333333","24.9691333333333","6500800","鶯歌區"
"239004","193-VK","2019/06/20 18:39:01","新北市鶯歌區尖山路253號","121.340678333333","24.9435383333333","6500800","鶯歌區"
"221036","130-UY","2019/06/20 18:38:56","新北市汐止區長安路83號","121.669378333333","25.078445","6501100","汐止區"
"221015","131-UY","2019/06/20 18:38:59","新北市汐止區鄉長路二段23巷4號","121.667198333333","25.0829","6501100","汐止區"
"221010","269-BY","2019/06/20 18:38:58","新北市汐止區瑞松街49巷6號","121.645358333333","25.1070533333333","6501100","汐止區"
"221012","278-VK","2019/06/20 18:39:02","新北市汐止區保長路37巷6號","121.673021666667","25.0794283333333","6501100","汐止區"
"221023","279-VK","2019/06/20 18:39:01","新北市汐止區民族二街84號","121.633408333333","25.0700333333333","6501100","汐止區"
"221032","280-BY","2019/06/20 18:39:01","新北市汐止區民權街二段79號","121.619186666667","25.047965","6501100","汐止區"
"221029","298-VK","2019/06/20 18:39:01","新北市汐止區樟樹一路131號","121.642111666667","25.0649533333333","6501100","汐止區"
"221021","299-VK","2019/06/20 18:38:58","新北市汐止區新台五路一段91-2號","121.650548333333","25.0614283333333","6501100","汐止區"
"221031","353-TW","2019/06/20 18:38:54","新北市汐止區光復街7巷33號","121.640501666667","25.059775","6501100","汐止區"
"221035","622-UM","2019/06/20 18:39:07","新北市汐止區大同路二段167-1號","121.651116666667","25.064915","6501100","汐止區"
"221033","647-BX","2019/06/20 18:39:10","新北市汐止區宜興街1號","121.62086","25.041245","6501100","汐止區"
"221002","707-TV","2019/06/20 18:38:50","新北市汐止區中興路3號","121.63718","25.0590966666667","6501100","汐止區"
"221018","753-BX","2019/06/20 18:39:03","新北市汐止區茄苳路225巷2號","121.67101","25.06872","6501100","汐止區"
"220079","145-BY","2019/06/20 18:39:04","新北市板橋區大觀路二段101巷2號","121.44682","25.0014366666667","6500100","板橋區"
"220080","200-UY","2019/06/20 18:39:03","新北市板橋區板城路407號","121.447413333333","24.9950983333333","6500100","板橋區"
"220082","610-BX","2019/06/20 18:39:02","新北市板橋區大觀路三段52號","121.432353333333","24.9959283333333","6500100","板橋區"
"224002","257-TC","2019/06/20 18:38:53","新北市瑞芳區國中新村18號","121.817158333333","25.10735","6501200","瑞芳區"
"220056","276-BY","2019/06/20 18:39:00","新北市板橋區南雅南路二段40號","121.453863333333","25.00245","6500100","板橋區"
"220072","277-BY","2019/06/20 18:38:50","新北市板橋區華東街1-10號","121.44849","24.9949516666667","6500100","板橋區"
"220071","283-VK","2019/06/20 18:38:57","新北市板橋區四川路二段243號","121.450398333333","24.9935983333333","6500100","板橋區"
"220094","285-UM","2019/06/20 18:39:10","新北市板橋區民生路二段161巷1號","121.470118333333","25.0198233333333","6500100","板橋區"
"220083","286-VK","2019/06/20 18:39:02","新北市板橋區華東街1-9號","121.447871666667","24.9954616666667","6500100","板橋區"
"220084","296-UM","2019/06/20 18:38:56","新北市板橋區大觀路二段153巷46弄7號","121.44881","24.9985583333333","6500100","板橋區"
"242044","281-VK","2019/06/20 18:39:08","新北市新莊區裕民街83-6號","121.418471666667","25.0236033333333","6500500","新莊區"
"220092","307-R5","2019/06/20 18:38:52","新北市板橋區民生路二段120號","121.470345","25.019635","6500100","板橋區"
"220089","487-VK","2019/06/20 18:39:08","新北市板橋區民生路二段161巷1號","121.470061666667","25.02001","6500100","板橋區"
"220088","491-VK","2019/06/20 18:39:08","新北市板橋區民生路二段161巷1號","121.470036666667","25.0201516666667","6500100","板橋區"
"220063","609-BX","2019/06/20 18:39:00","新北市板橋區民生路二段161巷1號","121.470001666667","25.0200533333333","6500100","板橋區"
"220035","630-UY","2019/06/20 18:39:06","新北市板橋區南雅西路二段145巷10號","121.45159","25.0119883333333","6500100","板橋區"
"220057","686-BX","2019/06/20 18:38:59","新北市板橋區館前西路46巷2號","121.458988333333","25.0070583333333","6500100","板橋區"
"220093","689-BX","2019/06/20 18:38:55","新北市板橋區民生路二段188號","121.470186666667","25.0202383333333","6500100","板橋區"
"220054","741-BX","2019/06/20 18:39:07","新北市板橋區南雅南路二段120-2號","121.4524","25.00006","6500100","板橋區"
"220102","KEA-2699","2019/06/20 18:38:59","新北市板橋區民生路二段161巷1號","121.470015","25.02006","6500100","板橋區"
"220055","827-TW","2019/06/20 18:38:57","新北市板橋區忠孝路40號","121.460455","25.0018116666667","6500100","板橋區"
"220067","829-TW","2019/06/20 18:37:44","新北市板橋區民生路二段161巷1號","121.470115","25.0198366666667","6500100","板橋區"
"220068","831-TW","2019/06/20 18:39:05","新北市板橋區三民路一段120號","121.47918","25.0207783333333","6500100","板橋區"
"220074","895-R6","2019/06/20 18:39:05","新北市板橋區南雅南路二段144巷66-1號","121.450251666667","24.99531","6500100","板橋區"
"220073","985-R7","2019/06/20 18:38:53","新北市板橋區四川路二段31號","121.454353333333","24.995605","6500100","板橋區"
"220064","AAC-253","2019/06/20 18:38:50","新北市板橋區民生路二段121號","121.47089","25.0182283333333","6500100","板橋區"
"235068","KEA-2873","2019/06/20 18:38:54","新北市中和區中正路215號","121.496731666667","24.993685","6500300","中和區"
"235061","KEA-2875","2019/06/20 18:39:04","新北市中和區民享街38-1號","121.473905","25.0029833333333","6500300","中和區"
