"lineid","car","time","location","longitude","latitude","cityid","cityname"
"234046","148-BY","2019/06/20 19:58:59","新北市永和區成功路一段62號","121.526906666667","25.0037516666667","6500400","永和區"
"234038","336-UY","2019/06/20 19:59:07","新北市永和區成功路二段140號","121.526551666667","24.99719","6500400","永和區"
"234064","337-UY","2019/06/20 19:59:02","新北市永和區中正路412巷20弄27號","121.519146666667","25.00126","6500400","永和區"
"234086","338-UY","2019/06/20 19:59:00","新北市永和區福和路135號","121.521241666667","25.0078166666667","6500400","永和區"
"234070","552-UM","2019/06/20 19:59:03","新北市永和區大新街108號","121.518463333333","25.00793","6500400","永和區"
"234017","745-BX","2019/06/20 19:59:11","新北市永和區文化路87號","121.51346","25.0151583333333","6500400","永和區"
"234030","746-BX","2019/06/20 19:58:52","新北市永和區民生路22巷21號","121.521428333333","24.99703","6500400","永和區"
"234054","KEA-2590","2019/06/20 19:58:57","新北市永和區環河東路一段124號","121.52069","25.0154616666667","6500400","永和區"
"234007","KED-0605","2019/06/20 19:58:51","新北市永和區保生路22巷8號","121.507166666667","25.008005","6500400","永和區"
"234013","KEA-2591","2019/06/20 19:59:00","新北市永和區保安路254號","121.506225","25.01252","6500400","永和區"
"234061","AAD-866","2019/06/20 19:59:05","新北市永和區中正路283巷29弄2號","121.516328333333","24.999845","6500400","永和區"
"234081","748-BX","2019/06/20 19:59:09","新北市永和區永利路81巷22號","121.522216666667","25.003635","6500400","永和區"
"234042","862-TW","2019/06/20 19:59:08","新北市永和區中和路421巷5弄1號","121.508688333333","25.0010783333333","6500400","永和區"
"234050","863-TW","2019/06/20 19:59:13","新北市永和區保安路264號","121.50585","25.0123616666667","6500400","永和區"
"234026","9371-KE","2019/06/20 19:58:58","新北市永和區水源街27巷5號","121.511248333333","25.0041783333333","6500400","永和區"
"234011","9373-KE","2019/06/20 19:58:57","新北市永和區仁愛路352巷112弄8號","121.501015","25.0084733333333","6500400","永和區"
"249005","172-UM","2019/06/20 19:59:07","新北市八里區楓林路1-11號","121.385438333333","25.1312616666667","6502300","八里區"
"249001","173-UM","2019/06/20 19:58:59","新北市八里區中華路二段312號","121.403791666667","25.1483366666667","6502300","八里區"
"249004","303-UY","2019/06/20 19:58:53","新北市八里區中山路二段6號","121.409965","25.15744","6502300","八里區"
"249002","305-UY","2019/06/20 19:59:01","新北市八里區頂寮一街50號","121.450481666667","25.1242433333333","6502300","八里區"
"249003","759-BX","2019/06/20 19:59:04","新北市八里區中華路二段560巷3號","121.398593333333","25.145135","6502300","八里區"
"248014","025-BX","2019/06/20 19:59:00","新北市五股區五福路6巷43號","121.4366","25.0883666666667","6501500","五股區"
"248016","026-BX","2019/06/20 19:59:09","新北市五股區成泰路三段577巷80弄7號","121.449516666667","25.104285","6501500","五股區"
"248008","KED-0815","2019/06/20 19:58:55","新北市五股區四維路69號","121.467245","25.071985","6501500","五股區"
"248020","KED-0813","2019/06/20 19:58:55","新北市五股區凌雲路三段38號","121.430931666667","25.1084383333333","6501500","五股區"
"248012","247-BX","2019/06/20 19:59:09","新北市五股區民義路一段109號","121.434071666667","25.0864733333333","6501500","五股區"
"248004","677-BX","2019/06/20 19:58:39","新北市五股區成泰路一段30-2號","121.435066666667","25.0680533333333","6501500","五股區"
"248002","678-BX","2019/06/20 19:59:01","新北市五股區成泰路三段557號","121.452051666667","25.10202","6501500","五股區"
"248010","682-TV","2019/06/20 19:58:53","新北市五股區登林路75號","121.428228333333","25.0698916666667","6501500","五股區"
"234023","9380-KE","2019/06/20 19:59:00","新北市永和區豫溪街49號","121.517028333333","25.009895","6500400","永和區"
"234077","969-R7","2019/06/20 19:58:55","新北市永和區民有街23巷1號","121.516818333333","24.9963633333333","6500400","永和區"
"234074","AAC-211","2019/06/20 19:58:54","新北市永和區豫溪街136巷5號","121.52137","25.0099483333333","6500400","永和區"
"234067","AAC-212","2019/06/20 19:59:07","新北市永和區永貞路335號","121.509618333333","25.0071","6500400","永和區"
"234003","AAC-295","2019/06/20 19:58:55","新北市永和區中正路730號","121.515541666667","25.0102183333333","6500400","永和區"
"243012","AAD-798","2019/06/20 19:59:04","新北市泰山區全興路20號","121.432258333333","25.0589283333333","6501600","泰山區"
"243010","297-R6","2019/06/20 19:58:46","新北市泰山區民生路33號","121.430611666667","25.0522066666667","6501600","泰山區"
"243014","KEA-2801","2019/06/20 19:58:59","新北市泰山區泰林路二段33-1號","121.435865","25.0568283333333","6501600","泰山區"
"243016","421-VK","2019/06/20 19:58:57","新北市泰山區貴陽街4號","121.421566666667","25.0332833333333","6501600","泰山區"
"243009","KEA-2215","2019/06/20 19:58:58","新北市泰山區楓江路16巷12號","121.433808333333","25.0619183333333","6501600","泰山區"
"243011","KEA-2216","2019/06/20 19:58:55","新北市泰山區明志路三段196巷52號","121.421766666667","25.0398866666667","6501600","泰山區"
"222003","436-BY","2019/06/20 19:58:53","新北市深坑區埔新街14號","121.620751666667","25.0039183333333","6501800","深坑區"
"222002","659-BX","2019/06/20 19:59:08","新北市深坑區北深路二段55巷12弄23號","121.618421666667","25.003135","6501800","深坑區"
"231060","001-UM","2019/06/20 19:59:01","新北市新店區安康路二段337-1號","121.498471666667","24.9560183333333","6500600","新店區"
"231061","002-UM","2019/06/20 19:59:05","新北市新店區安民街283號","121.517463333333","24.9733","6500600","新店區"
"231059","046-UY","2019/06/20 19:59:04","新北市新店區安和路二段1號","121.517773333333","24.9669216666667","6500600","新店區"
"231042","047-UY","2019/06/20 19:58:53","新北市新店區中興路一段283號","121.545396666667","24.9684883333333","6500600","新店區"
"231051","107-UY","2019/06/20 19:58:55","新北市新店區中央四街5-1號","121.530203333333","24.9737916666667","6500600","新店區"
"231049","108-UY","2019/06/20 19:59:05","新北市新店區民權路89號","121.537693333333","24.9828783333333","6500600","新店區"
"231065","110-UY","2019/06/20 19:59:07","新北市新店區安祥路106-1號","121.478568333333","24.9619016666667","6500600","新店區"
"231068","187-VK","2019/06/20 19:58:54","新北市新店區安一路一段1-1號","121.51967","24.9610816666667","6500600","新店區"
"231062","256-BX","2019/06/20 19:59:09","新北市新店區華城路36巷1號","121.52798","24.9553183333333","6500600","新店區"
"231054","260-TV","2019/06/20 19:58:55","新北市新店區光明街137號","121.539488333333","24.962","6500600","新店區"
"231064","278-BY","2019/06/20 19:59:11","新北市新店區安和路二段77號","121.518325","24.96885","6500600","新店區"
"231050","AAD-862","2019/06/20 19:59:03","新北市新店區北宜路二段82-8號","121.554246666667","24.9534616666667","6500600","新店區"
"231045","355-BY","2019/06/20 19:59:08","新北市新店區北宜路二段461號","121.561591666667","24.95409","6500600","新店區"
"231056","4715-K9","2019/06/20 19:59:02","新北市新店區北新路二段187號","121.54274","24.9776966666667","6500600","新店區"
"231067","4772-VM","2019/06/20 19:58:53","新北市新店區秀山路11巷24號","121.53148","24.9586783333333","6500600","新店區"
"231052","513-UM","2019/06/20 19:58:52","新北市新店區新烏路三段227號","121.547248333333","24.8966466666667","6500600","新店區"
"231040","617-UM","2019/06/20 19:59:02","新北市新店區中正路75巷71號","121.543266666667","24.9689183333333","6500600","新店區"
"231041","619-UM","2019/06/20 19:59:02","新北市新店區中央路21號","121.533175","24.978185","6500600","新店區"
"231063","641-BX","2019/06/20 19:59:08","新北市新店區車子路11號","121.503031666667","24.9520516666667","6500600","新店區"
"231047","KED-0819","2019/06/20 19:59:07","新北市新店區寶宏路6-1號","121.549145","24.9767116666667","6500600","新店區"
"231057","720-UM","2019/06/20 19:59:07","新北市新店區花園二路一段11號","121.555465","24.932525","6500600","新店區"
"231044","897-TW","2019/06/20 19:58:53","新北市新店區復興路27號","121.53898","24.9866983333333","6500600","新店區"
"231043","899-TW","2019/06/20 19:59:07","新北市新店區中正路263-4號","121.538296666667","24.9738533333333","6500600","新店區"
"231066","AKT-0513","2019/06/20 19:59:07","新北市新店區安康路二段341巷28號","121.497093333333","24.95456","6500600","新店區"
"241011","013-R5","2019/06/20 19:59:07","新北市三重區三和路二段119號","121.498958333333","25.0691766666667","6500200","三重區"
"241028","022-UY","2019/06/20 19:58:54","新北市三重區中正南路41巷1號","121.493851666667","25.0599433333333","6500200","三重區"
"241008","059-VK","2019/06/20 19:59:03","新北市三重區永福街179巷9號","121.47847","25.0750066666667","6500200","三重區"
"241012","060-VK","2019/06/20 19:59:03","新北市三重區仁義街18號","121.499656666667","25.0763133333333","6500200","三重區"
"241031","061-VK","2019/06/20 19:59:06","新北市三重區重新路四段144巷25號","121.487063333333","25.0551983333333","6500200","三重區"
"241015","062-VK","2019/06/20 19:59:05","新北市三重區三和路二段8號","121.50116","25.0668483333333","6500200","三重區"
"241017","063-VK","2019/06/20 19:59:00","新北市三重區重陽路三段192-4號","121.490508333333","25.0686333333333","6500200","三重區"
"241024","065-VK","2019/06/20 19:59:05","新北市三重區力行路二段2號","121.481918333333","25.0718883333333","6500200","三重區"
"241001","066-VK","2019/06/20 19:59:06","新北市三重區福隆路11號","121.48974","25.077095","6500200","三重區"
"241002","090-VK","2019/06/20 19:59:11","新北市三重區仁愛街351號","121.492011666667","25.07983","6500200","三重區"
"241003","091-VK","2019/06/20 19:59:08","新北市三重區仁愛街447號","121.489966666667","25.0823816666667","6500200","三重區"
"241005","262-UM","2019/06/20 19:58:51","新北市三重區溪尾街325巷32號","121.488695","25.08336","6500200","三重區"
"241016","266-UM","2019/06/20 19:58:59","新北市三重區正義北路48巷34號","121.496428333333","25.0636266666667","6500200","三重區"
"241009","267-UM","2019/06/20 19:58:54","新北市三重區三和路四段390巷40號","121.480456666667","25.07858","6500200","三重區"
"241018","268-UM","2019/06/20 19:59:05","新北市三重區正義北路244巷26號","121.495253333333","25.067975","6500200","三重區"
"241032","269-UM","2019/06/20 19:59:08","新北市三重區朝陽街40號","121.483308333333","25.056875","6500200","三重區"
"241013","270-UM","2019/06/20 19:58:59","新北市三重區三和路三段125巷40號","121.493976666667","25.073735","6500200","三重區"
"241025","271-UM","2019/06/20 19:59:03","新北市三重區頂崁街210巷11號","121.476516666667","25.0677983333333","6500200","三重區"
"241007","398-BY","2019/06/20 19:59:05","新北市三重區溪尾街154號","121.488773333333","25.0799266666667","6500200","三重區"
"241035","KEA-2210","2019/06/20 19:58:52","新北市三重區大榮街7號","121.498203333333","25.0630666666667","6500200","三重區"
"241004","475-VK","2019/06/20 19:58:57","新北市三重區五華街86號","121.493068333333","25.0822516666667","6500200","三重區"
"241020","478-VK","2019/06/20 19:59:01","新北市三重區忠孝路一段101號","121.48949","25.0721283333333","6500200","三重區"
"241026","480-VK","2019/06/20 19:58:57","新北市三重區仁慈街16號","121.501905","25.063125","6500200","三重區"
"241014","543-UM","2019/06/20 19:58:57","新北市三重區中央北路123號","121.499901666667","25.0677983333333","6500200","三重區"
"241006","AAD-863","2019/06/20 19:59:06","新北市三重區力行路二段84號","121.481891666667","25.0740166666667","6500200","三重區"
"241019","743-BX","2019/06/20 19:58:56","新北市三重區重陽路四段5號","121.491015","25.06905","6500200","三重區"
"241022","KED-0820","2019/06/20 19:58:55","新北市三重區過圳街19號","121.488676666667","25.0605016666667","6500200","三重區"
"241029","942-UM","2019/06/20 19:59:10","新北市三重區重新路三段204號","121.489975","25.05841","6500200","三重區"
"241033","AAC-255","2019/06/20 19:59:00","新北市三重區中興北街95號","121.46966","25.0483233333333","6500200","三重區"
"235066","003-UY","2019/06/20 19:59:09","新北市永和區保平路292巷13弄16號","121.506681666667","25.005555","6500300","中和區"
"235056","096-UM","2019/06/20 19:59:11","新北市中和區中山路三段157號","121.473458333333","25.0062466666667","6500300","中和區"
"235039","097-UM","2019/06/20 19:59:03","新北市中和區景平路278巷16弄24號","121.514386666667","24.9937383333333","6500300","中和區"
"235065","098-UM","2019/06/20 19:59:07","新北市中和區福祥路83號","121.499165","25.005635","6500300","中和區"
"235040","150-BY","2019/06/20 19:59:03","新北市中和區保健路10巷20-3號","121.507805","24.996695","6500300","中和區"
"235055","183-VK","2019/06/20 19:58:57","新北市中和區民生街37號","121.470301666667","25.00533","6500300","中和區"
"235049","186-VK","2019/06/20 19:59:10","新北市中和區南華路17-2號","121.50271","24.995725","6500300","中和區"
"235067","255-BX","2019/06/20 19:59:01","新北市中和區中正路866-5號","121.484578333333","25.005875","6500300","中和區"
"235044","293-VK","2019/06/20 19:59:09","新北市中和區景安路253號","121.503888333333","24.99048","6500300","中和區"
"235042","KEA-2878","2019/06/20 19:59:04","新北市土城區和城路二段255巷140號","121.476311666667","24.9865966666667","6500300","中和區"
"247014","KEA-2869","2019/06/20 19:58:56","新北市蘆洲區成功路185號","121.471896666667","25.0829333333333","6501400","蘆洲區"
"247008","KED-0682","2019/06/20 19:59:12","新北市蘆洲區信義路115號","121.478511666667","25.080225","6501400","蘆洲區"
"235050","4979-A6","2019/06/20 19:58:49","新北市中和區景平路241巷62號","121.507763333333","24.9922366666667","6500300","中和區"
"235041","551-UM","2019/06/20 19:59:05","新北市中和區安平路30號","121.509576666667","24.9948066666667","6500300","中和區"
"235070","558-UM","2019/06/20 19:58:52","新北市中和區圓通路168號","121.497373333333","24.9948616666667","6500300","中和區"
"235047","732-UM","2019/06/20 19:58:54","新北市中和區和平街160號","121.505933333333","24.9920233333333","6500300","中和區"
"235046","733-UM","2019/06/20 19:59:05","新北市中和區興南路一段105巷20弄5號","121.510285","24.9855283333333","6500300","中和區"
"235052","805-TS","2019/06/20 19:59:02","新北市中和區華新街192巷22弄12號","121.507033333333","24.98348","6500300","中和區"
"235048","896-TW","2019/06/20 19:59:02","新北市新店區安和路三段159號","121.516296666667","24.9858783333333","6500300","中和區"
"235051","157-BY","2019/06/20 19:59:06","新北市中和區復興路301巷16號","121.501385","24.9896916666667","6500300","中和區"
"235037","AAC-213","2019/06/20 19:59:10","新北市中和區自強路52號","121.520073333333","24.9948066666667","6500300","中和區"
"235059","AAC-215","2019/06/20 19:59:07","新北市中和區圓通路305巷5弄19號","121.494195","24.990305","6500300","中和區"
"220065","072-UY","2019/06/20 19:59:08","新北市板橋區民族路276巷12號","121.469766666667","25.0065083333333","6500100","板橋區"
"220086","073-UY","2019/06/20 19:59:09","新北市板橋區南雅西路二段2-6號","121.453353333333","25.0089516666667","6500100","板橋區"
"220106","075-UY","2019/06/20 19:59:08","新北市板橋區文聖街11巷26號","121.476188333333","25.03306","6500100","板橋區"
"220069","AAD-861","2019/06/20 19:59:07","新北市板橋區大明街25巷2弄1號","121.458096666667","25.002245","6500100","板橋區"
"220090","120-SR","2019/06/20 19:59:12","新北市板橋區新海路72巷3號","121.462143333333","25.0219866666667","6500100","板橋區"
"247004","893-R6","2019/06/20 19:59:02","新北市蘆洲區永康街55號","121.456723333333","25.085255","6501400","蘆洲區"
"247018","546-UM","2019/06/20 19:59:09","新北市蘆洲區民族路290巷7號","121.478296666667","25.0897633333333","6501400","蘆洲區"
"247024","337-TH","2019/06/20 19:59:10","新北市蘆洲區光榮路120巷31號","121.465765","25.0880716666667","6501400","蘆洲區"
"247002","336-TH","2019/06/20 19:58:59","新北市蘆洲區長安街274巷11號","121.457946666667","25.087085","6501400","蘆洲區"
"247012","056-VK","2019/06/20 19:58:58","新北市蘆洲區民族路151號","121.479535","25.0879916666667","6501400","蘆洲區"
"247016","053-VK","2019/06/20 19:59:02","新北市蘆洲區中正路96號","121.470165","25.0839816666667","6501400","蘆洲區"
"247020","007-UY","2019/06/20 19:58:56","新北市蘆洲區民義街53號","121.472805","25.0897883333333","6501400","蘆洲區"
"247006","002-UY","2019/06/20 19:59:11","新北市蘆洲區九芎街115號","121.465508333333","25.0794616666667","6501400","蘆洲區"
"226004","312-R5","2019/06/20 19:59:03","新北市平溪區十分里十分街129號","121.776953333333","25.043295","6502400","平溪區"
"228003","828-UM","2019/06/20 19:58:54","新北市貢寮區仁理村仁和路39號","121.923966666667","25.0539783333333","6502600","貢寮區"
"227002","642-TC","2019/06/20 19:59:06","新北市雙溪區雙溪里長安街16號","121.864951666667","25.0346816666667","6502500","雙溪區"
"227001","400-TW","2019/06/20 19:58:54","新北市雙溪區新基里新基南街25號","121.866231666667","25.0381216666667","6502500","雙溪區"
"222001","KEA-2212","2019/06/20 19:58:57","新北市深坑區北深路三段145號","121.603253333333","25.0029666666667","6501800","深坑區"
"208002","KEA-2872","2019/06/20 19:58:54","新北市金山區環金路19號","121.640846666667","25.2176066666667","6502700","金山區"
"208003","665-BX","2019/06/20 19:58:56","新北市金山區海興路1-3號","121.633881666667","25.2440516666667","6502700","金山區"
"251009","008-UM","2019/06/20 19:59:06","新北市淡水區英專路21巷27號","121.444685","25.1697883333333","6501000","淡水區"
"251004","009-UM","2019/06/20 19:58:51","新北市淡水區民權路177巷11號","121.46072","25.1352833333333","6501000","淡水區"
"251005","010-UM","2019/06/20 19:58:59","新北市淡水區學府路136巷1號","121.450763333333","25.1729933333333","6501000","淡水區"
"251001","011-UM","2019/06/20 19:58:55","新北市淡水區淡金路一段166號","121.454105","25.1798716666667","6501000","淡水區"
"251015","KEA-2871","2019/06/20 19:59:06","新北市三芝區興華里田心子26號","121.492636666667","25.1953916666667","6501000","淡水區"
"251016","179-VK","2019/06/20 19:58:57","新北市淡水區淡金路四段493號","121.45201","25.2252266666667","6501000","淡水區"
"251008","181-VK","2019/06/20 19:58:55","新北市淡水區淡海路63巷18號","121.422458333333","25.1805133333333","6501000","淡水區"
"251013","182-VK","2019/06/20 19:58:50","新北市淡水區下圭柔山63-7號","121.45184","25.2062016666667","6501000","淡水區"
"251012","441-VK","2019/06/20 19:59:04","新北市淡水區下圭柔山61-5號","121.447815","25.2048316666667","6501000","淡水區"
"251007","442-VK","2019/06/20 19:58:54","新北市淡水區淡金路77巷39號","121.453726666667","25.160265","6501000","淡水區"
"251006","561-UM","2019/06/20 19:59:02","新北市淡水區水碓街10號","121.443633333333","25.1770866666667","6501000","淡水區"
"251014","577-R6","2019/06/20 19:58:57","新北市淡水區石頭厝2-1號","121.458136666667","25.2356916666667","6501000","淡水區"
"251011","650-BX","2019/06/20 19:58:55","新北市淡水區淡金路二段138號","121.446973333333","25.187955","6501000","淡水區"
"251002","672-BX","2019/06/20 19:59:03","新北市淡水區新市二路三段16號","121.43179","25.194115","6501000","淡水區"
"207003","550-UM","2019/06/20 19:58:54","新北市萬里區大鵬里萬里加投63號","121.640641666667","25.2131533333333","6502800","萬里區"
"207004","225-TW","2019/06/20 19:59:06","新北市萬里區北基里忠一街1號","121.686788333333","25.1763166666667","6502800","萬里區"
"252002","178-VK","2019/06/20 19:58:56","新北市三芝區三民街39巷5號","121.505496666667","25.25765","6502100","三芝區"
"208001","170-UY","2019/06/20 19:59:09","新北市金山區南勢湖5號","121.621625","25.2193516666667","6502700","金山區"
"237004","KEA-2597","2019/06/20 19:58:57","新北市三峽區添福15-32號","121.372576666667","24.9046933333333","6500900","三峽區"
"237009","210-TH","2019/06/20 19:59:09","新北市三峽區民族街78巷1號","121.369081666667","24.92988","6500900","三峽區"
"237013","252-BX","2019/06/20 19:59:07","新北市三峽區介壽路二段140號","121.39429","24.9358966666667","6500900","三峽區"
"237012","275-BY","2019/06/20 19:59:01","新北市三峽區愛國路172-1號","121.374928333333","24.9311666666667","6500900","三峽區"
"237008","302-VK","2019/06/20 19:59:11","新北市三峽區中正路一段174巷4弄31號","121.372613333333","24.9295233333333","6500900","三峽區"
"237014","433-BY","2019/06/20 19:59:06","新北市三峽區添福29-1號","121.37332","24.9032983333333","6500900","三峽區"
"237006","5529-G3","2019/06/20 19:58:55","新北市三峽區中正路二段87-1號","121.366408333333","24.917625","6500900","三峽區"
"237015","649-BX","2019/06/20 19:59:02","新北市三峽區介壽路三段20號","121.395978333333","24.93622","6500900","三峽區"
"237005","AKY-6261","2019/06/20 19:59:04","新北市三峽區民生街1巷7號","121.379721666667","24.9358716666667","6500900","三峽區"
"236042","KED-0685","2019/06/20 19:58:55","新北市土城區學府路一段98巷16號","121.455818333333","24.98858","6501300","土城區"
"236078","166-UM","2019/06/20 19:58:59","新北市土城區民生街6-1號","121.413701666667","24.9635033333333","6501300","土城區"
"236030","253-BX","2019/06/20 19:59:07","新北市土城區中華路一段203巷5號","121.443341666667","24.9849183333333","6501300","土城區"
"236026","269-VK","2019/06/20 19:59:04","新北市土城區員林街5號","121.442511666667","24.97813","6501300","土城區"
"236014","270-VK","2019/06/20 19:59:10","新北市土城區廣福街123號","121.45623","24.9929033333333","6501300","土城區"
"236038","271-VK","2019/06/20 19:59:07","新北市土城區國際路72號","121.46684","24.97623","6501300","土城區"
"247010","KED-0683","2019/06/20 19:59:04","新北市三重區集賢路188號","121.483821666667","25.0879466666667","6501400","蘆洲區"
"236070","KEA-2877","2019/06/20 19:58:57","新北市土城區千歲路11號","121.440858333333","24.9697633333333","6501300","土城區"
"252001","KED-0821","2019/06/20 19:59:03","新北市三芝區公正街9號","121.499751666667","25.2574533333333","6502100","三芝區"
"236021","401-BY","2019/06/20 19:58:57","新北市土城區延吉街111巷12弄2號","121.471715","24.9859433333333","6501300","土城區"
"236063","752-BX","2019/06/20 19:59:02","新北市土城區延和路215號","121.469861666667","24.9897683333333","6501300","土城區"
"236059","912-UM","2019/06/20 19:59:07","新北市土城區中央路一段278號","121.443525","24.9828316666667","6501300","土城區"
"236049","913-UM","2019/06/20 19:59:11","新北市土城區金城路三段262號","121.474345","24.9907716666667","6501300","土城區"
"236055","AAC-216","2019/06/20 19:59:11","新北市土城區立德路16號","121.462651666667","24.987835","6501300","土城區"
"242039","AAC-296","2019/06/20 19:59:02","新北市新莊區民安路299巷19號","121.428921666667","25.023075","6500500","新莊區"
"242061","986-R7","2019/06/20 19:59:05","新北市新莊區瓊林路瓊英巷9號","121.443368333333","25.0275383333333","6500500","新莊區"
"242029","615-BX","2019/06/20 19:59:01","新北市新莊區中榮街152巷42號","121.445508333333","25.05382","6500500","新莊區"
"242027","613-BX","2019/06/20 19:59:09","新北市新莊區立信三街35巷9號","121.442936666667","25.0508183333333","6500500","新莊區"
"242058","612-BX","2019/06/20 19:59:07","新北市新莊區八德街91號","121.424413333333","25.0214866666667","6500500","新莊區"
"242004","440-UM","2019/06/20 19:58:56","新北市新莊區化成路478號","121.466051666667","25.051535","6500500","新莊區"
"242011","413-TV","2019/06/20 19:59:01","新北市新莊區中港路531巷90號","121.450053333333","25.0518366666667","6500500","新莊區"
"242048","400-BY","2019/06/20 19:58:56","新北市新莊區四維路8號","121.423796666667","25.025285","6500500","新莊區"
"242025","362-BY","2019/06/20 19:58:54","新北市新莊區五工二路86巷50號","121.460811666667","25.0675666666667","6500500","新莊區"
"242023","353-BY","2019/06/20 19:59:01","新北市新莊區化成路179號","121.465783333333","25.0497483333333","6500500","新莊區"
"242013","132-UY","2019/06/20 19:59:00","新北市新莊區中港路391號","121.451338333333","25.046985","6500500","新莊區"
"242036","135-UY","2019/06/20 19:59:05","新北市新莊區建安街41巷10號","121.42908","25.0252483333333","6500500","新莊區"
"242053","172-VK","2019/06/20 19:58:56","新北市新莊區民安西路368號","121.42767","25.01091","6500500","新莊區"
"242015","173-VK","2019/06/20 19:59:01","新北市新莊區泰順街42號","121.447021666667","25.0428166666667","6500500","新莊區"
"242007","175-VK","2019/06/20 19:58:59","新北市新莊區思源路593巷16號","121.458638333333","25.0597116666667","6500500","新莊區"
"242019","KED-0687","2019/06/20 19:59:07","新北市新莊區明智街1號","121.4548","25.04137","6500500","新莊區"
"242021","346-TH","2019/06/20 19:58:54","新北市新莊區建中街16巷30號","121.449128333333","25.038755","6500500","新莊區"
"242031","347-TH","2019/06/20 19:59:07","新北市新莊區忠孝街15號","121.443871666667","25.0350483333333","6500500","新莊區"
"242034","348-TH","2019/06/20 19:59:06","新北市新莊區建中街83號","121.447228333333","25.0366566666667","6500500","新莊區"
"242051","350-TH","2019/06/20 19:58:50","新北市新莊區西盛街182號","121.428193333333","25.018655","6500500","新莊區"
"242017","351-TH","2019/06/20 19:59:00","新北市新莊區中安街2號","121.452795","25.045125","6500500","新莊區"
"238015","755-BX","2019/06/20 19:58:32","新北市樹林區中山路三段210-2號","121.380628333333","24.9678833333333","6500700","樹林區"
"238021","KEA-2539","2019/06/20 19:58:56","新北市樹林區田尾街194號","121.400616666667","24.9487783333333","6500700","樹林區"
"238025","303-VK","2019/06/20 19:57:56","新北市樹林區中山路三段210-2號","121.380845","24.96682","6500700","樹林區"
"238017","283-BY","2019/06/20 19:59:01","新北市樹林區保安街二段45巷40-5號","121.413903333333","25.0002133333333","6500700","樹林區"
"239006","891-R6","2019/06/20 19:59:05","新北市鶯歌區文化路271號","121.353151666667","24.952905","6500800","鶯歌區"
"239002","661-UM","2019/06/20 19:59:09","新北市鶯歌區中山路300號","121.342983333333","24.9569983333333","6500800","鶯歌區"
"239005","526-UM","2019/06/20 19:58:57","新北市鶯歌區中正一路478號","121.36527","24.9566266666667","6500800","鶯歌區"
"221008","489-VK","2019/06/20 19:59:03","新北市汐止區康寧街83巷26號","121.620681666667","25.0673883333333","6501100","汐止區"
"221015","131-UY","2019/06/20 19:58:59","新北市汐止區橋東街20號","121.66641","25.075665","6501100","汐止區"
"221010","269-BY","2019/06/20 19:58:58","新北市汐止區汐萬路一段345號","121.650026666667","25.0769183333333","6501100","汐止區"
"221012","278-VK","2019/06/20 19:58:57","新北市汐止區大同路三段579號","121.682553333333","25.0733816666667","6501100","汐止區"
"221023","279-VK","2019/06/20 19:58:52","新北市汐止區民族三街45號","121.629701666667","25.0698816666667","6501100","汐止區"
"221027","281-BY","2019/06/20 19:59:00","新北市汐止區中正路85號","121.661298333333","25.069425","6501100","汐止區"
"221029","298-VK","2019/06/20 19:58:01","新北市汐止區樟樹一路137巷26號","121.640886666667","25.06603","6501100","汐止區"
"221021","299-VK","2019/06/20 19:58:58","新北市汐止區水源路一段177號","121.655096666667","25.0618416666667","6501100","汐止區"
"221031","353-TW","2019/06/20 19:58:53","新北市汐止區福德二路55巷6弄1號","121.634535","25.0666183333333","6501100","汐止區"
"221035","622-UM","2019/06/20 19:59:01","新北市汐止區長江街9號","121.65459","25.0711766666667","6501100","汐止區"
"221038","646-BX","2019/06/20 19:59:01","新北市汐止區忠孝東路486號","121.666323333333","25.0739816666667","6501100","汐止區"
"221033","647-BX","2019/06/20 19:59:10","新北市汐止區東勢街190巷3號","121.63387","25.0416066666667","6501100","汐止區"
"221018","753-BX","2019/06/20 19:59:03","新北市汐止區大同路二段533號","121.661833333333","25.069075","6501100","汐止區"
"220079","145-BY","2019/06/20 19:59:04","新北市板橋區中正路162號","121.456631666667","25.0168016666667","6500100","板橋區"
"220080","200-UY","2019/06/20 19:59:03","新北市板橋區大觀路二段79巷2弄16號","121.44739","25.0016266666667","6500100","板橋區"
"220082","610-BX","2019/06/20 19:58:52","新北市板橋區存德街9號","121.430003333333","24.9919483333333","6500100","板橋區"
"220101","245-BX","2019/06/20 19:59:06","新北市板橋區雙十路一段44巷36號","121.477171666667","25.024825","6500100","板橋區"
"224002","257-TC","2019/06/20 19:58:53","新北市瑞芳區三爪子坑路303-2號","121.818026666667","25.10606","6501200","瑞芳區"
"220056","276-BY","2019/06/20 19:59:00","新北市板橋區四川路二段99巷13號","121.4531","24.9943166666667","6500100","板橋區"
"220072","277-BY","2019/06/20 19:59:09","新北市板橋區金門街215巷6號","121.432871666667","24.98975","6500100","板橋區"
"220071","283-VK","2019/06/20 19:58:57","新北市板橋區五權街32巷36號","121.463595","24.99264","6500100","板橋區"
"220094","285-UM","2019/06/20 19:59:10","新北市板橋區文化路一段371號","121.466871666667","25.0215883333333","6500100","板橋區"
"220053","285-VK","2019/06/20 19:59:10","新北市板橋區懷仁街55號","121.47691","25.018955","6500100","板橋區"
"220083","286-VK","2019/06/20 19:59:02","新北市板橋區僑中二街8巷34號","121.445693333333","25.011395","6500100","板橋區"
"220081","287-VK","2019/06/20 19:59:08","新北市板橋區大觀路一段31號","121.450023333333","25.0084316666667","6500100","板橋區"
"220061","293-UM","2019/06/20 19:59:00","新北市板橋區觀光街79巷2號","121.46934","25.0169466666667","6500100","板橋區"
"220084","296-UM","2019/06/20 19:58:56","新北市板橋區溪崑二街103巷7號","121.42708","24.9888233333333","6500100","板橋區"
"242044","281-VK","2019/06/20 19:59:08","新北市新莊區中正路746巷39號","121.411071666667","25.024315","6500500","新莊區"
"220075","303-R5","2019/06/20 19:59:06","新北市板橋區金華街10巷5號","121.455986666667","25.0201566666667","6500100","板橋區"
"220062","305-R5","2019/06/20 19:59:10","新北市板橋區光復街103號","121.484115","25.019095","6500100","板橋區"
"220092","307-R5","2019/06/20 19:58:52","新北市板橋區光正街23巷46號","121.461711666667","25.0156866666667","6500100","板橋區"
"220098","317-R6","2019/06/20 19:58:56","新北市板橋區四維路269巷82號","121.46001","25.0268433333333","6500100","板橋區"
"220089","487-VK","2019/06/20 19:59:08","新北市板橋區四維路133號","121.465011666667","25.0251783333333","6500100","板橋區"
"220088","491-VK","2019/06/20 19:59:09","新北市板橋區民治街79號","121.479595","25.0323266666667","6500100","板橋區"
"220103","561-BX","2019/06/20 19:59:03","新北市板橋區新海路95號","121.461571666667","25.02219","6500100","板橋區"
"220063","609-BX","2019/06/20 19:59:06","新北市板橋區中山路二段113號","121.474795","25.0162216666667","6500100","板橋區"
"220035","630-UY","2019/06/20 19:59:06","新北市板橋區金華街97號","121.458503333333","25.02081","6500100","板橋區"
"220091","637-BX","2019/06/20 19:58:52","新北市板橋區文聖街101巷13號","121.478151666667","25.0296933333333","6500100","板橋區"
"220057","686-BX","2019/06/20 19:58:59","新北市板橋區四川路二段253號","121.450378333333","24.9933683333333","6500100","板橋區"
"220077","687-BX","2019/06/20 19:59:01","新北市板橋區僑中一街124巷3弄25號","121.444625","25.0121166666667","6500100","板橋區"
"220093","689-BX","2019/06/20 19:58:55","新北市板橋區長江路二段112號","121.465448333333","25.0315733333333","6500100","板橋區"
"220054","741-BX","2019/06/20 19:59:06","新北市板橋區忠孝路忠義巷9弄2號","121.465508333333","25.0037433333333","6500100","板橋區"
"220102","KEA-2699","2019/06/20 19:59:09","新北市板橋區文化路一段368號","121.46959","25.023605","6500100","板橋區"
"220055","827-TW","2019/06/20 19:58:57","新北市板橋區國慶路149巷4弄18-3號","121.461938333333","24.9970583333333","6500100","板橋區"
"220067","829-TW","2019/06/20 19:59:04","新北市板橋區長安街331巷93弄9號","121.472228333333","25.0124033333333","6500100","板橋區"
"220068","831-TW","2019/06/20 19:59:11","新北市板橋區中山路二段390號","121.482363333333","25.0205933333333","6500100","板橋區"
"220074","895-R6","2019/06/20 19:59:05","新北市板橋區文化路一段46巷19號","121.460331666667","25.0115133333333","6500100","板橋區"
"220073","985-R7","2019/06/20 19:59:00","新北市板橋區南雅西路二段285號","121.451975","25.01533","6500100","板橋區"
"220097","AAC-210","2019/06/20 19:58:51","新北市板橋區光正街45巷2弄18號","121.46104","25.0173283333333","6500100","板橋區"
"220064","AAC-253","2019/06/20 19:59:03","新北市板橋區區運路82號","121.466733333333","25.010425","6500100","板橋區"
"235068","KEA-2873","2019/06/20 19:59:09","新北市中和區中山路二段246號","121.49776","25.0027533333333","6500300","中和區"
