"lineid","car","time","location","longitude","latitude","cityid","cityname"
"234046","148-BY","2019/06/20 20:08:59","新北市永和區得和路346號","121.523766666667","24.9994216666667","6500400","永和區"
"234038","336-UY","2019/06/20 20:08:55","新北市永和區成功路一段72號","121.526788333333","25.0035466666667","6500400","永和區"
"234064","337-UY","2019/06/20 20:09:02","新北市永和區永利路99號","121.521946666667","25.002965","6500400","永和區"
"234086","338-UY","2019/06/20 20:09:00","新北市永和區中正路625號","121.515663333333","25.01","6500400","永和區"
"234070","552-UM","2019/06/20 20:08:55","新北市永和區福和路183巷1號","121.520045","25.0073683333333","6500400","永和區"
"234017","745-BX","2019/06/20 20:08:51","新北市永和區文化路70號","121.514285","25.0151333333333","6500400","永和區"
"234030","746-BX","2019/06/20 20:09:00","新北市永和區民權路49巷29號","121.52158","24.997505","6500400","永和區"
"234054","KEA-2590","2019/06/20 20:08:57","新北市永和區博愛街15號","121.517218333333","25.0158216666667","6500400","永和區"
"234007","KED-0605","2019/06/20 20:09:10","新北市永和區仁愛路352巷112弄26號","121.501986666667","25.0087316666667","6500400","永和區"
"234013","KEA-2591","2019/06/20 20:09:00","新北市永和區仁愛路279號","121.505786666667","25.0096833333333","6500400","永和區"
"234061","AAD-866","2019/06/20 20:09:05","新北市永和區中正路151巷1-1號","121.516196666667","24.9983766666667","6500400","永和區"
"234081","748-BX","2019/06/20 20:09:09","新北市永和區國中路29號","121.524506666667","25.00536","6500400","永和區"
"234042","862-TW","2019/06/20 20:09:08","新北市永和區雙和街60號","121.508968333333","25.0033616666667","6500400","永和區"
"234050","863-TW","2019/06/20 20:09:13","新北市永和區新生路192號","121.505815","25.0134883333333","6500400","永和區"
"234026","9371-KE","2019/06/20 20:08:55","新北市永和區保生路55-1號","121.504868333333","25.01148","6500400","永和區"
"234011","9373-KE","2019/06/20 20:08:57","新北市永和區環河西路二段241號","121.500583333333","25.0092416666667","6500400","永和區"
"249005","172-UM","2019/06/20 20:09:07","新北市八里區下罟子58-10號","121.38769","25.137405","6502300","八里區"
"249001","173-UM","2019/06/20 20:08:59","新北市八里區中華路二段312號","121.403713333333","25.1483616666667","6502300","八里區"
"249004","303-UY","2019/06/20 20:08:53","新北市八里區中山路一段217巷76號","121.41196","25.1575816666667","6502300","八里區"
"249002","305-UY","2019/06/20 20:09:01","新北市八里區龍米路一段40號","121.456795","25.1183466666667","6502300","八里區"
"249003","759-BX","2019/06/20 20:09:04","新北市八里區中山路二段540巷3號","121.3971","25.1468866666667","6502300","八里區"
"248016","026-BX","2019/06/20 20:08:49","新北市五股區成泰路三段577巷80弄71號","121.44888","25.1048266666667","6501500","五股區"
"248008","KED-0815","2019/06/20 20:08:56","新北市五股區中興路一段1巷23號","121.46975","25.0707166666667","6501500","五股區"
"248020","KED-0813","2019/06/20 20:08:55","新北市五股區凌雲路二段9號","121.444668333333","25.1024916666667","6501500","五股區"
"248012","247-BX","2019/06/20 20:08:50","新北市五股區六合街94號","121.4312","25.0910083333333","6501500","五股區"
"248004","677-BX","2019/06/20 20:08:59","新北市五股區成泰路一段235-3號","121.43634","25.0796616666667","6501500","五股區"
"248002","678-BX","2019/06/20 20:09:01","新北市五股區成泰路三段369-1號","121.448836666667","25.0960183333333","6501500","五股區"
"248010","682-TV","2019/06/20 20:08:53","新北市五股區成泰路一段7巷48弄8號","121.432723333333","25.0678316666667","6501500","五股區"
"234023","9380-KE","2019/06/20 20:09:11","新北市永和區中正路654巷56號","121.518348333333","25.0085133333333","6500400","永和區"
"234077","969-R7","2019/06/20 20:09:10","新北市永和區民光街22巷2號","121.516018333333","24.9957716666667","6500400","永和區"
"234074","AAC-211","2019/06/20 20:08:54","新北市永和區豫溪街207巷14號","121.523501666667","25.0099733333333","6500400","永和區"
"234067","AAC-212","2019/06/20 20:08:59","新北市永和區保平路214巷1弄2號","121.509491666667","25.0062183333333","6500400","永和區"
"234003","AAC-295","2019/06/20 20:09:02","新北市永和區中正路620號","121.517","25.007875","6500400","永和區"
"243012","AAD-798","2019/06/20 20:09:04","新北市泰山區楓江路46巷1號","121.435118333333","25.06225","6501600","泰山區"
"243010","297-R6","2019/06/20 20:09:06","新北市泰山區明志路二段136巷19號","121.426086666667","25.0517983333333","6501600","泰山區"
"243014","KEA-2801","2019/06/20 20:09:09","新北市泰山區明志路一段136號","121.433345","25.0633016666667","6501600","泰山區"
"243016","421-VK","2019/06/20 20:08:57","新北市泰山區明志路三段405號","121.421206666667","25.0340033333333","6501600","泰山區"
"243009","KEA-2215","2019/06/20 20:08:58","新北市泰山區泰林路二段122號","121.434518333333","25.0594033333333","6501600","泰山區"
"243011","KEA-2216","2019/06/20 20:08:55","新北市泰山區明志路三段514號","121.420883333333","25.0308033333333","6501600","泰山區"
"243015","680-BX","2019/06/20 20:09:08","新北市泰山區明志路二段81號","121.42888","25.0523983333333","6501600","泰山區"
"222003","436-BY","2019/06/20 20:08:53","新北市深坑區埔新街65號","121.620168333333","25.0023633333333","6501800","深坑區"
"222002","659-BX","2019/06/20 20:09:08","新北市深坑區北深路三段145號","121.603338333333","25.0029","6501800","深坑區"
"231060","001-UM","2019/06/20 20:09:01","新北市新店區安康路三段237號","121.48734","24.9517966666667","6500600","新店區"
"231061","002-UM","2019/06/20 20:09:05","新北市新店區安興路96號","121.515091666667","24.9764033333333","6500600","新店區"
"231059","046-UY","2019/06/20 20:09:04","新北市新店區安成街25號","121.510111666667","24.960885","6500600","新店區"
"231042","047-UY","2019/06/20 20:08:52","新北市新店區中興路二段89號","121.547145","24.97156","6500600","新店區"
"231051","107-UY","2019/06/20 20:08:55","新北市新店區中央路238號","121.52906","24.972375","6500600","新店區"
"231049","108-UY","2019/06/20 20:09:05","新北市新店區北新路二段171巷4號","121.5422","24.9765","6500600","新店區"
"231065","110-UY","2019/06/20 20:09:07","新北市新店區安祥路106巷244號","121.473321666667","24.9594583333333","6500600","新店區"
"231068","187-VK","2019/06/20 20:08:54","新北市新店區中興路二段99巷2號","121.546845","24.9722","6500600","新店區"
"231062","256-BX","2019/06/20 20:08:49","新北市新店區安康路二段93號","121.513115","24.96272","6500600","新店區"
"231054","260-TV","2019/06/20 20:08:55","新北市新店區檳榔路4號","121.541016666667","24.9648133333333","6500600","新店區"
"231064","278-BY","2019/06/20 20:09:12","新北市新店區安德街47號","121.511136666667","24.9622833333333","6500600","新店區"
"231050","AAD-862","2019/06/20 20:09:03","新北市新店區北新路一段339號","121.541866666667","24.9687383333333","6500600","新店區"
"231045","355-BY","2019/06/20 20:09:08","新北市新店區北宜路二段69號","121.549545","24.9515466666667","6500600","新店區"
"231055","4716-K9","2019/06/20 20:09:00","新北市新店區中華路83巷67號","121.538326666667","24.967335","6500600","新店區"
"231056","4715-K9","2019/06/20 20:09:02","新北市新店區中正路275巷25號","121.537031666667","24.97324","6500600","新店區"
"231067","4772-VM","2019/06/20 20:08:53","新北市新店區溪洲路6巷5號","121.53393","24.9614666666667","6500600","新店區"
"231052","513-UM","2019/06/20 20:09:12","新北市新店區新烏路三段寶島巷2弄3號","121.552003333333","24.89864","6500600","新店區"
"231040","617-UM","2019/06/20 20:09:02","新北市新店區中正路68號","121.544098333333","24.97015","6500600","新店區"
"231041","619-UM","2019/06/20 20:09:02","新北市新店區中正路427號","121.534095","24.978005","6500600","新店區"
"231063","641-BX","2019/06/20 20:09:08","新北市新店區黎明路59巷1號","121.502455","24.94742","6500600","新店區"
"231047","KED-0819","2019/06/20 20:09:07","新北市新店區寶橋路48號","121.545693333333","24.9750116666667","6500600","新店區"
"231057","720-UM","2019/06/20 20:09:07","新北市新店區百齡一路12號","121.553078333333","24.9324733333333","6500600","新店區"
"231044","897-TW","2019/06/20 20:08:53","新北市新店區寶元路一段15巷20號","121.541978333333","24.9869633333333","6500600","新店區"
"231043","899-TW","2019/06/20 20:09:07","新北市新店區民族路235號","121.536583333333","24.9757683333333","6500600","新店區"
"231066","AKT-0513","2019/06/20 20:09:07","新北市新店區薏仁坑路8-2號","121.499373333333","24.9589016666667","6500600","新店區"
"241011","013-R5","2019/06/20 20:09:07","新北市三重區三和路三段37號","121.495713333333","25.0712","6500200","三重區"
"241028","022-UY","2019/06/20 20:08:54","新北市三重區仁化街163號","121.494785","25.0570116666667","6500200","三重區"
"241008","059-VK","2019/06/20 20:09:04","新北市三重區永福街197巷37弄3號","121.478283333333","25.0744466666667","6500200","三重區"
"241012","060-VK","2019/06/20 20:09:03","新北市三重區仁愛街125巷38號","121.498023333333","25.076","6500200","三重區"
"241031","061-VK","2019/06/20 20:09:06","新北市三重區過圳街19號","121.488681666667","25.0601366666667","6500200","三重區"
"241015","062-VK","2019/06/20 20:09:06","新北市三重區福德北路43號","121.502273333333","25.06493","6500200","三重區"
"241017","063-VK","2019/06/20 20:09:00","新北市三重區自強路一段236號","121.493203333333","25.0669883333333","6500200","三重區"
"241024","065-VK","2019/06/20 20:06:26","新北市三重區後竹圍街275巷6號","121.481823333333","25.0707466666667","6500200","三重區"
"241001","066-VK","2019/06/20 20:09:06","新北市三重區三和路四段89巷20號","121.48989","25.0759816666667","6500200","三重區"
"241002","090-VK","2019/06/20 20:08:52","新北市三重區仁忠街39號","121.495545","25.08184","6500200","三重區"
"241003","091-VK","2019/06/20 20:09:00","新北市三重區仁愛街476號","121.48959","25.0824183333333","6500200","三重區"
"241005","262-UM","2019/06/20 20:08:51","新北市三重區五華街180巷36號","121.488041666667","25.0851933333333","6500200","三重區"
"241016","266-UM","2019/06/20 20:08:59","新北市三重區正德街56號","121.495591666667","25.06334","6500200","三重區"
"241009","267-UM","2019/06/20 20:08:54","新北市三重區力行路二段206號","121.483581666667","25.0779183333333","6500200","三重區"
"241018","268-UM","2019/06/20 20:09:05","新北市三重區正義北路256巷116號","121.493603333333","25.06782","6500200","三重區"
"241032","269-UM","2019/06/20 20:09:09","新北市三重區捷運路36號","121.483401666667","25.05541","6500200","三重區"
"241013","270-UM","2019/06/20 20:08:59","新北市三重區三和路三段151巷43號","121.4939","25.0742883333333","6500200","三重區"
"241025","271-UM","2019/06/20 20:09:03","新北市三重區中正北路293號","121.474613333333","25.071175","6500200","三重區"
"241007","398-BY","2019/06/20 20:09:05","新北市三重區三和路四段111-28號","121.487013333333","25.0776666666667","6500200","三重區"
"241035","KEA-2210","2019/06/20 20:08:52","新北市三重區平安街51號","121.497895","25.0641583333333","6500200","三重區"
"241004","475-VK","2019/06/20 20:08:57","新北市三重區自強路四段110號","121.491545","25.0799383333333","6500200","三重區"
"241020","478-VK","2019/06/20 20:09:01","新北市三重區後竹圍街2巷2號","121.49184","25.073465","6500200","三重區"
"241026","480-VK","2019/06/20 20:08:57","新北市三重區福德南路65巷2號","121.502396666667","25.0604133333333","6500200","三重區"
"241014","543-UM","2019/06/20 20:08:57","新北市三重區安和路39號","121.501065","25.0693666666667","6500200","三重區"
"241006","AAD-863","2019/06/20 20:09:06","新北市三重區力行路二段96號","121.482031666667","25.0746166666667","6500200","三重區"
"241019","743-BX","2019/06/20 20:08:56","新北市三重區自強路二段33巷29號","121.49038","25.06973","6500200","三重區"
"241022","KED-0820","2019/06/20 20:08:55","新北市三重區重陽路二段1號","121.486871666667","25.0617833333333","6500200","三重區"
"241029","942-UM","2019/06/20 20:09:10","新北市三重區光明路32巷36號","121.492166666667","25.0588033333333","6500200","三重區"
"241033","AAC-255","2019/06/20 20:09:00","新北市三重區光復路一段64巷4號","121.471645","25.0490166666667","6500200","三重區"
"235066","003-UY","2019/06/20 20:09:09","新北市中和區水源路127巷1號","121.508038333333","25.003335","6500300","中和區"
"235039","097-UM","2019/06/20 20:09:03","新北市中和區大勇街25巷1號","121.517183333333","24.993175","6500300","中和區"
"235065","098-UM","2019/06/20 20:09:06","新北市中和區永和路67-3號","121.496786666667","25.00551","6500300","中和區"
"235040","150-BY","2019/06/20 20:09:03","新北市中和區保健路31號","121.50865","24.99777","6500300","中和區"
"235055","183-VK","2019/06/20 20:08:57","新北市板橋區民生路二段120號","121.470468333333","25.0194883333333","6500300","中和區"
"235067","255-BX","2019/06/20 20:09:01","新北市五股區中興路三段3-6號","121.44995","25.0785316666667","6500300","中和區"
"235042","KEA-2878","2019/06/20 20:09:04","新北市樹林區柑園街二段149巷27號","121.382715","24.95311","6500300","中和區"
"247014","KEA-2869","2019/06/20 20:08:56","新北市蘆洲區中山二路265巷32號","121.470871666667","25.0795583333333","6501400","蘆洲區"
"247008","KED-0682","2019/06/20 20:08:52","新北市蘆洲區中山一路135巷6弄21號","121.475128333333","25.0809433333333","6501400","蘆洲區"
"235050","4979-A6","2019/06/20 20:09:09","新北市中和區安樂路37號","121.511778333333","24.9930633333333","6500300","中和區"
"235069","4980-A6","2019/06/20 20:09:07","新北市中和區景新街34巷4號","121.50318","24.9991483333333","6500300","中和區"
"235070","558-UM","2019/06/20 20:08:52","新北市中和區中正路436號","121.491145","24.99424","6500300","中和區"
"235051","157-BY","2019/06/20 20:08:46","新北市中和區景安路220巷24號","121.502636666667","24.99145","6500300","中和區"
"235037","AAC-213","2019/06/20 20:08:50","新北市中和區中正路1153號","121.482666666667","25.0082066666667","6500300","中和區"
"235059","AAC-215","2019/06/20 20:09:07","新北市中和區圓通路335巷13號","121.493268333333","24.9894866666667","6500300","中和區"
"220065","072-UY","2019/06/20 20:09:08","新北市板橋區民族路87號","121.466161666667","25.0085983333333","6500100","板橋區"
"247004","893-R6","2019/06/20 20:09:02","新北市蘆洲區永安南路二段328巷17弄16號","121.45587","25.08387","6501400","蘆洲區"
"247018","546-UM","2019/06/20 20:09:09","新北市蘆洲區民族路314巷23號","121.478051666667","25.0906616666667","6501400","蘆洲區"
"247024","337-TH","2019/06/20 20:09:12","新北市蘆洲區光榮路118號","121.464873333333","25.08886","6501400","蘆洲區"
"247002","336-TH","2019/06/20 20:08:59","新北市蘆洲區永康街2巷10號","121.45929","25.086255","6501400","蘆洲區"
"247022","057-VK","2019/06/20 20:08:56","新北市蘆洲區三民路173號","121.471053333333","25.0872366666667","6501400","蘆洲區"
"247012","056-VK","2019/06/20 20:08:58","新北市蘆洲區民族路248號","121.479236666667","25.0887583333333","6501400","蘆洲區"
"247016","053-VK","2019/06/20 20:09:02","新北市蘆洲區光華路135號","121.466315","25.0822333333333","6501400","蘆洲區"
"247020","007-UY","2019/06/20 20:08:56","新北市蘆洲區民義街68巷18號","121.473748333333","25.0894816666667","6501400","蘆洲區"
"247006","002-UY","2019/06/20 20:09:11","新北市蘆洲區中山二路300巷2號","121.468633333333","25.07728","6501400","蘆洲區"
"226004","312-R5","2019/06/20 20:09:03","新北市平溪區十分里十分街311號","121.77513","25.0435083333333","6502400","平溪區"
"222001","KEA-2212","2019/06/20 20:08:58","新北市深坑區北深路三段195號","121.601066666667","25.003625","6501800","深坑區"
"251009","008-UM","2019/06/20 20:09:06","新北市淡水區博愛街14號","121.4461","25.169925","6501000","淡水區"
"251004","009-UM","2019/06/20 20:09:11","新北市淡水區民族路31巷43號","121.462173333333","25.1367233333333","6501000","淡水區"
"251005","010-UM","2019/06/20 20:08:59","新北市淡水區學府路136巷41號","121.452001666667","25.172665","6501000","淡水區"
"251001","011-UM","2019/06/20 20:08:55","新北市淡水區淡金路二段509號","121.446895","25.1897733333333","6501000","淡水區"
"251015","KEA-2871","2019/06/20 20:09:06","新北市淡水區泉洲厝26號","121.484196666667","25.1905033333333","6501000","淡水區"
"251016","179-VK","2019/06/20 20:08:57","新北市淡水區番子田25-3號","121.456116666667","25.23055","6501000","淡水區"
"251008","181-VK","2019/06/20 20:08:55","新北市淡水區淡海路72巷30弄9號","121.424738333333","25.1827","6501000","淡水區"
"251013","182-VK","2019/06/20 20:09:10","新北市淡水區水汴頭16-8號","121.467456666667","25.2049183333333","6501000","淡水區"
"251010","413-VK","2019/06/20 20:09:05","新北市淡水區崁頂三路119號","121.43167","25.200825","6501000","淡水區"
"251012","441-VK","2019/06/20 20:09:04","新北市淡水區下圭柔山56-11號","121.447366666667","25.2046516666667","6501000","淡水區"
"251007","442-VK","2019/06/20 20:08:54","新北市淡水區中山北路三段163號","121.44534","25.19659","6501000","淡水區"
"251006","561-UM","2019/06/20 20:09:02","新北市淡水區北新路141巷2弄1號","121.449268333333","25.17921","6501000","淡水區"
"251014","577-R6","2019/06/20 20:08:57","新北市淡水區石頭厝2-1號","121.458115","25.2357016666667","6501000","淡水區"
"251011","650-BX","2019/06/20 20:08:55","新北市淡水區崁頂55-3號","121.4423","25.1966666666667","6501000","淡水區"
"251002","672-BX","2019/06/20 20:09:03","新北市淡水區中正路245號","121.433963333333","25.1742233333333","6501000","淡水區"
"251003","673-BX","2019/06/20 20:08:55","新北市淡水區新市一路二段256號","121.44371","25.1828816666667","6501000","淡水區"
"207003","550-UM","2019/06/20 20:08:54","新北市萬里區大鵬里萬里加投186號","121.64277","25.2156183333333","6502800","萬里區"
"207004","225-TW","2019/06/20 20:09:06","新北市萬里區北基里愛三街11號","121.68181","25.176675","6502800","萬里區"
"252002","178-VK","2019/06/20 20:08:59","新北市三芝區中正路一段70號","121.504048333333","25.2578683333333","6502100","三芝區"
"237012","275-BY","2019/06/20 20:09:01","新北市三峽區中華路141號","121.371058333333","24.9273033333333","6500900","三峽區"
"237014","433-BY","2019/06/20 20:09:06","新北市三峽區正義街138號","121.368466666667","24.9166166666667","6500900","三峽區"
"237006","5529-G3","2019/06/20 20:08:55","新北市三峽區嘉添34號","121.368673333333","24.9113016666667","6500900","三峽區"
"237015","649-BX","2019/06/20 20:09:02","新北市三峽區介壽路二段138巷45號","121.395386666667","24.933385","6500900","三峽區"
"237005","AKY-6261","2019/06/20 20:09:04","新北市三峽區三樹路98巷74弄91號","121.38505","24.9384733333333","6500900","三峽區"
"236042","KED-0685","2019/06/20 20:08:55","新北市土城區學府路一段157號","121.45329","24.9859433333333","6501300","土城區"
"236078","166-UM","2019/06/20 20:08:59","新北市土城區三民路51號","121.419768333333","24.9641716666667","6501300","土城區"
"236030","253-BX","2019/06/20 20:09:04","新北市土城區中央路一段118巷1弄22號","121.445573333333","24.98756","6501300","土城區"
"236026","269-VK","2019/06/20 20:09:04","新北市土城區明德路二段122號","121.444716666667","24.98433","6501300","土城區"
"236014","270-VK","2019/06/20 20:08:50","新北市土城區德興街137號","121.455183333333","24.9916983333333","6501300","土城區"
"236038","271-VK","2019/06/20 20:09:10","新北市土城區延吉街355號","121.46456","24.98397","6501300","土城區"
"247010","KED-0683","2019/06/20 20:09:04","新北市蘆洲區集賢路406號","121.479963333333","25.081785","6501400","蘆洲區"
"236070","KEA-2877","2019/06/20 20:08:57","新北市土城區中央路三段118號","121.435185","24.9661766666667","6501300","土城區"
"252001","KED-0821","2019/06/20 20:09:03","新北市三芝區公正街9號","121.499761666667","25.25749","6502100","三芝區"
"236021","401-BY","2019/06/20 20:09:05","新北市土城區延吉街17號","121.472291666667","24.98869","6501300","土城區"
"236063","752-BX","2019/06/20 20:09:02","新北市土城區立德路135巷5弄9號","121.464426666667","24.98726","6501300","土城區"
"236059","912-UM","2019/06/20 20:09:07","新北市土城區中央路二段366號","121.439911666667","24.971535","6501300","土城區"
"236049","913-UM","2019/06/20 20:09:06","新北市土城區清水路131號","121.45806","24.98158","6501300","土城區"
"236055","AAC-216","2019/06/20 20:08:51","新北市土城區中華路一段116號","121.443821666667","24.98639","6501300","土城區"
"242039","AAC-296","2019/06/20 20:09:02","新北市新莊區民安西路120號","121.426743333333","25.0184833333333","6500500","新莊區"
"242061","986-R7","2019/06/20 20:09:05","新北市新莊區瓊林路206-6號","121.435506666667","25.02217","6500500","新莊區"
"242029","615-BX","2019/06/20 20:09:01","新北市新莊區中原路319-2號","121.446678333333","25.054315","6500500","新莊區"
"242027","613-BX","2019/06/20 20:08:21","新北市新莊區中平路288-2號","121.445106666667","25.0510866666667","6500500","新莊區"
"242058","612-BX","2019/06/20 20:08:59","新北市新莊區八德街160號","121.423481666667","25.0198266666667","6500500","新莊區"
"242046","566-BX","2019/06/20 20:09:02","新北市新莊區裕民街73巷7號","121.41916","25.023925","6500500","新莊區"
"242004","440-UM","2019/06/20 20:08:56","新北市新莊區頭興街30號","121.464608333333","25.0534266666667","6500500","新莊區"
"242042","415-TV","2019/06/20 20:08:59","新北市新莊區青山路一段195號","121.398275","25.0313816666667","6500500","新莊區"
"242011","413-TV","2019/06/20 20:09:01","新北市新莊區中信街53號","121.449685","25.0507233333333","6500500","新莊區"
"242048","400-BY","2019/06/20 20:08:55","新北市新莊區四維路152巷30號","121.421938333333","25.0225266666667","6500500","新莊區"
"242025","362-BY","2019/06/20 20:09:00","新北市新莊區五權一路12巷25弄20號","121.458445","25.0645033333333","6500500","新莊區"
"242023","353-BY","2019/06/20 20:09:01","新北市新莊區化成路540-2號","121.4663","25.05334","6500500","新莊區"
"242013","132-UY","2019/06/20 20:09:00","新北市新莊區幸福路670巷2弄1號","121.451068333333","25.0495483333333","6500500","新莊區"
"242036","135-UY","2019/06/20 20:09:05","新北市新莊區建安街9巷16號","121.429546666667","25.0266516666667","6500500","新莊區"
"242053","172-VK","2019/06/20 20:08:56","新北市新莊區西盛街395巷23弄2號","121.42826","25.0124966666667","6500500","新莊區"
"242015","173-VK","2019/06/20 20:09:01","新北市新莊區中平路26巷13號","121.44546","25.0432966666667","6500500","新莊區"
"242007","175-VK","2019/06/20 20:09:00","新北市新莊區思源路453巷1號","121.45926","25.0534133333333","6500500","新莊區"
"242019","KED-0687","2019/06/20 20:09:07","新北市新莊區民樂街47號","121.457506666667","25.0417","6500500","新莊區"
"242021","346-TH","2019/06/20 20:08:54","新北市新莊區建中街28號","121.449008333333","25.0375733333333","6500500","新莊區"
"242031","347-TH","2019/06/20 20:09:07","新北市新莊區公園一路77號","121.443138333333","25.0371783333333","6500500","新莊區"
"242034","348-TH","2019/06/20 20:09:06","新北市新莊區中正路318巷16號","121.446485","25.0359633333333","6500500","新莊區"
"242051","350-TH","2019/06/20 20:09:10","新北市新莊區民安西路172巷2弄2號","121.42584","25.0159616666667","6500500","新莊區"
"242017","351-TH","2019/06/20 20:09:04","新北市新莊區中安街37號","121.452696666667","25.0466983333333","6500500","新莊區"
"238021","KEA-2539","2019/06/20 20:08:56","新北市樹林區佳園路二段13號","121.393425","24.9640883333333","6500700","樹林區"
"239006","891-R6","2019/06/20 20:09:05","新北市鶯歌區文化路73號","121.357785","24.9559366666667","6500800","鶯歌區"
"239002","661-UM","2019/06/20 20:09:09","新北市鶯歌區湖山路56巷2號","121.339465","24.9755316666667","6500800","鶯歌區"
"221008","489-VK","2019/06/20 20:09:03","台北市內湖區康樂街105號","121.619063333333","25.0704433333333","6501100","汐止區"
"221036","130-UY","2019/06/20 20:08:56","新北市汐止區新台五路二段41巷13號","121.662978333333","25.066925","6501100","汐止區"
"221015","131-UY","2019/06/20 20:08:59","新北市汐止區建成路26號","121.664548333333","25.0726266666667","6501100","汐止區"
"221010","269-BY","2019/06/20 20:08:58","新北市汐止區連峰街270號","121.644365","25.0815916666667","6501100","汐止區"
"221012","278-VK","2019/06/20 20:08:57","新北市汐止區大同路三段457號","121.678941666667","25.0712416666667","6501100","汐止區"
"221023","279-VK","2019/06/20 20:09:12","新北市汐止區明峰街198號","121.627928333333","25.0694266666667","6501100","汐止區"
"221032","280-BY","2019/06/20 20:09:01","新北市汐止區弘道街9巷4弄1號","121.616976666667","25.04918","6501100","汐止區"
"221027","281-BY","2019/06/20 20:09:00","新北市汐止區民生街4巷2號","121.660175","25.068825","6501100","汐止區"
"221029","298-VK","2019/06/20 20:08:48","新北市汐止區樟樹一路133巷12號","121.641416666667","25.0653316666667","6501100","汐止區"
"221021","299-VK","2019/06/20 20:09:03","新北市汐止區水源路一段238巷1號","121.654151666667","25.06054","6501100","汐止區"
"221031","353-TW","2019/06/20 20:08:53","新北市汐止區中興路130-1號","121.633076666667","25.0643116666667","6501100","汐止區"
"221035","622-UM","2019/06/20 20:09:01","新北市汐止區長江街39巷24號","121.655286666667","25.0721983333333","6501100","汐止區"
"221038","646-BX","2019/06/20 20:09:01","新北市汐止區大同路三段66-1號","121.66809","25.0769716666667","6501100","汐止區"
"221033","647-BX","2019/06/20 20:09:10","新北市汐止區東勢街201巷129弄2號","121.633405","25.0428733333333","6501100","汐止區"
"221002","707-TV","2019/06/20 20:09:10","新北市汐止區福德一路2巷1號","121.638916666667","25.069945","6501100","汐止區"
"221018","753-BX","2019/06/20 20:09:03","新北市汐止區茄福街29號","121.672476666667","25.066945","6501100","汐止區"
"220079","145-BY","2019/06/20 20:09:04","新北市板橋區建國街112號","121.460216666667","25.0174983333333","6500100","板橋區"
"220080","200-UY","2019/06/20 20:09:03","新北市板橋區大觀路二段153巷16號","121.446358333333","25.0004166666667","6500100","板橋區"
"220082","610-BX","2019/06/20 20:09:12","新北市板橋區金門街202-4號","121.43256","24.9902416666667","6500100","板橋區"
"220101","245-BX","2019/06/20 20:09:06","新北市板橋區雙十路二段47巷2弄31號","121.47501","25.026815","6500100","板橋區"
"224002","257-TC","2019/06/20 20:07:53","新北市瑞芳區員山子路員山巷23-1號","121.81692","25.1044866666667","6501200","瑞芳區"
"220072","277-BY","2019/06/20 20:08:50","新北市板橋區篤行路二段77巷9弄1號","121.432216666667","24.9918316666667","6500100","板橋區"
"220083","286-VK","2019/06/20 20:09:02","新北市板橋區僑中二街48巷12號","121.445828333333","25.0103933333333","6500100","板橋區"
"220081","287-VK","2019/06/20 20:09:08","新北市板橋區僑中一街80巷6弄1號","121.44774","25.0121783333333","6500100","板橋區"
"220061","293-UM","2019/06/20 20:09:00","新北市板橋區中山路一段156號","121.465011666667","25.01158","6500100","板橋區"
"220084","296-UM","2019/06/20 20:08:56","新北市板橋區溪崑二街112巷25號","121.4259","24.988855","6500100","板橋區"
"242044","281-VK","2019/06/20 20:09:08","桃園市龜山區萬壽路一段21巷12號","121.410648333333","25.0201883333333","6500500","新莊區"
"220075","303-R5","2019/06/20 20:08:50","新北市板橋區金華街10巷129號","121.459796666667","25.0206716666667","6500100","板橋區"
"220062","305-R5","2019/06/20 20:09:09","新北市板橋區萬安街20巷4弄16號","121.485188333333","25.0229616666667","6500100","板橋區"
"242009","280-VK","2019/06/20 20:09:00","新北市新莊區昌盛街35巷3弄1號","121.454101666667","25.0504183333333","6500500","新莊區"
"220103","561-BX","2019/06/20 20:09:03","新北市板橋區漢生東路33巷8號","121.465638333333","25.0172066666667","6500100","板橋區"
"220035","630-UY","2019/06/20 20:09:06","新北市板橋區新生街23巷3弄1號","121.45609","25.0215466666667","6500100","板橋區"
"220077","687-BX","2019/06/20 20:08:58","新北市板橋區僑中一街124巷23號","121.44622","25.014415","6500100","板橋區"
"220055","827-TW","2019/06/20 20:08:57","新北市板橋區仁愛路47巷2號","121.459836666667","24.9994833333333","6500100","板橋區"
"220067","829-TW","2019/06/20 20:09:04","新北市板橋區中山路一段206巷66弄2號","121.471941666667","25.01314","6500100","板橋區"
"220074","895-R6","2019/06/20 20:09:05","新北市板橋區明德街15號","121.459923333333","25.01054","6500100","板橋區"
"220073","985-R7","2019/06/20 20:08:53","新北市板橋區南雅西路二段2-4號","121.453106666667","25.0090983333333","6500100","板橋區"
"235068","KEA-2873","2019/06/20 20:08:54","新北市中和區福祥路87號","121.498973333333","25.0058","6500300","中和區"
