"lineid","car","time","location","longitude","latitude","cityid","cityname"
"231059","046-UY","2019/06/20 21:19:04","新北市新店區僑信路4巷1號","121.499716666667","24.9528083333333","6500600","新店區"
"231051","107-UY","2019/06/20 21:18:55","新北市新店區中正路700巷79號","121.53597","24.9933416666667","6500600","新店區"
"231068","187-VK","2019/06/20 21:18:54","新北市土城區中央路四段67巷60-1號","121.416806666667","24.9528133333333","6500600","新店區"
"231062","256-BX","2019/06/20 21:19:09","新北市新店區安華路8號","121.519895","24.9626616666667","6500600","新店區"
"231050","AAD-862","2019/06/20 21:19:03","新北市新店區中正路189巷14號","121.540173333333","24.9718466666667","6500600","新店區"
"231040","617-UM","2019/06/20 21:19:02","新北市新店區秀山路72號","121.531305","24.9609166666667","6500600","新店區"
"231063","641-BX","2019/06/20 21:19:08","新北市新店區吉祥街9巷1號","121.497496666667","24.9469983333333","6500600","新店區"
"241011","013-R5","2019/06/20 21:19:07","新北市三重區龍濱路183號","121.502183333333","25.0704983333333","6500200","三重區"
"241028","022-UY","2019/06/20 21:18:54","新北市三重區大同南路182號","121.496773333333","25.0569833333333","6500200","三重區"
"241008","059-VK","2019/06/20 21:19:04","新北市三重區重陽路三段43號","121.489556666667","25.06715","6500200","三重區"
"241031","061-VK","2019/06/20 21:19:06","新北市三重區五谷王南街46巷37號","121.475748333333","25.0455083333333","6500200","三重區"
"241015","062-VK","2019/06/20 21:19:06","新北市三重區長壽街91號","121.502743333333","25.0686016666667","6500200","三重區"
"241017","063-VK","2019/06/20 21:18:59","新北市三重區國隆路31號","121.492345","25.06444","6500200","三重區"
"241024","065-VK","2019/06/20 21:19:05","新北市三重區中正北路145巷14號","121.484091666667","25.067895","6500200","三重區"
"241001","066-VK","2019/06/20 21:19:13","新北市三重區仁愛街329號","121.49224","25.0795316666667","6500200","三重區"
"241002","090-VK","2019/06/20 21:19:11","新北市三重區五華街60號","121.494196666667","25.0813033333333","6500200","三重區"
"241003","091-VK","2019/06/20 21:19:00","新北市三重區仁義街317號","121.495348333333","25.0841666666667","6500200","三重區"
"241005","262-UM","2019/06/20 21:19:11","新北市三重區三信路180號","121.48805","25.0863783333333","6500200","三重區"
"241016","266-UM","2019/06/20 21:17:59","新北市三重區自強路一段125號","121.495241666667","25.0664233333333","6500200","三重區"
"241009","267-UM","2019/06/20 21:18:54","新北市五股區五工二路134號","121.453816666667","25.073645","6500200","三重區"
"241018","268-UM","2019/06/20 21:19:05","新北市三重區忠孝路二段148號","121.48229","25.068205","6500200","三重區"
"241032","269-UM","2019/06/20 21:19:08","新北市新莊區化成路585-15號","121.462516666667","25.0672883333333","6500200","三重區"
"241013","270-UM","2019/06/20 21:18:59","新北市三重區仁愛街81-1號","121.495901666667","25.0731766666667","6500200","三重區"
"241025","271-UM","2019/06/20 21:19:03","新北市三重區中正北路208巷10弄4號","121.482375","25.0669183333333","6500200","三重區"
"241007","398-BY","2019/06/20 21:19:05","新北市三重區正義北路261號","121.495465","25.0697383333333","6500200","三重區"
"241004","475-VK","2019/06/20 21:18:57","新北市三重區碧華街362號","121.490723333333","25.0841533333333","6500200","三重區"
"241026","480-VK","2019/06/20 21:18:57","新北市三重區大同南路153-2號","121.496601666667","25.056685","6500200","三重區"
"241014","543-UM","2019/06/20 21:18:57","新北市三重區萬全街9號","121.499298333333","25.0697016666667","6500200","三重區"
"241006","AAD-863","2019/06/20 21:19:06","新北市三重區新北大道一段176號","121.48303","25.0614683333333","6500200","三重區"
"241033","AAC-255","2019/06/20 21:19:00","新北市三重區中興北街219號","121.469061666667","25.0585283333333","6500200","三重區"
"235066","003-UY","2019/06/20 21:19:08","新北市中和區中正路589巷15號","121.48578","24.993195","6500300","中和區"
"235055","183-VK","2019/06/20 21:18:57","新北市中和區員山路36巷13號","121.484245","24.990715","6500300","中和區"
"235067","255-BX","2019/06/20 21:10:46","新北市中和區員山路36巷13號","121.484403333333","24.9913166666667","6500300","中和區"
"247014","KEA-2869","2019/06/20 21:18:56","新北市蘆洲區中正路187號","121.46867","25.0854683333333","6501400","蘆洲區"
"247008","KED-0682","2019/06/20 21:18:52","新北市蘆洲區中山一路95巷20弄33號","121.476253333333","25.080075","6501400","蘆洲區"
"247004","893-R6","2019/06/20 21:19:02","新北市蘆洲區永康街63號","121.456266666667","25.0852683333333","6501400","蘆洲區"
"247024","337-TH","2019/06/20 21:19:10","新北市蘆洲區長榮路269巷26號","121.459545","25.0861033333333","6501400","蘆洲區"
"247002","336-TH","2019/06/20 21:19:02","新北市蘆洲區永樂街74號","121.457071666667","25.08858","6501400","蘆洲區"
"247022","057-VK","2019/06/20 21:18:56","新北市蘆洲區三民路128巷98號","121.469433333333","25.090705","6501400","蘆洲區"
"247012","056-VK","2019/06/20 21:18:58","新北市蘆洲區中興街113號","121.482245","25.088845","6501400","蘆洲區"
"247006","002-UY","2019/06/20 21:19:11","新北市蘆洲區長安街57號","121.463058333333","25.0797383333333","6501400","蘆洲區"
"251009","008-UM","2019/06/20 21:19:06","新北市淡水區民族路112巷40號","121.462013333333","25.1343783333333","6501000","淡水區"
"251004","009-UM","2019/06/20 21:18:59","新北市淡水區民族路33號","121.462281666667","25.1358566666667","6501000","淡水區"
"251005","010-UM","2019/06/20 21:18:59","新北市淡水區水源街一段122巷40號","121.44689","25.17053","6501000","淡水區"
"251001","011-UM","2019/06/20 21:19:12","新北市淡水區濱海路一段306巷60弄21號","121.441216666667","25.1916466666667","6501000","淡水區"
"251015","KEA-2871","2019/06/20 21:19:06","新北市淡水區淡金路四段542號","121.45199","25.226955","6501000","淡水區"
"251016","179-VK","2019/06/20 21:18:57","新北市淡水區前洲子28號","121.44126","25.21909","6501000","淡水區"
"251008","181-VK","2019/06/20 21:18:55","新北市淡水區水源街二段246號","121.46222","25.1761183333333","6501000","淡水區"
"251013","182-VK","2019/06/20 21:19:10","新北市淡水區行忠路330號","121.460675","25.1998683333333","6501000","淡水區"
"251010","413-VK","2019/06/20 21:19:05","新北市淡水區中正路一段156巷8號","121.421658333333","25.1806966666667","6501000","淡水區"
"251012","441-VK","2019/06/20 21:19:03","新北市淡水區淡金路五段35巷46號","121.452498333333","25.234755","6501000","淡水區"
"251007","442-VK","2019/06/20 21:18:54","新北市淡水區崁頂78-5號","121.429403333333","25.2071383333333","6501000","淡水區"
"251014","577-R6","2019/06/20 21:18:57","新北市淡水區六塊厝2-1號","121.45017","25.2405166666667","6501000","淡水區"
"251011","650-BX","2019/06/20 21:18:55","新北市淡水區新民街120巷29號","121.438888333333","25.1788316666667","6501000","淡水區"
"251002","672-BX","2019/06/20 21:19:03","新北市淡水區學府路172巷21號","121.4483","25.1749183333333","6501000","淡水區"
"251003","673-BX","2019/06/20 21:18:55","新北市淡水區新春街91巷9號","121.438948333333","25.182905","6501000","淡水區"
"247010","KED-0683","2019/06/20 21:19:04","新北市五股區四維路185巷1號","121.467901666667","25.076145","6501400","蘆洲區"
