"lineid","car","time","location","longitude","latitude","cityid","cityname"
"231062","256-BX","2019/06/20 21:39:09","新北市樹林區中山路三段202號","121.386346666667","24.9685066666667","6500600","新店區"
"231040","617-UM","2019/06/20 21:39:02","新北市樹林區佳園路三段101巷1號","121.39555","24.9517316666667","6500600","新店區"
"241005","262-UM","2019/06/20 21:38:51","新北市三重區碧華街3號","121.483678333333","25.0811466666667","6500200","三重區"
"235067","255-BX","2019/06/20 21:10:46","新北市中和區員山路36巷13號","121.484403333333","24.9913166666667","6500300","中和區"
"247014","KEA-2869","2019/06/20 21:38:56","新北市八里區中山路三段386號","121.368535","25.1357583333333","6501400","蘆洲區"
"251009","008-UM","2019/06/20 21:39:06","新北市淡水區民族路29巷2弄2號","121.462718333333","25.1373166666667","6501000","淡水區"
"251004","009-UM","2019/06/20 21:38:59","新北市淡水區民生路60號","121.46207","25.13792","6501000","淡水區"
"251005","010-UM","2019/06/20 21:38:59","新北市淡水區水源街一段62巷11號","121.4448","25.171635","6501000","淡水區"
"251001","011-UM","2019/06/20 21:38:55","新北市淡水區新市二路三段152號","121.435523333333","25.1949633333333","6501000","淡水區"
"251016","179-VK","2019/06/20 21:38:57","新北市淡水區中山北路三段165-1號","121.444445","25.197","6501000","淡水區"
"251008","181-VK","2019/06/20 21:38:55","新北市淡水區水源街二段106號","121.452116666667","25.17457","6501000","淡水區"
"251010","413-VK","2019/06/20 21:39:08","新北市淡水區沙崙路197號","121.424991666667","25.1842566666667","6501000","淡水區"
"251012","441-VK","2019/06/20 21:39:03","新北市淡水區淡金路四段499號","121.451705","25.2274483333333","6501000","淡水區"
"251007","442-VK","2019/06/20 21:38:54","新北市淡水區水源街二段189-1號","121.456365","25.1759466666667","6501000","淡水區"
"251006","561-UM","2019/06/20 21:38:49","新北市淡水區中正路11巷1號","121.438985","25.16993","6501000","淡水區"
"251014","577-R6","2019/06/20 21:38:57","新北市淡水區淡金路四段596號","121.451595","25.2286633333333","6501000","淡水區"
"251011","650-BX","2019/06/20 21:38:55","新北市淡水區新民街296號","121.43504","25.1823333333333","6501000","淡水區"
"251002","672-BX","2019/06/20 21:39:03","新北市淡水區學府路162號","121.446678333333","25.1747666666667","6501000","淡水區"
"251003","673-BX","2019/06/20 21:38:55","新北市淡水區新春街29號","121.437018333333","25.1815533333333","6501000","淡水區"
