"lineid","car","time","location","longitude","latitude","cityid","cityname"
"232019","290-BY","2019/06/21 07:29:38","新北市平溪區東勢里芊蓁林28號","121.732563333333","24.9757883333333","6502000","坪林區"
"232008","291-BY","2019/06/21 07:29:24","新北市坪林區魚堀14-1號","121.704323333333","24.9077866666667","6502000","坪林區"
"232015","705-BZ","2019/06/21 07:29:41","新北市坪林區嶺腳坑7號","121.692416666667","24.9445833333333","6502000","坪林區"
"244004","248-BX","2019/06/21 07:29:33","新北市林口區忠福路352號","121.356091666667","25.0794883333333","6501700","林口區"
"222005","016-RS","2019/06/21 07:29:35","新北市深坑區文化街39巷13號","121.6189","25.0010933333333","6501800","深坑區"
"226001","7418-A5","2019/06/21 07:20:01","新北市平溪區望古里灰4-1號","121.762988333333","25.0298183333333","6502400","平溪區"
"226006","AGD-0702","2019/06/21 07:29:36","新北市平溪區嶺腳里嶺腳寮83-2號","121.74996","25.0352983333333","6502400","平溪區"
"223006","022-BY","2019/06/21 07:26:46","新北市石碇區北宜路五段1號","121.624541666667","24.9536016666667","6501900","石碇區"
"223003","205-TH","2019/06/21 07:26:38","新北市石碇區蓬菜寮17號","121.649163333333","24.97199","6501900","石碇區"
"223008","406-TH","2019/06/21 07:14:02","新北市石碇區靜安路一段337號","121.698795","25.0145716666667","6501900","石碇區"
"223001","592-UM","2019/06/21 07:29:37","新北市石碇區中楒子腳1號","121.645756666667","24.97086","6501900","石碇區"
"223004","660-BX","2019/06/21 07:29:29","新北市石碇區八分寮55-5號","121.64521","25.0169783333333","6501900","石碇區"
"223007","661-BX","2019/06/21 07:29:37","新北市石碇區大溪墘17號","121.692278333333","25.008135","6501900","石碇區"
"223005","677-TV","2019/06/21 07:29:37","新北市石碇區八分寮35-1號","121.644955","25.015865","6501900","石碇區"
"227003","282-VK","2019/06/21 07:29:33","新北市雙溪區牡丹里中正路34號","121.864626666667","25.03832","6502500","雙溪區"
"226005","ANY-2373","2019/06/21 07:29:30","新北市平溪區白石里中埔178-1號","121.722366666667","25.0213683333333","6502400","平溪區"
