"lineid","car","time","location","longitude","latitude","cityid","cityname"
"234044","148-BY","2019/10/22 13:29:12","新北市永和區成功路二段58號","121.526663333333","24.99974","6500400","永和區"
"234078","298-R6","2019/10/22 13:29:30","新北市永和區林森路10巷18弄2號","121.525955","25.0062516666667","6500400","永和區"
"234036","336-UY","2019/10/22 13:29:16","新北市永和區民樂街35巷1號","121.527585","25.0009883333333","6500400","永和區"
"234062","337-UY","2019/10/22 13:29:29","新北市永和區中正路368巷1弄88號","121.520556666667","25.0007266666667","6500400","永和區"
"234084","338-UY","2019/10/22 13:29:14","新北市永和區成功路一段18巷20號","121.526258333333","25.0050683333333","6500400","永和區"
"234068","552-UM","2019/10/22 13:29:13","新北市永和區竹林路182號","121.520455","25.009725","6500400","永和區"
"234015","745-BX","2019/10/22 13:29:17","新北市永和區永和路二段425巷5號","121.515211666667","25.0177516666667","6500400","永和區"
"234028","746-BX","2019/10/22 13:29:13","新北市永和區民權路29巷19號","121.520966666667","24.99804","6500400","永和區"
"234052","KEA-2590","2019/10/22 13:29:29","新北市永和區復興街22號","121.515973333333","25.0129266666667","6500400","永和區"
"234005","KED-0605","2019/10/22 13:29:30","新北市永和區中山路一段228號","121.507961666667","25.0082366666667","6500400","永和區"
"234012","KEA-2591","2019/10/22 13:29:25","新北市永和區永平路203巷5弄1號","121.509093333333","25.0097616666667","6500400","永和區"
"234060","AAD-866","2019/10/22 13:29:21","新北市永和區中正路504號","121.517351666667","25.00446","6500400","永和區"
"234040","862-TW","2019/10/22 13:29:25","新北市永和區中和路519巷4號","121.510916666667","25.0029966666667","6500400","永和區"
"234048","863-TW","2019/10/22 13:29:26","新北市永和區仁愛路155號","121.511145","25.01289","6500400","永和區"
"234025","9371-KE","2019/10/22 13:29:23","","121.514251666667","25.0099866666667","6500400","永和區"
"234010","9373-KE","2019/10/22 13:29:18","新北市永和區仁愛路141巷9號","121.511733333333","25.0118533333333","6500400","永和區"
"248017","KED-0813","2019/10/22 13:29:20","新北市五股區民義路二段52巷22號","121.41322","25.1120616666667","6501500","五股區"
"234022","9380-KE","2019/10/22 13:29:26","新北市永和區環河東路二段90號","121.524015","25.0105933333333","6500400","永和區"
"234076","969-R7","2019/10/22 13:29:30","新北市永和區智光街24號","121.518018333333","24.99907","6500400","永和區"
"234072","AAC-211","2019/10/22 13:29:29","新北市永和區環河東路一段42號","121.518946666667","25.01704","6500400","永和區"
"234066","AAC-212","2019/10/22 13:29:15","新北市永和區保平路107號","121.511088333333","25.006705","6500400","永和區"
"234001","AAC-295","2019/10/22 13:29:10","新北市永和區永和路一段107號","121.513951666667","25.0079916666667","6500400","永和區"
"244002","657-BX","2019/10/22 13:29:17","新北市林口區頂福23-2號","121.35155","25.0843033333333","6501700","林口區"
"244002","658-BX","2019/10/22 13:29:26","新北市林口區嘉溪雅坑7號","121.341366666667","25.1065016666667","6501700","林口區"
"231030","002-UM","2019/10/22 13:29:20","新北市新店區安華路28-1號","121.519766666667","24.96094","6500600","新店區"
"231005","046-UY","2019/10/22 13:29:12","新北市新店區北新路一段128號","121.542513333333","24.9698116666667","6500600","新店區"
"231029","106-UY","2019/10/22 13:29:24","新北市新店區安華路28-1號","121.519675","24.960865","6500600","新店區"
"231018","107-UY","2019/10/22 13:29:17","新北市新店區中央路81號","121.53227","24.97659","6500600","新店區"
"231013","108-UY","2019/10/22 13:29:26","新北市新店區力行路15號","121.537063333333","24.9659416666667","6500600","新店區"
"231036","110-UY","2019/10/22 13:29:25","新北市新店區安祥路215號","121.47666","24.95525","6500600","新店區"
"231032","256-BX","2019/10/22 13:29:10","新北市新店區安豐路63號","121.498111666667","24.952885","6500600","新店區"
"231023","260-TV","2019/10/22 13:29:20","新北市新店區新店路13號","121.540233333333","24.9528716666667","6500600","新店區"
"231003","268-BY","2019/10/22 13:29:19","新北市新店區中興路二段200-1號","121.5483","24.9742333333333","6500600","新店區"
"231035","278-BY","2019/10/22 13:29:24","新北市新店區安一路一段1-1號","121.519791666667","24.9618183333333","6500600","新店區"
"231015","AAD-862","2019/10/22 13:29:12","新北市新店區新烏路一段9-1號","121.547295","24.9513816666667","6500600","新店區"
"231006","355-BY","2019/10/22 13:29:20","新北市新店區安華路28-1號","121.51913","24.960905","6500600","新店區"
"231038","3712-VJ","2019/10/22 13:29:14","新北市新店區安華路28-1號","121.519221666667","24.9606433333333","6500600","新店區"
"231027","3713-VJ","2019/10/22 13:29:19","新北市新店區環河路19巷15號","121.537583333333","24.960165","6500600","新店區"
"231024","4716-K9","2019/10/22 13:29:27","新北市新店區中正路130號","121.542158333333","24.9714533333333","6500600","新店區"
"231025","4715-K9","2019/10/22 13:29:29","新北市新店區中央五街39號","121.528466666667","24.9750366666667","6500600","新店區"
"231020","512-UM","2019/10/22 13:29:13","新北市新店區光明街19號","121.538251666667","24.9595333333333","6500600","新店區"
"231001","617-UM","2019/10/22 13:29:14","新北市新店區安康路一段70號","121.52858","24.961785","6500600","新店區"
"231002","619-UM","2019/10/22 13:29:21","新北市新店區安康路一段204號","121.524248333333","24.963425","6500600","新店區"
"231034","641-BX","2019/10/22 13:29:20","新北市新店區安華路28-1號","121.519563333333","24.9606","6500600","新店區"
"231012","718-UY","2019/10/22 13:29:27","新北市新店區力行路11巷57號","121.538658333333","24.961725","6500600","新店區"
"231010","719-UM","2019/10/22 13:29:20","新北市新店區自由街10號","121.535305","24.9749133333333","6500600","新店區"
"231026","720-UM","2019/10/22 13:29:11","新北市新店區安一路一段1-1號","121.51939","24.9613783333333","6500600","新店區"
"231028","897-TW","2019/10/22 13:29:18","新北市新店區安華路28-1號","121.519516666667","24.9606916666667","6500600","新店區"
"231004","899-TW","2019/10/22 13:29:19","新北市新店區安一路一段1-1號","121.519305","24.9610066666667","6500600","新店區"
"231037","AKT-0513","2019/10/22 13:29:10","新北市新店區薏仁坑路47-1號","121.494241666667","24.9637016666667","6500600","新店區"
"235030","003-UY","2019/10/22 13:29:21","新北市中和區中山路二段120號","121.502765","25.00364","6500300","中和區"
"235027","006-UY","2019/10/22 13:29:09","新北市中和區連城路347巷2弄1號","121.488208333333","24.9957516666667","6500300","中和區"
"235020","096-UM","2019/10/22 13:29:19","新北市中和區中山路二段586-2號","121.482395","25.005495","6500300","中和區"
"235003","097-UM","2019/10/22 13:29:24","新北市中和區大仁街19巷8號","121.517283333333","24.993255","6500300","中和區"
"235029","098-UM","2019/10/22 13:29:24","新北市中和區中山路二段64巷16弄2號","121.503221666667","25.0058466666667","6500300","中和區"
"235022","151-BY","2019/10/22 13:29:13","新北市中和區圓通路369巷38弄1號","121.490476666667","24.983145","6500300","中和區"
"235019","183-VK","2019/10/22 13:29:26","新北市中和區國光街102巷25號","121.471258333333","25.0007183333333","6500300","中和區"
"235002","185-VK","2019/10/22 13:29:16","新北市中和區自立路16-1號","121.522101666667","24.993715","6500300","中和區"
"235031","255-BX","2019/10/22 13:29:17","新北市中和區員山路148巷46號","121.482545","24.997055","6500300","中和區"
"235036","301-VK","2019/10/22 13:29:28","新北市中和區連城路237-1號","121.493871666667","24.99733","6500300","中和區"
"235007","352-BY","2019/10/22 13:29:12","新北市中和區景平路243-1號","121.509306666667","24.992935","6500300","中和區"
"235006","KEA-2878","2019/10/22 13:29:10","新北市中和區景平路62號","121.52224","24.99093","6500300","中和區"
"247015","KEA-2869","2019/10/22 13:29:22","新北市五股區中興路三段163號","121.449213333333","25.0808683333333","6501400","蘆洲區"
"235014","4979-A6","2019/10/22 13:29:27","新北市中和區景新街418巷14號","121.5122","24.988895","6500300","中和區"
"235033","4980-A6","2019/10/22 13:29:17","新北市中和區連勝街95號","121.495268333333","24.9961533333333","6500300","中和區"
"235009","551-UM","2019/10/22 13:29:15","新北市中和區復興路1號","121.506413333333","24.989555","6500300","中和區"
"235034","558-UM","2019/10/22 13:29:15","新北市中和區南華路9號","121.502196666667","24.9955533333333","6500300","中和區"
"235024","KED-0823","2019/10/22 13:29:15","新北市中和區中山路三段118號","121.47583","25.0059766666667","6500300","中和區"
"235018","640-BX","2019/10/22 13:29:21","新北市中和區民享街93巷14號","121.475256666667","25.000985","6500300","中和區"
"235035","647-TV","2019/10/22 13:29:19","新北市中和區環中路138號","121.482136666667","25.0130116666667","6500300","中和區"
"235011","732-UM","2019/10/22 13:29:16","新北市中和區南山路497號","121.507983333333","24.987775","6500300","中和區"
"235010","733-UM","2019/10/22 13:29:13","新北市中和區南山路325-2號","121.5054","24.99106","6500300","中和區"
"235021","801-TS","2019/10/22 13:29:32","新北市中和區民安街42巷36號","121.479023333333","25.00126","6500300","中和區"
"235005","802-TS","2019/10/22 13:29:25","新北市中和區中和路324巷6弄2號","121.50972","25.000475","6500300","中和區"
"235016","805-TS","2019/10/22 13:29:12","新北市中和區興南路二段94號","121.505286666667","24.9842633333333","6500300","中和區"
"235012","896-TW","2019/10/22 13:29:20","新北市中和區中正路637巷52弄1號","121.485431666667","24.99345","6500300","中和區"
"235017","900-TW","2019/10/22 13:29:10","新北市中和區連城路607號","121.478356666667","24.9930633333333","6500300","中和區"
"235028","911-UM","2019/10/22 13:29:21","新北市中和區連城路109巷8號","121.496508333333","24.999125","6500300","中和區"
"235015","157-BY","2019/10/22 13:29:23","新北市中和區興南路二段142巷35弄2號","121.50244","24.98461","6500300","中和區"
"235001","AAC-213","2019/10/22 13:29:15","","121.517861666667","24.991515","6500300","中和區"
"235023","AAC-215","2019/10/22 13:29:21","新北市中和區員山路36巷16-3號","121.48509","24.991285","6500300","中和區"
"220013","072-UY","2019/10/22 13:29:13","新北市板橋區南雅南路二段118號","121.453185","25.00001","6500100","板橋區"
"220017","AAD-861","2019/10/22 13:29:15","新北市板橋區華東街1-10號","121.448391666667","24.9951516666667","6500100","板橋區"
"220016","120-SR","2019/10/22 13:29:28","新北市板橋區民生路二段120號","121.470675","25.0197733333333","6500100","板橋區"
"247003","341-TH","2019/10/22 13:29:27","新北市五股區工商路8號","121.440456666667","25.0824183333333","6501400","蘆洲區"
"247013","056-VK","2019/10/22 13:29:22","新北市五股區中興路三段163號","121.449211666667","25.0809933333333","6501400","蘆洲區"
"235013","251-BX","2019/10/22 13:29:09","新北市中和區景安路137號","121.505605","24.9958033333333","6500300","中和區"
"228005","097-TW","2019/10/22 13:29:27","新北市貢寮區美豐里文秀坑8號","121.902571666667","25.0504166666667","6502600","貢寮區"
"228004","212-TW","2019/10/22 13:29:29","新北市貢寮區龍崗里石壁坑街17號","121.910343333333","24.9896083333333","6502600","貢寮區"
"207002","749-BX","2019/10/22 13:29:13","新北市萬里區崁腳里崁腳路166號","121.64509","25.1559466666667","6502800","萬里區"
"207001","662-BX","2019/10/22 13:27:58","新北市萬里區龜吼里石角路12號","121.683821666667","25.1915066666667","6502800","萬里區"
"252005","AAC-283","2019/10/22 13:29:27","新北市三芝區圓山里木屐寮38-2號","121.53151","25.2279","6502100","三芝區"
"220030","610-BX","2019/10/22 13:29:22","新北市板橋區華東街1-10號","121.44826","24.994935","6500100","板橋區"
"220004","276-BY","2019/10/22 13:29:26","新北市板橋區華東街1-9號","121.448091666667","24.9949416666667","6500100","板橋區"
"220020","277-BY","2019/10/22 13:29:20","新北市板橋區華東街1-10號","121.448326666667","24.9951216666667","6500100","板橋區"
"220029","287-VK","2019/10/22 13:29:19","新北市板橋區華東街1-10號","121.448251666667","24.995005","6500100","板橋區"
"220032","296-UM","2019/10/22 13:29:19","新北市板橋區華東街1-9號","121.44816","24.9949566666667","6500100","板橋區"
"220107","568-UM","2019/10/22 13:29:20","新北市板橋區華東街1-9號","121.448221666667","24.9948766666667","6500100","板橋區"
"220005","686-BX","2019/10/22 13:29:17","新北市板橋區華東街1-10號","121.448215","24.9950133333333","6500100","板橋區"
"220003","827-TW","2019/10/22 13:29:17","新北市板橋區華東街1-9號","121.448196666667","24.994925","6500100","板橋區"
"220025","833-TW","2019/10/22 13:29:18","新北市板橋區大觀路二段265巷7-7號","121.443946666667","24.9946116666667","6500100","板橋區"
"220022","895-R6","2019/10/22 13:29:24","新北市板橋區南雅南路二段140號","121.451796666667","24.9962316666667","6500100","板橋區"
"220012","AAC-253","2019/10/22 13:29:11","新北市板橋區南雅南路二段120-2號","121.452368333333","24.9997533333333","6500100","板橋區"
"235032","KEA-2873","2019/10/22 13:29:12","新北市中和區中正路221號","121.496106666667","24.9937433333333","6500300","中和區"
"235025","KEA-2875","2019/10/22 13:29:11","新北市中和區民享街90巷16號","121.473823333333","25.0001216666667","6500300","中和區"
"235026","KEA-2876","2019/10/22 13:29:13","新北市中和區中山路二段312巷10弄2號","121.495595","25.0030416666667","6500300","中和區"
