"lineid","car","time","location","longitude","latitude","cityid","cityname"
"244002","658-BX","2019/10/22 15:43:25","新北市林口區粉寮路二段40號","121.403415","25.0868233333333","6501700","林口區"
"231030","002-UM","2019/10/22 15:43:30","新北市新店區永安街93號","121.520341666667","24.986285","6500600","新店區"
"231029","106-UY","2019/10/22 15:43:24","新北市新店區安康路二段391號","121.49451","24.9542816666667","6500600","新店區"
"231018","107-UY","2019/10/22 15:43:17","新北市新店區中正路663巷1弄2號","121.532986666667","24.990055","6500600","新店區"
"231013","108-UY","2019/10/22 15:43:26","新北市新店區永業路81巷11弄8號","121.531538333333","24.9505683333333","6500600","新店區"
"231039","187-VK","2019/10/22 15:43:19","新北市新店區寶中路63號","121.547201666667","24.98043","6500600","新店區"
"231032","256-BX","2019/10/22 15:43:10","新北市新店區雙城路164號","121.497021666667","24.9420216666667","6500600","新店區"
"231023","260-TV","2019/10/22 15:43:20","新北市新店區大新街9巷15號","121.543991666667","24.9674483333333","6500600","新店區"
"231003","268-BY","2019/10/22 15:43:19","新北市新店區寶興路60巷4號","121.549861666667","24.9719183333333","6500600","新店區"
"231035","278-BY","2019/10/22 15:43:24","新北市新店區安興路83號","121.515206666667","24.9754033333333","6500600","新店區"
"231015","AAD-862","2019/10/22 15:43:12","新北市新店區北宜路一段32號","121.538286666667","24.9567733333333","6500600","新店區"
"231038","3712-VJ","2019/10/22 15:43:26","新北市新店區安康路二段183巷17號","121.509571666667","24.95837","6500600","新店區"
"231020","512-UM","2019/10/22 15:43:12","新北市新店區新烏路一段159-1號","121.54707","24.9318566666667","6500600","新店區"
"231034","641-BX","2019/10/22 15:43:20","新北市新店區如意街85號","121.494681666667","24.9470366666667","6500600","新店區"
"231012","718-UY","2019/10/22 15:43:27","新北市新店區寶強路15號","121.542951666667","24.97932","6500600","新店區"
"231026","720-UM","2019/10/22 15:43:19","新北市新店區三民路51巷3弄3號","121.53669","24.970325","6500600","新店區"
"231028","897-TW","2019/10/22 15:43:18","新北市新店區僑信路2巷2號","121.499798333333","24.9535016666667","6500600","新店區"
"231004","899-TW","2019/10/22 15:43:19","新北市新店區民族路108號","121.538285","24.9772916666667","6500600","新店區"
"231037","AKT-0513","2019/10/22 15:43:09","新北市新店區安興路91巷6號","121.514616666667","24.9758233333333","6500600","新店區"
"241028","022-UY","2019/10/22 15:43:13","新北市三重區重新路四段121號","121.484485","25.05205","6500200","三重區"
"241017","063-VK","2019/10/22 15:43:20","新北市三重區大仁街1號","121.491668333333","25.0636016666667","6500200","三重區"
"241024","065-VK","2019/10/22 15:43:12","新北市三重區重新路四段121號","121.484725","25.0525366666667","6500200","三重區"
"241007","066-VK","2019/10/22 15:43:27","新北市三重區重新路四段121號","121.484965","25.0519466666667","6500200","三重區"
"241006","262-UM","2019/10/22 15:43:21","新北市三重區重新路四段121號","121.484976666667","25.05177","6500200","三重區"
"241016","266-UM","2019/10/22 15:43:19","新北市三重區重新路四段121號","121.48498","25.0519316666667","6500200","三重區"
"241013","270-UM","2019/10/22 15:43:29","新北市三重區正義北路386號","121.49297","25.0717033333333","6500200","三重區"
"241023","462-BY","2019/10/22 15:43:24","新北市三重區忠孝路三段84巷16-1號","121.480731666667","25.0647116666667","6500200","三重區"
"241020","478-VK","2019/10/22 15:43:15","新北市三重區忠孝路二段52號","121.485093333333","25.0703833333333","6500200","三重區"
"241005","AAD-863","2019/10/22 15:43:28","新北市三重區捷運路36號","121.482903333333","25.0549466666667","6500200","三重區"
"241012","743-BX","2019/10/22 15:43:12","新北市三重區自強路一段68號","121.4971","25.0665716666667","6500200","三重區"
"241022","KED-0820","2019/10/22 15:43:25","新北市三重區重新路四段121號","121.484795","25.0519283333333","6500200","三重區"
"241029","942-UM","2019/10/22 15:43:09","新北市三重區同安東街29號","121.497795","25.0571466666667","6500200","三重區"
"241033","AAC-255","2019/10/22 15:43:28","新北市三重區重新路五段447號","121.474425","25.0474033333333","6500200","三重區"
"235033","4980-A6","2019/10/22 15:43:17","新北市中和區連城路469巷70弄14號","121.483016666667","24.9935416666667","6500300","中和區"
"235045","551-UM","2019/10/22 15:25:05","新北市中和區員山路36巷13號","121.484205","24.9909466666667","6500300","中和區"
"235054","640-BX","2019/10/22 15:29:13","新北市中和區和城路一段271巷1號","121.485355","24.991805","6500300","中和區"
"235046","733-UM","2019/10/22 15:19:58","新北市中和區員山路36巷13號","121.484175","24.9908366666667","6500300","中和區"
"235001","AAC-213","2019/10/22 15:43:15","新北市八里區中山路三段382號","121.368718333333","25.135915","6500300","中和區"
"235023","AAC-215","2019/10/22 15:43:21","新北市中和區員山路36巷2-1號","121.48283","24.9907316666667","6500300","中和區"
"224007","285-BY","2019/10/22 15:43:29","新北市瑞芳區傑魚坑路245巷2-1號","121.787821666667","25.1064766666667","6501200","瑞芳區"
"224005","271-BY","2019/10/22 15:43:19","新北市瑞芳區中山路245號","121.799673333333","25.1073266666667","6501200","瑞芳區"
"227002","642-TC","2019/10/22 15:43:28","新北市雙溪區牡丹里頂坪5-1號","121.862745","25.038635","6502500","雙溪區"
"227001","400-TW","2019/10/22 15:43:32","新北市雙溪區新基里中華路102-2號","121.86659","25.039785","6502500","雙溪區"
"236074","166-UM","2019/10/22 15:43:18","新北市土城區龍泉路8號","121.409433333333","24.9498866666667","6501300","土城區"
"236024","269-VK","2019/10/22 15:43:27","新北市土城區中央路一段249巷20號","121.44623","24.9854333333333","6501300","土城區"
"236013","270-VK","2019/10/22 15:43:25","新北市土城區廣明街104巷1號","121.454601666667","24.994585","6501300","土城區"
"236065","KEA-2877","2019/10/22 15:43:19","新北市土城區大安路37-1號","121.432745","24.9661533333333","6501300","土城區"
"236017","401-BY","2019/10/22 15:43:24","新北市土城區和城路二段255巷66-1號","121.47514","24.9875166666667","6501300","土城區"
"236057","912-UM","2019/10/22 15:43:09","新北市土城區中央路一段279號","121.444566666667","24.984685","6501300","土城區"
"236045","913-UM","2019/10/22 15:43:20","新北市土城區清水路209號","121.460276666667","24.98184","6501300","土城區"
"236054","AAC-216","2019/10/22 15:43:28","新北市土城區中華路一段273號","121.440186666667","24.9804066666667","6501300","土城區"
"220104","461-BY","2019/10/22 15:43:18","新北市土城區民生街6-1號","121.412858333333","24.9629216666667","6500100","板橋區"
"235026","KEA-2876","2019/10/22 15:43:13","新北市中和區立業路61巷1弄1號","121.492303333333","25.00708","6500300","中和區"
