"lineid","car","time","location","longitude","latitude","cityid","cityname"
"234007","KED-0605","2019/10/22 18:13:21","新北市永和區光復街60巷31號","121.518371666667","25.0173933333333","6500400","永和區"
"234042","748-BX","2019/10/22 18:13:15","新北市永和區福和路1號","121.526106666667","25.009865","6500400","永和區"
"234026","9371-KE","2019/10/22 18:13:24","新北市永和區福和路352號","121.514801666667","25.00742","6500400","永和區"
"249005","172-UM","2019/10/22 18:13:19","新北市八里區荖阡坑路15號","121.40154","25.1400283333333","6502300","八里區"
"249001","173-UM","2019/10/22 18:13:22","新北市八里區龍米路一段430號","121.450961666667","25.1336816666667","6502300","八里區"
"249004","303-UY","2019/10/22 18:13:20","新北市八里區龍米路二段200巷5號","121.433736666667","25.1591816666667","6502300","八里區"
"249002","305-UY","2019/10/22 18:13:26","新北市八里區龍形一街3號","121.450708333333","25.13068","6502300","八里區"
"249003","593-UM","2019/10/22 18:10:48","新北市八里區博物館路10-1號","121.415081666667","25.1639666666667","6502300","八里區"
"248014","025-BX","2019/10/22 18:13:19","新北市五股區成泰路一段189巷2號","121.434578333333","25.0765983333333","6501500","五股區"
"248006","077-UY","2019/10/22 18:13:14","新北市五股區中興路一段164-1號","121.464101666667","25.0739533333333","6501500","五股區"
"248008","KED-0815","2019/10/22 18:13:29","新北市五股區更洲路32巷8弄35-9號","121.460058333333","25.07942","6501500","五股區"
"248020","KED-0813","2019/10/22 18:13:20","新北市五股區孝義路14-1號","121.452106666667","25.1063083333333","6501500","五股區"
"248012","247-BX","2019/10/22 18:13:22","新北市五股區新五路三段1號","121.444401666667","25.0890883333333","6501500","五股區"
"248010","272-BY","2019/10/22 18:13:10","新北市五股區新五路二段121號","121.437535","25.0788233333333","6501500","五股區"
"248004","682-TV","2019/10/22 18:13:24","新北市五股區中興路四段49號","121.438231666667","25.082855","6501500","五股區"
"232011","375-UM","2019/10/22 18:13:30","新北市坪林區國中路8號","121.713148333333","24.9401733333333","6502000","坪林區"
"244007","080-UY","2019/10/22 18:13:29","新北市林口區竹林路361號","121.388016666667","25.0847683333333","6501700","林口區"
"244019","402-UM","2019/10/22 18:13:17","新北市林口區忠孝路594巷18號","121.375971666667","25.067175","6501700","林口區"
"244013","KEA-2802","2019/10/22 18:13:30","新北市林口區佳林路101巷26號","121.386766666667","25.0797833333333","6501700","林口區"
"244023","483-VK","2019/10/22 18:13:28","新北市林口區東湖路153巷2號","121.382771666667","25.0728033333333","6501700","林口區"
"244017","485-VK","2019/10/22 18:13:30","新北市林口區八德路48巷1號","121.366783333333","25.0662533333333","6501700","林口區"
"244009","656-BX","2019/10/22 18:13:19","新北市林口區文林二街16號","121.376715","25.0887533333333","6501700","林口區"
"244011","701-TV","2019/10/22 18:13:27","新北市林口區仁愛路一段270號","121.393895","25.076135","6501700","林口區"
"244025","837-TS","2019/10/22 18:13:29","新北市林口區文化北路一段301-1號","121.360301666667","25.0727816666667","6501700","林口區"
"244021","838-TS","2019/10/22 18:13:29","新北市林口區自強一街43號","121.39901","25.0777633333333","6501700","林口區"
"243015","680-BX","2019/10/22 18:13:24","新北市泰山區泰林路二段454號","121.426035","25.0641833333333","6501600","泰山區"
"222003","436-BY","2019/10/22 18:13:22","新北市深坑區文山路二段7號","121.622825","25.00029","6501800","深坑區"
"222002","659-BX","2019/10/22 18:13:14","新北市深坑區文化街15號","121.620251666667","25.0013366666667","6501800","深坑區"
"231044","046-UY","2019/10/22 18:13:14","新北市新店區安華路28-1號","121.519328333333","24.9608316666667","6500600","新店區"
"231054","260-TV","2019/10/22 18:13:16","新北市新店區安一路一段1-1號","121.519613333333","24.9611416666667","6500600","新店區"
"231042","268-BY","2019/10/22 18:13:08","新北市新店區安一路一段1-1號","121.519633333333","24.961345","6500600","新店區"
"231064","278-BY","2019/10/22 18:13:16","新北市新店區安一路一段1-1號","121.519786666667","24.9611833333333","6500600","新店區"
"231050","AAD-862","2019/10/22 18:13:16","新北市新店區安一路一段1-1號","121.519615","24.9612066666667","6500600","新店區"
"231045","355-BY","2019/10/22 18:13:27","新北市新店區安華路28-1號","121.519008333333","24.9608833333333","6500600","新店區"
"231058","3713-VJ","2019/10/22 18:13:30","新北市新店區安一路一段1-1號","121.519691666667","24.96139","6500600","新店區"
"231055","4716-K9","2019/10/22 18:13:16","新北市新店區安華路28-1號","121.5198","24.9607666666667","6500600","新店區"
"231056","4715-K9","2019/10/22 18:13:12","新北市新店區秀山路68-1號","121.53106","24.9609733333333","6500600","新店區"
"231040","617-UM","2019/10/22 18:13:11","新北市新店區安華路28-1號","121.5193","24.9609283333333","6500600","新店區"
"231063","641-BX","2019/10/22 18:13:17","新北市新店區安華路28-1號","121.519753333333","24.9605216666667","6500600","新店區"
"231057","720-UM","2019/10/22 18:13:28","新北市新店區安康路一段359-27號","121.518746666667","24.9614016666667","6500600","新店區"
"231043","899-TW","2019/10/22 18:13:25","新北市新店區安一路一段1-1號","121.518935","24.9609533333333","6500600","新店區"
"241018","268-UM","2019/10/22 18:12:12","新北市八里區荖阡坑路34號","121.401405","25.1297816666667","6500200","三重區"
"241005","AAD-863","2019/10/22 18:09:30","新北市三重區仁華街13號","121.483543333333","25.081635","6500200","三重區"
"241033","AAC-255","2019/10/22 18:13:28","新北市三重區中興北街42巷50號","121.467961666667","25.04927","6500200","三重區"
"235066","003-UY","2019/10/22 18:13:22","新北市中和區連城路14號","121.49889","25.002265","6500300","中和區"
"235063","006-UY","2019/10/22 18:13:14","新北市中和區中正路573號","121.486615","24.9944283333333","6500300","中和區"
"235056","096-UM","2019/10/22 18:13:28","新北市中和區員山路504號","121.479328333333","25.0081833333333","6500300","中和區"
"235039","097-UM","2019/10/22 18:13:12","新北市中和區中正路271號","121.495786666667","24.9937466666667","6500300","中和區"
"235065","098-UM","2019/10/22 18:13:24","新北市中和區莊敬路49巷18號","121.501616666667","25.00614","6500300","中和區"
"235040","150-BY","2019/10/22 18:13:04","新北市中和區景平路500巷5號","121.504118333333","24.9938616666667","6500300","中和區"
"235058","151-BY","2019/10/22 18:13:28","新北市中和區圓通路367巷50號","121.492291666667","24.985925","6500300","中和區"
"235055","183-VK","2019/10/22 18:13:22","新北市中和區連城路506號","121.477233333333","24.9922666666667","6500300","中和區"
"235038","185-VK","2019/10/22 18:13:11","新北市中和區大仁街120號","121.520848333333","24.9920533333333","6500300","中和區"
"235072","301-VK","2019/10/22 18:13:12","新北市中和區錦和路107號","121.490156666667","24.9952316666667","6500300","中和區"
"235043","352-BY","2019/10/22 18:13:12","新北市中和區景平路381號","121.50391","24.9932766666667","6500300","中和區"
"235042","KEA-2878","2019/10/22 18:13:19","新北市中和區大勇街8號","121.517076666667","24.992525","6500300","中和區"
"235050","4979-A6","2019/10/22 18:13:27","新北市中和區捷運路135號","121.507001666667","24.9909266666667","6500300","中和區"
"235069","4980-A6","2019/10/22 18:13:32","新北市中和區安邦街8號","121.495561666667","24.9981283333333","6500300","中和區"
"235045","551-UM","2019/10/22 18:13:13","新北市中和區景安路215號","121.5044","24.9915633333333","6500300","中和區"
"235070","558-UM","2019/10/22 18:13:26","新北市中和區圓通路83號","121.499858333333","24.9969383333333","6500300","中和區"
"235060","KED-0823","2019/10/22 18:13:28","新北市中和區員山路325-3號","121.481198333333","25.0008466666667","6500300","中和區"
"235054","640-BX","2019/10/22 18:13:31","新北市中和區民享街86巷28號","121.47326","25.00062","6500300","中和區"
"235047","732-UM","2019/10/22 18:13:29","新北市中和區建八路28-1號","121.48707","24.9984616666667","6500300","中和區"
"235046","733-UM","2019/10/22 18:13:14","新北市中和區和城路一段271巷1號","121.485436666667","24.991805","6500300","中和區"
"235057","801-TS","2019/10/22 18:13:23","新北市中和區民享街97巷19號","121.475443333333","24.9995716666667","6500300","中和區"
"235041","802-TS","2019/10/22 18:13:30","新北市中和區中正路637巷60弄61號","121.485456666667","24.9930783333333","6500300","中和區"
"235052","805-TS","2019/10/22 18:13:26","新北市中和區中正路169號","121.498061666667","24.9937133333333","6500300","中和區"
"235053","900-TW","2019/10/22 18:13:16","新北市中和區員山路36巷16-2號","121.485258333333","24.99142","6500300","中和區"
"235064","911-UM","2019/10/22 18:13:18","新北市中和區圓通路167巷9號","121.497975","24.994835","6500300","中和區"
"235051","157-BY","2019/10/22 18:13:21","新北市中和區仁愛街95號","121.51196","24.9868633333333","6500300","中和區"
"235001","AAC-213","2019/10/22 18:13:18","新北市中和區景平路151巷37號","121.514601666667","24.99073","6500300","中和區"
"247002","001-UY","2019/10/22 18:13:24","新北市五股區成洲一路25號","121.449673333333","25.0950433333333","6501400","蘆洲區"
"226004","312-R5","2019/10/22 18:13:18","新北市平溪區薯榔里薯榔寮32-3號","121.711153333333","25.0189933333333","6502400","平溪區"
"235049","251-BX","2019/10/22 18:13:23","新北市中和區和城路一段271巷1號","121.485455","24.9915716666667","6500300","中和區"
"228003","097-TW","2019/10/22 18:13:30","新北市貢寮區真理里美艷山街22-2號","121.926846666667","25.0649916666667","6502600","貢寮區"
"228001","212-TW","2019/10/22 18:13:27","新北市貢寮區真理里新港街26巷55弄2-1號","121.927351666667","25.0528466666667","6502600","貢寮區"
"228002","663-BX","2019/10/22 18:13:17","新北市貢寮區福連里馬崗街18號","122.002363333333","25.01375","6502600","貢寮區"
"224006","676-BX","2019/10/22 18:13:15","新北市瑞芳區三爪子坑路106巷128號","121.809053333333","25.1037966666667","6501200","瑞芳區"
"224007","285-BY","2019/10/22 18:13:29","新北市瑞芳區頂埔巷1弄2號","121.76609","25.1024683333333","6501200","瑞芳區"
"224009","275-VK","2019/10/22 18:13:17","新北市瑞芳區新山路31號","121.855918333333","25.10835","6501200","瑞芳區"
"224008","273-VK","2019/10/22 18:13:17","新北市瑞芳區明燈路二段56號","121.809988333333","25.10751","6501200","瑞芳區"
"224005","271-BY","2019/10/22 18:13:25","新北市瑞芳區建基路二段83號","121.805735","25.133935","6501200","瑞芳區"
"227002","642-TC","2019/10/22 18:13:24","新北市雙溪區雙溪里大同街11號","121.86468","25.0349966666667","6502500","雙溪區"
"227001","400-TW","2019/10/22 18:13:12","新北市雙溪區三貂里政光路3號","121.851638333333","25.0629233333333","6502500","雙溪區"
"253005","032-BX","2019/10/22 18:13:14","新北市石門區中央路37-2號","121.568438333333","25.295085","6502200","石門區"
"253006","295-VK","2019/10/22 18:13:11","新北市石門區老梅路52巷21號","121.54632","25.28856","6502200","石門區"
"222001","KEA-2212","2019/10/22 18:13:22","新北市深坑區北深路二段109號","121.617033333333","25.0032933333333","6501800","深坑區"
"208002","KEA-2872","2019/10/22 18:13:19","新北市金山區清泉里清水路60巷4號","121.630258333333","25.23567","6502700","金山區"
"208003","665-BX","2019/10/22 18:13:25","新北市金山區民生路142號","121.647396666667","25.223615","6502700","金山區"
"251001","011-UM","2019/10/22 18:13:30","新北市淡水區自強路299號","121.461596666667","25.131445","6501000","淡水區"
"251002","012-UM","2019/10/22 18:13:21","新北市淡水區中正東路一段76號","121.45296","25.161415","6501000","淡水區"
"251015","KEA-2871","2019/10/22 18:13:18","新北市淡水區興福寮88巷1號","121.485316666667","25.1649116666667","6501000","淡水區"
"251016","179-VK","2019/10/22 18:13:11","新北市淡水區淡金路三段70巷1號","121.44826","25.200125","6501000","淡水區"
"251004","180-VK","2019/10/22 18:13:31","新北市淡水區民族路110巷6號","121.462206666667","25.1354566666667","6501000","淡水區"
"251008","181-VK","2019/10/22 18:13:22","新北市淡水區淡金路12-3號","121.458175","25.1602966666667","6501000","淡水區"
"251013","182-VK","2019/10/22 18:13:27","新北市淡水區破瓦厝子11號","121.475523333333","25.197975","6501000","淡水區"
"251010","413-VK","2019/10/22 18:13:16","新北市淡水區中正路二段54號","121.419126666667","25.18398","6501000","淡水區"
"251012","441-VK","2019/10/22 18:13:29","新北市淡水區北新路三段162號","121.492301666667","25.1918283333333","6501000","淡水區"
"251005","443-VK","2019/10/22 18:13:28","新北市淡水區水源街一段124號","121.447306666667","25.171625","6501000","淡水區"
"251006","561-UM","2019/10/22 18:13:29","新北市淡水區新民街76巷8號","121.43884","25.17658","6501000","淡水區"
"251009","575-R6","2019/10/22 18:13:28","新北市淡水區中山北路一段136號","121.443483333333","25.177515","6501000","淡水區"
"251014","577-R6","2019/10/22 18:13:27","新北市淡水區北勢子8-3號","121.484428333333","25.223925","6501000","淡水區"
"251011","650-BX","2019/10/22 18:13:16","新北市淡水區三空泉9-2號","121.474045","25.163515","6501000","淡水區"
"251003","673-BX","2019/10/22 18:13:16","新北市淡水區北新路182巷58號","121.448505","25.1774766666667","6501000","淡水區"
"207003","550-UM","2019/10/22 18:13:15","新北市萬里區野柳里港東路155號","121.68972","25.2051733333333","6502800","萬里區"
"207004","291-VK","2019/10/22 18:13:30","新北市萬里區中幅里中福路136號","121.674525","25.1663366666667","6502800","萬里區"
"252002","178-VK","2019/10/22 18:13:20","新北市三芝區中山路二段39號","121.50291","25.2551316666667","6502100","三芝區"
"252003","249-BX","2019/10/22 18:13:21","新北市三芝區埔頭里埔頭23-1號","121.49048","25.2607783333333","6502100","三芝區"
"208001","170-UY","2019/10/22 18:13:23","新北市金山區磺港里磺港路96號","121.646601666667","25.2260133333333","6502700","金山區"
"237007","153-BY","2019/10/22 18:13:31","新北市三峽區中正路二段418-1號","121.364726666667","24.9076066666667","6500900","三峽區"
"237009","210-TH","2019/10/22 18:13:15","新北市三峽區大仁路30號","121.366076666667","24.9375766666667","6500900","三峽區"
"237013","252-BX","2019/10/22 18:13:19","新北市三峽區永安街5號","121.377878333333","24.929965","6500900","三峽區"
"237012","275-BY","2019/10/22 18:13:33","新北市三峽區民生街1巷5-42號","121.378893333333","24.935405","6500900","三峽區"
"237008","302-VK","2019/10/22 18:13:23","新北市三峽區白雞47號","121.38285","24.9122983333333","6500900","三峽區"
"237014","433-BY","2019/10/22 18:13:13","新北市三峽區復興路110巷3弄15號","121.372581666667","24.9386783333333","6500900","三峽區"
"237006","5529-G3","2019/10/22 18:13:25","新北市三峽區溪東路134號","121.404726666667","24.9333716666667","6500900","三峽區"
"237011","KEA-2596","2019/10/22 18:13:20","新北市三峽區介壽路三段1號","121.395368333333","24.936135","6500900","三峽區"
"237015","649-BX","2019/10/22 18:13:09","新北市三峽區紫新路36巷2號","121.42203","24.9221766666667","6500900","三峽區"
"237010","706-TV","2019/10/22 18:13:18","新北市三峽區大同路202-2號","121.368063333333","24.9271983333333","6500900","三峽區"
"237005","AKY-6261","2019/10/22 18:13:27","新北市三峽區忠孝街27-6號","121.371466666667","24.9344566666667","6500900","三峽區"
"236042","KED-0685","2019/10/22 18:13:22","新北市土城區裕生路71-1號","121.446976666667","24.98463","6501300","土城區"
"233002","762-BX","2019/10/22 18:13:12","新北市烏來區新烏路五段12號","121.542143333333","24.8812183333333","6502900","烏來區"
"236079","166-UM","2019/10/22 18:13:20","新北市土城區永安街38號","121.433346666667","24.9645416666667","6501300","土城區"
"236030","253-BX","2019/10/22 18:13:26","新北市土城區員福街10號","121.441715","24.97852","6501300","土城區"
"236026","269-VK","2019/10/22 18:13:14","新北市土城區承天路67號","121.439608333333","24.96356","6501300","土城區"
"236014","270-VK","2019/10/22 18:13:28","新北市土城區青雲路39巷7號","121.460286666667","24.9874166666667","6501300","土城區"
"236038","271-VK","2019/10/22 18:13:19","新北市土城區青雲路449-1號","121.458975","24.9746366666667","6501300","土城區"
"236070","KEA-2877","2019/10/22 18:13:27","新北市土城區明德路一段319號","121.459241666667","24.977145","6501300","土城區"
"252001","KED-0821","2019/10/22 18:13:25","新北市三芝區中興街二段2號","121.498336666667","25.2566166666667","6502100","三芝區"
"236021","401-BY","2019/10/22 18:13:11","新北市土城區明德路一段385-1號","121.452666666667","24.9797066666667","6501300","土城區"
"236063","752-BX","2019/10/22 18:13:12","新北市土城區明德路一段385-1號","121.452421666667","24.97985","6501300","土城區"
"236059","912-UM","2019/10/22 18:13:29","新北市土城區中央路四段280號","121.414408333333","24.9564316666667","6501300","土城區"
"236049","913-UM","2019/10/22 18:13:21","新北市土城區明德路一段365-1號","121.453511666667","24.9790366666667","6501300","土城區"
"236055","AAC-216","2019/10/22 18:13:21","新北市土城區中華路二段92號","121.438225","24.9747366666667","6501300","土城區"
"242061","986-R7","2019/10/22 18:13:23","新北市新莊區新樹路309號","121.433473333333","25.0193916666667","6500500","新莊區"
"242027","613-BX","2019/10/22 18:13:32","新北市新莊區幸福路552號","121.45493","25.0493133333333","6500500","新莊區"
"242058","612-BX","2019/10/22 18:13:20","新北市新莊區壽山路49-2號","121.414258333333","25.0308316666667","6500500","新莊區"
"242054","497-BY","2019/10/22 18:13:21","新北市新莊區光華街46號","121.42871","25.0116483333333","6500500","新莊區"
"242013","442-UM","2019/10/22 18:13:12","新北市新莊區瓊林路59-20號","121.440661666667","25.0214733333333","6500500","新莊區"
"242002","441-UM","2019/10/22 18:13:09","新北市新莊區碧江街11號","121.455808333333","25.034955","6500500","新莊區"
"242007","440-UM","2019/10/22 18:13:23","新北市新莊區自立街81號","121.45446","25.0454533333333","6500500","新莊區"
"242044","415-TV","2019/10/22 18:13:22","新北市新莊區中正路726-10號","121.415471666667","25.0239433333333","6500500","新莊區"
"242051","400-BY","2019/10/22 18:13:17","新北市新莊區民本街11巷31號","121.428915","25.02033","6500500","新莊區"
"242025","362-BY","2019/10/22 18:13:25","新北市新莊區五工一路96號","121.460561666667","25.0679883333333","6500500","新莊區"
"242015","132-UY","2019/10/22 18:13:22","新北市新莊區中平路152巷33號","121.44613","25.0473666666667","6500500","新莊區"
"242039","135-UY","2019/10/22 18:13:22","新北市新莊區新樹路222號","121.433636666667","25.0203683333333","6500500","新莊區"
"242056","172-VK","2019/10/22 18:13:28","新北市新莊區豐年街52號","121.446403333333","25.0318266666667","6500500","新莊區"
"242032","175-VK","2019/10/22 18:13:24","新北市新莊區新泰路255巷3號","121.44584","25.039785","6500500","新莊區"
"242021","KED-0687","2019/10/22 18:13:20","新北市新莊區新興街72號","121.450705","25.0379633333333","6500500","新莊區"
"242042","347-TH","2019/10/22 18:13:15","新北市新莊區天祥街60號","121.416315","25.029105","6500500","新莊區"
"242037","348-TH","2019/10/22 18:13:12","新北市新莊區後港一路49巷3弄1號","121.425751666667","25.026845","6500500","新莊區"
"242009","349-TH","2019/10/22 18:13:22","新北市新莊區昌平街71巷13號","121.453776666667","25.0534883333333","6500500","新莊區"
"242034","350-TH","2019/10/22 18:13:23","新北市新莊區新豐街65號","121.446453333333","25.0335283333333","6500500","新莊區"
"242048","351-TH","2019/10/22 18:13:27","新北市新莊區富國路130號","121.422541666667","25.0251016666667","6500500","新莊區"
"238015","755-BX","2019/10/22 18:13:26","新北市樹林區啟智街86巷19號","121.41801","24.9909033333333","6500700","樹林區"
"238023","601-UM","2019/10/22 18:13:31","新北市樹林區忠信街15號","121.407675","25.0149983333333","6500700","樹林區"
"238019","599-UM","2019/10/22 18:13:25","新北市樹林區水源街34號","121.425485","24.9815216666667","6500700","樹林區"
"238018","KEA-2217","2019/10/22 18:13:30","新北市板橋區溪崑二街56巷21號","121.427366666667","24.9913","6500700","樹林區"
"238022","KEA-2213","2019/10/22 18:13:29","新北市樹林區太順街116號","121.415085","24.977375","6500700","樹林區"
"238021","KEA-2539","2019/10/22 18:13:12","新北市樹林區柑園街二段32-14號","121.386735","24.9562466666667","6500700","樹林區"
"238025","303-VK","2019/10/22 18:13:23","新北市樹林區保安街二段101號","121.415671666667","25.0012983333333","6500700","樹林區"
"238017","283-BY","2019/10/22 18:13:28","新北市樹林區保安街二段337巷23號","121.411161666667","25.007925","6500700","樹林區"
"238014","282-BY","2019/10/22 18:13:20","新北市樹林區大安路19號","121.424783333333","25.000355","6500700","樹林區"
"238020","268-VK","2019/10/22 18:13:19","新北市樹林區三俊街65巷18弄34號","121.414906666667","25.0171466666667","6500700","樹林區"
"238026","172-UY","2019/10/22 18:13:20","新北市樹林區育德街28號","121.390278333333","24.969735","6500700","樹林區"
"238016","169-UY","2019/10/22 18:13:20","新北市樹林區文化街12號","121.420018333333","24.9872416666667","6500700","樹林區"
"239007","AAC-297","2019/10/22 18:13:12","新北市鶯歌區尖山埔路149號","121.34635","24.95099","6500800","鶯歌區"
"239006","891-R6","2019/10/22 18:13:16","新北市鶯歌區鶯桃路409號","121.332705","24.9641766666667","6500800","鶯歌區"
"239008","527-UM","2019/10/22 18:13:13","新北市鶯歌區朝陽街4號","121.336238333333","24.9766133333333","6500800","鶯歌區"
"239005","526-UM","2019/10/22 18:13:16","新北市鶯歌區鶯桃路668巷73號","121.329926666667","24.9718","6500800","鶯歌區"
"239001","417-VK","2019/10/22 18:13:19","新北市鶯歌區尖山路380號","121.34199","24.9436883333333","6500800","鶯歌區"
"239003","360-BY","2019/10/22 18:13:25","新北市鶯歌區福安街9巷1號","121.335231666667","24.9649983333333","6500800","鶯歌區"
"239002","359-BY","2019/10/22 18:13:20","新北市鶯歌區中山路194-5號","121.347715","24.9570316666667","6500800","鶯歌區"
"221036","130-UY","2019/10/22 18:13:18","新北市汐止區大同路三段116號","121.672103333333","25.0767516666667","6501100","汐止區"
"221015","131-UY","2019/10/22 18:13:12","新北市汐止區長江街333號","121.666838333333","25.0818216666667","6501100","汐止區"
"221010","269-BY","2019/10/22 18:13:18","新北市汐止區汐萬路二段275巷3弄1號","121.645266666667","25.0887766666667","6501100","汐止區"
"221012","278-VK","2019/10/22 18:13:13","新北市汐止區保一街35巷4號","121.674893333333","25.0804233333333","6501100","汐止區"
"221023","279-VK","2019/10/22 18:13:29","新北市汐止區民族五街75號","121.627725","25.0701333333333","6501100","汐止區"
"221032","280-BY","2019/10/22 18:13:25","新北市汐止區橫科路16號","121.618065","25.0511","6501100","汐止區"
"221027","281-BY","2019/10/22 18:13:17","新北市汐止區和平街6巷8-1號","121.663461666667","25.0715116666667","6501100","汐止區"
"221029","298-VK","2019/10/22 18:13:28","新北市汐止區樟樹二路318號","121.641421666667","25.0699383333333","6501100","汐止區"
"221021","299-VK","2019/10/22 18:13:18","新北市汐止區復興路22號","121.655926666667","25.0638366666667","6501100","汐止區"
"221031","353-TW","2019/10/22 18:13:10","新北市汐止區中興路181巷12弄7號","121.629971666667","25.0667516666667","6501100","汐止區"
"221035","622-UM","2019/10/22 18:13:17","新北市汐止區汐萬路一段115巷50號","121.652848333333","25.0699383333333","6501100","汐止區"
"221025","623-UM","2019/10/22 18:13:15","新北市汐止區勤進路8號","121.65973","25.0616616666667","6501100","汐止區"
"221038","646-BX","2019/10/22 18:13:20","新北市汐止區環山路22號","121.657336666667","25.0600566666667","6501100","汐止區"
"221033","647-BX","2019/10/22 18:13:19","新北市汐止區宜興街40巷22弄4號","121.622673333333","25.0411116666667","6501100","汐止區"
"221002","707-TV","2019/10/22 18:13:25","新北市汐止區福德一路203號","121.63547","25.06551","6501100","汐止區"
"221018","753-BX","2019/10/22 18:13:17","新北市汐止區忠孝東路388號","121.66563","25.07029","6501100","汐止區"
"233001","KEA-2870","2019/10/22 18:13:24","新北市烏來區新烏路四段25號","121.549151666667","24.8843766666667","6502900","烏來區"
"224002","257-TC","2019/10/22 18:13:17","新北市瑞芳區三爪子坑路149巷20號","121.811291666667","25.1065716666667","6501200","瑞芳區"
"242046","281-VK","2019/10/22 18:13:27","新北市新莊區民安路40號","121.423021666667","25.0274916666667","6500500","新莊區"
"242011","280-VK","2019/10/22 18:13:17","新北市新莊區中榮街33號","121.450141666667","25.0527616666667","6500500","新莊區"
"235061","KEA-2875","2019/10/22 18:13:16","新北市中和區國光街107巷4弄2號","121.47032","24.9998283333333","6500300","中和區"
"235062","KEA-2876","2019/10/22 18:13:01","新北市中和區中山路二段312巷33弄22號","121.49498","25.0043116666667","6500300","中和區"
