"lineid","car","time","location","longitude","latitude","cityid","cityname"
"231060","106-UY","2019/10/22 21:13:27","新北市新店區安康路三段27號","121.493215","24.9532283333333","6500600","新店區"
"231051","107-UY","2019/10/22 21:13:17","新北市新店區中正路700巷82號","121.535926666667","24.993245","6500600","新店區"
"231065","110-UY","2019/10/22 21:13:12","新北市新店區安康路二段320巷15弄18號","121.502598333333","24.9592","6500600","新店區"
"231068","187-VK","2019/10/22 21:13:23","新北市新店區安康路一段258-2號","121.519981666667","24.965315","6500600","新店區"
"231054","260-TV","2019/10/22 21:13:15","新北市新店區安康路一段33-1號","121.53224","24.9605716666667","6500600","新店區"
"231042","268-BY","2019/10/22 21:13:28","新北市新店區薏仁坑路6號","121.500243333333","24.957885","6500600","新店區"
"231064","278-BY","2019/10/22 21:13:16","新北市新店區薏仁坑路自強巷6號","121.496408333333","24.95844","6500600","新店區"
"231050","AAD-862","2019/10/22 21:13:16","新北市新店區華興街12號","121.537855","24.96964","6500600","新店區"
"231067","4772-VM","2019/10/22 21:13:13","新北市新店區安華路16號","121.517206666667","24.958105","6500600","新店區"
"231040","617-UM","2019/10/22 21:13:31","新北市新店區光明街179號","121.539573333333","24.96287","6500600","新店區"
"231063","641-BX","2019/10/22 21:13:17","新北市新店區吉祥街11巷1號","121.497611666667","24.94648","6500600","新店區"
"231059","897-TW","2019/10/22 21:13:17","新北市新店區僑義路34號","121.500728333333","24.9496016666667","6500600","新店區"
"241011","013-R5","2019/10/22 21:13:19","新北市三重區龍濱路100號","121.502206666667","25.0701033333333","6500200","三重區"
"241028","022-UY","2019/10/22 21:13:13","新北市三重區同安東街4號","121.496996666667","25.0570366666667","6500200","三重區"
"241008","059-VK","2019/10/22 21:13:17","新北市三重區自強路一段62號","121.497275","25.06665","6500200","三重區"
"241002","060-VK","2019/10/22 21:13:22","新北市三重區五華街11號","121.494991666667","25.0803316666667","6500200","三重區"
"241031","061-VK","2019/10/22 21:13:29","新北市三重區五谷王南街46巷37號","121.475725","25.045515","6500200","三重區"
"241015","062-VK","2019/10/22 21:13:10","新北市三重區河邊北街23號","121.50424","25.06531","6500200","三重區"
"241017","063-VK","2019/10/22 21:13:20","新北市三重區國隆路31號","121.492341666667","25.0644283333333","6500200","三重區"
"241024","065-VK","2019/10/22 21:13:12","新北市三重區力行路一段186號","121.481858333333","25.0717966666667","6500200","三重區"
"241007","066-VK","2019/10/22 21:13:22","新北市三重區車路頭街135-1號","121.484208333333","25.0761783333333","6500200","三重區"
"241003","091-VK","2019/10/22 21:13:17","新北市三重區仁義街224號","121.495001666667","25.0846683333333","6500200","三重區"
"241006","262-UM","2019/10/22 21:13:20","新北市三重區中正北路2號","121.48918","25.0630533333333","6500200","三重區"
"241016","266-UM","2019/10/22 21:09:59","新北市三重區信義西街138號","121.495443333333","25.0644366666667","6500200","三重區"
"241009","267-UM","2019/10/22 21:13:29","新北市三重區忠孝路三段4號","121.481886666667","25.06756","6500200","三重區"
"241018","268-UM","2019/10/22 21:13:20","新北市三重區正義北路330號","121.49444","25.0705166666667","6500200","三重區"
"241032","269-UM","2019/10/22 21:13:20","新北市三重區中興北街136巷8號","121.468468333333","25.0559383333333","6500200","三重區"
"241013","270-UM","2019/10/22 21:13:21","新北市三重區仁愛街81-1號","121.49588","25.073145","6500200","三重區"
"241025","271-UM","2019/10/22 21:13:13","新北市三重區中正北路208巷10弄4號","121.48235","25.0669316666667","6500200","三重區"
"241030","KED-0822","2019/10/22 21:13:24","新北市三重區五谷王北街20巷15弄1號","121.47508","25.04846","6500200","三重區"
"241023","462-BY","2019/10/22 21:13:22","新北市三重區忠孝路三段40巷21號","121.482631666667","25.0658816666667","6500200","三重區"
"241004","475-VK","2019/10/22 21:13:23","新北市三重區仁愛街420號","121.490411666667","25.08141","6500200","三重區"
"241026","480-VK","2019/10/22 21:13:30","新北市三重區大同南路153號","121.496673333333","25.0568233333333","6500200","三重區"
"241014","543-UM","2019/10/22 21:13:29","新北市三重區三和路二段37-9號","121.501365","25.06762","6500200","三重區"
"241001","547-UM","2019/10/22 21:13:13","新北市三重區福隆路44號","121.492408333333","25.0784366666667","6500200","三重區"
"241019","KEA-2593","2019/10/22 21:13:31","新北市三重區重陽路三段9號","121.489286666667","25.0665783333333","6500200","三重區"
"241012","743-BX","2019/10/22 21:13:31","新北市三重區龍門路223號","121.501423333333","25.0738733333333","6500200","三重區"
"241022","KED-0820","2019/10/22 21:13:25","新北市三重區中正北路64巷24號","121.486076666667","25.0637183333333","6500200","三重區"
"241029","942-UM","2019/10/22 21:13:16","新北市三重區正義南路111號","121.498198333333","25.0585533333333","6500200","三重區"
"241033","AAC-255","2019/10/22 21:13:16","新北市三重區光復路二段170號","121.471966666667","25.0612133333333","6500200","三重區"
"235055","183-VK","2019/10/22 21:13:21","新北市中和區員山路36巷13號","121.484285","24.9907416666667","6500300","中和區"
"247016","KEA-2869","2019/10/22 21:13:15","新北市蘆洲區光復路77巷26-8號","121.46441","25.0864516666667","6501400","蘆洲區"
"247010","KED-0682","2019/10/22 21:13:26","新北市蘆洲區鷺江街19號","121.478986666667","25.0824716666667","6501400","蘆洲區"
"235018","640-BX","2019/10/22 20:57:25","新北市中和區員山路36巷16-2號","121.48521","24.991495","6500300","中和區"
"235071","647-TV","2019/10/22 21:13:29","新北市中和區員山路36巷16-3號","121.484996666667","24.9914933333333","6500300","中和區"
"235001","AAC-213","2019/10/22 21:13:18","新北市三重區五谷王北街181-1號","121.477506666667","25.054695","6500300","中和區"
"247006","893-R6","2019/10/22 21:13:22","新北市蘆洲區長安街22巷6號","121.464355","25.0794583333333","6501400","蘆洲區"
"247020","546-UM","2019/10/22 21:13:32","新北市蘆洲區民族路422巷15弄23號","121.472928333333","25.0929116666667","6501400","蘆洲區"
"247004","341-TH","2019/10/22 21:13:10","新北市蘆洲區永安南路二段312號","121.457013333333","25.0826433333333","6501400","蘆洲區"
"247012","337-TH","2019/10/22 21:13:29","新北市蘆洲區復興路88號","121.475403333333","25.086755","6501400","蘆洲區"
"247024","057-VK","2019/10/22 21:13:19","新北市蘆洲區長興路50巷1號","121.463773333333","25.083745","6501400","蘆洲區"
"247014","056-VK","2019/10/22 21:13:19","新北市蘆洲區忠孝路70號","121.471536666667","25.08535","6501400","蘆洲區"
"247022","007-UY","2019/10/22 21:13:20","新北市蘆洲區三民路202號","121.469193333333","25.0889016666667","6501400","蘆洲區"
"247008","002-UY","2019/10/22 21:13:19","新北市蘆洲區民生街26號","121.474948333333","25.0789","6501400","蘆洲區"
"247002","001-UY","2019/10/22 21:13:09","新北市蘆洲區永樂街38巷57弄2號","121.458525","25.0902516666667","6501400","蘆洲區"
"251001","011-UM","2019/10/22 21:13:30","新北市淡水區中山北路二段171號","121.444263333333","25.18456","6501000","淡水區"
"251002","012-UM","2019/10/22 21:13:24","新北市淡水區水源街二段34巷4號","121.450256666667","25.1732433333333","6501000","淡水區"
"251015","KEA-2871","2019/10/22 21:13:20","新北市淡水區淡金路四段542巷83弄12號","121.456141666667","25.22695","6501000","淡水區"
"251016","179-VK","2019/10/22 21:13:10","新北市淡水區前洲子28號","121.441043333333","25.2192466666667","6501000","淡水區"
"251008","181-VK","2019/10/22 21:13:22","新北市淡水區北投子81號","121.461645","25.1785583333333","6501000","淡水區"
"251013","182-VK","2019/10/22 21:13:21","新北市淡水區行忠路330號","121.460683333333","25.199895","6501000","淡水區"
"251010","413-VK","2019/10/22 21:13:16","新北市淡水區中正路一段63巷1弄1號","121.423648333333","25.177515","6501000","淡水區"
"251012","441-VK","2019/10/22 21:13:24","新北市淡水區淡金路五段35巷18號","121.453503333333","25.2335516666667","6501000","淡水區"
"251005","443-VK","2019/10/22 21:13:14","新北市淡水區英專路42-4號","121.445965","25.1703283333333","6501000","淡水區"
"251009","575-R6","2019/10/22 21:13:13","新北市淡水區民族路112巷38號","121.461973333333","25.13447","6501000","淡水區"
"251014","577-R6","2019/10/22 21:13:27","新北市淡水區六塊厝2-1號","121.450146666667","25.24045","6501000","淡水區"
"251011","650-BX","2019/10/22 21:13:20","新北市淡水區新民街120巷45弄2號","121.43835","25.1797166666667","6501000","淡水區"
"251003","673-BX","2019/10/22 21:13:16","新北市淡水區新春街91巷1號","121.438955","25.1826833333333","6501000","淡水區"
"242025","362-BY","2019/10/22 21:13:25","新北市林口區太平里180號","121.366748333333","25.1349133333333","6500500","新莊區"
"220035","461-BY","2019/10/22 21:13:18","新北市板橋區大觀路三段84號","121.432185","24.9952116666667","6500100","板橋區"
