"lineid","car","time","location","longitude","latitude","cityid","cityname"
"234044","148-BY","2019/10/26 13:29:20","新北市永和區秀朗路二段232號","121.52616","24.9993883333333","6500400","永和區"
"234078","298-R6","2019/10/26 13:29:22","新北市永和區福和路5-1號","121.524971666667","25.0087","6500400","永和區"
"234036","336-UY","2019/10/26 13:29:26","新北市永和區民樂街35巷2號","121.52759","25.000905","6500400","永和區"
"234062","337-UY","2019/10/26 13:29:20","新北市永和區中正路368巷1弄88號","121.52055","25.0007216666667","6500400","永和區"
"234084","338-UY","2019/10/26 13:29:11","新北市永和區成功路一段18巷20號","121.526216666667","25.0052283333333","6500400","永和區"
"234068","552-UM","2019/10/26 13:29:26","新北市永和區警光街1-1號","121.520155","25.0096066666667","6500400","永和區"
"234015","745-BX","2019/10/26 13:29:26","新北市永和區環河西路一段19號","121.514421666667","25.018145","6500400","永和區"
"234028","746-BX","2019/10/26 13:29:21","新北市永和區民權路7號","121.52007","24.9981366666667","6500400","永和區"
"234052","KEA-2590","2019/10/26 13:29:15","新北市永和區復興街5號","121.515778333333","25.0128966666667","6500400","永和區"
"234005","KED-0605","2019/10/26 13:29:22","新北市永和區中山路一段195號","121.509081666667","25.0088433333333","6500400","永和區"
"234012","KEA-2591","2019/10/26 13:29:25","新北市永和區永貞路387號","121.508081666667","25.0088516666667","6500400","永和區"
"234060","AAD-866","2019/10/26 13:29:20","新北市永和區中正路564號","121.517178333333","25.0060766666667","6500400","永和區"
"234040","862-TW","2019/10/26 13:29:09","新北市永和區水源街39巷24號","121.510673333333","25.0033316666667","6500400","永和區"
"234048","863-TW","2019/10/26 13:29:27","新北市永和區保福路二段156號","121.509203333333","25.0149733333333","6500400","永和區"
"234025","9371-KE","2019/10/26 13:29:31","新北市永和區中山路一段17巷4弄14號","121.513211666667","25.0101816666667","6500400","永和區"
"234010","9373-KE","2019/10/26 13:29:30","新北市永和區仁愛路141巷30弄1號","121.511725","25.0117066666667","6500400","永和區"
"248017","KED-0813","2019/10/26 13:29:11","新北市五股區民義路二段52巷22號","121.414105","25.1120133333333","6501500","五股區"
"234022","9380-KE","2019/10/26 13:29:18","新北市永和區竹林路91巷45號","121.521403333333","25.0129883333333","6500400","永和區"
"234076","969-R7","2019/10/26 13:29:23","新北市永和區民治街89號","121.51739","24.9983016666667","6500400","永和區"
"234072","AAC-211","2019/10/26 13:29:26","新北市永和區光復街60巷27號","121.518041666667","25.0174833333333","6500400","永和區"
"234066","AAC-212","2019/10/26 13:29:17","新北市永和區保平路174巷2號","121.510893333333","25.00673","6500400","永和區"
"234001","AAC-295","2019/10/26 13:29:16","新北市永和區永和路一段125號","121.513996666667","25.0081933333333","6500400","永和區"
"244005","248-BX","2019/10/26 13:29:18","新北市林口區南勢里73-2-1號","121.35409","25.0781516666667","6501700","林口區"
"231030","002-UM","2019/10/26 13:29:18","新北市新店區安華路28-1號","121.519713333333","24.96088","6500600","新店區"
"231024","0291-UT","2019/10/26 13:29:11","新北市新店區中正路128巷10號","121.542468333333","24.9717366666667","6500600","新店區"
"231005","046-UY","2019/10/26 13:29:24","新北市新店區中正路106號","121.543183333333","24.97069","6500600","新店區"
"231003","047-UY","2019/10/26 13:29:21","新北市新店區中興路二段219號","121.548168333333","24.974395","6500600","新店區"
"231029","106-UY","2019/10/26 13:29:22","新北市新店區安華路1-1號","121.519578333333","24.9601116666667","6500600","新店區"
"231018","107-UY","2019/10/26 13:29:13","新北市新店區力行路15號","121.536905","24.9653316666667","6500600","新店區"
"231013","108-UY","2019/10/26 13:29:13","新北市新店區中央路137號","121.530278333333","24.9737233333333","6500600","新店區"
"231036","KEA-2219","2019/10/26 13:29:23","新北市新店區安祥路187號","121.474843333333","24.9546633333333","6500600","新店區"
"231033","256-BX","2019/10/26 13:29:22","新北市新店區安豐路54-1號","121.499731666667","24.9542216666667","6500600","新店區"
"231023","260-TV","2019/10/26 13:29:20","新北市新店區光明街21號","121.538251666667","24.9595633333333","6500600","新店區"
"231035","278-BY","2019/10/26 13:29:19","新北市新店區安華路2號","121.519913333333","24.9627016666667","6500600","新店區"
"231017","AAD-862","2019/10/26 13:29:13","新北市新店區北宜路一段266號","121.545946666667","24.9527483333333","6500600","新店區"
"231006","355-BY","2019/10/26 13:29:17","新北市新店區安華路28-1號","121.519131666667","24.9609383333333","6500600","新店區"
"231038","3712-VJ","2019/10/26 13:29:10","新北市新店區安華路28-1號","121.519271666667","24.9606166666667","6500600","新店區"
"231027","3713-VJ","2019/10/26 13:29:30","新北市新店區環河路17號","121.537516666667","24.9613","6500600","新店區"
"231025","4715-K9","2019/10/26 13:29:20","新北市新店區中央五街39號","121.528521666667","24.97511","6500600","新店區"
"231020","513-UM","2019/10/26 13:29:15","新北市新店區安康路一段105號","121.528988333333","24.961535","6500600","新店區"
"231034","616-UM","2019/10/26 13:29:18","新北市新店區安華路28-1號","121.519628333333","24.9606383333333","6500600","新店區"
"231002","619-UM","2019/10/26 13:29:27","新北市新店區安康路一段89號","121.529208333333","24.9614866666667","6500600","新店區"
"231012","KED-0819","2019/10/26 13:29:18","新北市新店區北新路一段91號","121.53869","24.9617616666667","6500600","新店區"
"231010","719-UM","2019/10/26 13:29:30","新北市新店區自由街18號","121.535143333333","24.974685","6500600","新店區"
"231026","720-UM","2019/10/26 13:29:19","新北市新店區安一路一段1-1號","121.518828333333","24.9611766666667","6500600","新店區"
"231028","897-TW","2019/10/26 13:29:18","新北市新店區安華路28-1號","121.519538333333","24.960845","6500600","新店區"
"231001","898-TW","2019/10/26 13:29:20","新北市新店區秀山路72號","121.531286666667","24.9609666666667","6500600","新店區"
"231004","899-TW","2019/10/26 13:28:59","新北市新店區安華路28-1號","121.51909","24.9608683333333","6500600","新店區"
"231037","AKT-0513","2019/10/26 13:29:21","新北市新店區薏仁坑路47號","121.492001666667","24.96412","6500600","新店區"
"235030","003-UY","2019/10/26 13:29:26","新北市中和區中山路二段111號","121.503215","25.003725","6500300","中和區"
"235027","006-UY","2019/10/26 13:29:18","新北市中和區連城路347巷2弄1號","121.488173333333","24.9958066666667","6500300","中和區"
"235020","096-UM","2019/10/26 13:29:14","新北市中和區新民街101號","121.480323333333","25.008245","6500300","中和區"
"235039","097-UM","2019/10/26 13:29:13","新北市中和區大勇街25巷2號","121.517223333333","24.993235","6500300","中和區"
"235029","098-UM","2019/10/26 13:29:25","新北市中和區中山路二段64巷12號","121.503556666667","25.0051633333333","6500300","中和區"
"235004","150-BY","2019/10/26 13:29:16","新北市中和區安平路38號","121.509748333333","24.9949216666667","6500300","中和區"
"235022","151-BY","2019/10/26 13:29:27","新北市中和區圓通路369巷61號","121.49079","24.9833283333333","6500300","中和區"
"235019","183-VK","2019/10/26 13:29:24","新北市中和區國光街102巷44號","121.471343333333","25.0007","6500300","中和區"
"235002","185-VK","2019/10/26 13:29:19","新北市中和區秀朗路三段128巷17弄22號","121.522876666667","24.9932533333333","6500300","中和區"
"235031","255-BX","2019/10/26 13:29:26","新北市中和區連城路340巷14弄20號","121.482876666667","24.9971966666667","6500300","中和區"
"235036","301-VK","2019/10/26 13:29:19","新北市中和區連城路221號","121.49422","24.9975866666667","6500300","中和區"
"235007","352-BY","2019/10/26 13:29:14","新北市中和區景平路255號","121.508631666667","24.9930266666667","6500300","中和區"
"235006","KEA-2878","2019/10/26 13:29:14","新北市中和區自立路185號","121.523568333333","24.9917883333333","6500300","中和區"
"235014","4979-A6","2019/10/26 13:29:30","新北市中和區景新街370號","121.512113333333","24.9902766666667","6500300","中和區"
"235033","4980-A6","2019/10/26 13:29:27","新北市中和區連勝街38巷28號","121.497493333333","24.9981966666667","6500300","中和區"
"235021","551-UM","2019/10/26 13:29:24","新北市中和區民安街42巷36號","121.479065","25.0012183333333","6500300","中和區"
"235034","558-UM","2019/10/26 13:29:28","新北市中和區南華路50號","121.50415","24.9968433333333","6500300","中和區"
"235009","565-BX","2019/10/26 13:29:21","新北市中和區復興路14號","121.50565","24.9898816666667","6500300","中和區"
"235024","KED-0823","2019/10/26 13:29:21","新北市中和區中山路三段35-1號","121.478685","25.00582","6500300","中和區"
"235018","640-BX","2019/10/26 13:29:24","新北市中和區民享街86巷7號","121.474086666667","25.000785","6500300","中和區"
"235036","647-TV","2019/10/26 13:29:26","新北市中和區中板路26號","121.483365","25.0120733333333","6500300","中和區"
"235011","732-UM","2019/10/26 13:29:18","新北市中和區南山路495號","121.50804","24.9877866666667","6500300","中和區"
"235010","733-UM","2019/10/26 13:29:18","新北市中和區捷運路40號","121.508233333333","24.9903683333333","6500300","中和區"
"235005","802-TS","2019/10/26 13:29:29","新北市中和區中和路318號","121.509555","25.0004666666667","6500300","中和區"
"235016","805-TS","2019/10/26 13:29:22","新北市中和區興南路二段133號","121.505223333333","24.9841783333333","6500300","中和區"
"235012","896-TW","2019/10/26 13:29:20","新北市中和區中正路637巷52弄1號","121.485428333333","24.9934033333333","6500300","中和區"
"235017","900-TW","2019/10/26 13:29:24","新北市中和區連城路607號","121.478261666667","24.9930316666667","6500300","中和區"
"235028","911-UM","2019/10/26 13:29:31","新北市中和區連城路97號","121.496631666667","24.999935","6500300","中和區"
"235015","157-BY","2019/10/26 13:29:16","新北市中和區興南路二段128巷7弄7號","121.503313333333","24.9840766666667","6500300","中和區"
"235001","AAC-213","2019/10/26 13:29:11","新北市中和區景平路151巷47號","121.514756666667","24.99034","6500300","中和區"
"235023","AAC-215","2019/10/26 13:29:29","新北市中和區員山路36巷16-3號","121.485093333333","24.9913783333333","6500300","中和區"
"220104","015-TV","2019/10/26 13:29:20","新北市板橋區南雅南路一段112號","121.454865","25.0040583333333","6500100","板橋區"
"220013","072-UY","2019/10/26 13:29:20","新北市板橋區四川路一段2號","121.459408333333","25.0069933333333","6500100","板橋區"
"220017","AAD-861","2019/10/26 13:29:28","新北市板橋區華東街1-10號","121.448415","24.9950416666667","6500100","板橋區"
"247023","057-VK","2019/10/26 13:29:25","新北市五股區中興路三段163號","121.449185","25.08072","6501400","蘆洲區"
"247013","056-VK","2019/10/26 13:29:18","新北市五股區中興路三段2巷10號","121.449431666667","25.0810266666667","6501400","蘆洲區"
"235013","251-BX","2019/10/26 13:29:27","新北市中和區景安路117號","121.505801666667","24.9964416666667","6500300","中和區"
"228005","097-TW","2019/10/26 13:29:27","新北市貢寮區美豐里文秀坑8號","121.902563333333","25.0503983333333","6502600","貢寮區"
"228004","212-TW","2019/10/26 13:29:10","新北市貢寮區龍崗里石壁坑街17號","121.91038","24.989435","6502600","貢寮區"
"253003","6232-TK","2019/10/26 13:29:17","新北市石門區內石門50-4號","121.571356666667","25.2629116666667","6502200","石門區"
"253004","6251-TK","2019/10/26 13:28:03","新北市石門區竹子湖13號","121.617233333333","25.2558233333333","6502200","石門區"
"253002","637-UY","2019/10/26 13:29:11","新北市石門區九芎林5-3號","121.55986","25.2697833333333","6502200","石門區"
"253001","KEC-0718","2019/10/26 13:29:21","新北市三芝區新庄里新庄子71-3號","121.51254","25.27668","6502200","石門區"
"207002","749-BX","2019/10/26 13:29:17","新北市萬里區崁腳里崁腳路166號","121.645091666667","25.1558866666667","6502800","萬里區"
"207001","681-TV","2019/10/26 13:27:15","新北市萬里區龜吼里石角路12號","121.683735","25.19146","6502800","萬里區"
"252005","AAC-283","2019/10/26 13:29:12","新北市三芝區福德里土地公埔72-2號","121.522868333333","25.223555","6502100","三芝區"
"247011","KED-0683","2019/10/26 13:29:17","新北市五股區中興路三段163號","121.448946666667","25.0808583333333","6501400","蘆洲區"
"220030","610-BX","2019/10/26 13:29:19","新北市板橋區華東街1-10號","121.448275","24.9949166666667","6500100","板橋區"
"220004","276-BY","2019/10/26 13:29:22","新北市板橋區華東街1-9號","121.448106666667","24.9949083333333","6500100","板橋區"
"220043","283-UM","2019/10/26 13:29:19","新北市板橋區民生路二段180號","121.470696666667","25.02024","6500100","板橋區"
"220032","296-UM","2019/10/26 13:29:27","新北市板橋區華東街1-9號","121.448163333333","24.9949816666667","6500100","板橋區"
"220019","461-BY","2019/10/26 13:29:14","新北市板橋區華東街1-9號","121.448206666667","24.9947383333333","6500100","板橋區"
"220011","609-BX","2019/10/26 13:29:17","新北市板橋區民生路二段171號","121.469761666667","25.0201266666667","6500100","板橋區"
"220005","686-BX","2019/10/26 13:29:11","新北市板橋區板城路421號","121.448648333333","24.99609","6500100","板橋區"
"220025","687-BX","2019/10/26 13:29:25","新北市板橋區大觀路二段265巷7-7號","121.443991666667","24.9946166666667","6500100","板橋區"
"220022","895-R6","2019/10/26 13:29:12","新北市板橋區南雅南路二段144巷44號","121.4506","24.9961683333333","6500100","板橋區"
"220021","985-R7","2019/10/26 13:29:25","新北市板橋區四川路二段140巷18號","121.449388333333","24.993295","6500100","板橋區"
"220046","AAC-210","2019/10/26 13:29:28","新北市板橋區民生路二段161巷3號","121.470173333333","25.01982","6500100","板橋區"
"220012","AAC-253","2019/10/26 13:29:27","新北市板橋區南雅南路二段116號","121.45251","25.000565","6500100","板橋區"
"235032","KEA-2873","2019/10/26 13:29:11","新北市中和區中正路273-4號","121.495631666667","24.9933966666667","6500300","中和區"
"235025","KEA-2875","2019/10/26 13:29:22","新北市中和區民享街90巷19號","121.474003333333","25.0001233333333","6500300","中和區"
"235073","KEA-2876","2019/10/26 13:29:27","新北市中和區中山路二段312巷3弄1號","121.495556666667","25.0029783333333","6500300","中和區"
