"lineid","car","time","location","longitude","latitude","cityid","cityname"
"249005","172-UM","2019/10/26 17:29:26","新北市八里區荖阡坑路30號","121.405601666667","25.1289416666667","6502300","八里區"
"249001","173-UM","2019/10/26 17:29:15","新北市八里區中華路一段1-5號","121.423176666667","25.1586633333333","6502300","八里區"
"249004","303-UY","2019/10/26 17:29:27","新北市八里區民治街38號","121.414415","25.157435","6502300","八里區"
"249002","305-UY","2019/10/26 17:29:18","新北市八里區龍米路二段43號","121.448196666667","25.1404316666667","6502300","八里區"
"249003","593-UM","2019/10/26 17:29:16","新北市八里區中山路二段317號","121.400615","25.1477","6502300","八里區"
"232011","375-UM","2019/10/26 17:29:19","新北市坪林區北宜路八段553號","121.716768333333","24.9109733333333","6502000","坪林區"
"244007","080-UY","2019/10/26 17:29:25","新北市林口區中華路123號","121.386373333333","25.0892866666667","6501700","林口區"
"244019","402-UM","2019/10/26 17:29:18","新北市林口區文化一路一段83巷14弄52號","121.372355","25.0719566666667","6501700","林口區"
"244013","KEA-2802","2019/10/26 17:29:25","新北市林口區中山路256號","121.38523","25.079655","6501700","林口區"
"244023","483-VK","2019/10/26 17:29:26","新北市林口區東明一街15巷15號","121.39317","25.0719766666667","6501700","林口區"
"244017","485-VK","2019/10/26 17:29:22","新北市林口區忠孝路377號","121.369278333333","25.0716216666667","6501700","林口區"
"244009","656-BX","2019/10/26 17:29:23","新北市林口區中北三街287號","121.382465","25.0829983333333","6501700","林口區"
"244011","701-TV","2019/10/26 17:29:14","新北市林口區佳林路154號","121.384098333333","25.077025","6501700","林口區"
"244025","837-TS","2019/10/26 17:29:27","新北市林口區文化二路一段289-5號","121.367465","25.071915","6501700","林口區"
"244021","838-TS","2019/10/26 17:29:23","新北市林口區醒吾新村13號","121.39623","25.07919","6501700","林口區"
"231046","719-UM","2019/10/26 17:12:30","新北市新店區直潭一街92號","121.535021666667","24.939305","6500600","新店區"
"241011","013-R5","2019/10/26 17:29:09","新北市三重區河邊北街124巷35號","121.502935","25.071355","6500200","三重區"
"241015","062-VK","2019/10/26 17:29:30","新北市三重區長元街65巷16弄15號","121.503451666667","25.0661833333333","6500200","三重區"
"241017","063-VK","2019/10/26 17:29:29","新北市三重區大同北路34巷52號","121.493525","25.061865","6500200","三重區"
"241024","065-VK","2019/10/26 17:29:24","新北市三重區大勇街45號","121.482036666667","25.0717583333333","6500200","三重區"
"241007","066-VK","2019/10/26 17:29:09","新北市三重區三和路四段145巷120號","121.4874","25.0792966666667","6500200","三重區"
"241003","091-VK","2019/10/26 17:29:20","新北市三重區集賢路87-1號","121.49363","25.0868333333333","6500200","三重區"
"241016","266-UM","2019/10/26 17:29:15","新北市三重區信義西街108號","121.495928333333","25.0643666666667","6500200","三重區"
"241032","269-UM","2019/10/26 17:29:24","新北市三重區名源街59號","121.482295","25.0594166666667","6500200","三重區"
"241013","270-UM","2019/10/26 17:29:31","新北市三重區仁愛街141巷8號","121.495638333333","25.075515","6500200","三重區"
"241025","271-UM","2019/10/26 17:29:21","新北市三重區中正北路448號","121.473913333333","25.071415","6500200","三重區"
"241030","KED-0822","2019/10/26 17:29:12","新北市三重區環河南路263號","121.48989","25.049515","6500200","三重區"
"241023","462-BY","2019/10/26 17:29:17","新北市三重區忠孝路三段84巷42號","121.481901666667","25.064055","6500200","三重區"
"241020","478-VK","2019/10/26 17:29:13","新北市三重區忠孝路二段34號","121.485785","25.0710816666667","6500200","三重區"
"241014","543-UM","2019/10/26 17:29:26","新北市三重區長壽街90號","121.501693333333","25.068635","6500200","三重區"
"241019","KEA-2593","2019/10/26 17:29:29","新北市三重區六張街167號","121.489411666667","25.0688833333333","6500200","三重區"
"241012","743-BX","2019/10/26 17:29:17","新北市三重區河邊北街266號","121.501661666667","25.0765266666667","6500200","三重區"
"241033","AAC-255","2019/10/26 17:29:21","新北市三重區興德路133號","121.470133333333","25.0529233333333","6500200","三重區"
"247016","KEA-2869","2019/10/26 17:29:13","新北市蘆洲區光華路22巷42號","121.468315","25.0848416666667","6501400","蘆洲區"
"247010","KED-0682","2019/10/26 17:29:11","新北市蘆洲區信義路159號","121.479793333333","25.0817716666667","6501400","蘆洲區"
"247006","893-R6","2019/10/26 17:29:29","新北市蘆洲區長安街22巷31弄18號","121.464226666667","25.08049","6501400","蘆洲區"
"247004","500-BY","2019/10/26 17:29:18","新北市蘆洲區長安街160號","121.459431666667","25.0828983333333","6501400","蘆洲區"
"247024","057-VK","2019/10/26 17:29:12","新北市蘆洲區長興路278號","121.46029","25.088685","6501400","蘆洲區"
"247014","056-VK","2019/10/26 17:29:18","新北市蘆洲區復興路56號","121.472921666667","25.0855216666667","6501400","蘆洲區"
"247018","053-VK","2019/10/26 17:29:30","新北市蘆洲區民義街22巷16號","121.471681666667","25.08823","6501400","蘆洲區"
"247022","007-UY","2019/10/26 17:29:30","新北市蘆洲區中正路314號","121.464511666667","25.0911983333333","6501400","蘆洲區"
"247008","002-UY","2019/10/26 17:29:17","新北市蘆洲區信義路34巷54號","121.475153333333","25.0779833333333","6501400","蘆洲區"
"247002","001-UY","2019/10/26 17:29:25","新北市蘆洲區永樂街38巷57弄2號","121.458375","25.09021","6501400","蘆洲區"
"228003","097-TW","2019/10/26 17:29:22","新北市貢寮區仁理村仁和路2-1號","121.923186666667","25.04861","6502600","貢寮區"
"228001","212-TW","2019/10/26 17:29:09","新北市貢寮區仁理村仁愛路66巷3號","121.926095","25.0536366666667","6502600","貢寮區"
"228002","663-BX","2019/10/26 17:29:28","新北市貢寮區福隆里興隆街23號","121.943241666667","25.01649","6502600","貢寮區"
"224010","AGQ-8101","2019/10/26 17:29:18","新北市瑞芳區逢甲路13號","121.809873333333","25.1086466666667","6501200","瑞芳區"
"224006","676-BX","2019/10/26 17:29:25","新北市瑞芳區靜安路四段98號","121.793251666667","25.110415","6501200","瑞芳區"
"224009","275-VK","2019/10/26 17:29:17","新北市瑞芳區汽車路32號","121.845708333333","25.1102583333333","6501200","瑞芳區"
"224008","273-VK","2019/10/26 17:29:24","新北市瑞芳區侯硐路204號","121.830405","25.0882133333333","6501200","瑞芳區"
"224005","271-BY","2019/10/26 17:29:28","新北市瑞芳區南雅路91號","121.884505","25.1230266666667","6501200","瑞芳區"
"227002","642-TC","2019/10/26 17:20:34","新北市雙溪區共和里東榮街42號","121.866023333333","25.03372","6502500","雙溪區"
"227001","400-TW","2019/10/26 17:29:20","新北市雙溪區三貂里定福路1-2號","121.850773333333","25.0633983333333","6502500","雙溪區"
"251009","008-UM","2019/10/26 17:29:17","新北市淡水區建設街1巷1號","121.438928333333","25.1728533333333","6501000","淡水區"
"251005","010-UM","2019/10/26 17:29:17","新北市淡水區鄧公路32巷16-1號","121.451203333333","25.1709083333333","6501000","淡水區"
"251015","KEA-2871","2019/10/26 17:29:17","新北市淡水區三空泉20號","121.469328333333","25.165625","6501000","淡水區"
"251016","179-VK","2019/10/26 17:29:16","新北市淡水區埤島72號","121.456195","25.193085","6501000","淡水區"
"251004","180-VK","2019/10/26 17:09:12","新北市淡水區中正東路二段88巷15號","121.459113333333","25.150535","6501000","淡水區"
"251008","181-VK","2019/10/26 17:29:11","新北市淡水區大同路122巷15號","121.463163333333","25.139705","6501000","淡水區"
"251013","182-VK","2019/10/26 17:29:12","新北市淡水區水尾子2號","121.463186666667","25.1946283333333","6501000","淡水區"
"251010","413-VK","2019/10/26 17:29:28","新北市淡水區中正路二段211號","121.426161666667","25.18912","6501000","淡水區"
"251012","441-VK","2019/10/26 17:29:14","新北市淡水區北新路118號","121.447976666667","25.1783433333333","6501000","淡水區"
"251007","442-VK","2019/10/26 17:29:11","新北市淡水區民生路47-4號","121.462071666667","25.1379733333333","6501000","淡水區"
"251006","561-UM","2019/10/26 17:29:28","新北市淡水區大仁街13號","121.44229","25.174995","6501000","淡水區"
"251014","577-R6","2019/10/26 17:29:01","新北市淡水區公埔子20-6號","121.468841666667","25.2269183333333","6501000","淡水區"
"251011","650-BX","2019/10/26 17:29:28","新北市淡水區三空泉8-1號","121.475911666667","25.161215","6501000","淡水區"
"251002","672-BX","2019/10/26 17:29:24","新北市淡水區中正路一段112號","121.423638333333","25.17806","6501000","淡水區"
"251003","766-UM","2019/10/26 17:29:18","新北市淡水區文化路15號","121.439598333333","25.1725733333333","6501000","淡水區"
"207003","550-UM","2019/10/26 17:29:23","新北市萬里區龜吼里美崙路38號","121.6864","25.18467","6502800","萬里區"
"207004","291-VK","2019/10/26 17:29:20","新北市萬里區萬里里景美路15-1號","121.686616666667","25.173175","6502800","萬里區"
"252002","178-VK","2019/10/26 17:29:24","新北市三芝區忠孝街1-14號","121.505451666667","25.2539466666667","6502100","三芝區"
"252001","292-VK","2019/10/26 17:29:09","新北市三芝區淡金路一段4-5號","121.498093333333","25.2596833333333","6502100","三芝區"
"247012","KED-0683","2019/10/26 17:29:15","新北市蘆洲區民族路56號","121.477008333333","25.08461","6501400","蘆洲區"
"242042","AAC-296","2019/10/26 17:29:25","新北市新莊區新樹路113巷33號","121.439526666667","25.0264416666667","6500500","新莊區"
"242061","986-R7","2019/10/26 17:29:12","新北市新莊區瓊林路59-38號","121.441111666667","25.02348","6500500","新莊區"
"242004","751-BX","2019/10/26 17:29:15","新北市新莊區中港路280號","121.453105","25.044155","6500500","新莊區"
"242027","705-TV","2019/10/26 17:29:14","新北市新莊區思源路28號","121.460271666667","25.0401833333333","6500500","新莊區"
"242029","615-BX","2019/10/26 17:29:25","新北市新莊區復興路二段192號","121.45922","25.0444516666667","6500500","新莊區"
"242058","612-BX","2019/10/26 17:29:12","新北市新莊區中正路400號","121.441983333333","25.0342633333333","6500500","新莊區"
"242048","566-BX","2019/10/26 17:29:26","新北市新莊區四維路219號","121.4216","25.0198766666667","6500500","新莊區"
"242053","497-BY","2019/10/26 17:29:17","新北市新莊區瓊林南路305巷25號","121.435485","25.005065","6500500","新莊區"
"242002","441-UM","2019/10/26 17:29:17","新北市新莊區碧江街11號","121.455821666667","25.0348683333333","6500500","新莊區"
"242007","440-UM","2019/10/26 17:29:14","新北市新莊區中華路二段2號","121.453035","25.0444466666667","6500500","新莊區"
"242013","413-TV","2019/10/26 17:29:25","新北市新莊區中誠街24號","121.45176","25.04814","6500500","新莊區"
"242051","400-BY","2019/10/26 17:29:18","新北市新莊區新樹路268巷39弄10號","121.431231666667","25.016025","6500500","新莊區"
"242025","362-BY","2019/10/26 17:29:20","新北市新莊區中港路276號","121.453256666667","25.0441066666667","6500500","新莊區"
"242023","353-BY","2019/10/26 17:29:18","新北市新莊區公園路37號","121.45312","25.0401383333333","6500500","新莊區"
"242015","132-UY","2019/10/26 17:29:18","新北市新莊區新泰路161號","121.447755","25.0370133333333","6500500","新莊區"
"242044","172-VK","2019/10/26 17:29:22","新北市新莊區富國路101-1號","121.421391666667","25.02554","6500500","新莊區"
"242017","173-VK","2019/10/26 17:29:11","新北市新莊區中華路一段103號","121.452743333333","25.04394","6500500","新莊區"
"242031","175-VK","2019/10/26 17:29:08","新北市新莊區新泰路442號","121.443426666667","25.0447683333333","6500500","新莊區"
"242039","176-VK","2019/10/26 17:29:31","新北市新莊區民安東路28號","121.428621666667","25.020875","6500500","新莊區"
"242021","KED-0687","2019/10/26 17:29:26","新北市新莊區中正路136號","121.45265","25.03623","6500500","新莊區"
"242019","346-TH","2019/10/26 17:29:24","新北市新莊區中港路50號","121.455383333333","25.0384633333333","6500500","新莊區"
"242056","347-TH","2019/10/26 17:29:13","新北市新莊區景德路538號","121.443656666667","25.033235","6500500","新莊區"
"242036","348-TH","2019/10/26 17:29:09","新北市新莊區建國二路5-1號","121.43477","25.0237216666667","6500500","新莊區"
"242009","349-TH","2019/10/26 17:29:19","新北市新莊區中原路171號","121.453596666667","25.0544166666667","6500500","新莊區"
"242034","350-TH","2019/10/26 17:29:22","新北市新莊區新莊路378號","121.449173333333","25.033435","6500500","新莊區"
"238015","755-BX","2019/10/26 17:29:26","新北市樹林區保安街一段87-1號","121.422151666667","24.995295","6500700","樹林區"
"238023","601-UM","2019/10/26 17:29:13","新北市樹林區三寶街2號","121.406533333333","25.016125","6500700","樹林區"
"238019","599-UM","2019/10/26 17:29:12","新北市樹林區八德街229號","121.421428333333","24.979085","6500700","樹林區"
"238024","5061-A6","2019/10/26 17:29:18","新北市樹林區博愛街226巷3號","121.424116666667","24.9887833333333","6500700","樹林區"
"238018","KEA-2217","2019/10/26 17:29:25","新北市樹林區博愛街226巷3號","121.424253333333","24.9888983333333","6500700","樹林區"
"238022","KEA-2213","2019/10/26 17:29:14","新北市樹林區仁愛街61號","121.42263","24.9822766666667","6500700","樹林區"
"238021","KEA-2539","2019/10/26 17:29:20","新北市樹林區西圳街一段203巷7號","121.39301","24.9602183333333","6500700","樹林區"
"238025","303-VK","2019/10/26 17:29:22","新北市樹林區保安街一段298號","121.41902","24.9973533333333","6500700","樹林區"
"238017","283-BY","2019/10/26 17:29:24","新北市樹林區中正路238號","121.418121666667","25.0070983333333","6500700","樹林區"
"238014","282-BY","2019/10/26 17:29:25","新北市樹林區保安街一段294巷3號","121.419266666667","24.9976416666667","6500700","樹林區"
"238020","268-VK","2019/10/26 17:29:21","新北市樹林區千歲街111號","121.42921","25.0017316666667","6500700","樹林區"
"238026","172-UY","2019/10/26 17:29:32","新北市樹林區中山路二段237號","121.402155","24.9759833333333","6500700","樹林區"
"238016","169-UY","2019/10/26 17:29:20","新北市樹林區中山路一段2巷2號","121.424355","24.99395","6500700","樹林區"
"239007","AAC-297","2019/10/26 17:29:29","新北市鶯歌區國華路2號","121.342861666667","24.956325","6500800","鶯歌區"
"239006","891-R6","2019/10/26 17:29:11","新北市鶯歌區鶯桃路436巷26弄2號","121.333796666667","24.965395","6500800","鶯歌區"
"239003","661-UM","2019/10/26 17:29:28","新北市鶯歌區德昌街7-1號","121.333651666667","24.9603833333333","6500800","鶯歌區"
"239008","527-UM","2019/10/26 17:29:25","新北市鶯歌區西湖街289巷5-14號","121.33935","24.9702716666667","6500800","鶯歌區"
"239005","526-UM","2019/10/26 17:29:14","新北市鶯歌區鶯桃路二段9號","121.325925","24.972035","6500800","鶯歌區"
"239001","417-VK","2019/10/26 17:29:14","新北市鶯歌區尖山路302號","121.34025","24.9438783333333","6500800","鶯歌區"
"239002","359-BY","2019/10/26 17:29:16","新北市鶯歌區育英街49號","121.346871666667","24.953685","6500800","鶯歌區"
"239004","193-VK","2019/10/26 17:29:18","新北市鶯歌區文化路266號","121.352876666667","24.94745","6500800","鶯歌區"
"233001","KEA-2870","2019/10/26 17:29:13","新北市烏來區瀑布路1-5號","121.551891666667","24.849605","6502900","烏來區"
"242046","281-VK","2019/10/26 17:29:22","新北市新莊區新樹路49號","121.440163333333","25.0320233333333","6500500","新莊區"
"242011","280-VK","2019/10/26 17:29:26","新北市新莊區中港路471號","121.452338333333","25.0492316666667","6500500","新莊區"
"235061","KEA-2875","2019/10/26 17:19:59","新北市中和區員山路36巷16-2號","121.485326666667","24.9916783333333","6500300","中和區"
