"lineid","car","time","location","longitude","latitude","cityid","cityname"
"234046","148-BY","2019/10/26 18:59:58","新北市永和區得和路373巷31弄3號","121.524906666667","25.0005066666667","6500400","永和區"
"234081","298-R6","2019/10/26 18:59:51","新北市永和區永亨路83號","121.521895","25.005645","6500400","永和區"
"234038","336-UY","2019/10/26 18:59:57","新北市中和區秀朗路三段38號","121.526501666667","24.9959483333333","6500400","永和區"
"234064","337-UY","2019/10/26 18:59:41","新北市永和區秀朗路一段172號","121.518703333333","25.0033433333333","6500400","永和區"
"234086","338-UY","2019/10/26 18:59:50","新北市永和區永利路18號","121.518036666667","25.0057766666667","6500400","永和區"
"234070","552-UM","2019/10/26 18:59:52","新北市永和區中興街52巷3弄2號","121.517215","25.0111116666667","6500400","永和區"
"234017","745-BX","2019/10/26 18:59:43","新北市永和區永和路二段299號","121.51602","25.01609","6500400","永和區"
"234030","746-BX","2019/10/26 18:59:38","新北市永和區秀朗路二段291號","121.52617","24.9979666666667","6500400","永和區"
"234054","KEA-2590","2019/10/26 18:59:43","新北市永和區竹林路66巷4號","121.518221666667","25.0133283333333","6500400","永和區"
"234007","KED-0605","2019/10/26 18:59:58","新北市永和區中山路一段93號","121.511593333333","25.0107166666667","6500400","永和區"
"234013","KEA-2591","2019/10/26 18:59:48","新北市永和區信義路17巷1號","121.514136666667","25.0118116666667","6500400","永和區"
"234061","AAD-866","2019/10/26 18:59:57","新北市永和區福和路309巷1號","121.516345","25.007005","6500400","永和區"
"234042","862-TW","2019/10/26 18:59:47","新北市永和區永貞路308號","121.511801666667","25.004845","6500400","永和區"
"234050","863-TW","2019/10/26 18:59:41","新北市永和區文化路194號","121.510731666667","25.0162316666667","6500400","永和區"
"234011","9373-KE","2019/10/26 18:59:56","新北市永和區仁愛路141巷3弄2號","121.511696666667","25.0123733333333","6500400","永和區"
"249005","172-UM","2019/10/26 18:59:46","新北市八里區長道坑1號","121.393358333333","25.12692","6502300","八里區"
"249001","173-UM","2019/10/26 18:59:54","新北市八里區龍米路二段218號","121.433126666667","25.1584533333333","6502300","八里區"
"249002","305-UY","2019/10/26 18:49:57","新北市八里區龍形一街33巷6-2號","121.449303333333","25.129455","6502300","八里區"
"248016","026-BX","2019/10/26 18:59:52","新北市五股區凌雲路一段116巷2-1號","121.450326666667","25.1021033333333","6501500","五股區"
"248006","077-UY","2019/10/26 18:59:49","新北市五股區四維路185巷1號","121.468328333333","25.0760933333333","6501500","五股區"
"248008","KED-0815","2019/10/26 18:59:51","新北市五股區中興路一段118巷6弄5號","121.466316666667","25.0743216666667","6501500","五股區"
"248020","KED-0813","2019/10/26 18:59:47","新北市五股區凌雲路三段100-1號","121.426941666667","25.12191","6501500","五股區"
"248012","247-BX","2019/10/26 18:59:43","新北市五股區中興路四段48巷16號","121.438538333333","25.08347","6501500","五股區"
"248010","655-BX","2019/10/26 18:59:39","新北市五股區水碓一路23號","121.430658333333","25.0712816666667","6501500","五股區"
"248004","677-BX","2019/10/26 18:59:50","新北市五股區民義路二段42-3號","121.416268333333","25.0996516666667","6501500","五股區"
"248002","678-BX","2019/10/26 18:59:41","新北市五股區凌雲路一段156巷1號","121.448921666667","25.1026933333333","6501500","五股區"
"234023","9380-KE","2019/10/26 18:59:48","新北市永和區竹林路75巷33弄35號","121.5209","25.0144383333333","6500400","永和區"
"234077","969-R7","2019/10/26 18:59:47","新北市永和區得和路106-1號","121.518141666667","24.9999016666667","6500400","永和區"
"234067","AAC-212","2019/10/26 18:59:51","新北市永和區自由街49號","121.51404","25.0058333333333","6500400","永和區"
"234003","AAC-295","2019/10/26 18:59:45","新北市永和區和平街38號","121.513028333333","25.009925","6500400","永和區"
"232011","375-UM","2019/10/26 18:59:59","新北市坪林區水聳淒坑26-2號","121.711763333333","24.9343416666667","6502000","坪林區"
"244019","402-UM","2019/10/26 18:59:57","新北市林口區文化二路一段490-8號","121.37597","25.0780966666667","6501700","林口區"
"244013","KEA-2802","2019/10/26 18:59:45","新北市林口區麗園一街5號","121.376121666667","25.0719966666667","6501700","林口區"
"244023","483-VK","2019/10/26 18:59:46","新北市林口區民權路10-3號","121.371595","25.0798433333333","6501700","林口區"
"244017","485-VK","2019/10/26 18:59:42","新北市林口區文化二路一段120巷5號","121.367938333333","25.0700016666667","6501700","林口區"
"244009","656-BX","2019/10/26 18:59:43","新北市林口區林口路83-1號","121.389648333333","25.07985","6501700","林口區"
"244011","701-TV","2019/10/26 18:59:54","新北市林口區中正路343號","121.387985","25.0776933333333","6501700","林口區"
"244025","837-TS","2019/10/26 18:59:46","新北市林口區南勢街192巷13號","121.361381666667","25.0750266666667","6501700","林口區"
"243012","AAD-798","2019/10/26 18:59:41","新北市泰山區泰林路二段73巷29號","121.434421666667","25.0578583333333","6501600","泰山區"
"243010","297-R6","2019/10/26 18:59:47","新北市泰山區辭修路24號","121.429018333333","25.0581966666667","6501600","泰山區"
"243014","KEA-2801","2019/10/26 18:59:38","新北市泰山區泰林路二段595號","121.421671666667","25.0634833333333","6501600","泰山區"
"243016","421-VK","2019/10/26 18:59:38","新北市泰山區明志路二段152-1號","121.427455","25.05069","6501600","泰山區"
"243015","539-UM","2019/10/26 18:59:59","新北市泰山區泰林路二段330號","121.430031666667","25.0632566666667","6501600","泰山區"
"243009","KEA-2215","2019/10/26 18:59:44","新北市泰山區泰林路二段355號","121.428165","25.06378","6501600","泰山區"
"222003","436-BY","2019/10/26 18:59:35","新北市深坑區深南路88巷1號","121.621411666667","25.01082","6501800","深坑區"
"222002","659-BX","2019/10/26 18:59:50","新北市深坑區文山路一段33號","121.629478333333","25.00392","6501800","深坑區"
"231061","002-UM","2019/10/26 18:59:51","新北市新店區安華路30巷1號","121.519421666667","24.9597233333333","6500600","新店區"
"231055","0291-UT","2019/10/26 18:59:42","新北市新店區北新路一段271巷8號","121.540493333333","24.9668533333333","6500600","新店區"
"231044","046-UY","2019/10/26 18:59:52","新北市新店區寶中路72號","121.54795","24.9806383333333","6500600","新店區"
"231042","047-UY","2019/10/26 18:59:43","新北市新店區中興路一段280號","121.545586666667","24.9683416666667","6500600","新店區"
"231060","106-UY","2019/10/26 18:59:39","新北市新店區安華路16號","121.516863333333","24.95809","6500600","新店區"
"231051","107-UY","2019/10/26 18:59:42","新北市新店區中央路7號","121.533483333333","24.9786366666667","6500600","新店區"
"231049","108-UY","2019/10/26 18:59:54","新北市新店區二十張路121號","121.536053333333","24.9794883333333","6500600","新店區"
"231065","KEA-2219","2019/10/26 18:59:52","新北市新店區安祥路147巷18號","121.47555","24.9560333333333","6500600","新店區"
"231062","256-BX","2019/10/26 18:59:40","新北市新店區安豐路60號","121.498391666667","24.9539516666667","6500600","新店區"
"231054","260-TV","2019/10/26 18:59:57","新北市新店區新店路27-1號","121.539996666667","24.95277","6500600","新店區"
"231064","278-BY","2019/10/26 18:59:40","新北市新店區安康路一段355號","121.519826666667","24.963175","6500600","新店區"
"231050","AAD-862","2019/10/26 18:59:55","新北市新店區新烏路一段11巷1弄2號","121.547396666667","24.951385","6500600","新店區"
"231045","355-BY","2019/10/26 18:59:40","新北市新店區安康路一段186號","121.524816666667","24.9632783333333","6500600","新店區"
"231058","3713-VJ","2019/10/26 18:59:50","新北市新店區中正路1巷2號","121.545651666667","24.9689316666667","6500600","新店區"
"231056","4715-K9","2019/10/26 18:59:51","新北市新店區民權路105號","121.536541666667","24.9826366666667","6500600","新店區"
"231067","4772-VM","2019/10/26 18:59:36","新北市新店區安康路一段76巷34-1號","121.528423333333","24.9635033333333","6500600","新店區"
"231052","513-UM","2019/10/26 18:59:44","新北市新店區屈尺路58號","121.547386666667","24.922785","6500600","新店區"
"231063","616-UM","2019/10/26 18:59:51","新北市新店區安華路30巷1號","121.519506666667","24.9598566666667","6500600","新店區"
"231041","619-UM","2019/10/26 18:59:57","新北市新店區環河路29巷1號","121.536138333333","24.9611566666667","6500600","新店區"
"231048","KED-0819","2019/10/26 18:59:52","新北市新店區德正街23巷12-1號","121.544535","24.9721933333333","6500600","新店區"
"231046","719-UM","2019/10/26 18:59:54","新北市新店區直潭二街23號","121.535411666667","24.9419683333333","6500600","新店區"
"231057","720-UM","2019/10/26 18:59:39","新北市新店區百齡一路12號","121.553033333333","24.9324583333333","6500600","新店區"
"231059","897-TW","2019/10/26 18:59:54","新北市新店區安華路28-1號","121.519766666667","24.960725","6500600","新店區"
"231040","898-TW","2019/10/26 18:59:57","新北市新店區中央路39號","121.532983333333","24.9776033333333","6500600","新店區"
"231043","899-TW","2019/10/26 18:59:40","新北市新店區北新路二段1號","121.542675","24.97113","6500600","新店區"
"231066","AKT-0513","2019/10/26 18:59:48","新北市新店區安豐路46號","121.50006","24.9549433333333","6500600","新店區"
"241024","065-VK","2019/10/26 18:59:55","新北市五股區中興路二段161號","121.457501666667","25.0772433333333","6500200","三重區"
"241035","KEA-2210","2019/10/26 18:59:52","新北市三重區重陽路一段45號","121.486876666667","25.058105","6500200","三重區"
"235066","003-UY","2019/10/26 18:59:55","新北市中和區光華街19號","121.504693333333","25.0041716666667","6500300","中和區"
"235063","006-UY","2019/10/26 18:59:39","新北市中和區連城路401號","121.486201666667","24.996155","6500300","中和區"
"235056","096-UM","2019/10/26 18:59:56","新北市板橋區三民路二段228號","121.478796666667","25.0113433333333","6500300","中和區"
"235039","097-UM","2019/10/26 18:59:45","新北市中和區景平路64巷13弄22號","121.52142","24.9915333333333","6500300","中和區"
"235065","098-UM","2019/10/26 18:59:47","新北市中和區福祥路135號","121.498393333333","25.007555","6500300","中和區"
"235040","150-BY","2019/10/26 18:59:55","新北市中和區安樂路83號","121.512703333333","24.994465","6500300","中和區"
"235058","151-BY","2019/10/26 18:59:52","新北市中和區員山路36巷16-2號","121.48532","24.9913366666667","6500300","中和區"
"235055","183-VK","2019/10/26 18:59:54","新北市中和區德光路43號","121.470403333333","25.0041233333333","6500300","中和區"
"235038","185-VK","2019/10/26 18:59:58","新北市中和區立人街24-5號","121.518916666667","24.99415","6500300","中和區"
"235067","255-BX","2019/10/26 18:59:43","新北市中和區新生街166巷23號","121.482565","25.0001816666667","6500300","中和區"
"235044","293-VK","2019/10/26 18:59:43","新北市中和區中興街161巷4弄1號","121.50055","24.9908966666667","6500300","中和區"
"235072","301-VK","2019/10/26 18:59:49","新北市中和區福美路304號","121.496983333333","25.0049","6500300","中和區"
"235043","352-BY","2019/10/26 18:59:52","新北市中和區景平路4號","121.524238333333","24.9906566666667","6500300","中和區"
"235042","KEA-2878","2019/10/26 18:59:39","新北市中和區秀朗路三段22巷1號","121.526131666667","24.996315","6500300","中和區"
"235050","4979-A6","2019/10/26 18:59:47","新北市中和區忠孝街1號","121.508908333333","24.9829966666667","6500300","中和區"
"235069","4980-A6","2019/10/26 18:59:50","新北市中和區中和路217巷6號","121.504151666667","25.0002316666667","6500300","中和區"
"235057","551-UM","2019/10/26 18:59:50","新北市中和區民利街68巷1弄1號","121.47841","24.9986016666667","6500300","中和區"
"235070","558-UM","2019/10/26 18:59:43","新北市中和區中和路106號","121.502886666667","24.999745","6500300","中和區"
"235045","565-BX","2019/10/26 18:59:47","新北市中和區景新街449號","121.513308333333","24.9885733333333","6500300","中和區"
"235060","KED-0823","2019/10/26 18:59:53","新北市中和區民有街92號","121.476208333333","25.0036566666667","6500300","中和區"
"235054","640-BX","2019/10/26 18:59:55","新北市中和區國光街103號","121.470073333333","25.0003466666667","6500300","中和區"
"235047","732-UM","2019/10/26 18:59:53","新北市中和區興南路二段125號","121.505418333333","24.9841883333333","6500300","中和區"
"235046","733-UM","2019/10/26 18:59:54","新北市中和區興南路二段29號","121.507753333333","24.98586","6500300","中和區"
"235041","802-TS","2019/10/26 18:59:43","新北市中和區景安路69號","121.50696","24.997735","6500300","中和區"
"235052","805-TS","2019/10/26 18:59:36","新北市中和區興南路二段347號","121.500066666667","24.980075","6500300","中和區"
"235048","896-TW","2019/10/26 18:59:48","新北市中和區工專路147號","121.508375","24.9788066666667","6500300","中和區"
"235053","900-TW","2019/10/26 18:59:37","新北市中和區和平路208號","121.463866666667","24.99611","6500300","中和區"
"235064","911-UM","2019/10/26 18:59:56","新北市中和區中和路35-1號","121.500183333333","25.0014383333333","6500300","中和區"
"235051","157-BY","2019/10/26 18:59:38","新北市中和區忠孝街31巷33弄3號","121.509753333333","24.984405","6500300","中和區"
"235037","AAC-213","2019/10/26 18:59:43","新北市中和區秀朗路三段60巷45號","121.524896666667","24.9948383333333","6500300","中和區"
"235059","AAC-215","2019/10/26 18:59:40","新北市中和區圓通路367巷20弄31號","121.49124","24.9879833333333","6500300","中和區"
"220035","015-TV","2019/10/26 18:59:46","新北市板橋區中正路258號","121.455385","25.0194633333333","6500100","板橋區"
"220065","072-UY","2019/10/26 18:59:45","新北市板橋區館前東路66號","121.461206666667","25.007345","6500100","板橋區"
"220086","073-UY","2019/10/26 18:59:55","新北市板橋區大智街10號","121.456098333333","25.0148366666667","6500100","板橋區"
"220106","075-UY","2019/10/26 18:59:41","新北市板橋區雙十路三段10巷16號","121.472325","25.0309416666667","6500100","板橋區"
"220069","AAD-861","2019/10/26 18:59:47","新北市板橋區四川路一段168號","121.459995","25.0031983333333","6500100","板橋區"
"220068","120-SR","2019/10/26 18:59:48","新北市板橋區中山路二段443巷82號","121.48105","25.0225366666667","6500100","板橋區"
"226004","312-R5","2019/10/26 18:59:51","新北市平溪區石底里石底街35號","121.739573333333","25.0244816666667","6502400","平溪區"
"235049","251-BX","2019/10/26 18:59:45","新北市中和區景新街170號","121.505841666667","24.9965366666667","6500300","中和區"
"228003","097-TW","2019/10/26 18:59:42","新北市貢寮區和美里龍洞街56-2號","121.912166666667","25.1139016666667","6502600","貢寮區"
"228001","212-TW","2019/10/26 18:59:49","新北市貢寮區仁理村仁義街8號","121.923805","25.0520366666667","6502600","貢寮區"
"228002","663-BX","2019/10/26 18:59:48","新北市貢寮區福隆里東興街106巷25弄1號","121.946396666667","25.0182783333333","6502600","貢寮區"
"224006","676-BX","2019/10/26 18:59:45","新北市瑞芳區中山路152號","121.80232","25.10655","6501200","瑞芳區"
"224007","285-BY","2019/10/26 18:59:54","新北市瑞芳區瑞竹路46號","121.76349","25.103345","6501200","瑞芳區"
"224009","275-VK","2019/10/26 18:59:57","新北市瑞芳區長仁路40號","121.863518333333","25.1183733333333","6501200","瑞芳區"
"224008","273-VK","2019/10/26 18:59:43","新北市瑞芳區逢甲路412號","121.800791666667","25.11665","6501200","瑞芳區"
"224005","271-BY","2019/10/26 18:59:48","新北市瑞芳區濱二路66-6號","121.830706666667","25.1199","6501200","瑞芳區"
"227002","642-TC","2019/10/26 18:59:40","新北市雙溪區平林里康福家園1號","121.858218333333","25.03776","6502500","雙溪區"
"227001","400-TW","2019/10/26 18:59:40","新北市雙溪區牡丹里中正路60號","121.866123333333","25.0422916666667","6502500","雙溪區"
"253005","032-BX","2019/10/26 18:59:55","新北市石門區尖子鹿116-1號","121.574838333333","25.2975333333333","6502200","石門區"
"253006","295-VK","2019/10/26 18:59:43","新北市石門區八甲4-1號","121.521205","25.2824983333333","6502200","石門區"
"222001","KEA-2212","2019/10/26 18:59:52","新北市深坑區北深路一段300號","121.624271666667","25.0057266666667","6501800","深坑區"
"208002","KEA-2872","2019/10/26 18:59:49","新北市金山區仁愛路37-26號","121.63538","25.2207133333333","6502700","金山區"
"208003","665-BX","2019/10/26 18:59:57","新北市金山區中正路53號","121.634583333333","25.2219733333333","6502700","金山區"
"251009","008-UM","2019/10/26 18:59:57","新北市淡水區建設街1巷7-2號","121.43936","25.1727333333333","6501000","淡水區"
"251001","011-UM","2019/10/26 18:59:24","新北市淡水區自強路60號","121.463145","25.1275733333333","6501000","淡水區"
"251015","KEA-2871","2019/10/26 18:59:58","新北市淡水區糞箕湖89號","121.486333333333","25.1720283333333","6501000","淡水區"
"251016","179-VK","2019/10/26 18:59:46","新北市淡水區淡金路三段195號","121.448783333333","25.2047083333333","6501000","淡水區"
"251013","182-VK","2019/10/26 18:59:52","新北市淡水區安子內3號","121.487123333333","25.2158633333333","6501000","淡水區"
"251010","413-VK","2019/10/26 18:59:48","新北市淡水區中正路一段156巷8號","121.421588333333","25.1807183333333","6501000","淡水區"
"251012","441-VK","2019/10/26 18:59:54","新北市淡水區新春街126巷15弄17號","121.440663333333","25.18096","6501000","淡水區"
"251007","442-VK","2019/10/26 18:59:51","新北市淡水區民生路113巷1弄39號","121.462955","25.1386116666667","6501000","淡水區"
"251014","577-R6","2019/10/26 18:59:41","新北市淡水區小中寮32號","121.490943333333","25.2263033333333","6501000","淡水區"
"251011","650-BX","2019/10/26 18:59:47","新北市淡水區鄧公路30巷2弄20號","121.453115","25.1690933333333","6501000","淡水區"
"251002","672-BX","2019/10/26 18:59:45","新北市淡水區中正東路43號","121.446443333333","25.16803","6501000","淡水區"
"251003","766-UM","2019/10/26 18:59:58","新北市淡水區中山北路一段149巷27號","121.443028333333","25.1778233333333","6501000","淡水區"
"207003","550-UM","2019/10/26 18:59:43","新北市萬里區大鵬里頂社2-1號","121.660378333333","25.20722","6502800","萬里區"
"207004","291-VK","2019/10/26 18:59:40","新北市萬里區萬里里獅頭路23號","121.693235","25.1782733333333","6502800","萬里區"
"252002","178-VK","2019/10/26 18:59:44","新北市三芝區中正路一段16-1號","121.502895","25.2587016666667","6502100","三芝區"
"252003","249-BX","2019/10/26 18:59:47","新北市三芝區後厝里北勢子42-1號","121.471578333333","25.2521133333333","6502100","三芝區"
"208001","170-UY","2019/10/26 18:59:48","新北市金山區民生路51巷1-2號","121.641953333333","25.2202416666667","6502700","金山區"
"237004","KEA-2597","2019/10/26 18:59:50","新北市三峽區有木190號","121.448191666667","24.8412916666667","6500900","三峽區"
"237007","153-BY","2019/10/26 18:59:43","新北市三峽區中正路二段318號","121.365901666667","24.9108266666667","6500900","三峽區"
"237013","252-BX","2019/10/26 18:59:52","新北市三峽區光明路69巷24號","121.376665","24.9290933333333","6500900","三峽區"
"237012","275-BY","2019/10/26 18:59:54","新北市三峽區三樹路222巷90號","121.38385","24.9421733333333","6500900","三峽區"
"237008","302-VK","2019/10/26 18:59:42","新北市三峽區大同路125號","121.37408","24.9267416666667","6500900","三峽區"
"237014","433-BY","2019/10/26 18:59:41","新北市三峽區隆恩街242號","121.357603333333","24.9410666666667","6500900","三峽區"
"237006","5529-G3","2019/10/26 18:59:41","新北市三峽區溪東路233巷47弄2號","121.41066","24.9347","6500900","三峽區"
"237011","KEA-2596","2019/10/26 18:59:55","新北市三峽區介壽路三段245號","121.407601666667","24.9492916666667","6500900","三峽區"
"237015","649-BX","2019/10/26 18:59:53","新北市三峽區建安88-3號","121.455016666667","24.9210116666667","6500900","三峽區"
"237010","706-TV","2019/10/26 18:59:44","新北市三峽區復興路277號","121.366293333333","24.9388316666667","6500900","三峽區"
"237005","AKY-6261","2019/10/26 18:59:42","新北市三峽區中山路459巷135號","121.349053333333","24.9333883333333","6500900","三峽區"
"236042","KED-0685","2019/10/26 18:59:47","新北市土城區學府路一段209巷10號","121.452068333333","24.9840066666667","6501300","土城區"
"236079","166-UM","2019/10/26 18:59:44","新北市土城區中央路四段125巷2弄1號","121.416651666667","24.9571816666667","6501300","土城區"
"236030","253-BX","2019/10/26 18:59:56","新北市土城區中央路三段1號","121.43978","24.9707366666667","6501300","土城區"
"236026","269-VK","2019/10/26 18:59:51","新北市土城區中正路5號","121.442686666667","24.9751533333333","6501300","土城區"
"236014","270-VK","2019/10/26 18:59:54","新北市土城區永豐路29巷1號","121.462981666667","24.9882533333333","6501300","土城區"
"236038","271-VK","2019/10/26 18:59:43","新北市土城區明德路一段240巷28號","121.460091666667","24.9779466666667","6501300","土城區"
"236070","KEA-2877","2019/10/26 18:59:49","新北市土城區金城路二段211號","121.454425","24.9816166666667","6501300","土城區"
"252001","KED-0821","2019/10/26 18:59:43","新北市三芝區中興街二段260號","121.501735","25.2530133333333","6502100","三芝區"
"236021","401-BY","2019/10/26 18:59:53","新北市土城區延吉街168巷1號","121.46828","24.9854783333333","6501300","土城區"
"236063","752-BX","2019/10/26 18:58:20","新北市土城區延和路41巷2弄16號","121.466743333333","24.9900333333333","6501300","土城區"
"236059","912-UM","2019/10/26 18:59:58","新北市土城區金城路二段260號","121.45784","24.98372","6501300","土城區"
"236049","913-UM","2019/10/26 18:59:44","新北市土城區青雲路322巷2弄4號","121.458055","24.9773583333333","6501300","土城區"
"236055","AAC-216","2019/10/26 18:59:41","新北市土城區學成路179號","121.447826666667","24.98857","6501300","土城區"
"242009","349-TH","2019/10/26 18:59:39","新北市樹林區中山路三段214號","121.380113333333","24.9679033333333","6500500","新莊區"
"238023","601-UM","2019/10/26 18:59:52","新北市樹林區大慶街83號","121.396768333333","25.0135766666667","6500700","樹林區"
"238019","599-UM","2019/10/26 18:59:52","新北市樹林區東陽街20號","121.412975","24.9817433333333","6500700","樹林區"
"238022","KEA-2213","2019/10/26 18:59:54","新北市樹林區東興街43號","121.410773333333","24.9775116666667","6500700","樹林區"
"238021","KEA-2539","2019/10/26 18:59:38","新北市樹林區柑園街二段328巷2弄3號","121.372906666667","24.9519966666667","6500700","樹林區"
"238017","283-BY","2019/10/26 18:59:44","新北市樹林區光興街50號","121.409868333333","25.0027116666667","6500700","樹林區"
"238014","282-BY","2019/10/26 18:59:59","新北市樹林區潭興街143巷1號","121.425626666667","24.999675","6500700","樹林區"
"238020","268-VK","2019/10/26 18:59:40","新北市樹林區俊英街280號","121.423848333333","25.0130766666667","6500700","樹林區"
"238026","172-UY","2019/10/26 18:59:51","新北市樹林區中和街11號","121.39208","24.9729283333333","6500700","樹林區"
"238016","169-UY","2019/10/26 18:59:40","新北市樹林區文化街28號","121.419288333333","24.9878183333333","6500700","樹林區"
"239007","AAC-297","2019/10/26 18:59:48","新北市鶯歌區中正一路303-2號","121.35642","24.9575583333333","6500800","鶯歌區"
"239006","891-R6","2019/10/26 18:59:51","新北市鶯歌區鶯桃路296巷48-1號","121.335886666667","24.9612733333333","6500800","鶯歌區"
"239003","661-UM","2019/10/26 18:59:48","新北市鶯歌區鶯桃路658巷5-1號","121.32929","24.9694333333333","6500800","鶯歌區"
"239008","527-UM","2019/10/26 18:59:45","新北市鶯歌區晨曦街19號","121.337688333333","24.9766216666667","6500800","鶯歌區"
"239005","526-UM","2019/10/26 18:59:54","新北市鶯歌區鳳吉一街56號","121.326403333333","24.9739816666667","6500800","鶯歌區"
"239001","417-VK","2019/10/26 18:59:54","新北市鶯歌區高職南街13號","121.337406666667","24.9393183333333","6500800","鶯歌區"
"239002","359-BY","2019/10/26 18:59:55","新北市鶯歌區中山路291號","121.344473333333","24.95691","6500800","鶯歌區"
"239004","193-VK","2019/10/26 18:59:58","新北市鶯歌區中正三路194巷33號","121.331196666667","24.94074","6500800","鶯歌區"
"221036","130-UY","2019/10/26 18:59:54","新北市汐止區忠孝東路314巷19弄14號","121.664898333333","25.0685583333333","6501100","汐止區"
"221015","131-UY","2019/10/26 18:59:44","新北市汐止區鄉長路一段297號","121.669126666667","25.0791233333333","6501100","汐止區"
"221032","280-BY","2019/10/26 18:59:52","新北市汐止區橫科路241-5號","121.622503333333","25.0487133333333","6501100","汐止區"
"221029","298-VK","2019/10/26 18:59:54","新北市汐止區樟樹一路234號","121.642355","25.06677","6501100","汐止區"
"221031","353-TW","2019/10/26 18:59:38","新北市汐止區福德一路300巷51號","121.630215","25.0646633333333","6501100","汐止區"
"221035","622-UM","2019/10/26 18:59:49","新北市汐止區大同路二段298號","121.655268333333","25.066565","6501100","汐止區"
"221002","707-TV","2019/10/26 18:59:39","台北市南港區南港路一段2號","121.620231666667","25.0548883333333","6501100","汐止區"
"220079","145-BY","2019/10/26 18:59:55","新北市板橋區大仁街95號","121.453208333333","25.0157683333333","6500100","板橋區"
"220080","200-UY","2019/10/26 18:59:54","新北市板橋區大觀路二段265巷3弄1號","121.44294","24.998525","6500100","板橋區"
"220082","610-BX","2019/10/26 18:59:48","新北市板橋區滿平街123號","121.42866","24.98841","6500100","板橋區"
"220101","245-BX","2019/10/26 18:59:46","新北市板橋區民生路二段188號","121.470131666667","25.0206966666667","6500100","板橋區"
"220091","267-BY","2019/10/26 18:59:52","新北市板橋區大同街8巷54號","121.477911666667","25.026235","6500100","板橋區"
"220056","276-BY","2019/10/26 18:59:53","新北市板橋區信義路161號","121.458515","24.9925583333333","6500100","板橋區"
"220094","283-UM","2019/10/26 18:59:44","新北市板橋區光武街161號","121.465255","25.029685","6500100","板橋區"
"220053","285-VK","2019/10/26 18:59:43","新北市板橋區太和街6巷1號","121.473665","25.0201266666667","6500100","板橋區"
"220083","286-VK","2019/10/26 18:59:53","新北市板橋區大觀路一段38巷172號","121.441798333333","25.0045716666667","6500100","板橋區"
"220081","287-VK","2019/10/26 18:59:41","新北市板橋區光華街19巷70號","121.45291","25.011925","6500100","板橋區"
"220090","288-VK","2019/10/26 18:59:45","新北市板橋區裕民街11號","121.462251666667","25.029045","6500100","板橋區"
"220061","293-UM","2019/10/26 18:59:52","新北市板橋區懷仁街85巷6號","121.477686666667","25.0185366666667","6500100","板橋區"
"220062","295-UM","2019/10/26 18:59:53","新北市板橋區三民路二段245巷7號","121.479656666667","25.01256","6500100","板橋區"
"220084","296-UM","2019/10/26 18:59:55","新北市板橋區大觀路二段265巷76弄37號","121.440956666667","24.9967783333333","6500100","板橋區"
"220075","303-R5","2019/10/26 18:59:49","新北市板橋區後菜園街34號","121.456713333333","25.0102166666667","6500100","板橋區"
"220092","307-R5","2019/10/26 18:59:51","新北市板橋區文化路二段225巷60弄60號","121.469111666667","25.029795","6500100","板橋區"
"220098","317-R6","2019/10/26 18:59:52","新北市板橋區莊敬路208巷2弄7號","121.471408333333","25.0214866666667","6500100","板橋區"
"220071","461-BY","2019/10/26 18:59:40","新北市板橋區實踐路25號","121.463596666667","25.0072633333333","6500100","板橋區"
"220089","487-VK","2019/10/26 18:59:48","新北市板橋區文化路二段129號","121.470008333333","25.026625","6500100","板橋區"
"220088","491-VK","2019/10/26 18:59:32","新北市板橋區文化路二段182巷1弄30號","121.472003333333","25.02831","6500100","板橋區"
"220072","568-UM","2019/10/26 18:59:52","新北市板橋區篤行路一段29號","121.43199","24.9945333333333","6500100","板橋區"
"220063","609-BX","2019/10/26 18:59:38","新北市板橋區三民路二段120號","121.479218333333","25.016365","6500100","板橋區"
"220103","630-UY","2019/10/26 18:59:48","新北市板橋區介壽街61號","121.469283333333","25.0196016666667","6500100","板橋區"
"220057","686-BX","2019/10/26 18:59:40","新北市板橋區重慶路237號","121.463258333333","25.0008466666667","6500100","板橋區"
"220077","687-BX","2019/10/26 18:59:48","新北市板橋區龍興街34號","121.443078333333","25.000555","6500100","板橋區"
"220093","689-BX","2019/10/26 18:59:47","新北市板橋區民生路三段175號","121.4656","25.02726","6500100","板橋區"
"220054","741-BX","2019/10/26 18:59:45","新北市板橋區實踐路76-2號","121.463951666667","25.0055283333333","6500100","板橋區"
"220102","KEA-2699","2019/10/26 18:59:48","新北市板橋區萬板路810-1號","121.482918333333","25.0273033333333","6500100","板橋區"
"220055","827-TW","2019/10/26 18:59:42","新北市板橋區館前東路53號","121.461325","25.00748","6500100","板橋區"
"220067","831-TW","2019/10/26 18:59:43","新北市板橋區民享街116巷6號","121.47814","25.01562","6500100","板橋區"
"220074","895-R6","2019/10/26 18:59:41","新北市板橋區林園街2號","121.454136666667","25.0093166666667","6500100","板橋區"
"220073","985-R7","2019/10/26 18:59:52","新北市板橋區民權路259號","121.457035","25.0160716666667","6500100","板橋區"
"220097","AAC-210","2019/10/26 18:59:51","新北市板橋區幸福路70巷30號","121.460206666667","25.0209516666667","6500100","板橋區"
"220064","AAC-253","2019/10/26 18:59:44","新北市板橋區長安街236-3號","121.475441666667","25.0126033333333","6500100","板橋區"
"235068","KEA-2873","2019/10/26 18:59:30","新北市中和區圓通路261號","121.495945","24.9933366666667","6500300","中和區"
"235061","KEA-2875","2019/10/26 18:59:53","新北市中和區中山路三段145號","121.473821666667","25.00591","6500300","中和區"
