"lineid","car","time","location","longitude","latitude","cityid","cityname"
"234046","148-BY","2019/10/26 19:29:46","新北市永和區秀朗路二段231號","121.526473333333","25.00022","6500400","永和區"
"234081","298-R6","2019/10/26 19:29:51","新北市永和區國中路104巷12弄15號","121.525588333333","25.0066","6500400","永和區"
"234038","336-UY","2019/10/26 19:29:57","新北市永和區民樂街38號","121.527425","25.0007216666667","6500400","永和區"
"234064","337-UY","2019/10/26 19:29:41","新北市永和區中正路368巷1弄88號","121.520558333333","25.0007183333333","6500400","永和區"
"234086","338-UY","2019/10/26 19:29:50","新北市永和區林森路39巷2-1號","121.525215","25.00474","6500400","永和區"
"234070","552-UM","2019/10/26 19:29:47","新北市永和區警光街5-1號","121.519756666667","25.00953","6500400","永和區"
"234017","745-BX","2019/10/26 19:29:50","新北市永和區環河西路一段87-1號","121.512506666667","25.0179983333333","6500400","永和區"
"234030","746-BX","2019/10/26 19:29:58","新北市永和區民生路2號","121.522623333333","24.9980516666667","6500400","永和區"
"234054","KEA-2590","2019/10/26 19:29:43","新北市永和區永和路二段170號","121.515463333333","25.0131166666667","6500400","永和區"
"234007","KED-0605","2019/10/26 19:29:37","新北市永和區永和路一段86號","121.513043333333","25.0067366666667","6500400","永和區"
"234013","KEA-2591","2019/10/26 19:29:48","新北市永和區中山路一段142號","121.510121666667","25.0097183333333","6500400","永和區"
"234061","AAD-866","2019/10/26 19:29:37","新北市永和區中正路512號","121.517348333333","25.0046566666667","6500400","永和區"
"234042","862-TW","2019/10/26 19:29:47","新北市永和區水源街39巷18號","121.510528333333","25.003565","6500400","永和區"
"234050","863-TW","2019/10/26 19:29:36","新北市永和區信義路103號","121.51228","25.0143766666667","6500400","永和區"
"234026","9371-KE","2019/10/26 19:29:46","新北市永和區安樂路44號","121.51464","24.99704","6500400","永和區"
"234011","9373-KE","2019/10/26 19:29:57","新北市永和區保安路292號","121.505035","25.0118183333333","6500400","永和區"
"249002","305-UY","2019/10/26 19:29:45","新北市八里區龍形一街33巷1-6號","121.449365","25.12946","6502300","八里區"
"249003","593-UM","2019/10/26 19:29:54","新北市八里區中山路二段448號","121.39942","25.1473166666667","6502300","八里區"
"248008","KED-0815","2019/10/26 19:29:51","新北市五股區中興路一段95巷5號","121.466645","25.0726083333333","6501500","五股區"
"248020","KED-0813","2019/10/26 19:29:47","新北市五股區凌雲路三段41-2號","121.430276666667","25.117875","6501500","五股區"
"248012","247-BX","2019/10/26 19:29:43","新北市五股區成泰路二段91巷9號","121.437553333333","25.0841483333333","6501500","五股區"
"248014","261-SL","2019/10/26 19:29:50","新北市五股區工商路164號","121.433558333333","25.08807","6501500","五股區"
"248010","655-BX","2019/10/26 19:29:39","新北市五股區自強路90巷72號","121.430703333333","25.07124","6501500","五股區"
"248004","677-BX","2019/10/26 19:29:50","新北市五股區五福路2號","121.43395","25.0873066666667","6501500","五股區"
"248002","678-BX","2019/10/26 19:29:41","新北市五股區凌雲路一段158巷6號","121.447796666667","25.102955","6501500","五股區"
"234023","9380-KE","2019/10/26 19:29:48","新北市永和區竹林路91巷43弄2號","121.521265","25.0128466666667","6500400","永和區"
"234077","969-R7","2019/10/26 19:29:49","新北市永和區民權路58巷5號","121.519361666667","24.9983416666667","6500400","永和區"
"234074","AAC-211","2019/10/26 19:29:52","新北市永和區福和路8巷3號","121.524888333333","25.0090066666667","6500400","永和區"
"234067","AAC-212","2019/10/26 19:29:48","新北市永和區保平路174巷2號","121.51089","25.0067133333333","6500400","永和區"
"234003","AAC-295","2019/10/26 19:29:50","新北市永和區福和路376號","121.514218333333","25.00779","6500400","永和區"
"244019","402-UM","2019/10/26 19:29:57","新北市林口區粉寮69號","121.405018333333","25.0909016666667","6501700","林口區"
"244023","483-VK","2019/10/26 19:29:46","新北市林口區文化三路二段1-1號","121.372435","25.0785033333333","6501700","林口區"
"243012","AAD-798","2019/10/26 19:29:41","新北市泰山區仁義路222號","121.432955","25.0535666666667","6501600","泰山區"
"243010","297-R6","2019/10/26 19:21:47","新北市泰山區明志路一段519號","121.430368333333","25.0541","6501600","泰山區"
"243014","KEA-2801","2019/10/26 19:29:38","新北市泰山區中港西路444號","121.433556666667","25.0537766666667","6501600","泰山區"
"243016","421-VK","2019/10/26 19:29:38","新北市泰山區明志路三段277號","121.42301","25.0369783333333","6501600","泰山區"
"243015","539-UM","2019/10/26 19:29:39","新北市泰山區明志路二段136巷1-1號","121.427368333333","25.0512066666667","6501600","泰山區"
"243009","KEA-2215","2019/10/26 19:29:44","新北市泰山區明志路一段15號","121.433645","25.0659216666667","6501600","泰山區"
"243011","KEA-2216","2019/10/26 19:29:37","新北市泰山區貴子路41-1號","121.42947","25.0400816666667","6501600","泰山區"
"243013","646-TV","2019/10/26 19:29:53","新北市泰山區明志路三段145巷59號","121.42693","25.0392583333333","6501600","泰山區"
"222003","436-BY","2019/10/26 19:29:55","新北市深坑區深南路51-1號","121.621211666667","25.009905","6501800","深坑區"
"222002","659-BX","2019/10/26 19:29:50","新北市深坑區北深路一段177號","121.632583333333","25.0108233333333","6501800","深坑區"
"231061","002-UM","2019/10/26 19:29:51","新北市新店區安康路一段266巷4號","121.520073333333","24.9640433333333","6500600","新店區"
"231044","046-UY","2019/10/26 19:29:41","新北市新店區北新路二段268號","121.542991666667","24.9786566666667","6500600","新店區"
"231042","047-UY","2019/10/26 19:29:43","新北市新店區中興路一段136號","121.5421","24.963345","6500600","新店區"
"231060","106-UY","2019/10/26 19:29:59","新北市新店區安康路二段78號","121.514081666667","24.9633666666667","6500600","新店區"
"231051","107-UY","2019/10/26 19:29:42","新北市新店區中央五街29號","121.528946666667","24.9748066666667","6500600","新店區"
"231049","108-UY","2019/10/26 19:29:44","新北市新店區北新路三段65巷34弄2號","121.540071666667","24.9812033333333","6500600","新店區"
"231065","KEA-2219","2019/10/26 19:29:52","新北市新店區安祥路109巷3弄6號","121.475448333333","24.9596266666667","6500600","新店區"
"231062","256-BX","2019/10/26 19:29:40","新北市新店區莒光路42號","121.523793333333","24.9576683333333","6500600","新店區"
"231054","260-TV","2019/10/26 19:29:44","新北市新店區文中路40號","121.53972","24.95658","6500600","新店區"
"231064","278-BY","2019/10/26 19:29:40","新北市新店區安和路二段115號","121.51893","24.970465","6500600","新店區"
"231050","AAD-862","2019/10/26 19:29:55","新北市新店區竹林路97巷17號","121.554855","24.9492766666667","6500600","新店區"
"231045","355-BY","2019/10/26 19:29:41","新北市新店區北宜路二段197號","121.552883333333","24.9532433333333","6500600","新店區"
"231058","3713-VJ","2019/10/26 19:29:50","新北市新店區北新路一段126巷21號","121.542876666667","24.9695666666667","6500600","新店區"
"231056","4715-K9","2019/10/26 19:29:51","新北市新店區溪園路365-8號","121.522115","24.980545","6500600","新店區"
"231067","4772-VM","2019/10/26 19:29:56","新北市新店區安德街60巷35號","121.510986666667","24.9637083333333","6500600","新店區"
"231052","513-UM","2019/10/26 19:29:44","新北市新店區新烏路二段335-1號","121.550355","24.9104383333333","6500600","新店區"
"231063","616-UM","2019/10/26 19:29:51","新北市新店區達觀路14巷2號","121.50346","24.9413566666667","6500600","新店區"
"231041","619-UM","2019/10/26 19:29:56","新北市新店區中正路568號","121.53382","24.9877383333333","6500600","新店區"
"231048","KED-0819","2019/10/26 19:29:55","新北市新店區五峰路93號","121.546026666667","24.96739","6500600","新店區"
"231046","719-UM","2019/10/26 19:29:50","新北市新店區北新路一段40號","121.540966666667","24.966115","6500600","新店區"
"231057","720-UM","2019/10/26 19:29:39","新北市新店區花園一路二段27號","121.551343333333","24.93249","6500600","新店區"
"231059","897-TW","2019/10/26 19:29:58","新北市新店區安和路三段59號","121.517966666667","24.98301","6500600","新店區"
"231040","898-TW","2019/10/26 19:29:37","新北市新店區中華路147號","121.5381","24.970395","6500600","新店區"
"231043","899-TW","2019/10/26 19:29:54","新北市新店區北新路二段198號","121.543","24.9765816666667","6500600","新店區"
"231066","AKT-0513","2019/10/26 19:29:48","新北市新店區安康路三段355巷23號","121.484878333333","24.9501583333333","6500600","新店區"
"241028","022-UY","2019/10/26 19:29:46","新北市三重區中寮街20-5號","121.492355","25.059285","6500200","三重區"
"241008","059-VK","2019/10/26 19:29:53","新北市三重區永福街111巷35弄14號","121.47744","25.076815","6500200","三重區"
"241031","061-VK","2019/10/26 19:29:53","新北市三重區集美街100號","121.488543333333","25.05417","6500200","三重區"
"241017","063-VK","2019/10/26 19:29:48","新北市三重區大同北路181號","121.492693333333","25.065315","6500200","三重區"
"241024","065-VK","2019/10/26 19:08:16","新北市三重區頂崁街210巷26號","121.475933333333","25.0680166666667","6500200","三重區"
"241007","066-VK","2019/10/26 19:29:49","新北市三重區溪尾街124-1號","121.489441666667","25.0793466666667","6500200","三重區"
"241006","262-UM","2019/10/26 19:29:03","新北市三重區車路頭街93號","121.484518333333","25.0742983333333","6500200","三重區"
"241009","267-UM","2019/10/26 19:29:46","新北市三重區仁美街123號","121.485535","25.0812383333333","6500200","三重區"
"241032","269-UM","2019/10/26 19:29:37","新北市三重區三陽路62號","121.484071666667","25.0587033333333","6500200","三重區"
"241013","270-UM","2019/10/26 19:29:52","新北市三重區仁愛街125巷2號","121.496281666667","25.07533","6500200","三重區"
"241025","271-UM","2019/10/26 19:29:41","新北市三重區頂崁街210巷28弄9號","121.475836666667","25.06712","6500200","三重區"
"241035","KEA-2210","2019/10/26 19:29:52","新北市三重區信義西街1巷3號","121.498075","25.0649416666667","6500200","三重區"
"241030","KED-0822","2019/10/26 19:29:52","新北市三重區成功路41巷2號","121.490105","25.051375","6500200","三重區"
"241023","462-BY","2019/10/26 19:29:52","新北市三重區頂崁街99號","121.477963333333","25.063845","6500200","三重區"
"241020","478-VK","2019/10/26 19:29:39","新北市三重區三和路四段20巷22號","121.490106666667","25.0736483333333","6500200","三重區"
"241026","480-VK","2019/10/26 19:29:52","新北市三重區中央南路95巷25號","121.500458333333","25.06048","6500200","三重區"
"241022","KED-0820","2019/10/26 19:29:48","新北市三重區重陽路二段52巷83弄2號","121.484163333333","25.0656333333333","6500200","三重區"
"241029","942-UM","2019/10/26 19:29:40","新北市三重區中正南路269號","121.49329","25.0522083333333","6500200","三重區"
"235066","003-UY","2019/10/26 19:29:55","新北市中和區景新街43號","121.50404","24.9991516666667","6500300","中和區"
"235063","006-UY","2019/10/26 19:29:59","新北市中和區連城路139巷60號","121.496698333333","24.9969116666667","6500300","中和區"
"235056","096-UM","2019/10/26 19:29:56","新北市中和區員山路581巷31弄29號","121.476591666667","25.0103216666667","6500300","中和區"
"235039","097-UM","2019/10/26 19:29:45","新北市中和區秀峰街86號","121.519665","24.9911","6500300","中和區"
"235065","098-UM","2019/10/26 19:29:45","新北市中和區永和路8巷8號","121.500298333333","25.003135","6500300","中和區"
"235040","150-BY","2019/10/26 19:29:55","新北市中和區景安路79巷39號","121.507413333333","24.996225","6500300","中和區"
"235058","151-BY","2019/10/26 19:29:52","新北市中和區員山路130-3號","121.481393333333","24.9962566666667","6500300","中和區"
"235055","183-VK","2019/10/26 19:29:55","新北市中和區中山路三段177號","121.472818333333","25.0060633333333","6500300","中和區"
"235038","185-VK","2019/10/26 19:29:38","新北市中和區自立路127號","121.522013333333","24.9940616666667","6500300","中和區"
"235067","255-BX","2019/10/26 19:29:43","新北市中和區新生街186巷1弄2號","121.483255","24.9996366666667","6500300","中和區"
"235044","293-VK","2019/10/26 19:29:43","新北市中和區捷運路58號","121.507568333333","24.9906316666667","6500300","中和區"
"235072","301-VK","2019/10/26 19:29:49","新北市中和區連城路263巷4弄10號","121.491701666667","24.9953116666667","6500300","中和區"
"235043","352-BY","2019/10/26 19:29:39","新北市中和區安樂路11號","121.511766666667","24.9921183333333","6500300","中和區"
"235042","KEA-2878","2019/10/26 19:29:39","新北市中和區中和路262巷43弄2號","121.509915","24.9997733333333","6500300","中和區"
"235057","551-UM","2019/10/26 19:29:48","新北市中和區員山路220號","121.481276666667","25.0009533333333","6500300","中和區"
"235070","558-UM","2019/10/26 19:29:43","新北市中和區景平路549號","121.498561666667","24.999625","6500300","中和區"
"235045","565-BX","2019/10/26 19:29:47","新北市中和區景新街436號","121.513063333333","24.9884366666667","6500300","中和區"
"235060","KED-0823","2019/10/26 19:29:51","新北市中和區新生街16巷17號","121.482456666667","25.0042833333333","6500300","中和區"
"235054","640-BX","2019/10/26 19:29:55","新北市中和區莒光路100號","121.472341666667","25.0023316666667","6500300","中和區"
"235071","647-TV","2019/10/26 19:29:42","新北市中和區新生街225號","121.483808333333","24.9993283333333","6500300","中和區"
"235047","732-UM","2019/10/26 19:29:53","新北市中和區景平路259巷54號","121.506225","24.9928766666667","6500300","中和區"
"235046","733-UM","2019/10/26 19:29:54","新北市中和區忠孝街66號","121.511955","24.983985","6500300","中和區"
"235041","802-TS","2019/10/26 19:29:43","新北市永和區中和路541號","121.511391666667","25.0031","6500300","中和區"
"235052","805-TS","2019/10/26 19:29:56","新北市中和區華新街143巷69弄35號","121.507766666667","24.9790366666667","6500300","中和區"
"235048","896-TW","2019/10/26 19:29:48","新北市中和區忠孝街54號","121.511385","24.983575","6500300","中和區"
"235053","900-TW","2019/10/26 19:29:36","新北市中和區國光街142巷46號","121.467561666667","25.0021416666667","6500300","中和區"
"235064","911-UM","2019/10/26 19:29:56","新北市中和區圓通路15號","121.501565","24.997935","6500300","中和區"
"235051","157-BY","2019/10/26 19:29:58","新北市中和區景平路401號","121.502348333333","24.9946366666667","6500300","中和區"
"235037","AAC-213","2019/10/26 19:29:43","新北市中和區秀朗路三段10巷29弄11號","121.525011666667","24.9959316666667","6500300","中和區"
"235059","AAC-215","2019/10/26 19:29:41","新北市中和區圓通路252巷2號","121.493268333333","24.9916166666667","6500300","中和區"
"220035","015-TV","2019/10/26 19:29:46","新北市板橋區中正路431號","121.4542","25.0232133333333","6500100","板橋區"
"220065","072-UY","2019/10/26 19:29:53","新北市板橋區民族路129巷10號","121.467588333333","25.0084416666667","6500100","板橋區"
"220086","073-UY","2019/10/26 19:29:55","新北市板橋區中正路216巷23號","121.456705","25.01867","6500100","板橋區"
"220106","075-UY","2019/10/26 19:29:51","新北市板橋區文化路二段550號","121.476188333333","25.034055","6500100","板橋區"
"220069","AAD-861","2019/10/26 19:29:47","新北市板橋區南雅南路二段18號","121.454458333333","25.0035483333333","6500100","板橋區"
"220068","120-SR","2019/10/26 19:29:42","新北市板橋區萬安街108號","121.483821666667","25.0243583333333","6500100","板橋區"
"247004","341-TH","2019/10/26 19:29:53","新北市蘆洲區長安街148號","121.459978333333","25.0822633333333","6501400","蘆洲區"
"226004","312-R5","2019/10/26 19:29:51","新北市平溪區十分里十分街158號","121.778143333333","25.0434116666667","6502400","平溪區"
"235049","251-BX","2019/10/26 19:29:45","新北市中和區安平路14號","121.509196666667","24.9941266666667","6500300","中和區"
"228003","097-TW","2019/10/26 19:29:42","新北市貢寮區和美里和美街22-1號","121.912861666667","25.0826183333333","6502600","貢寮區"
"228001","212-TW","2019/10/26 19:29:49","新北市貢寮區真理里大澳街48號","121.925121666667","25.0564533333333","6502600","貢寮區"
"224008","273-VK","2019/10/26 19:29:49","新北市瑞芳區一坑路261-2號","121.80127","25.1087566666667","6501200","瑞芳區"
"227002","642-TC","2019/10/26 19:29:40","新北市雙溪區雙溪里光復街20號","121.865176666667","25.0354383333333","6502500","雙溪區"
"227001","400-TW","2019/10/26 19:29:40","新北市雙溪區新基里新基北街43號","121.868228333333","25.0397","6502500","雙溪區"
"222001","KEA-2212","2019/10/26 19:29:52","新北市深坑區深坑街10號","121.61579","25.0027666666667","6501800","深坑區"
"208002","KEA-2872","2019/10/26 19:29:49","新北市金山區中山路311號","121.635591666667","25.2236316666667","6502700","金山區"
"208003","665-BX","2019/10/26 19:29:57","新北市金山區仁愛路66號","121.635173333333","25.22123","6502700","金山區"
"251009","008-UM","2019/10/26 19:29:57","新北市淡水區中山路166號","121.441163333333","25.1738783333333","6501000","淡水區"
"251005","010-UM","2019/10/26 19:29:53","新北市淡水區水源街一段47巷39號","121.444071666667","25.1735333333333","6501000","淡水區"
"251001","011-UM","2019/10/26 19:29:44","新北市淡水區民權路139-1號","121.46008","25.1364883333333","6501000","淡水區"
"251015","KEA-2871","2019/10/26 19:29:37","新北市淡水區北新路三段38巷5號","121.48452","25.187065","6501000","淡水區"
"251016","179-VK","2019/10/26 19:13:58","新北市淡水區下圭柔山119-51號","121.450805","25.2084233333333","6501000","淡水區"
"251013","182-VK","2019/10/26 19:29:52","新北市淡水區大牛稠5號","121.47005","25.2200816666667","6501000","淡水區"
"251010","413-VK","2019/10/26 19:29:48","新北市淡水區中正路二段391號","121.426448333333","25.1910783333333","6501000","淡水區"
"251007","442-VK","2019/10/26 19:29:51","新北市淡水區八勢一街31巷1弄3號","121.460721666667","25.1567633333333","6501000","淡水區"
"251006","561-UM","2019/10/26 19:29:47","新北市淡水區大義街51號","121.441425","25.1780666666667","6501000","淡水區"
"251014","577-R6","2019/10/26 19:29:41","新北市淡水區小中寮19-7號","121.48476","25.2296233333333","6501000","淡水區"
"251002","672-BX","2019/10/26 19:29:44","新北市淡水區沙崙路200號","121.42459","25.1838683333333","6501000","淡水區"
"251003","766-UM","2019/10/26 19:29:37","新北市淡水區中山北路三段16巷20號","121.443881666667","25.1899283333333","6501000","淡水區"
"207003","550-UM","2019/10/26 19:29:43","新北市萬里區大鵬里萬里加投105號","121.645915","25.2130683333333","6502800","萬里區"
"207004","291-VK","2019/10/26 19:29:40","新北市萬里區萬里里瑪鋉路89號","121.688713333333","25.177235","6502800","萬里區"
"252002","178-VK","2019/10/26 19:29:44","新北市三芝區淡金路二段18-1號","121.502711666667","25.2595233333333","6502100","三芝區"
"208001","170-UY","2019/10/26 19:29:48","新北市金山區金包里街117號","121.637521666667","25.2225333333333","6502700","金山區"
"237004","KEA-2597","2019/10/26 19:29:50","新北市三峽區有木206號","121.43911","24.8516183333333","6500900","三峽區"
"237007","153-BY","2019/10/26 19:29:43","新北市三峽區二鬮路136巷43號","121.358155","24.90878","6500900","三峽區"
"237009","210-TH","2019/10/26 19:29:48","新北市三峽區中山路32號","121.369945","24.9339383333333","6500900","三峽區"
"237013","252-BX","2019/10/26 19:29:53","新北市三峽區介壽路一段311巷8號","121.381255","24.9308133333333","6500900","三峽區"
"237012","275-BY","2019/10/26 19:29:53","新北市三峽區三樹路98巷58號","121.38376","24.9383083333333","6500900","三峽區"
"237008","302-VK","2019/10/26 19:29:42","新北市三峽區大同路132巷12號","121.373848333333","24.9273316666667","6500900","三峽區"
"237014","433-BY","2019/10/26 19:29:41","新北市三峽區仁愛街26號","121.368391666667","24.932165","6500900","三峽區"
"237006","5529-G3","2019/10/26 19:29:41","新北市三峽區中正路一段336巷15弄2號","121.369966666667","24.9249483333333","6500900","三峽區"
"237011","KEA-2596","2019/10/26 19:29:55","新北市三峽區介壽路一段207-1號","121.378795","24.93048","6500900","三峽區"
"237015","649-BX","2019/10/26 19:29:53","新北市三峽區安坑1-12號","121.436878333333","24.9252733333333","6500900","三峽區"
"237010","706-TV","2019/10/26 19:29:46","新北市三峽區復興路30號","121.374361666667","24.9361566666667","6500900","三峽區"
"237005","AKY-6261","2019/10/26 19:29:47","新北市三峽區復興路367巷1弄19號","121.364131666667","24.9379283333333","6500900","三峽區"
"236079","166-UM","2019/10/26 19:29:44","新北市土城區中州路12巷1號","121.414796666667","24.9573083333333","6501300","土城區"
"236070","KEA-2877","2019/10/26 19:29:49","新北市土城區學府路一段143巷20弄2號","121.453836666667","24.98522","6501300","土城區"
"252001","KED-0821","2019/10/26 19:29:43","新北市三芝區長勤街63-1號","121.500083333333","25.2560566666667","6502100","三芝區"
"236021","401-BY","2019/10/26 19:29:53","新北市土城區峰廷街3號","121.469041666667","24.9872916666667","6501300","土城區"
"236059","912-UM","2019/10/26 19:29:38","新北市土城區中央路二段63號","121.442718333333","24.9789433333333","6501300","土城區"
"236049","913-UM","2019/10/26 19:29:56","新北市土城區清水路211號","121.460435","24.98195","6501300","土城區"
"236055","AAC-216","2019/10/26 19:29:41","新北市土城區學府路一段276號","121.45023","24.983315","6501300","土城區"
"238015","755-BX","2019/10/26 19:29:54","新北市樹林區復興路340號","121.416141666667","24.986395","6500700","樹林區"
"238023","601-UM","2019/10/26 19:29:52","新北市樹林區三福街20號","121.40854","25.0167783333333","6500700","樹林區"
"238019","599-UM","2019/10/26 19:29:52","新北市樹林區鎮前街347巷2弄1號","121.416698333333","24.98365","6500700","樹林區"
"238024","5061-A6","2019/10/26 19:29:38","新北市樹林區福德街48號","121.399393333333","24.9748933333333","6500700","樹林區"
"238018","KEA-2217","2019/10/26 19:29:49","新北市樹林區中華路213號","121.41949","24.98133","6500700","樹林區"
"238022","KEA-2213","2019/10/26 19:29:53","新北市樹林區名園街45號","121.419726666667","24.9786516666667","6500700","樹林區"
"238021","KEA-2539","2019/10/26 19:29:38","新北市樹林區佳園路三段181巷29號","121.387743333333","24.9477916666667","6500700","樹林區"
"238025","303-VK","2019/10/26 19:29:41","新北市樹林區中山路二段89號","121.411491666667","24.9828633333333","6500700","樹林區"
"238017","283-BY","2019/10/26 19:29:44","新北市樹林區光興街146巷1號","121.40788","25.0041516666667","6500700","樹林區"
"238014","282-BY","2019/10/26 19:29:46","新北市樹林區保安二街40巷26號","121.42577","24.9948833333333","6500700","樹林區"
"238020","268-VK","2019/10/26 19:29:40","新北市樹林區俊英街105-1號","121.42505","25.0096633333333","6500700","樹林區"
"238026","172-UY","2019/10/26 19:29:51","新北市樹林區佳園路三段67號","121.387743333333","24.9528366666667","6500700","樹林區"
"238016","169-UY","2019/10/26 19:29:40","新北市樹林區復興路464巷56號","121.412715","24.9836316666667","6500700","樹林區"
"239007","AAC-297","2019/10/26 19:29:48","新北市鶯歌區大湖路94號","121.342553333333","24.9630033333333","6500800","鶯歌區"
"239006","891-R6","2019/10/26 19:29:51","新北市鶯歌區鶯桃路91巷29號","121.33809","24.952235","6500800","鶯歌區"
"239003","661-UM","2019/10/26 19:29:48","新北市鶯歌區文化路303號","121.352555","24.9524983333333","6500800","鶯歌區"
"239008","527-UM","2019/10/26 19:29:45","新北市鶯歌區大湖路532號","121.337121666667","24.9727133333333","6500800","鶯歌區"
"239005","526-UM","2019/10/26 19:29:54","新北市鶯歌區中湖街268-1號","121.349148333333","24.97635","6500800","鶯歌區"
"239001","417-VK","2019/10/26 19:29:54","新北市鶯歌區鶯桃路149號","121.337703333333","24.9549316666667","6500800","鶯歌區"
"239002","359-BY","2019/10/26 19:29:55","新北市鶯歌區湖山路27巷21號","121.33956","24.9742966666667","6500800","鶯歌區"
"239004","193-VK","2019/10/26 19:29:58","新北市鶯歌區中正三路335巷16號","121.328535","24.934745","6500800","鶯歌區"
"221008","489-VK","2019/10/26 19:29:42","新北市汐止區康寧街241號","121.624651666667","25.0668783333333","6501100","汐止區"
"221027","281-BY","2019/10/26 19:29:55","新北市汐止區忠孝東路9號","121.65829","25.06594","6501100","汐止區"
"221031","353-TW","2019/10/26 19:29:38","新北市汐止區康寧街901號","121.650758333333","25.0753116666667","6501100","汐止區"
"221025","623-UM","2019/10/26 19:29:53","新北市汐止區新台五路二段10號","121.660286666667","25.0650483333333","6501100","汐止區"
"221033","647-BX","2019/10/26 19:29:59","新北市汐止區南勢街3號","121.627095","25.0374433333333","6501100","汐止區"
"221002","707-TV","2019/10/26 19:29:40","新北市汐止區大同路一段219巷12號","121.63345","25.0580766666667","6501100","汐止區"
"220079","145-BY","2019/10/26 19:29:55","新北市板橋區光正街23巷48號","121.461456666667","25.0156116666667","6500100","板橋區"
"220080","200-UY","2019/10/26 19:29:54","新北市板橋區大觀路二段3巷45號","121.448908333333","25.0035033333333","6500100","板橋區"
"220082","610-BX","2019/10/26 19:29:54","新北市板橋區金門街302號","121.429006666667","24.9855183333333","6500100","板橋區"
"220101","245-BX","2019/10/26 19:29:46","新北市板橋區萬板路48號","121.472126666667","25.02273","6500100","板橋區"
"220091","267-BY","2019/10/26 19:29:52","新北市板橋區文聖街135巷25號","121.478985","25.0289716666667","6500100","板橋區"
"220056","276-BY","2019/10/26 19:29:46","新北市板橋區和平路19號","121.459578333333","24.994925","6500100","板橋區"
"220094","283-UM","2019/10/26 19:29:44","新北市板橋區銘傳街41-1號","121.46902","25.0313333333333","6500100","板橋區"
"220053","285-VK","2019/10/26 19:29:43","新北市板橋區懷仁街77巷32號","121.477753333333","25.0193133333333","6500100","板橋區"
"220083","286-VK","2019/10/26 19:29:41","新北市板橋區龍興街71巷53號","121.441661666667","25.00274","6500100","板橋區"
"220081","287-VK","2019/10/26 19:29:41","新北市板橋區大觀路一段28巷1弄102號","121.45182","25.0063433333333","6500100","板橋區"
"220090","288-VK","2019/10/26 19:29:40","新北市板橋區溪頭街2號","121.457508333333","25.0289183333333","6500100","板橋區"
"220061","293-UM","2019/10/26 19:29:52","新北市板橋區漢生東路145號","121.468348333333","25.0139833333333","6500100","板橋區"
"220062","295-UM","2019/10/26 19:29:53","新北市板橋區三民路二段123巷24號","121.480341666667","25.0155683333333","6500100","板橋區"
"220084","296-UM","2019/10/26 19:29:55","新北市板橋區篤行路三段玉平巷83號","121.428228333333","24.985815","6500100","板橋區"
"220075","303-R5","2019/10/26 19:29:49","新北市板橋區中正路275巷93號","121.450836666667","25.0181233333333","6500100","板橋區"
"220092","307-R5","2019/10/26 19:29:51","新北市板橋區四維路105號","121.465448333333","25.02455","6500100","板橋區"
"220098","317-R6","2019/10/26 19:29:52","新北市板橋區四維路266巷2弄27號","121.464178333333","25.0280583333333","6500100","板橋區"
"220071","461-BY","2019/10/26 19:29:40","新北市板橋區大豐街31號","121.461936666667","25.0013133333333","6500100","板橋區"
"220089","487-VK","2019/10/26 19:29:48","新北市板橋區龍泉街131號","121.457553333333","25.0238066666667","6500100","板橋區"
"220088","491-VK","2019/10/26 19:29:51","新北市板橋區仁化街189號","121.478428333333","25.03397","6500100","板橋區"
"220072","568-UM","2019/10/26 19:29:57","新北市板橋區篤行路二段139號","121.429881666667","24.9882216666667","6500100","板橋區"
"220063","609-BX","2019/10/26 19:29:38","新北市板橋區三民路一段31巷2-4號","121.481916666667","25.0231233333333","6500100","板橋區"
"220103","630-UY","2019/10/26 19:29:48","新北市板橋區陽明街29巷14號","121.464645","25.0221316666667","6500100","板橋區"
"220057","686-BX","2019/10/26 19:29:40","新北市板橋區和平路66號","121.461256666667","24.99439","6500100","板橋區"
"220077","687-BX","2019/10/26 19:29:48","新北市板橋區大觀路一段28巷70號","121.449808333333","25.010645","6500100","板橋區"
"220093","689-BX","2019/10/26 19:29:42","新北市板橋區長江路一段107號","121.459573333333","25.0296733333333","6500100","板橋區"
"220054","741-BX","2019/10/26 19:29:53","新北市板橋區實踐路116號","121.463943333333","25.0041883333333","6500100","板橋區"
"220102","KEA-2699","2019/10/26 19:29:48","新北市板橋區雙十路二段46巷45號","121.475735","25.0291966666667","6500100","板橋區"
"220055","827-TW","2019/10/26 19:29:54","新北市板橋區館前東路156巷21號","121.4644","25.0068233333333","6500100","板橋區"
"220067","831-TW","2019/10/26 19:29:43","新北市板橋區長安街138巷11號","121.472961666667","25.009225","6500100","板橋區"
"220074","895-R6","2019/10/26 19:29:55","新北市板橋區宮口街38號","121.45748","25.0106933333333","6500100","板橋區"
"220073","985-R7","2019/10/26 19:29:52","新北市板橋區瑞安街24號","121.455186666667","25.0230483333333","6500100","板橋區"
"220097","AAC-210","2019/10/26 19:29:51","新北市板橋區文化路一段285巷26號","121.463813333333","25.019485","6500100","板橋區"
"220064","AAC-253","2019/10/26 19:29:44","新北市板橋區館前東路108-1號","121.463131666667","25.0076683333333","6500100","板橋區"
"235068","KEA-2873","2019/10/26 19:29:30","新北市中和區景平路493巷8號","121.499345","24.9970916666667","6500300","中和區"
"235061","KEA-2875","2019/10/26 19:29:53","新北市中和區民利街71號","121.478735","24.998225","6500300","中和區"
