"lineid","car","time","location","longitude","latitude","cityid","cityname"
"251009","008-UM","2019/10/26 21:59:45","新北市淡水區民生路40號","121.46159","25.1378766666667","6501000","淡水區"
"251005","010-UM","2019/10/26 21:59:44","新北市淡水區鄧公路30巷2弄12號","121.452801666667","25.169215","6501000","淡水區"
"251004","180-VK","2019/10/26 21:59:51","新北市淡水區自強路201巷39號","121.46219","25.1267983333333","6501000","淡水區"
"251008","181-VK","2019/10/26 21:59:51","新北市淡水區學府路104號","121.449881666667","25.171785","6501000","淡水區"
"251010","413-VK","2019/10/26 21:59:47","新北市淡水區中正路二段206號","121.42624","25.1891216666667","6501000","淡水區"
"251007","442-VK","2019/10/26 21:59:51","新北市淡水區北新路184巷17號","121.450028333333","25.1781183333333","6501000","淡水區"
"251006","561-UM","2019/10/26 21:50:23","新北市淡水區中正路11巷3號","121.437878333333","25.1707366666667","6501000","淡水區"
"251011","650-BX","2019/10/26 21:59:51","新北市淡水區水碓街7號","121.443138333333","25.1771116666667","6501000","淡水區"
"251003","766-UM","2019/10/26 21:59:57","新北市淡水區新春街81號","121.438713333333","25.1824016666667","6501000","淡水區"
