"lineid","car","time","location","longitude","latitude","cityid","cityname"
"232018","290-BY","2019/10/24 07:29:28","新北市坪林區坪雙路二段17號","121.730403333333","24.9656683333333","6502000","坪林區"
"232007","291-BY","2019/10/24 07:29:28","新北市坪林區魚堀33-5號","121.696118333333","24.923885","6502000","坪林區"
"232010","375-UM","2019/10/24 07:29:24","新北市坪林區苦苓腳2號","121.714301666667","24.937375","6502000","坪林區"
"232014","705-BZ","2019/10/24 07:29:24","新北市坪林區金瓜寮23號","121.679446666667","24.910895","6502000","坪林區"
"232001","758-BX","2019/10/24 07:29:22","新北市坪林區樹梅嶺8號","121.695595","24.95925","6502000","坪林區"
"244003","248-BX","2019/10/24 07:29:15","新北市林口區頂福里71-109號","121.349278333333","25.08309","6501700","林口區"
"222006","289-BY","2019/10/24 07:29:25","新北市深坑區文化街39巷13號","121.618966666667","25.0011116666667","6501800","深坑區"
"223003","205-TH","2019/10/24 07:29:30","新北市石碇區中楒子腳2-5號","121.637521666667","24.9725216666667","6501900","石碇區"
"223008","406-TH","2019/10/24 07:19:53","新北市石碇區靜安路一段337號","121.698846666667","25.0146566666667","6501900","石碇區"
"223001","592-UM","2019/10/24 07:29:28","新北市石碇區中楒子腳5號","121.637698333333","24.9724466666667","6501900","石碇區"
"223004","660-BX","2019/10/24 07:29:19","新北市石碇區八分寮56號","121.64466","25.0177066666667","6501900","石碇區"
"223007","661-BX","2019/10/24 07:29:31","新北市石碇區大溪墘2-3號","121.698518333333","25.0095416666667","6501900","石碇區"
"227005","282-VK","2019/10/24 07:29:12","新北市雙溪區新基里自強路5-1號","121.866411666667","25.03922","6502500","雙溪區"
"252004","249-BX","2019/10/24 07:29:19","新北市三芝區興華里楓子林55-1號","121.500725","25.214075","6502100","三芝區"
"252007","AAC-283","2019/10/24 07:29:31","新北市三芝區埔頭里埔頭36-1號","121.49747","25.2609866666667","6502100","三芝區"
"237013","760-BX","2019/10/24 07:29:28","新北市三峽區五寮114號","121.359883333333","24.8600716666667","6500900","三峽區"
"242003","751-BX","2019/10/24 07:29:12","新北市新莊區新泰路255巷83號","121.442221666667","25.03871","6500500","新莊區"
"242028","615-BX","2019/10/24 07:29:22","新北市新莊區新泰路357巷3弄57號","121.441995","25.0392733333333","6500500","新莊區"
"242026","613-BX","2019/10/24 07:29:22","新北市新莊區新泰路255巷83號","121.442225","25.0391616666667","6500500","新莊區"
"242052","497-BY","2019/10/24 07:29:15","新北市新莊區新泰路357巷3弄57號","121.442208333333","25.03951","6500500","新莊區"
"242006","440-UM","2019/10/24 07:29:14","新北市新莊區新泰路255巷83號","121.442208333333","25.0389183333333","6500500","新莊區"
"242043","415-TV","2019/10/24 07:29:20","新北市新莊區新泰路255巷83號","121.442088333333","25.0389083333333","6500500","新莊區"
"242024","362-BY","2019/10/24 07:29:11","新北市新莊區新泰路255巷83號","121.441983333333","25.0389683333333","6500500","新莊區"
"242038","135-UY","2019/10/24 07:29:17","新北市新莊區三和路12-21號","121.441983333333","25.0387916666667","6500500","新莊區"
"242030","175-VK","2019/10/24 07:29:26","新北市新莊區三和路12-21號","121.44195","25.0386466666667","6500500","新莊區"
"242020","KED-0687","2019/10/24 07:29:20","新北市新莊區三和路12-21號","121.44228","25.038035","6500500","新莊區"
"242018","346-TH","2019/10/24 07:29:12","新北市新莊區三和路12-21號","121.441805","25.0382683333333","6500500","新莊區"
"242035","348-TH","2019/10/24 07:29:18","新北市新莊區三和路12-21號","121.442043333333","25.0388283333333","6500500","新莊區"
"242033","350-TH","2019/10/24 07:29:21","新北市新莊區新泰路255巷83號","121.44198","25.0389133333333","6500500","新莊區"
"242045","281-VK","2019/10/24 07:29:22","新北市新莊區三和路12-21號","121.442153333333","25.03837","6500500","新莊區"
"242010","280-VK","2019/10/24 07:29:16","新北市新莊區三和路12-21號","121.441953333333","25.0382183333333","6500500","新莊區"
