"lineid","car","time","location","longitude","latitude","cityid","cityname"
"232017","290-BY","2019/08/26 07:59:30","新北市坪林區坪雙路二段115號","121.753035","24.966095","6502000","坪林區"
"232005","291-BY","2019/08/26 07:59:47","新北市坪林區九芎林23-4號","121.70631","24.926325","6502000","坪林區"
"232010","375-UM","2019/08/26 07:59:40","新北市坪林區厚德岡坑8-5號","121.733155","24.94095","6502000","坪林區"
"232012","705-BZ","2019/08/26 07:59:34","新北市坪林區金瓜寮28號","121.677128333333","24.90791","6502000","坪林區"
"232001","758-BX","2019/08/26 07:59:42","新北市坪林區坪雙路一段58號","121.713233333333","24.9435483333333","6502000","坪林區"
"244006","080-UY","2019/08/26 07:59:44","新北市林口區東林街14號","121.396358333333","25.078895","6501700","林口區"
"244001","248-BX","2019/08/26 07:59:20","新北市林口區嘉寶里67-5號","121.337561666667","25.1094533333333","6501700","林口區"
"244012","KEA-2802","2019/08/26 07:59:34","新北市林口區粉寮69號","121.404768333333","25.090735","6501700","林口區"
"244022","483-VK","2019/08/26 07:59:36","新北市林口區粉寮路二段160巷28號","121.405165","25.0907416666667","6501700","林口區"
"244016","485-VK","2019/08/26 07:59:45","新北市林口區粉寮69號","121.40506","25.0908083333333","6501700","林口區"
"244008","656-BX","2019/08/26 07:59:39","新北市林口區粉寮路二段14號","121.4016","25.085315","6501700","林口區"
"244010","701-TV","2019/08/26 07:59:36","新北市林口區粉寮路一段55號","121.396936666667","25.077815","6501700","林口區"
"244024","837-TS","2019/08/26 07:59:34","新北市林口區粉寮路二段167-1號","121.404446666667","25.0884383333333","6501700","林口區"
"222004","289-BY","2019/08/26 07:59:46","新北市深坑區平埔街22巷19號","121.614693333333","25.0010483333333","6501800","深坑區"
"231007","189-VK","2019/08/26 07:59:41","新北市新店區安一路一段1-1號","121.519868333333","24.961415","6500600","新店區"
"231008","515-UM","2019/08/26 07:59:31","新北市新店區安一路一段1-1號","121.519676666667","24.9614416666667","6500600","新店區"
"226005","5620-A6","2019/08/26 07:59:38","新北市平溪區石底里公園街18-3號","121.73331","25.02581","6502400","平溪區"
"226001","7418-A5","2019/08/26 07:59:32","新北市平溪區南山里乾坑11號","121.782753333333","25.0471583333333","6502400","平溪區"
"226003","AGD-0702","2019/08/26 07:59:36","新北市平溪區十分里十分街45號","121.774528333333","25.040705","6502400","平溪區"
"223003","205-TH","2019/08/26 07:56:18","新北市石碇區樟空子10-1號","121.666833333333","24.96303","6501900","石碇區"
"223008","406-TH","2019/08/26 07:36:09","新北市石碇區靜安路一段337號","121.698733333333","25.0146466666667","6501900","石碇區"
"223001","592-UM","2019/08/26 07:58:04","新北市石碇區大格門5號","121.667558333333","24.9561933333333","6501900","石碇區"
"223004","660-BX","2019/08/26 07:59:32","新北市石碇區楓子林61號","121.644795","25.01089","6501900","石碇區"
"223007","661-BX","2019/08/26 07:43:41","新北市石碇區靜安路一段337號","121.69879","25.0144516666667","6501900","石碇區"
"227004","282-VK","2019/08/26 07:59:39","新北市雙溪區平林里外平林48號","121.852035","25.0360366666667","6502500","雙溪區"
"252006","073-UM","2019/08/26 07:59:38","新北市三芝區海景一街2-1號","121.474123333333","25.24575","6502100","三芝區"
"252004","249-BX","2019/08/26 07:59:45","新北市三芝區店子里菜公坑81-3號","121.512666666667","25.2020333333333","6502100","三芝區"
"237014","760-BX","2019/08/26 07:59:05","新北市三峽區五寮184號","121.351748333333","24.8600783333333","6500900","三峽區"
"242030","AAC-296","2019/08/26 07:59:35","新北市新莊區新泰路417-2號","121.443236666667","25.0447133333333","6500500","新莊區"
"242059","986-R7","2019/08/26 07:59:40","新北市新莊區瓊林南路12-1號","121.436983333333","25.01968","6500500","新莊區"
"242001","751-BX","2019/08/26 07:59:32","新北市新莊區新莊路211號","121.455271666667","25.035445","6500500","新莊區"
"242028","705-TV","2019/08/26 07:59:30","新北市新莊區復興路二段190號","121.459161666667","25.04444","6500500","新莊區"
"242026","613-BX","2019/08/26 07:59:42","新北市新莊區思源路103號","121.460186666667","25.041625","6500500","新莊區"
"242057","612-BX","2019/08/26 07:59:41","新北市新莊區中正路400號","121.4419","25.03428","6500500","新莊區"
"242045","566-BX","2019/08/26 07:59:44","新北市新莊區新樹路65-5號","121.439435","25.0307883333333","6500500","新莊區"
"242049","497-BY","2019/08/26 07:59:32","新北市新莊區新樹路453號","121.43274","25.0134633333333","6500500","新莊區"
"242038","442-UM","2019/08/26 07:59:33","新北市新莊區民安路268號","121.427466666667","25.021225","6500500","新莊區"
"242055","441-UM","2019/08/26 07:59:36","新北市新莊區新莊路658號","121.442425","25.0328816666667","6500500","新莊區"
"242003","440-UM","2019/08/26 07:59:43","新北市新莊區中港路280號","121.453013333333","25.044095","6500500","新莊區"
"242040","415-TV","2019/08/26 07:59:39","新北市新莊區新樹路113巷21號","121.439331666667","25.0263683333333","6500500","新莊區"
"242010","413-TV","2019/08/26 07:59:30","新北市新莊區中港路390號","121.452341666667","25.049255","6500500","新莊區"
"242047","400-BY","2019/08/26 07:59:33","新北市新莊區四維路210號","121.42134","25.0201416666667","6500500","新莊區"
"242024","362-BY","2019/08/26 07:59:40","新北市新莊區中港路268號","121.453218333333","25.04389","6500500","新莊區"
"242022","353-BY","2019/08/26 07:59:43","新北市新莊區公園路37號","121.453101666667","25.04015","6500500","新莊區"
"242012","132-UY","2019/08/26 07:59:28","新北市新莊區中誠街16巷2號","121.45196","25.0482883333333","6500500","新莊區"
"242035","135-UY","2019/08/26 07:59:42","新北市新莊區後港一路206號","121.433531666667","25.0283216666667","6500500","新莊區"
"242052","172-VK","2019/08/26 07:59:37","新北市新莊區瓊林南路305巷35號","121.43595","25.0051783333333","6500500","新莊區"
"242014","173-VK","2019/08/26 07:59:35","新北市新莊區新泰路161號","121.447758333333","25.0370783333333","6500500","新莊區"
"242020","175-VK","2019/08/26 07:59:39","新北市新莊區中正路134號","121.452715","25.0361066666667","6500500","新莊區"
"242018","347-TH","2019/08/26 07:59:37","新北市新莊區中港路61號","121.455205","25.0384616666667","6500500","新莊區"
"242033","348-TH","2019/08/26 07:59:37","新北市新莊區瓊林路8號","121.449588333333","25.031785","6500500","新莊區"
"242006","349-TH","2019/08/26 07:59:26","新北市新莊區自信街57號","121.455093333333","25.04826","6500500","新莊區"
"242016","351-TH","2019/08/26 07:59:44","新北市新莊區中華路一段103號","121.452651666667","25.043905","6500500","新莊區"
"242043","281-VK","2019/08/26 07:59:28","新北市新莊區富國路69號","121.419901666667","25.02597","6500500","新莊區"
"242008","280-VK","2019/08/26 07:59:26","新北市新莊區中原路228號","121.453103333333","25.054435","6500500","新莊區"
