"lineid","car","time","location","longitude","latitude","cityid","cityname"
"232017","290-BY","2019/08/26 08:09:30","新北市坪林區坪雙路二段145號","121.760683333333","24.9605183333333","6502000","坪林區"
"232005","291-BY","2019/08/26 08:09:27","新北市坪林區北宜路八段462號","121.704836666667","24.9212883333333","6502000","坪林區"
"232012","705-BZ","2019/08/26 08:07:34","新北市坪林區金瓜寮36號","121.672585","24.8970133333333","6502000","坪林區"
"232001","758-BX","2019/08/26 08:09:23","新北市坪林區下坑子口12號","121.719883333333","24.9414333333333","6502000","坪林區"
"244006","080-UY","2019/08/26 08:09:44","新北市林口區中湖43-16號","121.380788333333","25.0929533333333","6501700","林口區"
"244001","248-BX","2019/08/26 08:09:40","新北市林口區頂福里8鄰82號","121.32843","25.1035983333333","6501700","林口區"
"244018","402-UM","2019/08/26 08:09:29","新北市林口區中山路144-1號","121.391413333333","25.0786883333333","6501700","林口區"
"244012","KEA-2802","2019/08/26 08:09:34","新北市林口區中山路319號","121.383671666667","25.0804833333333","6501700","林口區"
"244022","483-VK","2019/08/26 08:09:36","新北市林口區仁愛路一段647號","121.388435","25.07662","6501700","林口區"
"244016","485-VK","2019/08/26 08:09:45","新北市林口區文化一路二段200號","121.383055","25.0808166666667","6501700","林口區"
"244008","656-BX","2019/08/26 08:09:39","新北市林口區中北一街78號","121.38577","25.0884283333333","6501700","林口區"
"244010","701-TV","2019/08/26 08:09:36","新北市林口區仁愛路一段382號","121.387883333333","25.0766733333333","6501700","林口區"
"244024","837-TS","2019/08/26 08:09:34","新北市林口區富貴路85號","121.37825","25.08339","6501700","林口區"
"244020","838-TS","2019/08/26 08:09:39","新北市林口區粉寮一街150-2號","121.403705","25.0868483333333","6501700","林口區"
"222004","289-BY","2019/08/26 08:09:26","新北市深坑區北深路三段22號","121.609311666667","25.0011483333333","6501800","深坑區"
"231007","189-VK","2019/08/26 08:09:41","新北市新店區安康路一段287號","121.523093333333","24.9636166666667","6500600","新店區"
"231008","515-UM","2019/08/26 08:09:31","新北市新店區北宜路一段116號","121.539195","24.9552166666667","6500600","新店區"
"226005","5620-A6","2019/08/26 08:09:38","新北市平溪區靜安路二段360號","121.73777","25.0244433333333","6502400","平溪區"
"226001","7418-A5","2019/08/26 08:09:32","新北市平溪區十分里姜仔坑3號","121.76709","25.035535","6502400","平溪區"
"226003","AGD-0702","2019/08/26 08:09:36","新北市平溪區十分里十分街58巷20號","121.774743333333","25.0434933333333","6502400","平溪區"
"223003","205-TH","2019/08/26 08:09:38","新北市石碇區北宜路五段80號","121.64628","24.9517216666667","6501900","石碇區"
"223008","406-TH","2019/08/26 08:09:33","新北市石碇區靜安路一段312號","121.692731666667","25.006535","6501900","石碇區"
"223001","592-UM","2019/08/26 08:09:24","新北市石碇區北宜路五段80號","121.646303333333","24.9516016666667","6501900","石碇區"
"223004","660-BX","2019/08/26 08:09:32","新北市石碇區外按8-1號","121.651448333333","24.9962166666667","6501900","石碇區"
"223007","661-BX","2019/08/26 08:09:36","新北市石碇區靜安路一段304號","121.69216","25.0063866666667","6501900","石碇區"
"227003","282-VK","2019/08/26 08:09:39","新北市雙溪區上林里大瀨10號","121.82209","25.022505","6502500","雙溪區"
"252006","073-UM","2019/08/26 08:09:38","新北市三芝區後厝里大片頭81-1號","121.458963333333","25.2448266666667","6502100","三芝區"
"252004","249-BX","2019/08/26 08:09:25","新北市三芝區興華里車埕31-3號","121.503448333333","25.1946066666667","6502100","三芝區"
"237014","760-BX","2019/08/26 08:09:45","新北市三峽區詩朗84號","121.343856666667","24.8462433333333","6500900","三峽區"
"242030","AAC-296","2019/08/26 08:09:31","新北市新莊區新泰路361巷3號","121.44371","25.04305","6500500","新莊區"
"242059","986-R7","2019/08/26 08:09:40","新北市新莊區新樹路601號","121.43316","25.005875","6500500","新莊區"
"242001","751-BX","2019/08/26 08:09:35","新北市新莊區新莊路332號","121.450291666667","25.03363","6500500","新莊區"
"242028","705-TV","2019/08/26 08:09:46","新北市新莊區復興路一段109號","121.449276666667","25.0428933333333","6500500","新莊區"
"242026","613-BX","2019/08/26 08:09:46","新北市新莊區福壽街120號","121.457966666667","25.05095","6500500","新莊區"
"242057","612-BX","2019/08/26 08:09:41","新北市新莊區中正路651號","121.429713333333","25.03119","6500500","新莊區"
"242045","566-BX","2019/08/26 08:09:24","新北市新莊區中正路589號","121.434126666667","25.032295","6500500","新莊區"
"242049","497-BY","2019/08/26 08:09:32","新北市新莊區西盛街311巷4號","121.428328333333","25.0151933333333","6500500","新莊區"
"242038","442-UM","2019/08/26 08:09:33","新北市新莊區民安路322號","121.429021666667","25.02196","6500500","新莊區"
"242055","441-UM","2019/08/26 08:09:39","新北市新莊區泰豐街28號","121.448386666667","25.0317266666667","6500500","新莊區"
"242003","440-UM","2019/08/26 08:09:43","新北市新莊區自立街198號","121.456651666667","25.0455033333333","6500500","新莊區"
"242040","415-TV","2019/08/26 08:09:38","新北市泰山區中山路二段760號","121.42461","25.0345783333333","6500500","新莊區"
"242010","413-TV","2019/08/26 08:09:30","新北市新莊區中港路645號","121.451026666667","25.0549583333333","6500500","新莊區"
"242047","400-BY","2019/08/26 08:09:33","新北市新莊區萬安街112號","121.420508333333","25.0221633333333","6500500","新莊區"
"242024","362-BY","2019/08/26 08:09:43","新北市新莊區思源路98號","121.46028","25.045985","6500500","新莊區"
"242022","353-BY","2019/08/26 08:09:43","新北市新莊區民樂街46號","121.457986666667","25.0413783333333","6500500","新莊區"
"242012","132-UY","2019/08/26 08:09:46","新北市新莊區中誠街131號","121.449141666667","25.047555","6500500","新莊區"
"242035","135-UY","2019/08/26 08:09:42","新北市新莊區後港一路92號","121.427593333333","25.0267266666667","6500500","新莊區"
"242052","172-VK","2019/08/26 08:09:17","新北市新莊區樹新路120巷21號","121.430471666667","24.9964083333333","6500500","新莊區"
"242014","173-VK","2019/08/26 08:09:35","新北市新莊區新泰路341號","121.444811666667","25.0419666666667","6500500","新莊區"
"242020","175-VK","2019/08/26 08:09:39","新北市新莊區中華路一段230號","121.452646666667","25.04321","6500500","新莊區"
"242018","347-TH","2019/08/26 08:09:36","新北市新莊區中港路203號","121.45488","25.0419283333333","6500500","新莊區"
"242033","348-TH","2019/08/26 08:09:39","新北市新莊區新莊路637號","121.445328333333","25.0328766666667","6500500","新莊區"
"242006","349-TH","2019/08/26 08:09:46","新北市新莊區福樂街71巷4號","121.456933333333","25.0477683333333","6500500","新莊區"
"242016","351-TH","2019/08/26 08:09:44","新北市新莊區復興路一段149巷21弄15號","121.449513333333","25.04394","6500500","新莊區"
"242043","281-VK","2019/08/26 08:09:28","新北市新莊區富國路65巷5號","121.419861666667","25.0264883333333","6500500","新莊區"
"242008","280-VK","2019/08/26 08:09:26","新北市新莊區昌明街14巷7弄2號","121.457336666667","25.0535216666667","6500500","新莊區"
