"lineid","car","time","location","longitude","latitude","cityid","cityname"
"244018","402-UM","2019/08/26 09:59:29","新北市林口區文化二路一段384號","121.37469","25.0765966666667","6501700","林口區"
"244022","483-VK","2019/08/26 09:59:36","新北市林口區民權路203號","121.375543333333","25.0855683333333","6501700","林口區"
"231008","515-UM","2019/08/26 09:59:38","新北市新店區小坑一路35巷1號","121.5291","24.9096266666667","6500600","新店區"
"227003","282-VK","2019/08/26 09:59:39","新北市雙溪區泰平里灣潭路36號","121.811291666667","24.9288383333333","6502500","雙溪區"
"252004","249-BX","2019/08/26 09:59:45","新北市三芝區福德里土地公埔46號","121.513378333333","25.22933","6502100","三芝區"
"252006","AAC-283","2019/08/26 09:59:37","新北市三芝區新庄里新庄子51-25號","121.507515","25.2780533333333","6502100","三芝區"
"237014","760-BX","2019/08/26 09:59:25","新北市三峽區金敏186號","121.395225","24.8711133333333","6500900","三峽區"
"242059","986-R7","2019/08/26 09:59:40","新北市新莊區新泰路357巷3弄51號","121.4425","25.0400316666667","6500500","新莊區"
"242055","441-UM","2019/08/26 09:59:36","新北市樹林區八德街262-1號","121.417881666667","24.972245","6500500","新莊區"
