"lineid","car","time","location","longitude","latitude","cityid","cityname"
"234078","298-R6","2019/08/26 14:29:42","新北市永和區永貞路19號","121.521028333333","25.0071283333333","6500400","永和區"
"234036","336-UY","2019/08/26 14:29:45","新北市永和區環河東路四段38號","121.528725","24.99894","6500400","永和區"
"234062","337-UY","2019/08/26 14:29:31","新北市永和區中正路411號","121.516965","25.0047516666667","6500400","永和區"
"234084","338-UY","2019/08/26 14:29:41","新北市永和區永和路二段279號","121.515983333333","25.0156566666667","6500400","永和區"
"234068","552-UM","2019/08/26 14:29:40","新北市永和區永亨路6-1號","121.519538333333","25.0056366666667","6500400","永和區"
"234028","746-BX","2019/08/26 14:29:13","新北市永和區民權路55號","121.519961666667","24.9969","6500400","永和區"
"234052","KEA-2590","2019/08/26 14:29:32","新北市永和區光復街31-1號","121.516413333333","25.017895","6500400","永和區"
"234005","KED-0605","2019/08/26 14:29:45","新北市永和區中正路553號","121.516835","25.0083366666667","6500400","永和區"
"234012","KEA-2591","2019/08/26 14:29:42","新北市中和區橋和路271巷6號","121.495901666667","25.0078533333333","6500400","永和區"
"234060","AAD-866","2019/08/26 14:29:35","新北市永和區安樂路196號","121.515025","25.0013433333333","6500400","永和區"
"234040","862-TW","2019/08/26 14:29:32","新北市永和區安樂路290號","121.514395","25.004635","6500400","永和區"
"234048","863-TW","2019/08/26 14:29:41","新北市永和區保福路三段2-1號","121.508576666667","25.0154666666667","6500400","永和區"
"234025","9371-KE","2019/08/26 14:29:44","新北市中和區安平路222號","121.513918333333","25.0002016666667","6500400","永和區"
"248015","026-BX","2019/08/26 14:29:36","新北市五股區成泰路四段22巷43號","121.456011666667","25.1088566666667","6501500","五股區"
"248007","KED-0815","2019/08/26 14:29:35","新北市五股區中興路二段83巷26-6號","121.45988","25.0753183333333","6501500","五股區"
"248019","KED-0813","2019/08/26 14:01:10","新北市五股區凌雲路三段59-6號","121.424988333333","25.1249516666667","6501500","五股區"
"248011","247-BX","2019/08/26 14:29:44","新北市五股區蓬萊路10號","121.43528","25.0794783333333","6501500","五股區"
"248013","261-SL","2019/08/26 14:29:43","新北市五股區民義路一段172巷11號","121.43353","25.088105","6501500","五股區"
"248009","272-BY","2019/08/26 14:29:44","新北市五股區水碓一路23號","121.430621666667","25.07123","6501500","五股區"
"248003","677-BX","2019/08/26 14:29:47","新北市五股區工商路127號","121.43569","25.0861783333333","6501500","五股區"
"248001","678-BX","2019/08/26 14:29:47","新北市五股區成泰路三段487號","121.450731666667","25.099225","6501500","五股區"
"234072","AAC-211","2019/08/26 14:29:40","新北市永和區環河東路一段126號","121.520673333333","25.015365","6500400","永和區"
"234001","AAC-295","2019/08/26 14:29:36","新北市永和區自強街19巷3號","121.51479","25.0085083333333","6500400","永和區"
"244001","248-BX","2019/08/26 14:29:38","新北市林口區瑞平里33-1號","121.34842","25.128845","6501700","林口區"
"243004","AAD-798","2019/08/26 14:29:44","新北市泰山區仁愛路6巷5弄5號","121.43092","25.05418","6501600","泰山區"
"243002","297-R6","2019/08/26 14:29:48","新北市泰山區明志路二段68號","121.428901666667","25.0525166666667","6501600","泰山區"
"243006","KEA-2801","2019/08/26 14:29:41","新北市泰山區仁義路220巷53號","121.432093333333","25.0527383333333","6501600","泰山區"
"243008","421-VK","2019/08/26 14:29:43","新北市泰山區明志路三段427號","121.420803333333","25.033315","6501600","泰山區"
"243001","KEA-2215","2019/08/26 14:29:35","新北市五股區成泰路一段7巷5號","121.43334","25.066685","6501600","泰山區"
"243003","KEA-2216","2019/08/26 14:29:44","新北市泰山區貴子路67巷8號","121.431001666667","25.0406516666667","6501600","泰山區"
"243005","646-TV","2019/08/26 14:29:41","新北市泰山區貴子路22號","121.425595","25.0419033333333","6501600","泰山區"
"243007","680-BX","2019/08/26 14:29:38","新北市泰山區民權街23號","121.428706666667","25.050765","6501600","泰山區"
"231030","002-UM","2019/08/26 14:29:29","新北市新店區安民街40號","121.515916666667","24.9652816666667","6500600","新店區"
"231005","046-UY","2019/08/26 14:29:32","新北市新店區中興路三段128號","121.54486","24.979655","6500600","新店區"
"231029","106-UY","2019/08/26 14:29:27","新北市新店區安康路二段382號","121.500416666667","24.956985","6500600","新店區"
"231018","107-UY","2019/08/26 14:29:28","新北市新店區中央二街39號","121.527708333333","24.974025","6500600","新店區"
"231013","108-UY","2019/08/26 14:29:45","新北市新店區民權路108-1號","121.535813333333","24.9835833333333","6500600","新店區"
"231036","110-UY","2019/08/26 14:29:44","新北市新店區安祥路109巷151弄1號","121.477878333333","24.9584883333333","6500600","新店區"
"231031","256-BX","2019/08/26 14:29:34","新北市新店區溪洲路160-1號","121.530336666667","24.965065","6500600","新店區"
"231023","260-TV","2019/08/26 14:29:34","新北市新店區光明街133號","121.539483333333","24.961905","6500600","新店區"
"231003","268-BY","2019/08/26 14:29:30","新北市新店區中興路一段267-4號","121.545093333333","24.9678883333333","6500600","新店區"
"231035","278-BY","2019/08/26 14:29:40","新北市新店區吉安街26號","121.516258333333","24.9659266666667","6500600","新店區"
"231014","AAD-862","2019/08/26 14:29:32","新北市新店區北宜路三段51-1號","121.569035","24.950385","6500600","新店區"
"231006","355-BY","2019/08/26 14:29:38","新北市新店區北宜路二段503號","121.563495","24.9536683333333","6500600","新店區"
"231038","3712-VJ","2019/08/26 14:29:25","新北市新店區溪洲路192號","121.528706666667","24.966345","6500600","新店區"
"231027","3713-VJ","2019/08/26 14:29:38","新北市新店區北新路二段183號","121.542821666667","24.9774933333333","6500600","新店區"
"231019","513-UM","2019/08/26 14:29:26","新北市新店區新烏路三段69號","121.555205","24.9037933333333","6500600","新店區"
"231034","616-UM","2019/08/26 14:17:31","新北市新店區車子路11號","121.503025","24.95204","6500600","新店區"
"231002","618-UM","2019/08/26 14:29:34","新北市新店區中央路192號","121.530893333333","24.974645","6500600","新店區"
"231011","KED-0819","2019/08/26 14:29:28","新北市新店區寶興路63巷1號","121.550846666667","24.9718683333333","6500600","新店區"
"231028","897-TW","2019/08/26 14:29:31","新北市新店區安和路二段71號","121.518315","24.96852","6500600","新店區"
"231001","898-TW","2019/08/26 14:29:31","新北市新店區中正路75巷71號","121.54314","24.9689033333333","6500600","新店區"
"231004","899-TW","2019/08/26 14:29:37","新北市新店區中正路282-11號","121.538438333333","24.9739583333333","6500600","新店區"
"231037","AKT-0513","2019/08/26 14:29:43","新北市新店區安康路二段318-1號","121.504901666667","24.9581416666667","6500600","新店區"
"235028","005-UY","2019/08/26 14:29:35","新北市中和區南山路127巷34弄2號","121.504191666667","24.9977516666667","6500300","中和區"
"235027","006-UY","2019/08/26 14:29:31","新北市中和區連城路203巷4號","121.494793333333","24.9976166666667","6500300","中和區"
"235020","096-UM","2019/08/26 14:28:54","新北市中和區員山路581巷2弄30號","121.477338333333","25.010025","6500300","中和區"
"235003","097-UM","2019/08/26 14:29:39","新北市永和區中正路64號","121.513405","24.9948566666667","6500300","中和區"
"235029","098-UM","2019/08/26 14:29:27","新北市中和區莊敬路1-5號","121.499551666667","25.0043666666667","6500300","中和區"
"235004","150-BY","2019/08/26 14:29:29","新北市中和區宜安路1巷29號","121.512453333333","24.9942183333333","6500300","中和區"
"235022","151-BY","2019/08/26 14:29:42","新北市中和區員山路142巷21號","121.482375","24.9965383333333","6500300","中和區"
"235019","183-VK","2019/08/26 14:29:40","新北市中和區民生街15號","121.471295","25.0058266666667","6500300","中和區"
"235002","185-VK","2019/08/26 14:29:43","新北市中和區自立路99巷1號","121.522073333333","24.9948833333333","6500300","中和區"
"235013","186-VK","2019/08/26 14:29:37","新北市中和區安平路17號","121.509123333333","24.9941466666667","6500300","中和區"
"235031","255-BX","2019/08/26 14:29:40","新北市中和區新生街220巷27號","121.48256","24.9984733333333","6500300","中和區"
"235008","293-VK","2019/08/26 14:29:42","新北市中和區和平街33號","121.50674","24.991205","6500300","中和區"
"235036","301-VK","2019/08/26 14:29:26","新北市中和區中山路二段64巷2號","121.503795","25.0048783333333","6500300","中和區"
"235007","352-BY","2019/08/26 14:29:27","新北市中和區景平路400號","121.509311666667","24.99323","6500300","中和區"
"235006","KEA-2878","2019/08/26 14:29:46","新北市中和區宜安路168巷12號","121.5095","24.9993783333333","6500300","中和區"
"247007","KED-0682","2019/08/26 14:29:42","新北市蘆洲區民生街36號","121.474166666667","25.078675","6501400","蘆洲區"
"235033","4980-A6","2019/08/26 14:29:34","新北市中和區連城路134巷14號","121.495718333333","24.9996016666667","6500300","中和區"
"235034","558-UM","2019/08/26 14:29:36","新北市中和區連勝街33號","121.498313333333","24.9978416666667","6500300","中和區"
"235009","565-BX","2019/08/26 14:29:41","新北市中和區景新街394號","121.51252","24.9896916666667","6500300","中和區"
"235024","KED-0823","2019/08/26 14:29:45","新北市中和區新生街30巷23號","121.482251666667","25.0037566666667","6500300","中和區"
"235018","640-BX","2019/08/26 14:29:28","新北市中和區莒光路220號","121.470173333333","24.9961383333333","6500300","中和區"
"235011","732-UM","2019/08/26 14:29:28","新北市中和區景平路259巷14號","121.507946666667","24.9927216666667","6500300","中和區"
"235010","733-UM","2019/08/26 14:29:43","新北市中和區忠孝街37巷52號","121.511105","24.9848566666667","6500300","中和區"
"235035","783-BX","2019/08/26 14:29:36","新北市中和區連城路467-6號","121.48358","24.9959416666667","6500300","中和區"
"235026","800-TS","2019/08/26 14:29:41","新北市中和區中山路二段389號","121.486858333333","25.0047216666667","6500300","中和區"
"235021","801-TS","2019/08/26 14:29:40","新北市中和區員山路296號","121.481366666667","25.0025066666667","6500300","中和區"
"235005","802-TS","2019/08/26 14:29:41","新北市中和區景安路2號","121.507813333333","24.9992433333333","6500300","中和區"
"235016","805-TS","2019/08/26 14:29:26","新北市中和區華新街143巷70號","121.506368333333","24.9792233333333","6500300","中和區"
"235012","896-TW","2019/08/26 14:29:30","新北市中和區忠孝街39-5號","121.511825","24.9839333333333","6500300","中和區"
"235017","900-TW","2019/08/26 14:29:44","新北市中和區國光街215巷44號","121.467431666667","24.9999533333333","6500300","中和區"
"235030","911-UM","2019/08/26 14:29:46","新北市中和區中和路136號","121.503391666667","24.99931","6500300","中和區"
"235015","157-BY","2019/08/26 14:29:34","新北市中和區板南路132號","121.502535","24.9925866666667","6500300","中和區"
"235001","AAC-213","2019/08/26 14:29:36","新北市中和區秀朗路三段107號","121.526496666667","24.9945183333333","6500300","中和區"
"235023","AAC-215","2019/08/26 14:29:43","新北市中和區圓通路252巷5弄4號","121.493245","24.9914083333333","6500300","中和區"
"220013","072-UY","2019/08/26 14:29:36","新北市板橋區國泰街75巷32號","121.467696666667","25.0056166666667","6500100","板橋區"
"220034","073-UY","2019/08/26 14:29:26","新北市板橋區中正路216巷8號","121.456341666667","25.0184033333333","6500100","板橋區"
"220105","075-UY","2019/08/26 14:29:39","新北市板橋區文化路二段331號","121.472571666667","25.0301683333333","6500100","板橋區"
"220017","AAD-861","2019/08/26 14:29:45","新北市板橋區貴興路81號","121.456695","25.0029416666667","6500100","板橋區"
"220016","120-SR","2019/08/26 14:29:44","新北市板橋區萬安街18號","121.484678333333","25.0227433333333","6500100","板橋區"
"247003","893-R6","2019/08/26 14:29:32","新北市蘆洲區長安街220巷14號","121.459085","25.0848383333333","6501400","蘆洲區"
"247017","546-UM","2019/08/26 14:29:35","新北市蘆洲區民族路312號","121.477445","25.0902666666667","6501400","蘆洲區"
"247001","500-BY","2019/08/26 14:29:40","新北市蘆洲區永樂街38巷33弄54號","121.456598333333","25.09004","6501400","蘆洲區"
"247021","057-VK","2019/08/26 14:29:36","新北市蘆洲區三民路128巷13號","121.470521666667","25.0884","6501400","蘆洲區"
"247011","056-VK","2019/08/26 14:29:32","新北市蘆洲區復興路88號","121.47537","25.0867983333333","6501400","蘆洲區"
"247015","053-VK","2019/08/26 14:29:40","新北市蘆洲區中正路185巷78弄50號","121.465631666667","25.0854","6501400","蘆洲區"
"247019","007-UY","2019/08/26 14:29:45","新北市蘆洲區水湳街281號","121.469453333333","25.0929483333333","6501400","蘆洲區"
"247005","002-UY","2019/08/26 14:29:32","新北市蘆洲區中華街73號","121.462158333333","25.0803716666667","6501400","蘆洲區"
"247023","001-UY","2019/08/26 14:29:43","新北市蘆洲區中正路263巷2號","121.467335","25.0876666666667","6501400","蘆洲區"
"253003","6232-TK","2019/08/26 14:29:25","新北市石門區尖子鹿42號","121.581158333333","25.26546","6502200","石門區"
"253004","6251-TK","2019/08/26 14:29:30","新北市石門區內阿里磅14號","121.593338333333","25.2488983333333","6502200","石門區"
"253002","637-UY","2019/08/26 14:29:43","新北市石門區大溪墘3號","121.551416666667","25.2840116666667","6502200","石門區"
"253001","KEC-0718","2019/08/26 14:29:34","新北市石門區崁子腳58-22號","121.53165","25.2876466666667","6502200","石門區"
"207002","749-BX","2019/08/26 14:29:29","新北市萬里區溪底里瑞泉路2-6號","121.609785","25.14276","6502800","萬里區"
"252005","073-UM","2019/08/26 14:29:34","新北市三芝區橫山里大坑85-4號","121.527881666667","25.2577666666667","6502100","三芝區"
"207001","662-BX","2019/08/26 14:29:44","新北市萬里區磺潭里清水18-2號","121.638608333333","25.1983766666667","6502800","萬里區"
"236040","KED-0685","2019/08/26 14:29:44","新北市土城區裕民路67巷2號","121.449713333333","24.9879316666667","6501300","土城區"
"236029","253-BX","2019/08/26 14:29:36","新北市土城區水源街73號","121.439626666667","24.9764","6501300","土城區"
"236024","269-VK","2019/08/26 14:29:48","新北市土城區承天路73號","121.44005","24.9629883333333","6501300","土城區"
"236012","270-VK","2019/08/26 14:29:40","新北市土城區青雲路39巷7號","121.460266666667","24.9873966666667","6501300","土城區"
"236032","271-VK","2019/08/26 14:29:30","新北市土城區青雲路369號","121.458891666667","24.97641","6501300","土城區"
"247009","KED-0683","2019/08/26 14:29:32","新北市蘆洲區鷺江街79號","121.477066666667","25.0833566666667","6501400","蘆洲區"
"236064","KEA-2877","2019/08/26 14:29:24","新北市土城區永豐路358-2號","121.474238333333","24.9751033333333","6501300","土城區"
"236016","401-BY","2019/08/26 14:29:29","新北市土城區永豐路202巷1弄4號","121.466508333333","24.9830283333333","6501300","土城區"
"236057","912-UM","2019/08/26 14:29:33","新北市土城區中央路四段131號","121.416093333333","24.9575116666667","6501300","土城區"
"236045","913-UM","2019/08/26 14:29:37","新北市土城區明德路一段321號","121.459183333333","24.9770933333333","6501300","土城區"
"236060","915-UM","2019/08/26 14:29:47","新北市土城區延壽路75巷19號","121.468678333333","24.992305","6501300","土城區"
"236054","AAC-216","2019/08/26 14:29:38","新北市土城區福祥街101巷1號","121.440988333333","24.9817516666667","6501300","土城區"
"221029","298-VK","2019/08/26 14:29:33","新北市汐止區汐萬路一段256巷1號","121.651858333333","25.0748533333333","6501100","汐止區"
"220027","145-BY","2019/08/26 14:29:37","新北市板橋區公館街27號","121.461068333333","25.0152833333333","6500100","板橋區"
"220030","610-BX","2019/08/26 14:29:35","新北市板橋區溪城路89號","121.427041666667","24.983295","6500100","板橋區"
"220004","276-BY","2019/08/26 14:29:31","新北市板橋區信義路105-1號","121.457391666667","24.9936266666667","6500100","板橋區"
"220020","277-BY","2019/08/26 14:29:35","新北市板橋區篤行路二段161巷22號","121.429938333333","24.9871433333333","6500100","板橋區"
"220050","280-UM","2019/08/26 14:29:43","新北市板橋區莊敬路220巷29弄9號","121.472636666667","25.0202716666667","6500100","板橋區"
"220019","283-VK","2019/08/26 14:29:31","新北市板橋區忠孝路48巷4弄5號","121.460658333333","25.000655","6500100","板橋區"
"220043","285-UM","2019/08/26 14:29:39","新北市板橋區銘傳街37號","121.468656666667","25.03109","6500100","板橋區"
"220001","285-VK","2019/08/26 14:29:40","新北市板橋區永豐街205號","121.476545","25.0209783333333","6500100","板橋區"
"220031","286-VK","2019/08/26 14:29:45","新北市板橋區龍興街73巷56號","121.441795","25.0031266666667","6500100","板橋區"
"220029","287-VK","2019/08/26 14:29:44","新北市板橋區南雅西路一段21巷7-1號","121.45351","25.0037966666667","6500100","板橋區"
"220039","288-VK","2019/08/26 14:29:41","新北市板橋區裕民街112號","121.459581666667","25.0277","6500100","板橋區"
"220009","293-UM","2019/08/26 14:29:34","新北市板橋區漢生東路111-1號","121.467171666667","25.0150616666667","6500100","板橋區"
"220010","295-UM","2019/08/26 14:29:34","新北市板橋區三民路二段181巷1號","121.479601666667","25.0144266666667","6500100","板橋區"
"220032","296-UM","2019/08/26 14:29:42","新北市板橋區滿平街136巷7弄1號","121.427956666667","24.9872833333333","6500100","板橋區"
"220023","303-R5","2019/08/26 14:29:44","新北市板橋區南雅西路一段122號","121.452308333333","25.00656","6500100","板橋區"
"220041","307-R5","2019/08/26 14:29:39","新北市板橋區四維路137巷1弄17-2號","121.465091666667","25.0246583333333","6500100","板橋區"
"220047","317-R6","2019/08/26 14:29:42","新北市板橋區民有街104號","121.464585","25.0281","6500100","板橋區"
"220038","487-VK","2019/08/26 14:29:48","新北市板橋區英士路17號","121.461865","25.02518","6500100","板橋區"
"220037","491-VK","2019/08/26 14:29:35","新北市板橋區雙十路二段108號","121.474448333333","25.028545","6500100","板橋區"
"220052","561-BX","2019/08/26 14:29:31","新北市板橋區陽明街29巷32號","121.46368","25.0227416666667","6500100","板橋區"
"220028","568-UM","2019/08/26 14:29:41","新北市板橋區大觀路二段3巷95號","121.450386666667","25.0032566666667","6500100","板橋區"
"220011","609-BX","2019/08/26 14:29:47","新北市板橋區三民路二段188號","121.478996666667","25.0148883333333","6500100","板橋區"
"220104","630-UY","2019/08/26 14:29:39","新北市板橋區中正路433巷1號","121.454183333333","25.0232733333333","6500100","板橋區"
"220040","637-BX","2019/08/26 14:29:32","新北市板橋區文聖街149巷23弄7號","121.479266666667","25.0287433333333","6500100","板橋區"
"220005","686-BX","2019/08/26 14:29:43","新北市板橋區國慶路158巷7號","121.462198333333","24.9957433333333","6500100","板橋區"
"220025","687-BX","2019/08/26 14:29:35","新北市板橋區大觀路二段163號","121.445265","25.0005166666667","6500100","板橋區"
"220042","689-BX","2019/08/26 14:29:32","新北市板橋區互助街97號","121.459451666667","25.02565","6500100","板橋區"
"220002","741-BX","2019/08/26 14:29:47","新北市板橋區光明街104號","121.462843333333","25.0029233333333","6500100","板橋區"
"220051","KEA-2699","2019/08/26 14:29:44","新北市板橋區雙十路二段46巷19號","121.476273333333","25.0282716666667","6500100","板橋區"
"220003","827-TW","2019/08/26 14:29:41","新北市板橋區館前東路156巷18號","121.464221666667","25.0070233333333","6500100","板橋區"
"220014","831-TW","2019/08/26 14:29:37","新北市板橋區漢生東路313巷2弄18號","121.472308333333","25.0078416666667","6500100","板橋區"
"220022","895-R6","2019/08/26 14:29:30","新北市板橋區北門街40號","121.457081666667","25.0109633333333","6500100","板橋區"
"220021","985-R7","2019/08/26 14:29:28","新北市板橋區中正路332-11號","121.45436","25.02323","6500100","板橋區"
"220046","AAC-210","2019/08/26 14:29:42","新北市板橋區文化路一段285巷1號","121.464396666667","25.018865","6500100","板橋區"
"220012","AAC-253","2019/08/26 14:29:39","新北市板橋區重慶路10號","121.460808333333","25.0079916666667","6500100","板橋區"
"235032","KEA-2873","2019/08/26 14:29:28","新北市中和區福美路301巷16號","121.497511666667","25.0042733333333","6500300","中和區"
"235025","KEA-2875","2019/08/26 14:29:38","新北市中和區員山路226巷13弄12號","121.482541666667","25.0001366666667","6500300","中和區"
