"lineid","car","time","location","longitude","latitude","cityid","cityname"
"234062","337-UY","2019/08/26 14:39:31","新北市永和區仁愛路289號","121.505341666667","25.00941","6500400","永和區"
"234068","552-UM","2019/08/26 14:36:00","新北市永和區永和路二段207號","121.515553333333","25.0137916666667","6500400","永和區"
"234028","746-BX","2019/08/26 14:39:33","新北市永和區中正路105號","121.515538333333","24.9973533333333","6500400","永和區"
"234005","KED-0605","2019/08/26 14:39:45","新北市中和區永貞路245號","121.513065","25.0040283333333","6500400","永和區"
"234012","KEA-2591","2019/08/26 14:39:42","新北市五股區中興路三段163號","121.448798333333","25.0810033333333","6500400","永和區"
"234040","862-TW","2019/08/26 14:39:33","新北市永和區永和路一段115-1號","121.51393","25.0081","6500400","永和區"
"234025","9371-KE","2019/08/26 14:39:44","新北市永和區中和路491號","121.510476666667","25.0021683333333","6500400","永和區"
"248015","026-BX","2019/08/26 14:39:36","新北市五股區成泰路三段577巷80弄7號","121.449478333333","25.1043383333333","6501500","五股區"
"248007","KED-0815","2019/08/26 14:39:35","新北市五股區中興路一段201號","121.463641666667","25.0741133333333","6501500","五股區"
"248019","KED-0813","2019/08/26 14:39:25","新北市五股區凌雲路三段96號","121.429118333333","25.12142","6501500","五股區"
"248011","247-BX","2019/08/26 14:39:35","新北市五股區民義路一段122號","121.434846666667","25.0857883333333","6501500","五股區"
"248013","261-SL","2019/08/26 14:39:43","新北市五股區五福路42巷9號","121.434238333333","25.0896516666667","6501500","五股區"
"248009","272-BY","2019/08/26 14:39:31","新北市五股區登林路74-1號","121.43124","25.0693666666667","6501500","五股區"
"248003","677-BX","2019/08/26 14:39:47","新北市五股區成泰路一段222號","121.43661","25.0800683333333","6501500","五股區"
"248001","678-BX","2019/08/26 14:39:29","新北市五股區成泰路三段361號","121.448646666667","25.0958116666667","6501500","五股區"
"234072","AAC-211","2019/08/26 14:39:45","新北市永和區環河東路二段46號","121.522993333333","25.011985","6500400","永和區"
"234001","AAC-295","2019/08/26 14:39:36","新北市永和區中正路618-1號","121.516986666667","25.0077566666667","6500400","永和區"
"244001","248-BX","2019/08/26 14:39:38","新北市林口區瑞平里33-1號","121.348413333333","25.1288733333333","6501700","林口區"
"243004","AAD-798","2019/08/26 14:39:24","新北市泰山區仁愛路94號","121.433208333333","25.0553116666667","6501600","泰山區"
"243002","297-R6","2019/08/26 14:39:48","新北市泰山區明志路二段136巷19號","121.426185","25.0518533333333","6501600","泰山區"
"243006","KEA-2801","2019/08/26 14:39:41","新北市泰山區泰林路二段139號","121.433865","25.0598883333333","6501600","泰山區"
"243008","421-VK","2019/08/26 14:39:36","新北市泰山區貴鳳街21號","121.422033333333","25.031175","6501600","泰山區"
"243001","KEA-2215","2019/08/26 14:39:35","新北市泰山區泰林路二段164巷38號","121.434326666667","25.061335","6501600","泰山區"
"243003","KEA-2216","2019/08/26 14:39:35","新北市泰山區明志路三段196巷21弄18號","121.422905","25.0387983333333","6501600","泰山區"
"231030","002-UM","2019/08/26 14:39:29","新北市新店區安民街67-3號","121.516228333333","24.9666933333333","6500600","新店區"
"231005","046-UY","2019/08/26 14:39:32","新北市新店區復興路1巷20號","121.54079","24.9853583333333","6500600","新店區"
"231029","106-UY","2019/08/26 14:39:47","新北市新店區安康路三段177號","121.488568333333","24.9517616666667","6500600","新店區"
"231018","107-UY","2019/08/26 14:39:47","新北市新店區中央路141號","121.530323333333","24.973545","6500600","新店區"
"231013","108-UY","2019/08/26 14:39:25","新北市新店區民族路11號","121.541566666667","24.9788183333333","6500600","新店區"
"231036","110-UY","2019/08/26 14:39:28","新北市新店區安祥路106巷10號","121.478765","24.9626366666667","6500600","新店區"
"231031","256-BX","2019/08/26 14:39:34","新北市新店區安業街215巷9號","121.523086666667","24.9729133333333","6500600","新店區"
"231023","260-TV","2019/08/26 14:39:34","新北市新店區檳榔路38號","121.541493333333","24.96373","6500600","新店區"
"231003","268-BY","2019/08/26 14:39:30","新北市新店區中興路二段100巷2號","121.54738","24.9714183333333","6500600","新店區"
"231035","278-BY","2019/08/26 14:39:40","新北市新店區安光路15巷15號","121.51228","24.9632266666667","6500600","新店區"
"231014","AAD-862","2019/08/26 14:39:32","新北市新店區長峰路61號","121.588341666667","24.95213","6500600","新店區"
"231006","355-BY","2019/08/26 14:39:38","新北市新店區北宜路二段341號","121.557738333333","24.95399","6500600","新店區"
"231038","3712-VJ","2019/08/26 14:39:45","新北市新店區安康路一段355-3號","121.519831666667","24.9625383333333","6500600","新店區"
"231027","3713-VJ","2019/08/26 14:39:38","新北市新店區寶橋路69-1號","121.54547","24.97507","6500600","新店區"
"231019","513-UM","2019/08/26 14:39:26","新北市新店區桂山路79號","121.567103333333","24.89965","6500600","新店區"
"231034","616-UM","2019/08/26 14:39:25","新北市新店區黎明路59巷1號","121.502501666667","24.9473783333333","6500600","新店區"
"231002","618-UM","2019/08/26 14:39:38","新北市新店區中央路2號","121.53402","24.9790533333333","6500600","新店區"
"231011","KED-0819","2019/08/26 14:39:48","新北市新店區寶宏路16號","121.549111666667","24.9761133333333","6500600","新店區"
"231028","897-TW","2019/08/26 14:39:31","新北市新店區安成街1-1號","121.510771666667","24.960225","6500600","新店區"
"231001","898-TW","2019/08/26 14:39:31","新北市新店區中正路62號","121.544295","24.9701333333333","6500600","新店區"
"231004","899-TW","2019/08/26 14:39:37","新北市新店區中正路306號","121.537435","24.9745966666667","6500600","新店區"
"231037","AKT-0513","2019/08/26 14:39:43","新北市新店區柴埕路60巷1號","121.509565","24.96442","6500600","新店區"
"235027","006-UY","2019/08/26 14:39:31","新北市中和區連城路188巷2-1號","121.492841666667","24.99738","6500300","中和區"
"235020","096-UM","2019/08/26 14:39:34","新北市中和區中山路三段114巷29號","121.475401666667","25.008355","6500300","中和區"
"235003","097-UM","2019/08/26 14:39:39","新北市中和區安樂路243巷2號","121.513948333333","24.9996533333333","6500300","中和區"
"235029","098-UM","2019/08/26 14:39:47","新北市中和區福美路230號","121.499086666667","25.0052883333333","6500300","中和區"
"235004","150-BY","2019/08/26 14:39:29","新北市中和區宜安路11巷23號","121.512558333333","24.9948683333333","6500300","中和區"
"235022","151-BY","2019/08/26 14:39:42","新北市中和區員山路150巷2弄21號","121.481701666667","24.9978166666667","6500300","中和區"
"235019","183-VK","2019/08/26 14:39:44","新北市中和區民德路6號","121.468718333333","25.00309","6500300","中和區"
"235002","185-VK","2019/08/26 14:39:43","新北市中和區自強路27巷22號","121.521695","24.9932366666667","6500300","中和區"
"235013","186-VK","2019/08/26 14:39:37","新北市中和區中正路70巷2號","121.501096666667","24.993725","6500300","中和區"
"235031","255-BX","2019/08/26 14:39:40","新北市中和區民樂路81號","121.484538333333","25.0012716666667","6500300","中和區"
"235008","293-VK","2019/08/26 14:39:42","新北市中和區南山路493號","121.507906666667","24.9879583333333","6500300","中和區"
"235036","301-VK","2019/08/26 14:39:47","新北市中和區保平路300號","121.507845","25.004435","6500300","中和區"
"235007","352-BY","2019/08/26 14:39:27","新北市中和區南華路73號","121.504913333333","24.9973916666667","6500300","中和區"
"235006","KEA-2878","2019/08/26 14:39:46","新北市中和區宜安路172號","121.50874","24.999095","6500300","中和區"
"247007","KED-0682","2019/08/26 14:39:42","新北市蘆洲區成功路50號","121.473131666667","25.0797616666667","6501400","蘆洲區"
"235034","558-UM","2019/08/26 14:39:36","新北市中和區連勝街42號","121.49801","24.9975883333333","6500300","中和區"
"235009","565-BX","2019/08/26 14:39:45","新北市中和區景平路155號","121.513478333333","24.992235","6500300","中和區"
"235018","640-BX","2019/08/26 14:39:28","新北市中和區莒光路11號","121.471911666667","25.0057983333333","6500300","中和區"
"235011","732-UM","2019/08/26 14:39:28","新北市中和區捷運路100-1號","121.506168333333","24.9913916666667","6500300","中和區"
"235010","733-UM","2019/08/26 14:39:43","新北市中和區景新街504號","121.513641666667","24.9867683333333","6500300","中和區"
"235035","783-BX","2019/08/26 14:39:33","新北市中和區建一路120號","121.488043333333","25.0002033333333","6500300","中和區"
"235026","800-TS","2019/08/26 14:39:41","新北市中和區連城路249-1號","121.493183333333","24.9967466666667","6500300","中和區"
"235021","801-TS","2019/08/26 14:39:40","新北市中和區員山路179號","121.481185","24.99692","6500300","中和區"
"235005","802-TS","2019/08/26 14:39:41","新北市中和區中和路252巷3號","121.507673333333","24.9992133333333","6500300","中和區"
"235016","805-TS","2019/08/26 14:39:46","新北市中和區華新街204號","121.506601666667","24.9819316666667","6500300","中和區"
"235012","896-TW","2019/08/26 14:39:47","新北市中和區景新街467巷20弄110號","121.51476","24.9866716666667","6500300","中和區"
"235017","900-TW","2019/08/26 14:39:41","新北市中和區國光街215巷9-2號","121.466588333333","25.00144","6500300","中和區"
"235030","911-UM","2019/08/26 14:39:26","新北市中和區景新街107號","121.505711666667","24.9976616666667","6500300","中和區"
"235015","157-BY","2019/08/26 14:39:34","新北市中和區中興街180巷52弄3號","121.498471666667","24.9882966666667","6500300","中和區"
"235001","AAC-213","2019/08/26 14:39:36","新北市中和區自立路193號","121.52433","24.9913383333333","6500300","中和區"
"235023","AAC-215","2019/08/26 14:39:43","新北市中和區圓通路262-3號","121.492806666667","24.9908116666667","6500300","中和區"
"220013","072-UY","2019/08/26 14:39:35","新北市板橋區國泰街106號","121.466571666667","25.0064183333333","6500100","板橋區"
"220034","073-UY","2019/08/26 14:39:34","新北市板橋區中正路250巷41號","121.457326666667","25.0196183333333","6500100","板橋區"
"220105","075-UY","2019/08/26 14:39:39","新北市板橋區民治街57巷32-1號","121.480203333333","25.03414","6500100","板橋區"
"220017","AAD-861","2019/08/26 14:39:45","新北市板橋區南雅南路二段18號","121.45442","25.0035266666667","6500100","板橋區"
"220016","120-SR","2019/08/26 14:39:44","新北市板橋區中山路二段412巷15號","121.48335","25.0203666666667","6500100","板橋區"
"247003","893-R6","2019/08/26 14:39:32","新北市蘆洲區長安街285巷24號","121.457113333333","25.0839966666667","6501400","蘆洲區"
"247001","500-BY","2019/08/26 14:39:40","新北市蘆洲區永樂街33號","121.458091666667","25.0880716666667","6501400","蘆洲區"
"247021","057-VK","2019/08/26 14:39:36","新北市蘆洲區三民路296號","121.466843333333","25.09049","6501400","蘆洲區"
"247011","056-VK","2019/08/26 14:39:32","新北市蘆洲區集賢路224巷37弄10-1號","121.480646666667","25.0881133333333","6501400","蘆洲區"
"247015","053-VK","2019/08/26 14:39:40","新北市蘆洲區正和街65號","121.468718333333","25.0811433333333","6501400","蘆洲區"
"247019","007-UY","2019/08/26 14:39:44","新北市蘆洲區民權路125號","121.472148333333","25.0899566666667","6501400","蘆洲區"
"247005","002-UY","2019/08/26 14:39:36","新北市蘆洲區長安街68巷1號","121.46273","25.0802966666667","6501400","蘆洲區"
"247023","001-UY","2019/08/26 14:39:43","新北市蘆洲區中山二路222巷13號","121.469421666667","25.08023","6501400","蘆洲區"
"253003","6232-TK","2019/08/26 14:39:45","新北市石門區尖子鹿101-1號","121.578795","25.29267","6502200","石門區"
"253004","6251-TK","2019/08/26 14:39:30","新北市石門區內阿里磅55號","121.578811666667","25.249385","6502200","石門區"
"253002","637-UY","2019/08/26 14:39:43","新北市三芝區橫山里橫山26號","121.544823333333","25.2642416666667","6502200","石門區"
"253001","KEC-0718","2019/08/26 14:38:34","新北市石門區崁子腳87號","121.535415","25.2716966666667","6502200","石門區"
"207002","749-BX","2019/08/26 14:39:29","新北市萬里區溪底里溪底路2號","121.618981666667","25.151755","6502800","萬里區"
"252005","073-UM","2019/08/26 14:39:40","新北市三芝區茂長里陳厝坑64號","121.510971666667","25.254585","6502100","三芝區"
"207001","662-BX","2019/08/26 14:39:44","新北市萬里區磺潭里員潭路54號","121.643493333333","25.1909466666667","6502800","萬里區"
"236040","KED-0685","2019/08/26 14:39:44","新北市土城區裕民路55巷1號","121.44897","24.988085","6501300","土城區"
"236029","253-BX","2019/08/26 14:39:36","新北市土城區慶利街37號","121.43901","24.97437","6501300","土城區"
"236024","269-VK","2019/08/26 14:39:48","新北市土城區千歲路13號","121.4409","24.9695316666667","6501300","土城區"
"236012","270-VK","2019/08/26 14:39:40","新北市土城區清水路223號","121.460815","24.9823916666667","6501300","土城區"
"236032","271-VK","2019/08/26 14:39:30","新北市土城區明德路一段226號","121.46063","24.9774916666667","6501300","土城區"
"247009","KED-0683","2019/08/26 14:39:32","新北市蘆洲區信義路222巷13號","121.479481666667","25.0853683333333","6501400","蘆洲區"
"236064","KEA-2877","2019/08/26 14:39:44","新北市土城區永豐路316號","121.472643333333","24.9775716666667","6501300","土城區"
"236016","401-BY","2019/08/26 14:39:49","新北市土城區延吉街270號","121.465771666667","24.9844766666667","6501300","土城區"
"236057","912-UM","2019/08/26 14:39:33","新北市土城區中央路三段206號","121.429998333333","24.9648066666667","6501300","土城區"
"236045","913-UM","2019/08/26 14:39:29","新北市土城區金城路三段8號","121.464541666667","24.9859333333333","6501300","土城區"
"236060","915-UM","2019/08/26 14:39:35","新北市土城區延壽路55巷9弄2號","121.469445","24.9915933333333","6501300","土城區"
"236054","AAC-216","2019/08/26 14:39:38","新北市土城區裕民路24號","121.447688333333","24.98861","6501300","土城區"
"221029","298-VK","2019/08/26 14:39:33","新北市汐止區福德三路129巷6號","121.633698333333","25.0669133333333","6501100","汐止區"
"220027","145-BY","2019/08/26 14:39:46","新北市板橋區民權路302巷2號","121.45726","25.016485","6500100","板橋區"
"220030","610-BX","2019/08/26 14:39:49","新北市板橋區金門街271號","121.431528333333","24.9883866666667","6500100","板橋區"
"220004","276-BY","2019/08/26 14:39:39","新北市板橋區干城路146號","121.459756666667","24.9931233333333","6500100","板橋區"
"220020","277-BY","2019/08/26 14:39:35","新北市板橋區金門街253巷16弄2號","121.432786666667","24.98816","6500100","板橋區"
"220050","280-UM","2019/08/26 14:39:43","新北市板橋區莊敬路247號","121.4732","25.0214533333333","6500100","板橋區"
"220019","283-VK","2019/08/26 14:39:11","新北市板橋區四川路一段325巷1弄2號","121.459158333333","25.0003216666667","6500100","板橋區"
"220043","285-UM","2019/08/26 14:39:39","新北市板橋區長江路二段140號","121.466113333333","25.031765","6500100","板橋區"
"220001","285-VK","2019/08/26 14:39:40","新北市板橋區中山路二段253號","121.47734","25.0175183333333","6500100","板橋區"
"220031","286-VK","2019/08/26 14:39:45","新北市板橋區龍興街65巷6號","121.44346","25.00148","6500100","板橋區"
"220029","287-VK","2019/08/26 14:39:44","新北市板橋區大觀路一段29巷143號","121.449523333333","25.0055383333333","6500100","板橋區"
"220039","288-VK","2019/08/26 14:39:41","新北市板橋區龍泉街72巷4-3號","121.45621","25.026295","6500100","板橋區"
"220009","293-UM","2019/08/26 14:39:34","新北市板橋區板新路136號","121.47081","25.01554","6500100","板橋區"
"220010","295-UM","2019/08/26 14:39:34","新北市板橋區三民路二段71號","121.479605","25.0169033333333","6500100","板橋區"
"220032","296-UM","2019/08/26 14:39:40","新北市板橋區滿平街84巷100弄7號","121.426203333333","24.9863566666667","6500100","板橋區"
"220023","303-R5","2019/08/26 14:39:44","新北市板橋區中正路275巷93號","121.451325","25.0186466666667","6500100","板橋區"
"220041","307-R5","2019/08/26 14:39:40","新北市板橋區四維路269巷92號","121.459615","25.0266266666667","6500100","板橋區"
"220047","317-R6","2019/08/26 14:39:43","新北市板橋區民生路三段299巷12號","121.462918333333","25.0302683333333","6500100","板橋區"
"220038","487-VK","2019/08/26 14:39:28","新北市板橋區綠堤街45號","121.455316666667","25.0259283333333","6500100","板橋區"
"220037","491-VK","2019/08/26 14:39:35","新北市板橋區雙十路二段42-4號","121.475875","25.0274733333333","6500100","板橋區"
"220052","561-BX","2019/08/26 14:39:31","新北市板橋區文化路一段421巷38號","121.466285","25.0232533333333","6500100","板橋區"
"220028","568-UM","2019/08/26 14:39:40","新北市板橋區大觀路二段153巷46弄16號","121.449046666667","24.99972","6500100","板橋區"
"220011","609-BX","2019/08/26 14:39:44","新北市板橋區三民路一段1巷30號","121.480226666667","25.0243416666667","6500100","板橋區"
"220104","630-UY","2019/08/26 14:39:39","新北市板橋區中正路413巷8號","121.453733333333","25.022645","6500100","板橋區"
"220040","637-BX","2019/08/26 14:39:32","新北市板橋區懷德街181巷22號","121.480351666667","25.0302183333333","6500100","板橋區"
"220005","686-BX","2019/08/26 14:39:43","新北市板橋區和平路安樂巷1弄6號","121.461835","24.9938566666667","6500100","板橋區"
"220025","687-BX","2019/08/26 14:39:48","新北市板橋區大觀路一段28巷40號","121.449881666667","25.0097966666667","6500100","板橋區"
"220042","689-BX","2019/08/26 14:39:38","新北市板橋區長江路一段174號","121.461598333333","25.0305366666667","6500100","板橋區"
"220002","741-BX","2019/08/26 14:39:39","新北市板橋區忠孝路176巷5弄1號","121.464813333333","25.002195","6500100","板橋區"
"220051","KEA-2699","2019/08/26 14:39:38","新北市板橋區文化路二段410巷1弄1號","121.474326666667","25.031225","6500100","板橋區"
"220003","827-TW","2019/08/26 14:39:48","新北市板橋區重慶路290巷22弄1號","121.462228333333","24.999055","6500100","板橋區"
"220014","831-TW","2019/08/26 14:39:37","新北市板橋區長安街138巷1弄1號","121.47292","25.009635","6500100","板橋區"
"220022","895-R6","2019/08/26 14:39:30","新北市板橋區館前西路132號","121.456378333333","25.0079433333333","6500100","板橋區"
"220021","985-R7","2019/08/26 14:39:28","新北市板橋區新生街37號","121.456755","25.02109","6500100","板橋區"
"220046","AAC-210","2019/08/26 14:39:42","新北市板橋區文化路一段117號","121.461796666667","25.014895","6500100","板橋區"
"220012","AAC-253","2019/08/26 14:39:38","新北市板橋區中山路一段111號","121.461998333333","25.010275","6500100","板橋區"
"235032","KEA-2873","2019/08/26 14:39:28","新北市中和區永和路39巷10號","121.497563333333","25.00502","6500300","中和區"
