"lineid","car","time","location","longitude","latitude","cityid","cityname"
"234012","KEA-2591","2019/08/26 15:49:35","新北市永和區福和路1號","121.526108333333","25.0094816666667","6500400","永和區"
"234076","969-R7","2019/08/26 15:49:41","新北市永和區環河西路二段7-3號","121.508845","25.0167333333333","6500400","永和區"
"231030","002-UM","2019/08/26 15:49:49","新北市新店區永安街60號","121.518823333333","24.986915","6500600","新店區"
"231018","107-UY","2019/08/26 15:49:47","新北市新店區中正路663巷7弄15號","121.532921666667","24.9900883333333","6500600","新店區"
"231013","108-UY","2019/08/26 15:49:45","新北市新店區永業路81巷1弄1-1號","121.529711666667","24.949235","6500600","新店區"
"231039","187-VK","2019/08/26 15:49:38","新北市新店區溪洲路123號","121.52964","24.9636816666667","6500600","新店區"
"231031","256-BX","2019/08/26 15:49:34","新北市新店區雙城路133號","121.498025","24.938855","6500600","新店區"
"231023","260-TV","2019/08/26 15:49:34","新北市新店區安康路一段134號","121.526686666667","24.962825","6500600","新店區"
"231003","268-BY","2019/08/26 15:49:30","新北市新店區寶興路60巷4號","121.54986","24.9718416666667","6500600","新店區"
"231035","278-BY","2019/08/26 15:49:40","新北市新店區安民街365巷10弄24號","121.515828333333","24.9760266666667","6500600","新店區"
"231014","AAD-862","2019/08/26 15:49:32","新北市新店區中華路83巷2弄2號","121.538963333333","24.9685716666667","6500600","新店區"
"231019","513-UM","2019/08/26 15:49:46","新北市新店區新烏路一段87巷3號","121.546161666667","24.9418616666667","6500600","新店區"
"231034","616-UM","2019/08/26 15:49:45","新北市新店區吉祥街15巷1號","121.497735","24.9455883333333","6500600","新店區"
"231026","720-UM","2019/08/26 15:49:43","新北市新店區中正路487號","121.533793333333","24.9821416666667","6500600","新店區"
"231037","AKT-0513","2019/08/26 15:49:43","新北市新店區安興路25-1號","121.515381666667","24.9697366666667","6500600","新店區"
"241011","013-R5","2019/08/26 15:49:41","新北市三重區文化北路224-2號","121.49766","25.069185","6500200","三重區"
"241028","022-UY","2019/08/26 15:49:47","新北市三重區中正南路93號","121.494295","25.0581683333333","6500200","三重區"
"241029","060-VK","2019/08/26 15:49:42","新北市三重區大同南路159號","121.496916666667","25.0557833333333","6500200","三重區"
"241024","065-VK","2019/08/26 15:49:48","新北市三重區捷運路73號","121.482798333333","25.0556766666667","6500200","三重區"
"241002","090-VK","2019/08/26 15:49:37","新北市三重區重新路四段121號","121.484665","25.05199","6500200","三重區"
"241004","742-BX","2019/08/26 15:49:40","新北市三重區成功路50巷69號","121.485293333333","25.0483933333333","6500200","三重區"
"241016","266-UM","2019/08/26 15:49:29","新北市三重區重新路四段121號","121.485238333333","25.0520616666667","6500200","三重區"
"241018","268-UM","2019/08/26 15:49:28","新北市三重區重新路四段121號","121.485241666667","25.0521233333333","6500200","三重區"
"241013","270-UM","2019/08/26 15:49:35","新北市三重區六張街2號","121.49589","25.0707433333333","6500200","三重區"
"241007","398-BY","2019/08/26 15:49:45","新北市三重區車路頭街4巷23號","121.483278333333","25.0700866666667","6500200","三重區"
"241020","478-VK","2019/08/26 15:49:40","新北市三重區忠孝路二段54號","121.485036666667","25.070265","6500200","三重區"
"241026","480-VK","2019/08/26 15:49:47","新北市三重區捷運路61號","121.483481666667","25.0556033333333","6500200","三重區"
"241014","543-UM","2019/08/26 15:49:27","新北市三重區重新路四段121號","121.485116666667","25.0521366666667","6500200","三重區"
"241023","545-UM","2019/08/26 15:49:31","新北市三重區忠孝路三段84巷3號","121.48074","25.06467","6500200","三重區"
"241005","AAD-863","2019/08/26 15:49:38","新北市三重區力行路一段183號","121.48372","25.0697283333333","6500200","三重區"
"241017","743-BX","2019/08/26 15:49:34","新北市三重區大仁街38號","121.491593333333","25.06433","6500200","三重區"
"241022","KED-0820","2019/08/26 15:49:30","新北市三重區新北大道一段250號","121.479891666667","25.061275","6500200","三重區"
"241012","941-UM","2019/08/26 15:49:34","新北市三重區文化北路61-4號","121.498611666667","25.0664016666667","6500200","三重區"
"241033","AAC-255","2019/08/26 15:49:47","新北市三重區光復路一段115號","121.472046666667","25.05197","6500200","三重區"
"235019","183-VK","2019/08/26 15:49:40","新北市新莊區化成路579巷1號","121.464368333333","25.0662383333333","6500300","中和區"
"235033","4980-A6","2019/08/26 15:49:44","新北市中和區連城路469巷70弄24號","121.482538333333","24.993925","6500300","中和區"
"235026","800-TS","2019/08/26 15:48:21","新北市中和區立業路61巷3弄1號","121.492403333333","25.0066016666667","6500300","中和區"
"235023","AAC-215","2019/08/26 15:49:43","新北市中和區員山路31-6號","121.480121666667","24.9880083333333","6500300","中和區"
"224007","285-BY","2019/08/26 15:49:26","新北市瑞芳區大寮路356-1號","121.784943333333","25.1031183333333","6501200","瑞芳區"
"224005","271-BY","2019/08/26 15:49:38","新北市瑞芳區中正路2號","121.809238333333","25.1069233333333","6501200","瑞芳區"
"227002","642-TC","2019/08/26 15:49:31","新北市雙溪區平林里外平林45-3號","121.851525","25.0359216666667","6502500","雙溪區"
"227001","400-TW","2019/08/26 15:49:36","新北市雙溪區三港里雙澳路38-1號","121.872118333333","25.0511516666667","6502500","雙溪區"
"236074","166-UM","2019/08/26 15:49:33","新北市土城區民族街42號","121.418628333333","24.9634916666667","6501300","土城區"
"236024","269-VK","2019/08/26 15:49:40","新北市土城區中央路一段211巷6弄5號","121.446395","24.9860916666667","6501300","土城區"
"236064","KEA-2877","2019/08/26 15:49:44","新北市土城區福安街2號","121.420406666667","24.9652666666667","6501300","土城區"
"236057","912-UM","2019/08/26 15:49:33","新北市土城區中央路一段240號","121.444686666667","24.9849716666667","6501300","土城區"
"236045","913-UM","2019/08/26 15:49:28","新北市土城區金城路三段16號","121.465063333333","24.9862483333333","6501300","土城區"
"236054","AAC-216","2019/08/26 15:49:37","新北市土城區中華路一段236號","121.43973","24.979785","6501300","土城區"
"238015","755-BX","2019/08/26 15:49:36","新北市樹林區樹德街136巷10-2號","121.41941","24.9935566666667","6500700","樹林區"
"238010","601-UM","2019/08/26 15:49:47","新北市樹林區龍興街46巷17號","121.402395","25.0152466666667","6500700","樹林區"
"238006","599-UM","2019/08/26 15:49:40","新北市樹林區國凱街162號","121.424501666667","24.9807066666667","6500700","樹林區"
"238011","5061-A6","2019/08/26 15:49:32","新北市樹林區山佳街57-1號","121.392928333333","24.9724416666667","6500700","樹林區"
"238005","KEA-2217","2019/08/26 15:49:44","新北市樹林區中華路47號","121.423728333333","24.9834866666667","6500700","樹林區"
"238009","KEA-2213","2019/08/26 15:49:42","新北市樹林區太順街62巷4號","121.417803333333","24.979485","6500700","樹林區"
"238008","KEA-2539","2019/08/26 15:49:36","新北市樹林區柑園街二段175號","121.380635","24.9533166666667","6500700","樹林區"
"238012","303-VK","2019/08/26 15:49:26","新北市樹林區中山路二段10號","121.4176","24.9850916666667","6500700","樹林區"
"238004","283-BY","2019/08/26 15:49:28","新北市樹林區光華街10巷2號","121.413263333333","25.0036216666667","6500700","樹林區"
"238001","282-BY","2019/08/26 15:49:28","新北市樹林區保安二街10號","121.425215","24.99384","6500700","樹林區"
"238007","268-VK","2019/08/26 15:49:47","新北市樹林區三俊街197號","121.420115","25.015845","6500700","樹林區"
"238013","172-UY","2019/08/26 15:49:38","新北市樹林區中山路三段40號","121.39481","24.9725883333333","6500700","樹林區"
"238003","169-UY","2019/08/26 15:49:31","新北市樹林區啟智街173巷10號","121.416071666667","24.987235","6500700","樹林區"
