"lineid","car","time","location","longitude","latitude","cityid","cityname"
"231030","002-UM","2019/08/26 15:59:29","新北市新店區永平街51巷1號","121.516208333333","24.9840633333333","6500600","新店區"
"231018","107-UY","2019/08/26 15:59:47","新北市新店區中正路694巷15號","121.535316666667","24.990885","6500600","新店區"
"231031","256-BX","2019/08/26 15:59:34","新北市新店區雙城路60巷16弄13號","121.491706666667","24.9478916666667","6500600","新店區"
"231003","268-BY","2019/08/26 15:59:30","新北市新店區寶興路40號","121.548846666667","24.9739433333333","6500600","新店區"
"231035","278-BY","2019/08/26 15:59:40","新北市新店區安民街269巷11號","121.516781666667","24.97313","6500600","新店區"
"231014","AAD-862","2019/08/26 15:59:32","新北市新店區中正路265-1號","121.538008333333","24.97411","6500600","新店區"
"231034","616-UM","2019/08/26 15:59:45","新北市新店區如意街61號","121.493746666667","24.94718","6500600","新店區"
"231046","719-UM","2019/08/26 15:59:38","新北市新店區安華路28-1號","121.51998","24.9610866666667","6500600","新店區"
"231026","720-UM","2019/08/26 15:59:43","新北市新店區中正路539-5號","121.53344","24.98663","6500600","新店區"
"231037","AKT-0513","2019/08/26 15:59:43","新北市新店區安康路二段58巷3號","121.51474","24.96425","6500600","新店區"
"241011","013-R5","2019/08/26 15:59:41","新北市三重區文化北路224巷28號","121.497165","25.0686933333333","6500200","三重區"
"241028","022-UY","2019/08/26 15:59:47","新北市三重區正義南路111號","121.498255","25.0585666666667","6500200","三重區"
"241008","059-VK","2019/08/26 15:59:44","新北市三重區重新路四段121號","121.48495","25.052015","6500200","三重區"
"241029","060-VK","2019/08/26 15:59:42","新北市三重區大同南路212巷50號","121.498083333333","25.05676","6500200","三重區"
"241024","065-VK","2019/08/26 15:59:48","新北市三重區中正北路145巷5弄5號","121.484518333333","25.0675316666667","6500200","三重區"
"241002","090-VK","2019/08/26 15:59:37","新北市三重區河邊北街174巷1號","121.503158333333","25.0736333333333","6500200","三重區"
"241004","742-BX","2019/08/26 15:59:40","新北市三重區六張街204號","121.488215","25.0683833333333","6500200","三重區"
"241016","266-UM","2019/08/26 15:59:29","新北市三重區重新路四段121號","121.484583333333","25.05219","6500200","三重區"
"241018","268-UM","2019/08/26 15:59:28","新北市三重區捷運路2號","121.486203333333","25.0563366666667","6500200","三重區"
"241013","270-UM","2019/08/26 15:59:35","新北市三重區文化北路246號","121.497493333333","25.0698516666667","6500200","三重區"
"241025","271-UM","2019/08/26 15:59:45","新北市三重區三民街148號","121.482598333333","25.0653916666667","6500200","三重區"
"241007","398-BY","2019/08/26 15:59:45","新北市三重區慈愛街8號","121.484468333333","25.078405","6500200","三重區"
"241020","478-VK","2019/08/26 15:59:40","新北市三重區力行路一段189號","121.483561666667","25.0698433333333","6500200","三重區"
"241026","480-VK","2019/08/26 15:59:27","新北市三重區重新路四段2號","121.489411666667","25.05845","6500200","三重區"
"241014","543-UM","2019/08/26 15:59:47","新北市三重區重新路四段121號","121.485098333333","25.052125","6500200","三重區"
"241023","545-UM","2019/08/26 15:59:31","新北市三重區中正北路139號","121.482825","25.0672866666667","6500200","三重區"
"241001","547-UM","2019/08/26 15:59:33","新北市三重區忠孝路二段5號","121.486951666667","25.0714733333333","6500200","三重區"
"241005","AAD-863","2019/08/26 15:59:38","新北市三重區車路頭街135-1號","121.4843","25.07614","6500200","三重區"
"241017","743-BX","2019/08/26 15:59:34","新北市三重區重陽路三段5巷46號","121.491988333333","25.06497","6500200","三重區"
"241022","KED-0820","2019/08/26 15:59:30","新北市三重區中正北路170號","121.484113333333","25.0663516666667","6500200","三重區"
"241012","941-UM","2019/08/26 15:59:34","新北市三重區文化北路118巷23號","121.498005","25.0663816666667","6500200","三重區"
"241033","AAC-255","2019/08/26 15:59:47","新北市三重區重新路五段450號","121.474651666667","25.0473033333333","6500200","三重區"
"235019","183-VK","2019/08/26 15:59:40","新北市中和區中正路833號","121.484646666667","25.0021633333333","6500300","中和區"
"235026","800-TS","2019/08/26 15:59:41","新北市中和區建八路166號","121.490256666667","24.9985483333333","6500300","中和區"
"235023","AAC-215","2019/08/26 15:59:43","新北市中和區員山路66-4號","121.481876666667","24.9919216666667","6500300","中和區"
"224007","285-BY","2019/08/26 15:59:46","新北市瑞芳區粗坑口路5號","121.761586666667","25.0980216666667","6501200","瑞芳區"
"224005","271-BY","2019/08/26 15:51:32","新北市瑞芳區明燈路二段66號","121.809446666667","25.1076516666667","6501200","瑞芳區"
"227002","642-TC","2019/08/26 15:59:31","新北市雙溪區上林里內平林24號","121.834083333333","25.0315783333333","6502500","雙溪區"
"227001","400-TW","2019/08/26 15:59:36","新北市雙溪區三港里雙澳路86號","121.885938333333","25.0547233333333","6502500","雙溪區"
"251013","180-VK","2019/08/26 15:59:44","新北市淡水區中正路二段31號","121.41941","25.1814966666667","6501000","淡水區"
"236057","912-UM","2019/08/26 15:59:33","新北市土城區中央路二段191號","121.442138333333","24.975465","6501300","土城區"
"238015","755-BX","2019/08/26 15:59:39","新北市樹林區文德街29號","121.418166666667","24.99197","6500700","樹林區"
"238010","601-UM","2019/08/26 15:59:47","新北市樹林區三寶街21號","121.406625","25.0155066666667","6500700","樹林區"
"238006","599-UM","2019/08/26 15:59:40","新北市樹林區國凱街112號","121.42176","24.9797433333333","6500700","樹林區"
"238011","5061-A6","2019/08/26 15:59:32","新北市樹林區山佳街57-1號","121.392911666667","24.97245","6500700","樹林區"
"238005","KEA-2217","2019/08/26 15:59:44","新北市樹林區保安街一段1號","121.427263333333","24.9933716666667","6500700","樹林區"
"238009","KEA-2213","2019/08/26 15:59:47","新北市樹林區太順街55號","121.417413333333","24.9790133333333","6500700","樹林區"
"238012","303-VK","2019/08/26 15:59:26","新北市樹林區保安街一段72號","121.424856666667","24.9942933333333","6500700","樹林區"
"238004","283-BY","2019/08/26 15:59:28","新北市樹林區保安二街二段6-7號","121.415858333333","25.0010933333333","6500700","樹林區"
"238001","282-BY","2019/08/26 15:59:48","新北市樹林區千歲街35號","121.425175","24.9959566666667","6500700","樹林區"
"238007","268-VK","2019/08/26 15:59:36","新北市樹林區三俊街145號","121.4185","25.01562","6500700","樹林區"
"238013","172-UY","2019/08/26 15:59:38","新北市樹林區柑園街72巷8-1號","121.392791666667","24.9696283333333","6500700","樹林區"
"238003","169-UY","2019/08/26 15:59:31","新北市樹林區中山路一段244號","121.421025","24.98757","6500700","樹林區"
