"lineid","car","time","location","longitude","latitude","cityid","cityname"
"249005","172-UM","2019/08/26 16:49:47","新北市八里區大堀湖2-3號","121.422556666667","25.1537283333333","6502300","八里區"
"249004","303-UY","2019/08/26 16:49:43","新北市八里區博物館路202巷92號","121.408663333333","25.1628166666667","6502300","八里區"
"249002","305-UY","2019/08/26 16:49:41","新北市八里區牛寮埔31號","121.429863333333","25.1457116666667","6502300","八里區"
"249003","593-UM","2019/08/26 16:49:36","新北市八里區中山路二段289號","121.401558333333","25.1486366666667","6502300","八里區"
"244007","080-UY","2019/08/26 16:49:33","新北市林口區林口路187巷31弄23號","121.387913333333","25.081205","6501700","林口區"
"244009","656-BX","2019/08/26 16:49:43","新北市林口區粉寮69號","121.405046666667","25.090825","6501700","林口區"
"231046","719-UM","2019/08/26 16:45:18","新北市新店區灣潭路10-1號","121.539573333333","24.9475516666667","6500600","新店區"
"241011","013-R5","2019/08/26 16:49:41","新北市三重區仁愛街53巷194號","121.500458333333","25.0729933333333","6500200","三重區"
"241028","022-UY","2019/08/26 16:49:47","新北市三重區光興街93號","121.497318333333","25.059965","6500200","三重區"
"241008","059-VK","2019/08/26 16:49:44","新北市三重區永福街179巷27號","121.47793","25.074865","6500200","三重區"
"241029","060-VK","2019/08/26 16:49:42","新北市三重區集美街213號","121.491745","25.0546483333333","6500200","三重區"
"241031","061-VK","2019/08/26 16:49:29","新北市三重區過圳街42-2號","121.48796","25.060115","6500200","三重區"
"241015","062-VK","2019/08/26 16:49:40","新北市三重區長元街2-2號","121.49877","25.0658066666667","6500200","三重區"
"241024","065-VK","2019/08/26 16:49:28","新北市三重區中正北路317巷16號","121.474938333333","25.072955","6500200","三重區"
"241002","090-VK","2019/08/26 16:49:37","新北市三重區仁義街209號","121.496798333333","25.0817233333333","6500200","三重區"
"241003","091-VK","2019/08/26 16:49:39","新北市三重區五華街87巷2號","121.492251666667","25.08355","6500200","三重區"
"241004","742-BX","2019/08/26 16:49:40","新北市三重區仁愛街397巷1號","121.491415","25.0810566666667","6500200","三重區"
"241006","262-UM","2019/08/26 16:49:36","新北市三重區車路頭街128號","121.484215","25.0752716666667","6500200","三重區"
"241016","266-UM","2019/08/26 16:49:29","新北市三重區大同北路115巷7號","121.494031666667","25.0645233333333","6500200","三重區"
"241009","267-UM","2019/08/26 16:49:35","新北市三重區溪尾街216號","121.487828333333","25.0814616666667","6500200","三重區"
"241018","268-UM","2019/08/26 16:49:28","新北市三重區正義北路253號","121.495505","25.0696366666667","6500200","三重區"
"241032","269-UM","2019/08/26 16:49:31","新北市三重區重陽路一段120巷35號","121.48507","25.0601883333333","6500200","三重區"
"241013","270-UM","2019/08/26 16:49:35","新北市三重區仁愛街81-1號","121.495935","25.0731983333333","6500200","三重區"
"241025","271-UM","2019/08/26 16:49:44","新北市三重區中正北路510號","121.472581666667","25.0717166666667","6500200","三重區"
"241007","398-BY","2019/08/26 16:49:45","新北市三重區仁美街96巷8號","121.485433333333","25.0799516666667","6500200","三重區"
"241030","KED-0822","2019/08/26 16:49:38","新北市三重區新興路5號","121.492788333333","25.0531766666667","6500200","三重區"
"241020","478-VK","2019/08/26 16:49:40","新北市三重區忠孝路二段34號","121.485803333333","25.0709983333333","6500200","三重區"
"241026","480-VK","2019/08/26 16:49:47","新北市三重區中央南路37號","121.501353333333","25.06202","6500200","三重區"
"241014","543-UM","2019/08/26 16:49:47","新北市三重區長榮路75號","121.502561666667","25.0690683333333","6500200","三重區"
"241023","545-UM","2019/08/26 16:49:35","新北市三重區新北大道一段206巷13號","121.482513333333","25.0624483333333","6500200","三重區"
"241001","547-UM","2019/08/26 16:49:36","新北市三重區仁政街54巷1號","121.492758333333","25.0769716666667","6500200","三重區"
"241019","KEA-2593","2019/08/26 16:49:38","新北市三重區忠孝路二段38巷18號","121.485721666667","25.0700766666667","6500200","三重區"
"241005","AAD-863","2019/08/26 16:49:38","新北市三重區仁華街82號","121.48517","25.083135","6500200","三重區"
"241017","743-BX","2019/08/26 16:49:34","新北市三重區大同北路60巷7號","121.49391","25.063965","6500200","三重區"
"241022","KED-0820","2019/08/26 16:49:30","新北市三重區貴陽街47巷19弄6號","121.484871666667","25.0623566666667","6500200","三重區"
"241012","941-UM","2019/08/26 16:49:34","新北市三重區仁興街11巷84號","121.501978333333","25.0748833333333","6500200","三重區"
"241033","AAC-255","2019/08/26 16:49:47","新北市三重區新北大道二段127號","121.466301666667","25.0614966666667","6500200","三重區"
"247014","KEA-2869","2019/08/26 16:49:37","新北市蘆洲區三民路89號","121.474261666667","25.0846283333333","6501400","蘆洲區"
"247008","KED-0682","2019/08/26 16:49:39","新北市蘆洲區中山二路45巷30號","121.474235","25.0813466666667","6501400","蘆洲區"
"235054","640-BX","2019/08/26 16:46:59","新北市中和區員山路36巷16-2號","121.485371666667","24.99155","6500300","中和區"
"235026","800-TS","2019/08/26 16:49:41","新北市中和區員山路36巷1號","121.482618333333","24.9904633333333","6500300","中和區"
"247012","056-VK","2019/08/26 16:49:43","新北市蘆洲區復興路323巷158-1號","121.479916666667","25.09595","6501400","蘆洲區"
"247024","001-UY","2019/08/26 16:49:27","新北市蘆洲區長興路202號","121.460573333333","25.0873683333333","6501400","蘆洲區"
"228003","097-TW","2019/08/26 16:49:36","新北市貢寮區貢寮里朝陽街1-2號","121.912373333333","25.0213016666667","6502600","貢寮區"
"228002","663-BX","2019/08/26 16:49:38","新北市貢寮區貢寮里朝陽街120巷28號","121.907938333333","25.02303","6502600","貢寮區"
"224007","285-BY","2019/08/26 16:49:46","新北市瑞芳區中央路48巷56-30號","121.759176666667","25.10386","6501200","瑞芳區"
"224009","275-VK","2019/08/26 16:49:33","新北市瑞芳區民權街3-1號","121.809331666667","25.10822","6501200","瑞芳區"
"224008","273-VK","2019/08/26 16:49:32","新北市瑞芳區大寮路356-1號","121.784873333333","25.1031966666667","6501200","瑞芳區"
"224005","271-BY","2019/08/26 16:49:38","新北市瑞芳區明里路90號","121.86757","25.1220016666667","6501200","瑞芳區"
"227002","642-TC","2019/08/26 16:49:31","新北市雙溪區長源里柑腳39號","121.80337","25.0132566666667","6502500","雙溪區"
"227001","400-TW","2019/08/26 16:49:36","新北市雙溪區三貂里子崙坑1-6號","121.849923333333","25.0574616666667","6502500","雙溪區"
"251004","009-UM","2019/08/26 16:49:27","新北市淡水區中正路二段31號","121.419101666667","25.1821466666667","6501000","淡水區"
"251015","KEA-2871","2019/08/26 16:49:47","新北市淡水區學府路88號","121.449183333333","25.1710066666667","6501000","淡水區"
"251016","179-VK","2019/08/26 16:49:45","新北市淡水區水頭41號","121.478151666667","25.185075","6501000","淡水區"
"251013","180-VK","2019/08/26 16:49:44","新北市淡水區泉洲厝32號","121.489266666667","25.1926016666667","6501000","淡水區"
"251008","181-VK","2019/08/26 16:49:46","新北市淡水區樹梅坑9號","121.472783333333","25.14269","6501000","淡水區"
"251007","182-VK","2019/08/26 16:49:45","新北市淡水區中正路32巷5號","121.430595","25.17529","6501000","淡水區"
"251012","441-VK","2019/08/26 16:49:31","新北市淡水區中正路二段31號","121.419415","25.18164","6501000","淡水區"
"251014","577-R6","2019/08/26 16:49:40","新北市淡水區淡金路四段478號","121.452421666667","25.2239266666667","6501000","淡水區"
"251011","650-BX","2019/08/26 16:49:40","新北市淡水區中山路87巷1號","121.442538333333","25.170555","6501000","淡水區"
"252002","178-VK","2019/08/26 16:49:26","新北市三芝區茂長里陳厝坑61-4號","121.512778333333","25.2550883333333","6502100","三芝區"
"233002","762-BX","2019/08/26 16:49:40","新北市烏來區啦卡路15巷6號","121.557943333333","24.8597216666667","6502900","烏來區"
"247010","KED-0683","2019/08/26 16:49:39","新北市蘆洲區中正路520巷9號","121.462726666667","25.0997166666667","6501400","蘆洲區"
"252001","KED-0821","2019/08/26 16:49:29","新北市三芝區埔坪里埔頭坑44號","121.504691666667","25.26175","6502100","三芝區"
"242025","362-BY","2019/08/26 16:49:43","新北市新莊區三和路18-23號","121.441873333333","25.03897","6500500","新莊區"
"242017","351-TH","2019/08/26 16:49:41","新北市新莊區新泰路357巷3弄57號","121.441958333333","25.0393783333333","6500500","新莊區"
"238023","601-UM","2019/08/26 16:49:27","新北市樹林區中正路433-1號","121.414956666667","25.0079116666667","6500700","樹林區"
"238025","303-VK","2019/08/26 16:49:26","新北市樹林區中正路22-1號","121.427846666667","24.9994016666667","6500700","樹林區"
"238017","283-BY","2019/08/26 16:49:28","新北市樹林區中正路433-1號","121.41493","25.008105","6500700","樹林區"
"238001","282-BY","2019/08/26 16:49:48","新北市樹林區大慶街99-1號","121.427731666667","24.99983","6500700","樹林區"
"239007","AAC-297","2019/08/26 16:49:41","新北市鶯歌區二甲路13-16號","121.344965","24.9352866666667","6500800","鶯歌區"
"233001","KEA-2870","2019/08/26 16:49:29","新北市烏來區啦卡路2號","121.552238333333","24.864","6502900","烏來區"
