"lineid","car","time","location","longitude","latitude","cityid","cityname"
"234046","148-BY","2019/08/26 18:49:29","新北市永和區秀朗路二段149號","121.524851666667","25.0016","6500400","永和區"
"234081","298-R6","2019/08/26 18:49:41","新北市永和區永元路126號","121.522883333333","25.00289","6500400","永和區"
"234038","336-UY","2019/08/26 18:49:35","新北市永和區成功路一段30號","121.527076666667","25.0047016666667","6500400","永和區"
"234064","337-UY","2019/08/26 18:49:29","新北市永和區豫溪街217巷1號","121.525228333333","25.0097866666667","6500400","永和區"
"234086","338-UY","2019/08/26 18:49:45","新北市永和區中正路9號","121.513963333333","24.995675","6500400","永和區"
"234017","745-BX","2019/08/26 18:49:33","新北市永和區永和路二段405巷3號","121.515238333333","25.0170483333333","6500400","永和區"
"234030","746-BX","2019/08/26 18:49:30","新北市永和區得和路326號","121.523285","24.999585","6500400","永和區"
"234054","KEA-2590","2019/08/26 18:49:46","新北市永和區豫溪街185號","121.522423333333","25.0103466666667","6500400","永和區"
"234007","KED-0605","2019/08/26 18:49:40","新北市永和區文化路166號","121.512126666667","25.0153766666667","6500400","永和區"
"234013","KEA-2591","2019/08/26 18:49:42","新北市永和區仁愛路202巷3-1號","121.50887","25.01282","6500400","永和區"
"234061","AAD-866","2019/08/26 18:49:37","新北市永和區福和路303號","121.516383333333","25.007105","6500400","永和區"
"234050","863-TW","2019/08/26 18:49:39","新北市永和區環河東路二段92號","121.524441666667","25.0106216666667","6500400","永和區"
"234011","9373-KE","2019/08/26 18:49:46","新北市永和區文化路126巷1號","121.512953333333","25.0154266666667","6500400","永和區"
"249005","172-UM","2019/08/26 18:49:27","新北市八里區長道坑16號","121.39557","25.118425","6502300","八里區"
"249001","173-UM","2019/08/26 18:49:41","新北市八里區龍米路二段121-3號","121.447085","25.1436216666667","6502300","八里區"
"249004","303-UY","2019/08/26 18:49:43","新北市八里區中山路一段150巷76號","121.416178333333","25.16014","6502300","八里區"
"249002","305-UY","2019/08/26 18:49:41","新北市八里區頂寮二街138號","121.449341666667","25.1294583333333","6502300","八里區"
"249003","593-UM","2019/08/26 18:41:26","新北市八里區博物館路10-1號","121.41511","25.1639516666667","6502300","八里區"
"248016","026-BX","2019/08/26 18:49:48","新北市五股區成泰路三段543巷39號","121.44983","25.1029116666667","6501500","五股區"
"248006","077-UY","2019/08/26 18:49:28","新北市五股區四維路83號","121.46729","25.072415","6501500","五股區"
"248008","KED-0815","2019/08/26 18:49:27","新北市五股區中興路一段151巷84號","121.465036666667","25.0716366666667","6501500","五股區"
"248018","KED-0813","2019/08/26 18:49:34","新北市五股區民義路二段84號","121.405976666667","25.1090033333333","6501500","五股區"
"248012","247-BX","2019/08/26 18:49:44","新北市五股區成泰路二段147巷5-17號","121.43712","25.0881966666667","6501500","五股區"
"248010","272-BY","2019/08/26 18:49:37","新北市五股區水碓七路81號","121.429655","25.0722316666667","6501500","五股區"
"248004","677-BX","2019/08/26 18:49:46","新北市五股區民義路二段109號","121.404966666667","25.1093966666667","6501500","五股區"
"248002","678-BX","2019/08/26 18:49:33","新北市五股區成泰路三段454號","121.451408333333","25.10035","6501500","五股區"
"234023","9380-KE","2019/08/26 18:49:40","新北市永和區竹林路119巷45號","121.521908333333","25.0118116666667","6500400","永和區"
"234077","969-R7","2019/08/26 18:49:42","新北市永和區中正路42巷6弄8號","121.513106666667","24.9940033333333","6500400","永和區"
"234003","AAC-295","2019/08/26 18:49:31","新北市永和區中正路659號","121.514753333333","25.0101833333333","6500400","永和區"
"232011","375-UM","2019/08/26 18:49:29","新北市坪林區坪碇路83號","121.711831666667","24.9384216666667","6502000","坪林區"
"244019","402-UM","2019/08/26 18:49:34","新北市林口區麗園二街10-7號","121.378261666667","25.069095","6501700","林口區"
"244013","KEA-2802","2019/08/26 18:49:29","新北市林口區麗園二街1巷9-3號","121.378763333333","25.0704066666667","6501700","林口區"
"244023","483-VK","2019/08/26 18:49:39","新北市林口區民享路38號","121.380806666667","25.0807083333333","6501700","林口區"
"244017","485-VK","2019/08/26 18:49:27","新北市林口區文化二路一段68巷15號","121.366678333333","25.0688533333333","6501700","林口區"
"244009","656-BX","2019/08/26 18:49:43","新北市林口區台電新村26號","121.38716","25.0861483333333","6501700","林口區"
"244011","701-TV","2019/08/26 18:49:47","新北市林口區仁愛路一段285巷60號","121.395451666667","25.074405","6501700","林口區"
"244025","837-TS","2019/08/26 18:49:35","新北市林口區南勢街230號","121.359298333333","25.075165","6501700","林口區"
"243014","KEA-2801","2019/08/26 18:49:31","新北市泰山區犁頭窠3-1號","121.422111666667","25.060515","6501600","泰山區"
"243016","421-VK","2019/08/26 18:49:34","新北市泰山區明志路二段137號","121.427771666667","25.0506116666667","6501600","泰山區"
"243011","KEA-2216","2019/08/26 18:49:31","新北市泰山區明志路二段232巷8號","121.426653333333","25.048415","6501600","泰山區"
"243015","680-BX","2019/08/26 18:49:37","新北市泰山區美寧街50號","121.430513333333","25.0644516666667","6501600","泰山區"
"222003","436-BY","2019/08/26 18:49:39","新北市深坑區北深路一段355號","121.622695","25.0051516666667","6501800","深坑區"
"222001","628-TS","2019/08/26 18:49:41","新北市深坑區松柏街30巷1號","121.63863","25.0112666666667","6501800","深坑區"
"222002","659-BX","2019/08/26 18:49:40","新北市深坑區文山路一段69號","121.627068333333","25.001965","6501800","深坑區"
"231061","002-UM","2019/08/26 18:49:38","新北市新店區安華路28-1號","121.519851666667","24.96077","6500600","新店區"
"231055","0291-UT","2019/08/26 18:49:41","新北市新店區中華路47巷2弄1號","121.539621666667","24.967595","6500600","新店區"
"231044","046-UY","2019/08/26 18:49:30","新北市新店區中興路三段6號","121.546516666667","24.9771233333333","6500600","新店區"
"231060","106-UY","2019/08/26 18:49:46","新北市新店區安華路28-1號","121.519581666667","24.9608066666667","6500600","新店區"
"231051","107-UY","2019/08/26 18:49:36","新北市新店區中央路81號","121.532358333333","24.9765866666667","6500600","新店區"
"231049","108-UY","2019/08/26 18:49:41","新北市新店區中央路13號","121.533333333333","24.9784883333333","6500600","新店區"
"231065","110-UY","2019/08/26 18:49:41","新北市新店區車子路10-4號","121.50506","24.954575","6500600","新店區"
"221035","KEA-2785","2019/08/26 18:49:44","新北市汐止區大同路二段33-1號","121.647693333333","25.0631733333333","6501100","汐止區"
"231062","256-BX","2019/08/26 18:49:42","新北市新店區安一路一段1-1號","121.519706666667","24.96119","6500600","新店區"
"231042","268-BY","2019/08/26 18:49:34","新北市新店區大新街4號","121.543621666667","24.96941","6500600","新店區"
"231064","278-BY","2019/08/26 18:49:34","新北市新店區安一路一段1-1號","121.519653333333","24.961135","6500600","新店區"
"231050","AAD-862","2019/08/26 18:49:39","新北市新店區北宜路一段154號","121.540285","24.9537033333333","6500600","新店區"
"231045","355-BY","2019/08/26 18:49:44","新北市新店區安華路28-1號","121.519173333333","24.9607683333333","6500600","新店區"
"231058","3713-VJ","2019/08/26 18:49:45","新北市新店區北宜路一段129號","121.5406","24.9532066666667","6500600","新店區"
"231056","4715-K9","2019/08/26 18:49:44","新北市新店區大同街25號","121.538705","24.980615","6500600","新店區"
"231052","513-UM","2019/08/26 18:49:30","新北市新店區新烏路一段105巷17號","121.546361666667","24.9404783333333","6500600","新店區"
"231047","KED-0819","2019/08/26 18:49:44","新北市新店區光明街119號","121.539008333333","24.9617166666667","6500600","新店區"
"231046","719-UM","2019/08/26 18:49:38","新北市新店區直潭路71號","121.532426666667","24.9421966666667","6500600","新店區"
"231057","720-UM","2019/08/26 18:49:31","新北市新店區新烏路一段215號","121.5493","24.9313233333333","6500600","新店區"
"231059","897-TW","2019/08/26 18:49:45","新北市新店區安華路28-1號","121.519715","24.9608516666667","6500600","新店區"
"231040","898-TW","2019/08/26 18:49:27","新北市新店區安康路一段67號","121.530296666667","24.9610083333333","6500600","新店區"
"231043","899-TW","2019/08/26 18:49:49","新北市新店區安一路一段1-1號","121.519766666667","24.9621683333333","6500600","新店區"
"231066","AKT-0513","2019/08/26 18:49:46","新北市新店區安華路1-1號","121.519598333333","24.96042","6500600","新店區"
"235064","005-UY","2019/08/26 18:49:39","新北市中和區泰和街30巷25號","121.49888","25.0012433333333","6500300","中和區"
"235063","006-UY","2019/08/26 18:49:36","新北市中和區連城路319巷11弄4號","121.48929","24.9949866666667","6500300","中和區"
"235056","096-UM","2019/08/26 18:49:40","新北市中和區員山路466巷17弄4號","121.480568333333","25.0071716666667","6500300","中和區"
"235039","097-UM","2019/08/26 18:49:40","新北市中和區安樂路217巷45號","121.513278333333","24.9978483333333","6500300","中和區"
"235065","098-UM","2019/08/26 18:49:27","新北市中和區中山路二段2巷45弄34號","121.50145","25.0068433333333","6500300","中和區"
"235040","150-BY","2019/08/26 18:49:44","新北市中和區安和路35號","121.509918333333","24.9943966666667","6500300","中和區"
"235058","151-BY","2019/08/26 18:49:40","新北市中和區連城路607號","121.478001666667","24.9932183333333","6500300","中和區"
"235055","183-VK","2019/08/26 18:49:38","新北市中和區民德路8號","121.468755","25.0030466666667","6500300","中和區"
"235038","185-VK","2019/08/26 18:49:37","新北市中和區大勇街45巷3號","121.51787","24.994715","6500300","中和區"
"235049","186-VK","2019/08/26 18:49:29","新北市中和區景安路177巷21號","121.506353333333","24.994545","6500300","中和區"
"235067","255-BX","2019/08/26 18:49:30","新北市中和區中正路831號","121.484705","25.0019633333333","6500300","中和區"
"235044","293-VK","2019/08/26 18:49:37","新北市中和區中興街167號","121.499878333333","24.9906383333333","6500300","中和區"
"235072","301-VK","2019/08/26 18:49:32","新北市中和區中山路二段187號","121.500355","25.002775","6500300","中和區"
"235043","352-BY","2019/08/26 18:49:31","新北市中和區秀朗路三段64號","121.526385","24.9949366666667","6500300","中和區"
"235042","KEA-2878","2019/08/26 18:49:48","新北市中和區秀朗路三段128巷42弄8號","121.525233333333","24.99452","6500300","中和區"
"235050","4979-A6","2019/08/26 18:49:32","新北市中和區忠孝街62巷1-2號","121.512238333333","24.9837183333333","6500300","中和區"
"235069","4980-A6","2019/08/26 18:49:45","新北市中和區南山路111巷3號","121.50266","24.9977583333333","6500300","中和區"
"235070","558-UM","2019/08/26 18:49:32","新北市中和區中和路255號","121.505075","24.9998783333333","6500300","中和區"
"235045","565-BX","2019/08/26 18:49:43","新北市中和區興南路一段64巷2號","121.510878333333","24.99033","6500300","中和區"
"235060","KED-0823","2019/08/26 18:49:45","新北市中和區中山路三段206號","121.47158","25.00649","6500300","中和區"
"235054","640-BX","2019/08/26 18:49:45","新北市中和區民享街82號","121.474355","25.0012283333333","6500300","中和區"
"235047","732-UM","2019/08/26 18:49:37","新北市中和區興南路二段34巷55弄2號","121.504821666667","24.986005","6500300","中和區"
"235046","733-UM","2019/08/26 18:49:33","新北市中和區興南路一段83號","121.509971666667","24.988865","6500300","中和區"
"235057","801-TS","2019/08/26 18:49:44","新北市中和區民安街63號","121.478693333333","24.9995766666667","6500300","中和區"
"235041","802-TS","2019/08/26 18:49:37","新北市中和區安平路117號","121.51126","24.997905","6500300","中和區"
"235052","805-TS","2019/08/26 18:49:27","新北市中和區興南路二段399巷86號","121.50016","24.978355","6500300","中和區"
"235048","896-TW","2019/08/26 18:49:35","新北市中和區華新街46號","121.507953333333","24.9841783333333","6500300","中和區"
"235053","900-TW","2019/08/26 18:49:28","新北市中和區民德路300號","121.467463333333","24.995325","6500300","中和區"
"235066","911-UM","2019/08/26 18:49:46","新北市中和區水源路18巷4弄1號","121.503905","25.0030733333333","6500300","中和區"
"235051","157-BY","2019/08/26 18:49:39","新北市中和區華新街109巷32號","121.508715","24.98022","6500300","中和區"
"235037","AAC-213","2019/08/26 18:49:37","新北市中和區秀朗路三段10巷14弄39號","121.52412","24.9961833333333","6500300","中和區"
"235059","AAC-215","2019/08/26 18:49:36","新北市中和區圓通路393巷18號","121.489848333333","24.9885333333333","6500300","中和區"
"220035","015-TV","2019/08/26 18:49:48","新北市板橋區中正路275巷77號","121.45239","25.0181333333333","6500100","板橋區"
"220065","072-UY","2019/08/26 18:49:45","新北市板橋區館前東路112號","121.463343333333","25.0078333333333","6500100","板橋區"
"220086","073-UY","2019/08/26 18:49:39","新北市板橋區南雅西路二段177號","121.45176","25.0125433333333","6500100","板橋區"
"220106","075-UY","2019/08/26 18:49:35","新北市板橋區莊敬路66號","121.471631666667","25.025465","6500100","板橋區"
"220069","AAD-861","2019/08/26 18:49:30","新北市板橋區華興街73-1號","121.457075","25.00498","6500100","板橋區"
"220068","120-SR","2019/08/26 18:49:31","新北市板橋區大同街35巷11號","121.477546666667","25.027725","6500100","板橋區"
"226004","312-R5","2019/08/26 18:49:30","新北市平溪區平溪里三坑路39號","121.733218333333","25.0326","6502400","平溪區"
"235062","251-BX","2019/08/26 18:49:30","新北市中和區中山路二段352號","121.492775","25.0027216666667","6500300","中和區"
"228003","097-TW","2019/08/26 18:49:35","新北市貢寮區和美里龍洞街42號","121.913278333333","25.1126","6502600","貢寮區"
"228002","663-BX","2019/08/26 18:49:38","新北市貢寮區福隆里東興街6-11號","121.95078","25.0210616666667","6502600","貢寮區"
"228001","670-TC","2019/08/26 18:49:28","新北市貢寮區仁理村保健街69號","121.923676666667","25.0516116666667","6502600","貢寮區"
"224006","676-BX","2019/08/26 18:49:34","新北市瑞芳區明燈路三段105號","121.803768333333","25.10864","6501200","瑞芳區"
"224002","639-TC","2019/08/26 18:49:33","新北市瑞芳區傑魚坑路52號","121.793648333333","25.1105666666667","6501200","瑞芳區"
"224007","285-BY","2019/08/26 18:49:46","新北市瑞芳區大埔路186-1號","121.761578333333","25.1013416666667","6501200","瑞芳區"
"224009","275-VK","2019/08/26 18:49:33","新北市瑞芳區祈堂路53號","121.859715","25.1101616666667","6501200","瑞芳區"
"224008","273-VK","2019/08/26 18:49:32","新北市瑞芳區逢甲路321號","121.801151666667","25.1117583333333","6501200","瑞芳區"
"224005","271-BY","2019/08/26 18:49:38","新北市瑞芳區瑞濱路1-4號","121.827815","25.1215283333333","6501200","瑞芳區"
"227002","642-TC","2019/08/26 18:49:30","新北市雙溪區共和里中山路59號","121.868615","25.0313516666667","6502500","雙溪區"
"227001","400-TW","2019/08/26 18:49:36","新北市雙溪區牡丹里下坑11號","121.850993333333","25.0561833333333","6502500","雙溪區"
"253006","032-BX","2019/08/26 18:49:35","新北市石門區下員坑15號","121.510631666667","25.2835666666667","6502200","石門區"
"253005","295-VK","2019/08/26 18:49:40","新北市石門區中山路28-3號","121.565811666667","25.2898766666667","6502200","石門區"
"208002","KEA-2872","2019/08/26 18:49:35","新北市金山區信義路60號","121.635745","25.21899","6502700","金山區"
"208003","665-BX","2019/08/26 18:49:34","新北市金山區中山路342號","121.633478333333","25.2253016666667","6502700","金山區"
"251009","008-UM","2019/08/26 18:49:36","新北市淡水區重建街208號","121.441153333333","25.1746866666667","6501000","淡水區"
"251004","009-UM","2019/08/26 18:49:43","新北市淡水區中正東路二段143巷6弄5號","121.461325","25.1468","6501000","淡水區"
"251001","011-UM","2019/08/26 18:49:41","新北市淡水區自強路201巷79號","121.462341666667","25.1281783333333","6501000","淡水區"
"251010","012-UM","2019/08/26 18:49:38","新北市淡水區沙崙路28號","121.421536666667","25.18131","6501000","淡水區"
"251015","KEA-2871","2019/08/26 18:49:47","新北市淡水區糞箕湖20號","121.485601666667","25.1711166666667","6501000","淡水區"
"251016","179-VK","2019/08/26 18:49:45","新北市淡水區下圭柔山71-3號","121.44707","25.2062016666667","6501000","淡水區"
"251013","180-VK","2019/08/26 18:49:44","新北市淡水區安子內3-2號","121.484331666667","25.2149183333333","6501000","淡水區"
"251008","181-VK","2019/08/26 18:49:46","新北市淡水區北投子14-3號","121.449161666667","25.183475","6501000","淡水區"
"251012","441-VK","2019/08/26 18:49:30","新北市淡水區中山北路一段156號","121.44397","25.17785","6501000","淡水區"
"251014","577-R6","2019/08/26 18:49:40","新北市淡水區崙頂3號","121.490961666667","25.2239483333333","6501000","淡水區"
"251011","650-BX","2019/08/26 18:49:40","新北市淡水區學府路32巷89號","121.448218333333","25.1676","6501000","淡水區"
"251002","672-BX","2019/08/26 18:49:45","新北市淡水區學府路83號","121.448595","25.17012","6501000","淡水區"
"251003","673-BX","2019/08/26 18:49:35","新北市淡水區中山北路一段212巷36號","121.446081666667","25.1791583333333","6501000","淡水區"
"207003","550-UM","2019/08/26 18:49:29","新北市萬里區野柳里港東路114號","121.688401666667","25.2038483333333","6502800","萬里區"
"207004","291-VK","2019/08/26 18:49:35","新北市萬里區萬里里獅頭路23號","121.693258333333","25.178245","6502800","萬里區"
"252002","178-VK","2019/08/26 18:49:45","新北市三芝區智成街72-1號","121.504871666667","25.2559233333333","6502100","三芝區"
"252003","249-BX","2019/08/26 18:49:46","新北市三芝區後厝里大片頭76號","121.45941","25.2462066666667","6502100","三芝區"
"208001","170-UY","2019/08/26 18:49:41","新北市金山區文化三路66巷2弄1號","121.634263333333","25.22567","6502700","金山區"
"237004","KEA-2597","2019/08/26 18:49:39","新北市三峽區插角222號","121.414908333333","24.8677433333333","6500900","三峽區"
"237007","153-BY","2019/08/26 18:49:30","新北市三峽區大埔路72巷1號","121.366343333333","24.9074433333333","6500900","三峽區"
"237013","252-BX","2019/08/26 18:49:29","新北市三峽區光明路69巷22號","121.376436666667","24.92897","6500900","三峽區"
"237012","275-BY","2019/08/26 18:49:30","新北市三峽區三樹路340號","121.383966666667","24.9433216666667","6500900","三峽區"
"237008","302-VK","2019/08/26 18:49:39","新北市三峽區正義街35號","121.369465","24.9190933333333","6500900","三峽區"
"237014","433-BY","2019/08/26 18:49:48","新北市三峽區復興路480巷51-1號","121.360665","24.9404916666667","6500900","三峽區"
"237006","5529-G3","2019/08/26 18:49:35","新北市三峽區溪東路211巷13號","121.405213333333","24.9337616666667","6500900","三峽區"
"237011","KEA-2596","2019/08/26 18:49:42","新北市三峽區溪東路345號","121.411195","24.9297033333333","6500900","三峽區"
"237015","649-BX","2019/08/26 18:49:37","新北市三峽區建安75-6號","121.450201666667","24.9251566666667","6500900","三峽區"
"237010","706-TV","2019/08/26 18:49:33","新北市三峽區復興路487號","121.361281666667","24.93845","6500900","三峽區"
"237005","AKY-6261","2019/08/26 18:49:32","新北市三峽區中山路107巷10號","121.365228333333","24.9355916666667","6500900","三峽區"
"236042","KED-0685","2019/08/26 18:49:37","新北市土城區裕民路114巷27號","121.450343333333","24.9856783333333","6501300","土城區"
"236078","166-UM","2019/08/26 18:49:46","新北市土城區中央路四段67巷38號","121.417895","24.9570966666667","6501300","土城區"
"236030","253-BX","2019/08/26 18:49:45","新北市土城區忠義路26巷25號","121.439583333333","24.9695366666667","6501300","土城區"
"236026","269-VK","2019/08/26 18:49:48","新北市土城區興城路78號","121.441136666667","24.9718883333333","6501300","土城區"
"236014","270-VK","2019/08/26 18:49:38","新北市土城區金城路二段354巷16號","121.460896666667","24.9843416666667","6501300","土城區"
"236039","271-VK","2019/08/26 18:49:38","新北市土城區明德路一段197號","121.463783333333","24.97892","6501300","土城區"
"236069","KEA-2877","2019/08/26 18:49:39","新北市土城區永豐路157巷4號","121.468273333333","24.9816516666667","6501300","土城區"
"252001","KED-0821","2019/08/26 18:49:29","新北市三芝區中正路三段9號","121.502961666667","25.2540383333333","6502100","三芝區"
"236020","401-BY","2019/08/26 18:49:36","新北市土城區延吉街253巷17號","121.468036666667","24.9841716666667","6501300","土城區"
"236059","912-UM","2019/08/26 18:49:45","新北市土城區金城路二段14號","121.449423333333","24.9774066666667","6501300","土城區"
"236048","913-UM","2019/08/26 18:49:39","新北市土城區青雲路61號","121.459426666667","24.9866216666667","6501300","土城區"
"236063","915-UM","2019/08/26 18:49:34","新北市土城區延壽路13巷18號","121.470538333333","24.9909","6501300","土城區"
"236055","AAC-216","2019/08/26 18:49:39","新北市土城區裕民路169號","121.453055","24.9851066666667","6501300","土城區"
"242056","441-UM","2019/08/26 18:49:44","新北市樹林區八德街395號","121.415465","24.9714266666667","6500500","新莊區"
"242042","415-TV","2019/08/26 18:49:44","新北市泰山區中山路二段661號","121.429511666667","25.03986","6500500","新莊區"
"242007","349-TH","2019/08/26 18:49:38","新北市樹林區八德街226-5號","121.41518","24.9713433333333","6500500","新莊區"
"238023","601-UM","2019/08/26 18:49:47","新北市樹林區工興街14巷1號","121.39895","25.0136233333333","6500700","樹林區"
"238024","5061-A6","2019/08/26 18:49:43","新北市樹林區太順街49巷2號","121.417903333333","24.9791483333333","6500700","樹林區"
"238022","KEA-2213","2019/08/26 18:49:33","新北市樹林區中華路190-1號","121.411375","24.9805183333333","6500700","樹林區"
"238021","KEA-2539","2019/08/26 18:49:40","新北市樹林區西圳街二段82-3號","121.385375","24.958305","6500700","樹林區"
"238025","303-VK","2019/08/26 18:49:45","新北市樹林區中山路三段291號","121.391583333333","24.9720266666667","6500700","樹林區"
"238020","268-VK","2019/08/26 18:49:36","新北市樹林區俊英街280號","121.423786666667","25.0133133333333","6500700","樹林區"
"238026","172-UY","2019/08/26 18:49:38","新北市樹林區信和街2巷1號","121.389751666667","24.970815","6500700","樹林區"
"238016","169-UY","2019/08/26 18:49:31","新北市樹林區中山路二段34號","121.417386666667","24.9850933333333","6500700","樹林區"
"239007","AAC-297","2019/08/26 18:49:41","新北市鶯歌區二甲路12-2號","121.345473333333","24.93499","6500800","鶯歌區"
"239006","891-R6","2019/08/26 18:49:40","新北市鶯歌區鶯桃路242巷8號","121.33658","24.959785","6500800","鶯歌區"
"239008","527-UM","2019/08/26 18:49:36","新北市鶯歌區朝陽街1號","121.336305","24.9766083333333","6500800","鶯歌區"
"239005","526-UM","2019/08/26 18:43:31","新北市鶯歌區鳳吉三街21號","121.326798333333","24.973655","6500800","鶯歌區"
"239001","417-VK","2019/08/26 18:49:29","新北市鶯歌區二橋街30號","121.336468333333","24.9393333333333","6500800","鶯歌區"
"239003","360-BY","2019/08/26 18:49:39","新北市鶯歌區鶯桃路397號","121.333361666667","24.9640183333333","6500800","鶯歌區"
"239002","359-BY","2019/08/26 18:49:29","新北市鶯歌區中正一路309號","121.356721666667","24.9571","6500800","鶯歌區"
"239004","193-VK","2019/08/26 18:49:24","新北市鶯歌區中正三路156巷2-2號","121.333373333333","24.9399983333333","6500800","鶯歌區"
"221036","130-UY","2019/08/26 18:49:36","新北市汐止區忠孝東路473巷24-1號","121.665333333333","25.073575","6501100","汐止區"
"221015","131-UY","2019/08/26 18:49:39","新北市汐止區鄉友街18號","121.668481666667","25.0808966666667","6501100","汐止區"
"221032","280-BY","2019/08/26 18:49:43","新北市汐止區民權街二段83號","121.619193333333","25.047865","6501100","汐止區"
"221029","298-VK","2019/08/26 18:49:34","新北市汐止區樟樹二路68號","121.640533333333","25.0625416666667","6501100","汐止區"
"221021","299-VK","2019/08/26 18:49:43","新北市汐止區復興路55號","121.657126666667","25.0625633333333","6501100","汐止區"
"221031","353-TW","2019/08/26 18:49:42","新北市汐止區福德一路272巷1號","121.632023333333","25.0641383333333","6501100","汐止區"
"221025","623-UM","2019/08/26 18:49:42","新北市汐止區福安街20巷22號","121.661833333333","25.0646","6501100","汐止區"
"221002","707-TV","2019/08/26 18:49:39","新北市汐止區大同路一段203號","121.633561666667","25.0571833333333","6501100","汐止區"
"221018","753-BX","2019/08/26 18:49:32","新北市汐止區茄苳路255號","121.671875","25.068225","6501100","汐止區"
"220079","145-BY","2019/08/26 18:49:47","新北市板橋區大仁街105號","121.452748333333","25.0157283333333","6500100","板橋區"
"220082","610-BX","2019/08/26 18:49:44","新北市板橋區篤行路三段玉平巷45號","121.428618333333","24.986765","6500100","板橋區"
"220056","276-BY","2019/08/26 18:49:36","新北市板橋區四川路一段287號","121.458963333333","25.0009466666667","6500100","板橋區"
"220072","277-BY","2019/08/26 18:49:37","新北市板橋區大觀路三段57號","121.433728333333","24.9953883333333","6500100","板橋區"
"220071","283-VK","2019/08/26 18:49:42","新北市板橋區四川路一段25號","121.459475","25.0068","6500100","板橋區"
"220094","285-UM","2019/08/26 18:49:36","新北市板橋區文化路二段28號","121.469026666667","25.02482","6500100","板橋區"
"220053","285-VK","2019/08/26 18:49:45","新北市板橋區成功路39號","121.475065","25.017675","6500100","板橋區"
"220083","286-VK","2019/08/26 18:49:44","新北市板橋區大觀路二段22巷19號","121.445633333333","25.0034683333333","6500100","板橋區"
"220081","287-VK","2019/08/26 18:49:32","新北市板橋區光華街13巷11號","121.453685","25.0113966666667","6500100","板橋區"
"220090","288-VK","2019/08/26 18:49:40","新北市板橋區四維路177巷4弄2號","121.463706666667","25.0261383333333","6500100","板橋區"
"220061","293-UM","2019/08/26 18:49:32","新北市板橋區富山街109巷63弄22號","121.475325","25.0206666666667","6500100","板橋區"
"220062","295-UM","2019/08/26 18:49:37","新北市板橋區中山路二段40巷16號","121.473258333333","25.0147766666667","6500100","板橋區"
"220084","296-UM","2019/08/26 18:49:39","新北市板橋區大觀路二段150巷30號","121.441675","24.99984","6500100","板橋區"
"220075","303-R5","2019/08/26 18:49:46","新北市板橋區大觀路一段11號","121.450445","25.0085183333333","6500100","板橋區"
"220092","307-R5","2019/08/26 18:49:43","新北市板橋區文化路一段136巷8弄4號","121.465461666667","25.018325","6500100","板橋區"
"220098","317-R6","2019/08/26 18:49:45","新北市板橋區民生路二段234巷77號","121.470241666667","25.0225316666667","6500100","板橋區"
"220089","487-VK","2019/08/26 18:49:33","新北市板橋區文化路二段472號","121.474991666667","25.0327533333333","6500100","板橋區"
"220088","491-VK","2019/08/26 18:49:45","新北市板橋區民生路二段216號","121.469248333333","25.0215983333333","6500100","板橋區"
"220103","561-BX","2019/08/26 18:49:32","新北市板橋區文化路一段188巷11弄54號","121.4691","25.018755","6500100","板橋區"
"220080","568-UM","2019/08/26 18:49:48","新北市板橋區大觀路二段265巷72弄9號","121.442045","24.9968166666667","6500100","板橋區"
"220063","609-BX","2019/08/26 18:49:38","新北市板橋區民生路一段80號","121.47358","25.01544","6500100","板橋區"
"220091","637-BX","2019/08/26 18:49:46","新北市板橋區雙十路二段47巷23號","121.475378333333","25.02563","6500100","板橋區"
"220057","686-BX","2019/08/26 18:49:42","新北市板橋區重慶路199-1號","121.462951666667","25.001795","6500100","板橋區"
"220077","687-BX","2019/08/26 18:49:34","新北市板橋區大觀路二段174巷174號","121.442036666667","25.0034733333333","6500100","板橋區"
"220093","689-BX","2019/08/26 18:49:39","新北市板橋區民生路三段11號","121.467895","25.023695","6500100","板橋區"
"220054","741-BX","2019/08/26 18:46:25","新北市板橋區後埔街22號","121.460278333333","25.0064533333333","6500100","板橋區"
"220102","KEA-2699","2019/08/26 18:49:47","新北市板橋區田單街2巷24號","121.481448333333","25.0278716666667","6500100","板橋區"
"220055","827-TW","2019/08/26 18:49:47","新北市板橋區忠孝路110-1號","121.462325","25.002185","6500100","板橋區"
"220074","895-R6","2019/08/26 18:49:34","新北市板橋區南門街53號","121.457211666667","25.0084966666667","6500100","板橋區"
"220073","985-R7","2019/08/26 18:49:41","新北市板橋區館前西路154-3號","121.455236666667","25.0084916666667","6500100","板橋區"
"220097","AAC-210","2019/08/26 18:49:48","新北市板橋區四維路177巷4弄22號","121.463346666667","25.02667","6500100","板橋區"
"220064","AAC-253","2019/08/26 18:49:30","新北市板橋區漢生東路123號","121.46748","25.01441","6500100","板橋區"
"235068","KEA-2873","2019/08/26 18:49:18","新北市中和區中正路211巷36弄6號","121.497166666667","24.9926716666667","6500300","中和區"
"235061","KEA-2875","2019/08/26 18:49:23","新北市中和區民享街81號","121.474255","25.00182","6500300","中和區"
