"lineid","car","time","location","longitude","latitude","cityid","cityname"
"234046","148-BY","2019/08/26 19:09:29","新北市永和區永元路18巷12弄2號","121.522938333333","25.000295","6500400","永和區"
"234081","298-R6","2019/08/26 19:09:41","新北市永和區永貞路19號","121.520901666667","25.0070883333333","6500400","永和區"
"234038","336-UY","2019/08/26 19:09:35","新北市永和區民樂街71巷2號","121.527343333333","24.9973633333333","6500400","永和區"
"234064","337-UY","2019/08/26 19:09:29","新北市永和區秀朗路二段46號","121.52138","25.0023516666667","6500400","永和區"
"234086","338-UY","2019/08/26 19:09:45","新北市永和區中正路500號","121.517441666667","25.0042183333333","6500400","永和區"
"234070","552-UM","2019/08/26 19:09:39","新北市永和區豫溪街137巷1弄23號","121.518498333333","25.0103533333333","6500400","永和區"
"234017","745-BX","2019/08/26 19:09:33","新北市永和區文化路90巷8號","121.513866666667","25.01574","6500400","永和區"
"234030","746-BX","2019/08/26 19:09:31","新北市永和區四維街107號","121.523743333333","24.9982016666667","6500400","永和區"
"234054","KEA-2590","2019/08/26 19:09:26","新北市永和區竹林路78號","121.519245","25.0128433333333","6500400","永和區"
"234007","KED-0605","2019/08/26 19:09:40","新北市永和區中山路一段174號","121.509255","25.009005","6500400","永和區"
"234013","KEA-2591","2019/08/26 19:09:42","新北市永和區永和路二段119號","121.514835","25.01209","6500400","永和區"
"234061","AAD-866","2019/08/26 19:09:37","新北市永和區安樂路306-5號","121.514788333333","25.0055966666667","6500400","永和區"
"234042","862-TW","2019/08/26 19:09:39","新北市永和區永貞路328-1號","121.511428333333","25.005675","6500400","永和區"
"234050","863-TW","2019/08/26 19:09:39","新北市永和區仁愛路104巷7弄23號","121.510955","25.0140283333333","6500400","永和區"
"234026","9371-KE","2019/08/26 19:09:38","新北市永和區安樂路272巷9弄7號","121.515125","25.004615","6500400","永和區"
"234011","9373-KE","2019/08/26 19:09:46","新北市永和區中山路一段60巷9弄4號","121.51294","25.0112983333333","6500400","永和區"
"249005","172-UM","2019/08/26 19:09:47","新北市八里區中華路三段7巷1號","121.397241666667","25.143725","6502300","八里區"
"249001","173-UM","2019/08/26 19:09:40","新北市八里區龍米路二段228-1號","121.432713333333","25.1584383333333","6502300","八里區"
"249003","593-UM","2019/08/26 19:09:45","新北市八里區博物館路131號","121.40811","25.1586766666667","6502300","八里區"
"248016","026-BX","2019/08/26 19:09:28","新北市五股區成泰路三段543巷50號","121.450148333333","25.102755","6501500","五股區"
"248008","KED-0815","2019/08/26 19:09:47","新北市五股區中興路一段118巷22號","121.466036666667","25.0744616666667","6501500","五股區"
"248018","KED-0813","2019/08/26 19:09:34","新北市五股區民義路一段287巷2-1號","121.42395","25.0911283333333","6501500","五股區"
"248012","247-BX","2019/08/26 19:09:44","新北市五股區中興路四段48巷19號","121.438498333333","25.0835883333333","6501500","五股區"
"248010","272-BY","2019/08/26 19:09:37","新北市五股區水碓一路23號","121.430618333333","25.0712366666667","6501500","五股區"
"248004","677-BX","2019/08/26 19:09:34","新北市五股區五福路40號","121.433901666667","25.08924","6501500","五股區"
"248002","678-BX","2019/08/26 19:09:33","新北市五股區凌雲路一段158巷6號","121.447806666667","25.103025","6501500","五股區"
"234023","9380-KE","2019/08/26 19:09:42","新北市永和區中興街10巷78號","121.516848333333","25.0108183333333","6500400","永和區"
"234077","969-R7","2019/08/26 19:09:42","新北市永和區民族街40號","121.518496666667","24.9990116666667","6500400","永和區"
"234074","AAC-211","2019/08/26 19:09:45","新北市永和區福和路137號","121.521171666667","25.0077","6500400","永和區"
"234067","AAC-212","2019/08/26 19:09:43","新北市永和區永和路一段65巷1號","121.512798333333","25.0070816666667","6500400","永和區"
"234003","AAC-295","2019/08/26 19:09:31","新北市永和區保福路一段49號","121.512461666667","25.0093783333333","6500400","永和區"
"244019","402-UM","2019/08/26 19:09:34","新北市林口區粉寮路一段51號","121.396921666667","25.0777033333333","6501700","林口區"
"244023","483-VK","2019/08/26 19:09:39","新北市林口區文林六街30號","121.371376666667","25.0809383333333","6501700","林口區"
"244011","701-TV","2019/08/26 19:09:47","新北市林口區中正路264巷20號","121.388308333333","25.078585","6501700","林口區"
"244025","837-TS","2019/08/26 19:09:35","新北市林口區文化北路一段411-1號","121.364536666667","25.0765166666667","6501700","林口區"
"243012","AAD-798","2019/08/26 19:09:44","新北市泰山區辭修路34巷1號","121.428776666667","25.0580383333333","6501600","泰山區"
"243010","297-R6","2019/08/26 19:09:36","新北市泰山區明志路一段483巷1弄2號","121.431185","25.05532","6501600","泰山區"
"243014","KEA-2801","2019/08/26 19:09:31","新北市泰山區泰林路二段416號","121.427165","25.064365","6501600","泰山區"
"243016","421-VK","2019/08/26 19:09:34","新北市泰山區明志路三段4號","121.42473","25.0435216666667","6501600","泰山區"
"243009","KEA-2215","2019/08/26 19:09:30","新北市泰山區福德街38號","121.432535","25.06354","6501600","泰山區"
"243011","KEA-2216","2019/08/26 19:09:31","新北市泰山區明志路二段318號","121.426285","25.0459733333333","6501600","泰山區"
"243013","646-TV","2019/08/26 19:09:40","新北市泰山區明志路三段277號","121.423073333333","25.0368233333333","6501600","泰山區"
"243015","680-BX","2019/08/26 19:09:38","新北市泰山區同義街2巷1號","121.431125","25.0567283333333","6501600","泰山區"
"222003","436-BY","2019/08/26 19:09:39","新北市深坑區深南路162號","121.626123333333","25.014975","6501800","深坑區"
"222001","628-TS","2019/08/26 19:09:41","新北市深坑區北深路一段300號","121.624236666667","25.0057266666667","6501800","深坑區"
"222002","659-BX","2019/08/26 19:09:40","新北市深坑區烏月路1號","121.63338","25.0083866666667","6501800","深坑區"
"231061","002-UM","2019/08/26 19:09:38","新北市新店區安康路一段220號","121.523856666667","24.9635583333333","6500600","新店區"
"231055","0291-UT","2019/08/26 19:09:41","新北市新店區力行路30號","121.539318333333","24.9647616666667","6500600","新店區"
"231044","046-UY","2019/08/26 19:09:39","新北市新店區中興路三段170號","121.544265","24.9809466666667","6500600","新店區"
"231060","106-UY","2019/08/26 19:09:46","新北市新店區安康路二段308-1號","121.507096666667","24.958275","6500600","新店區"
"231051","107-UY","2019/08/26 19:09:36","新北市新店區中正路382巷30號","121.535623333333","24.9779566666667","6500600","新店區"
"231049","108-UY","2019/08/26 19:09:41","新北市新店區二十張路25巷18弄19號","121.539293333333","24.981485","6500600","新店區"
"231065","110-UY","2019/08/26 19:09:41","新北市新店區安祥路145巷12號","121.475215","24.9560216666667","6500600","新店區"
"221035","KEA-2785","2019/08/26 19:09:44","新北市汐止區汐萬路一段117號","121.65422","25.0709883333333","6501100","汐止區"
"231062","256-BX","2019/08/26 19:09:42","新北市新店區安平路20號","121.524033333333","24.9671416666667","6500600","新店區"
"231054","260-TV","2019/08/26 19:09:31","新北市新店區新店路169號","121.53709","24.9556266666667","6500600","新店區"
"231042","268-BY","2019/08/26 19:09:34","新北市新店區中興路一段210號","121.54409","24.9653266666667","6500600","新店區"
"231064","278-BY","2019/08/26 19:09:34","新北市新店區安忠路56巷6號","121.512913333333","24.9594783333333","6500600","新店區"
"231050","AAD-862","2019/08/26 19:09:39","新北市新店區竹林路2巷15號","121.55044","24.95154","6500600","新店區"
"231045","355-BY","2019/08/26 19:09:44","新北市新店區北宜路一段116號","121.539171666667","24.9551666666667","6500600","新店區"
"231058","3713-VJ","2019/08/26 19:09:45","新北市新店區中興路一段138號","121.542316666667","24.9635783333333","6500600","新店區"
"231056","4715-K9","2019/08/26 19:09:23","新北市新店區中央路2號","121.533775","24.9788016666667","6500600","新店區"
"231067","4772-VM","2019/08/26 19:09:28","新北市新店區安康路一段156號","121.526273333333","24.9629566666667","6500600","新店區"
"231052","513-UM","2019/08/26 19:09:30","新北市新店區自強路72號","121.546288333333","24.9250633333333","6500600","新店區"
"231041","618-UM","2019/08/26 19:09:43","新北市新店區中央二街68號","121.526131666667","24.9746233333333","6500600","新店區"
"231063","641-BX","2019/08/26 19:09:46","新北市新店區車子路111號","121.505256666667","24.9519783333333","6500600","新店區"
"231047","KED-0819","2019/08/26 19:09:44","新北市新店區德正街27巷29弄82號","121.545755","24.973515","6500600","新店區"
"231046","719-UM","2019/08/26 19:09:18","新北市新店區華潭街52號","121.528888333333","24.9551","6500600","新店區"
"231057","720-UM","2019/08/26 19:09:31","新北市新店區百齡一路12號","121.553101666667","24.9324766666667","6500600","新店區"
"231059","897-TW","2019/08/26 19:09:45","新北市新店區安康路一段353號","121.519186666667","24.96406","6500600","新店區"
"231040","898-TW","2019/08/26 19:09:48","新北市新店區三民路157-1號","121.533893333333","24.97377","6500600","新店區"
"231043","899-TW","2019/08/26 19:09:29","新北市新店區寶橋路78巷1-3號","121.546936666667","24.9758366666667","6500600","新店區"
"231066","AKT-0513","2019/08/26 19:09:26","新北市新店區安祥路35-1號","121.491715","24.9559083333333","6500600","新店區"
"241029","060-VK","2019/08/26 19:09:42","新北市三重區集美街238號","121.492275","25.0559","6500200","三重區"
"241035","KEA-2210","2019/08/26 19:09:42","新北市三重區中正北路2號","121.489331666667","25.062945","6500200","三重區"
"241026","480-VK","2019/08/26 19:09:47","新北市三重區重安街141號","121.495476666667","25.0546083333333","6500200","三重區"
"241022","KED-0820","2019/08/26 19:09:30","新北市三重區三民街155巷9號","121.484573333333","25.0648166666667","6500200","三重區"
"235064","005-UY","2019/08/26 19:09:39","新北市中和區中和路35-1號","121.500121666667","25.001455","6500300","中和區"
"235063","006-UY","2019/08/26 19:09:36","新北市中和區連城路234號","121.489253333333","24.9962933333333","6500300","中和區"
"235056","096-UM","2019/08/26 19:09:40","新北市中和區中正路1161號","121.482048333333","25.0087016666667","6500300","中和區"
"235039","097-UM","2019/08/26 19:09:40","新北市中和區秀朗路三段179號","121.524436666667","24.9907","6500300","中和區"
"235065","098-UM","2019/08/26 19:09:47","新北市中和區中山路二段136巷9號","121.50159","25.0038","6500300","中和區"
"235040","150-BY","2019/08/26 19:09:44","新北市中和區宜安路112號","121.510406666667","24.997945","6500300","中和區"
"235058","151-BY","2019/08/26 19:09:40","新北市中和區員山路92巷15號","121.481658333333","24.994485","6500300","中和區"
"235055","183-VK","2019/08/26 19:09:32","新北市中和區德光路74號","121.469188333333","25.0037416666667","6500300","中和區"
"235038","185-VK","2019/08/26 19:09:37","新北市中和區大仁街20巷34號","121.519281666667","24.9931583333333","6500300","中和區"
"235049","186-VK","2019/08/26 19:09:48","新北市中和區景新街174號","121.506173333333","24.99647","6500300","中和區"
"235067","255-BX","2019/08/26 19:09:30","新北市中和區新生街148巷2號","121.48341","25.0006816666667","6500300","中和區"
"235044","293-VK","2019/08/26 19:09:37","新北市中和區中興街222-4號","121.500545","24.9895816666667","6500300","中和區"
"235072","301-VK","2019/08/26 19:09:32","新北市中和區連城路72號","121.49742","25.00131","6500300","中和區"
"235043","352-BY","2019/08/26 19:09:30","新北市中和區景平路310號","121.512415","24.992895","6500300","中和區"
"235042","KEA-2878","2019/08/26 19:09:48","新北市中和區自強路21號","121.520603333333","24.9932466666667","6500300","中和區"
"235050","4979-A6","2019/08/26 19:09:32","新北市中和區復興路249巷11弄3號","121.503493333333","24.9897483333333","6500300","中和區"
"235069","4980-A6","2019/08/26 19:09:45","新北市中和區中和路217巷10號","121.504361666667","25.0004083333333","6500300","中和區"
"235070","558-UM","2019/08/26 19:09:32","新北市中和區連城路72號","121.497461666667","25.001375","6500300","中和區"
"235045","565-BX","2019/08/26 19:09:43","新北市中和區景新街437巷2弄1號","121.513543333333","24.98907","6500300","中和區"
"235060","KED-0823","2019/08/26 19:09:45","新北市中和區民有街3號","121.475558333333","25.0057","6500300","中和區"
"235054","640-BX","2019/08/26 19:09:45","新北市中和區國光街109巷19號","121.469566666667","24.9997216666667","6500300","中和區"
"235047","732-UM","2019/08/26 19:09:37","新北市中和區興南路一段56巷4號","121.510713333333","24.990865","6500300","中和區"
"235046","733-UM","2019/08/26 19:09:33","新北市中和區工專路111號","121.507628333333","24.9823333333333","6500300","中和區"
"235071","783-BX","2019/08/26 19:09:29","新北市中和區連城路358號","121.482081666667","24.9955","6500300","中和區"
"235057","801-TS","2019/08/26 19:09:34","新北市中和區員山路283號","121.48128","24.9996883333333","6500300","中和區"
"235041","802-TS","2019/08/26 19:09:37","新北市中和區中和路260-1號","121.50816","24.9993833333333","6500300","中和區"
"235052","805-TS","2019/08/26 19:09:47","新北市中和區興南路二段142巷19弄22號","121.502708333333","24.98358","6500300","中和區"
"235048","896-TW","2019/08/26 19:09:35","新北市中和區忠孝街60巷7號","121.51176","24.9838216666667","6500300","中和區"
"235053","900-TW","2019/08/26 19:09:47","新北市中和區華安街30巷16-1號","121.466893333333","24.9973016666667","6500300","中和區"
"235066","911-UM","2019/08/26 19:09:46","新北市中和區廣福路12-3號","121.505431666667","25.0027266666667","6500300","中和區"
"235051","157-BY","2019/08/26 19:09:39","新北市中和區忠孝街19巷58號","121.509418333333","24.985575","6500300","中和區"
"235037","AAC-213","2019/08/26 19:09:37","新北市中和區秀朗路三段10巷37弄4號","121.524006666667","24.995865","6500300","中和區"
"235059","AAC-215","2019/08/26 19:09:36","新北市中和區圓通路294巷17-5號","121.48863","24.9904383333333","6500300","中和區"
"220035","015-TV","2019/08/26 19:09:40","新北市板橋區中正路401號","121.454136666667","25.02218","6500100","板橋區"
"220065","072-UY","2019/08/26 19:09:45","新北市板橋區民族路219巷75號","121.468816666667","25.0089716666667","6500100","板橋區"
"220086","073-UY","2019/08/26 19:09:40","新北市板橋區中正路250巷33號","121.457045","25.019565","6500100","板橋區"
"220106","075-UY","2019/08/26 19:09:35","新北市板橋區雙十路三段87號","121.470085","25.032665","6500100","板橋區"
"220069","AAD-861","2019/08/26 19:09:29","新北市板橋區貴興路7號","121.457988333333","25.0043366666667","6500100","板橋區"
"220068","120-SR","2019/08/26 19:09:43","新北市板橋區三民路一段31巷36弄7號","121.480755","25.02282","6500100","板橋區"
"226004","312-R5","2019/08/26 19:09:30","新北市平溪區靜安路二段548號","121.746503333333","25.025635","6502400","平溪區"
"228003","097-TW","2019/08/26 19:09:35","新北市貢寮區和美里和美街43號","121.914741666667","25.0920783333333","6502600","貢寮區"
"228002","663-BX","2019/08/26 19:09:38","新北市貢寮區福隆里福隆街32-1號","121.945111666667","25.017425","6502600","貢寮區"
"228001","670-TC","2019/08/26 19:09:28","新北市貢寮區真理里新港街10號","121.925455","25.054315","6502600","貢寮區"
"224010","AGQ-8101","2019/08/26 19:09:31","新北市瑞芳區基山街155號","121.843731666667","25.1080933333333","6501200","瑞芳區"
"224006","676-BX","2019/08/26 19:09:34","新北市瑞芳區中山路161號","121.80204","25.1065133333333","6501200","瑞芳區"
"224009","275-VK","2019/08/26 19:09:33","新北市瑞芳區洞頂路101巷41號","121.860695","25.1206433333333","6501200","瑞芳區"
"224008","273-VK","2019/08/26 19:09:32","新北市瑞芳區瑞芳街82-1號","121.803055","25.10997","6501200","瑞芳區"
"224005","271-BY","2019/08/26 19:09:38","新北市瑞芳區三爪子坑路218號","121.80595","25.1055383333333","6501200","瑞芳區"
"227002","642-TC","2019/08/26 19:09:30","新北市雙溪區平林里外平林10-4號","121.859171666667","25.03807","6502500","雙溪區"
"227001","400-TW","2019/08/26 19:09:36","新北市雙溪區牡丹里自強路8巷10號","121.86517","25.038495","6502500","雙溪區"
"253006","032-BX","2019/08/26 19:09:35","新北市石門區八甲9號","121.521751666667","25.281785","6502200","石門區"
"253005","295-VK","2019/08/26 19:09:40","新北市石門區阿里荖41-1號","121.605785","25.280655","6502200","石門區"
"208002","KEA-2872","2019/08/26 19:09:35","新北市金山區中華路112巷13號","121.63394","25.2208583333333","6502700","金山區"
"208003","665-BX","2019/08/26 19:09:45","新北市金山區中正路143-1號","121.63208","25.22141","6502700","金山區"
"251009","008-UM","2019/08/26 19:09:36","新北市淡水區重建街36號","121.439985","25.1712266666667","6501000","淡水區"
"251005","010-UM","2019/08/26 19:09:48","新北市淡水區中山路108巷16號","121.442175","25.1710716666667","6501000","淡水區"
"251001","011-UM","2019/08/26 19:09:41","新北市淡水區民權路92巷35-1號","121.46209","25.1267883333333","6501000","淡水區"
"251010","012-UM","2019/08/26 19:09:38","新北市淡水區中正路一段156巷10-3號","121.421615","25.1803916666667","6501000","淡水區"
"251015","KEA-2871","2019/08/26 19:09:40","新北市淡水區南勢埔6-2號","121.482435","25.1809233333333","6501000","淡水區"
"251016","179-VK","2019/08/26 19:09:45","新北市淡水區下圭柔山119-51號","121.450686666667","25.2084066666667","6501000","淡水區"
"251013","180-VK","2019/08/26 19:09:44","新北市淡水區安子內12-1號","121.481486666667","25.2191316666667","6501000","淡水區"
"251007","182-VK","2019/08/26 19:09:42","新北市淡水區民生路135巷20號","121.466328333333","25.139035","6501000","淡水區"
"251014","577-R6","2019/08/26 19:09:40","新北市淡水區小中寮39號","121.48714","25.22741","6501000","淡水區"
"251002","672-BX","2019/08/26 19:09:45","新北市淡水區中山路54號","121.443976666667","25.17038","6501000","淡水區"
"251003","673-BX","2019/08/26 19:09:35","新北市淡水區中山北路一段156號","121.443916666667","25.17806","6501000","淡水區"
"207003","550-UM","2019/08/26 19:09:42","新北市萬里區大鵬里頂社39號","121.65636","25.2108166666667","6502800","萬里區"
"207004","291-VK","2019/08/26 19:09:35","新北市萬里區萬里里瑪鋉下街52號","121.691636666667","25.1795466666667","6502800","萬里區"
"252002","178-VK","2019/08/26 19:09:45","新北市三芝區埔坪里埔頭坑80號","121.509936666667","25.25379","6502100","三芝區"
"252003","249-BX","2019/08/26 19:09:45","新北市三芝區錫板里南勢崗5-6號","121.479858333333","25.262195","6502100","三芝區"
"208001","170-UY","2019/08/26 19:09:41","新北市金山區福德街16巷4號","121.63913","25.2216383333333","6502700","金山區"
"237004","KEA-2597","2019/08/26 19:09:38","新北市三峽區有木205-1號","121.439053333333","24.851645","6500900","三峽區"
"237007","153-BY","2019/08/26 19:09:29","新北市三峽區中正路二段42巷50號","121.364335","24.9206566666667","6500900","三峽區"
"237013","252-BX","2019/08/26 19:09:29","新北市三峽區光明路69巷25號","121.376738333333","24.9291683333333","6500900","三峽區"
"237012","275-BY","2019/08/26 19:09:29","新北市三峽區三樹路222巷192-9號","121.38812","24.9418583333333","6500900","三峽區"
"237008","302-VK","2019/08/26 19:09:39","新北市三峽區光明路106巷2號","121.37654","24.9274916666667","6500900","三峽區"
"237014","433-BY","2019/08/26 19:09:28","新北市三峽區隆恩街243號","121.357835","24.941115","6500900","三峽區"
"237006","5529-G3","2019/08/26 19:09:35","新北市三峽區橫溪路99巷18-3號","121.400735","24.9360266666667","6500900","三峽區"
"237011","KEA-2596","2019/08/26 19:09:42","新北市三峽區介壽路三段245號","121.407618333333","24.9492566666667","6500900","三峽區"
"237015","649-BX","2019/08/26 19:09:37","新北市三峽區建安73-2號","121.448318333333","24.9264216666667","6500900","三峽區"
"237010","706-TV","2019/08/26 19:09:33","新北市三峽區國光街350巷14號","121.371711666667","24.940125","6500900","三峽區"
"237005","AKY-6261","2019/08/26 19:09:32","新北市三峽區中山路459巷92號","121.35455","24.935985","6500900","三峽區"
"236078","166-UM","2019/08/26 19:08:57","新北市土城區龍泉路43號","121.41718","24.9431783333333","6501300","土城區"
"236026","269-VK","2019/08/26 19:09:28","新北市土城區中正路11巷5號","121.442871666667","24.9755183333333","6501300","土城區"
"236014","270-VK","2019/08/26 19:09:38","新北市土城區學府路一段39號","121.457818333333","24.9882583333333","6501300","土城區"
"236069","KEA-2877","2019/08/26 19:09:39","新北市土城區明德路二段92-3號","121.445961666667","24.9839466666667","6501300","土城區"
"252001","KED-0821","2019/08/26 19:09:29","新北市三芝區長勤街45巷2號","121.500348333333","25.255115","6502100","三芝區"
"236020","401-BY","2019/08/26 19:09:36","新北市土城區延峰街34巷1號","121.469608333333","24.9847783333333","6501300","土城區"
"236059","912-UM","2019/08/26 19:09:45","新北市土城區金城路一段53號","121.441188333333","24.9698316666667","6501300","土城區"
"236048","913-UM","2019/08/26 19:09:30","新北市土城區明德路一段365-1號","121.453658333333","24.97908","6501300","土城區"
"236063","915-UM","2019/08/26 19:09:34","新北市土城區金城路三段202-3號","121.46951","24.988635","6501300","土城區"
"236055","AAC-216","2019/08/26 19:09:39","新北市土城區學府路一段217號","121.451481666667","24.9843783333333","6501300","土城區"
"242007","349-TH","2019/08/26 19:09:38","新北市樹林區八德街662號","121.396296666667","24.9690566666667","6500500","新莊區"
"238015","755-BX","2019/08/26 19:09:41","新北市樹林區備內街158巷18號","121.407358333333","24.9899616666667","6500700","樹林區"
"238023","601-UM","2019/08/26 19:09:27","新北市樹林區三興路68號","121.393603333333","25.01467","6500700","樹林區"
"238019","599-UM","2019/08/26 19:09:40","新北市樹林區東華街30號","121.414748333333","24.9821566666667","6500700","樹林區"
"238022","KEA-2213","2019/08/26 19:09:38","新北市樹林區東興街16巷2弄1號","121.40963","24.9782366666667","6500700","樹林區"
"238021","KEA-2539","2019/08/26 19:09:40","新北市樹林區柑園街二段426號","121.364843333333","24.9473766666667","6500700","樹林區"
"238025","303-VK","2019/08/26 19:09:45","新北市樹林區民和街77號","121.380605","24.97168","6500700","樹林區"
"238017","283-BY","2019/08/26 19:09:48","新北市樹林區中山路二段185-4號","121.404835","24.9779033333333","6500700","樹林區"
"238014","282-BY","2019/08/26 19:09:29","新北市樹林區千歲街92巷7弄43號","121.427726666667","24.998725","6500700","樹林區"
"238020","268-VK","2019/08/26 19:09:36","新北市樹林區俊英街155巷9弄2號","121.423955","25.0119566666667","6500700","樹林區"
"238026","172-UY","2019/08/26 19:09:38","新北市樹林區德和街18號","121.391838333333","24.973775","6500700","樹林區"
"238016","169-UY","2019/08/26 19:09:31","新北市樹林區文化街25巷8號","121.418748333333","24.9870866666667","6500700","樹林區"
"239007","AAC-297","2019/08/26 19:09:41","新北市鶯歌區成功街2號","121.358508333333","24.9573583333333","6500800","鶯歌區"
"239008","527-UM","2019/08/26 19:09:36","新北市鶯歌區國際二路20巷17號","121.337018333333","24.975445","6500800","鶯歌區"
"239005","526-UM","2019/08/26 19:05:51","新北市鶯歌區鳳吉二街167-1號","121.329681666667","24.9753966666667","6500800","鶯歌區"
"239001","417-VK","2019/08/26 19:09:29","新北市鶯歌區永明街60巷58弄2號","121.34079","24.954715","6500800","鶯歌區"
"239003","360-BY","2019/08/26 19:09:39","新北市鶯歌區鶯桃路524號","121.331753333333","24.9669583333333","6500800","鶯歌區"
"239004","193-VK","2019/08/26 19:09:44","新北市鶯歌區中正三路318巷32號","121.32658","24.9373883333333","6500800","鶯歌區"
"221008","489-VK","2019/08/26 19:09:35","新北市汐止區康寧街428巷4號","121.630771666667","25.0679133333333","6501100","汐止區"
"221036","130-UY","2019/08/26 19:09:41","新北市汐止區南昌街16號","121.662928333333","25.0685566666667","6501100","汐止區"
"221015","131-UY","2019/08/26 19:09:39","新北市汐止區鄉長路一段55巷22號","121.664803333333","25.07632","6501100","汐止區"
"221032","280-BY","2019/08/26 19:09:43","新北市汐止區橫科路407巷21號","121.625681666667","25.04802","6501100","汐止區"
"221031","353-TW","2019/08/26 19:09:42","新北市汐止區福德二路156巷38號","121.629975","25.0659033333333","6501100","汐止區"
"221002","707-TV","2019/08/26 19:09:39","新北市汐止區大同路一段288號","121.634953333333","25.0577116666667","6501100","汐止區"
"220079","145-BY","2019/08/26 19:09:27","新北市板橋區公館街18號","121.456851666667","25.0123233333333","6500100","板橋區"
"220082","610-BX","2019/08/26 19:09:44","新北市板橋區溪崑二街32號","121.428425","24.9911316666667","6500100","板橋區"
"220056","276-BY","2019/08/26 19:09:36","新北市板橋區信義路74巷1弄1號","121.457251666667","24.99318","6500100","板橋區"
"220072","277-BY","2019/08/26 19:09:37","新北市板橋區金門街369巷58號","121.428281666667","24.9816483333333","6500100","板橋區"
"220101","280-UM","2019/08/26 19:09:44","新北市板橋區莊敬路25巷24號","121.474361666667","25.0272416666667","6500100","板橋區"
"220071","283-VK","2019/08/26 19:09:40","新北市板橋區忠孝路154巷19號","121.464348333333","25.0016816666667","6500100","板橋區"
"220094","285-UM","2019/08/26 19:09:36","新北市板橋區吳鳳路82號","121.466911666667","25.0313116666667","6500100","板橋區"
"220053","285-VK","2019/08/26 19:09:45","新北市板橋區懷仁街35巷4弄1號","121.477218333333","25.0198966666667","6500100","板橋區"
"220083","286-VK","2019/08/26 19:09:44","新北市板橋區龍興街99巷27-1號","121.44349","25.003335","6500100","板橋區"
"220081","287-VK","2019/08/26 19:09:32","新北市板橋區南雅西路二段110巷11-2號","121.45238","25.0126066666667","6500100","板橋區"
"220090","288-VK","2019/08/26 19:09:46","新北市板橋區長江路一段106巷13弄28號","121.461163333333","25.02959","6500100","板橋區"
"220061","293-UM","2019/08/26 19:09:32","新北市板橋區中山路二段318巷25號","121.480513333333","25.0185633333333","6500100","板橋區"
"220062","295-UM","2019/08/26 19:09:37","新北市板橋區三民路二段居仁巷1弄48號","121.48095","25.0135683333333","6500100","板橋區"
"220084","296-UM","2019/08/26 19:09:39","新北市板橋區溪崑一街30巷21號","121.429295","24.9913966666667","6500100","板橋區"
"220075","303-R5","2019/08/26 19:09:26","新北市板橋區南雅南路一段1巷36號","121.457221666667","25.0065483333333","6500100","板橋區"
"220092","307-R5","2019/08/26 19:09:43","新北市板橋區松江街74號","121.468848333333","25.0278616666667","6500100","板橋區"
"220098","317-R6","2019/08/26 19:09:37","新北市板橋區民有街18號","121.46624","25.0249816666667","6500100","板橋區"
"220089","487-VK","2019/08/26 19:09:33","新北市板橋區漢生西路26號","121.463505","25.0182366666667","6500100","板橋區"
"220088","491-VK","2019/08/26 19:09:45","新北市板橋區雙十路二段217號","121.473335","25.02917","6500100","板橋區"
"220103","561-BX","2019/08/26 19:09:36","新北市板橋區文化路一段270巷3弄2號","121.467428333333","25.0208916666667","6500100","板橋區"
"220080","568-UM","2019/08/26 19:09:28","新北市板橋區合宜路111號","121.447961666667","24.9988283333333","6500100","板橋區"
"220063","609-BX","2019/08/26 19:09:32","新北市中和區員山路570號","121.478935","25.011365","6500100","板橋區"
"220091","637-BX","2019/08/26 19:09:46","新北市板橋區縣民大道三段187巷10號","121.479233333333","25.0250266666667","6500100","板橋區"
"220057","686-BX","2019/08/26 19:09:42","新北市板橋區五權街16-3號","121.464411666667","24.99396","6500100","板橋區"
"220077","687-BX","2019/08/26 19:09:41","新北市板橋區大觀路二段142-3號","121.442456666667","24.999115","6500100","板橋區"
"220093","689-BX","2019/08/26 19:09:39","新北市板橋區民生路三段17號","121.467145","25.0238116666667","6500100","板橋區"
"220054","741-BX","2019/08/26 19:09:45","新北市板橋區實踐路59號","121.463755","25.00657","6500100","板橋區"
"220102","KEA-2699","2019/08/26 19:09:47","新北市板橋區田單街44號","121.482628333333","25.02787","6500100","板橋區"
"220055","827-TW","2019/08/26 19:09:40","新北市板橋區新民街4巷2弄2-1號","121.464163333333","25.00999","6500100","板橋區"
"220067","831-TW","2019/08/26 19:09:34","新北市板橋區三民路二段正隆巷43號","121.476886666667","25.0135116666667","6500100","板橋區"
"220074","895-R6","2019/08/26 19:09:45","新北市板橋區中正路37號","121.456468333333","25.0132366666667","6500100","板橋區"
"220073","985-R7","2019/08/26 19:09:41","新北市板橋區中正路251號","121.455765","25.01833","6500100","板橋區"
"220097","AAC-210","2019/08/26 19:09:29","新北市板橋區幸福路60巷31-2號","121.46059","25.0210066666667","6500100","板橋區"
"220064","AAC-253","2019/08/26 19:09:41","新北市板橋區板新路192號","121.469435","25.0159816666667","6500100","板橋區"
"235068","KEA-2873","2019/08/26 19:09:18","新北市中和區圓通路160-1號","121.497581666667","24.9954433333333","6500300","中和區"
"235061","KEA-2875","2019/08/26 19:09:30","新北市中和區員山路308號","121.481525","25.00278","6500300","中和區"
