"lineid","car","time","location","longitude","latitude","cityid","cityname"
"234046","148-BY","2019/08/26 19:49:29","新北市永和區成功路一段82號","121.52644","25.0030366666667","6500400","永和區"
"234081","298-R6","2019/08/26 19:49:44","新北市永和區林森路42號","121.525153333333","25.004875","6500400","永和區"
"234038","336-UY","2019/08/26 19:49:35","新北市永和區民樂街39巷18弄44號","121.52845","24.998965","6500400","永和區"
"234064","337-UY","2019/08/26 19:49:30","新北市永和區中正路368巷16號","121.518351666667","25.0007766666667","6500400","永和區"
"234086","338-UY","2019/08/26 19:49:45","新北市永和區永亨路136號","121.524848333333","25.003965","6500400","永和區"
"234070","552-UM","2019/08/26 19:49:39","新北市永和區竹林路88號","121.51945","25.0125616666667","6500400","永和區"
"234017","745-BX","2019/08/26 19:49:49","新北市永和區永和路二段310號","121.516136666667","25.0160383333333","6500400","永和區"
"234030","746-BX","2019/08/26 19:49:40","新北市永和區民生路67巷27號","121.524236666667","24.9973066666667","6500400","永和區"
"234054","KEA-2590","2019/08/26 19:49:46","新北市永和區竹林路75巷7號","121.519186666667","25.0134216666667","6500400","永和區"
"234007","KED-0605","2019/08/26 19:49:40","新北市中和區光華街39號","121.50526","25.003865","6500400","永和區"
"234013","KEA-2591","2019/08/26 19:49:42","新北市永和區永平路282號","121.507788333333","25.01189","6500400","永和區"
"234061","AAD-866","2019/08/26 19:49:47","新北市永和區中正路106號","121.514476666667","24.9959583333333","6500400","永和區"
"234042","862-TW","2019/08/26 19:49:39","新北市永和區中和路389巷24號","121.508173333333","25.0013416666667","6500400","永和區"
"234050","863-TW","2019/08/26 19:49:39","新北市永和區保安路144號","121.508543333333","25.0149116666667","6500400","永和區"
"234026","9371-KE","2019/08/26 19:49:40","新北市永和區雙和街23號","121.509168333333","25.0021433333333","6500400","永和區"
"234011","9373-KE","2019/08/26 19:49:46","新北市永和區仁愛路352巷124號","121.500255","25.0085966666667","6500400","永和區"
"249005","172-UM","2019/08/26 19:49:47","新北市八里區中華路三段192-1號","121.391728333333","25.12805","6502300","八里區"
"249001","173-UM","2019/08/26 19:49:34","新北市八里區中華路二段199號","121.406331666667","25.150535","6502300","八里區"
"249004","303-UY","2019/08/26 19:49:43","新北市八里區中山路一段268巷5弄2號","121.414495","25.160705","6502300","八里區"
"249002","305-UY","2019/08/26 19:49:41","新北市八里區頂寮三街18號","121.451541666667","25.1256616666667","6502300","八里區"
"249003","593-UM","2019/08/26 19:49:45","新北市八里區中華路二段558號","121.398608333333","25.14529","6502300","八里區"
"248016","026-BX","2019/08/26 19:49:33","新北市五股區成泰路四段22巷27-1號","121.455325","25.1080616666667","6501500","五股區"
"248008","KED-0815","2019/08/26 19:49:27","","121.468318333333","25.0752933333333","6501500","五股區"
"248018","KED-0813","2019/08/26 19:49:34","","121.425885","25.0768366666667","6501500","五股區"
"248012","247-BX","2019/08/26 19:49:44","新北市五股區蓬萊路8號","121.435521666667","25.0794816666667","6501500","五股區"
"248014","261-SL","2019/08/26 19:49:35","新北市五股區五福路18號","121.434321666667","25.0887933333333","6501500","五股區"
"248010","272-BY","2019/08/26 19:49:36","新北市五股區登林路貿商巷3弄15號","121.429718333333","25.0699316666667","6501500","五股區"
"248004","677-BX","2019/08/26 19:49:34","","121.435371666667","25.0690766666667","6501500","五股區"
"248002","678-BX","2019/08/26 19:49:33","新北市五股區成泰路3段651-1號","121.452906666667","25.10519","6501500","五股區"
"234023","9380-KE","2019/08/26 19:49:40","新北市永和區中山路一段277號","121.507051666667","25.0070483333333","6500400","永和區"
"234077","969-R7","2019/08/26 19:49:42","新北市永和區中正路163號","121.516601666667","24.998525","6500400","永和區"
"234074","AAC-211","2019/08/26 19:49:39","新北市永和區竹林路179巷37號","121.522306666667","25.0103683333333","6500400","永和區"
"234067","AAC-212","2019/08/26 19:49:43","新北市永和區永貞路353號","121.509056666667","25.0075216666667","6500400","永和區"
"234003","AAC-295","2019/08/26 19:49:44","","121.515798333333","25.0072583333333","6500400","永和區"
"243012","AAD-798","2019/08/26 19:49:43","新北市泰山區全興路81號","121.433013333333","25.0579333333333","6501600","泰山區"
"243014","KEA-2801","2019/08/26 19:49:31","新北市泰山區泰林路二段33-7號","121.435315","25.0564883333333","6501600","泰山區"
"243016","421-VK","2019/08/26 19:49:34","新北市泰山區明志路三段513號","121.421271666667","25.0323633333333","6501600","泰山區"
"243009","KEA-2215","2019/08/26 19:49:30","新北市泰山區美寧街69號","121.430966666667","25.06472","6501600","泰山區"
"243011","KEA-2216","2019/08/26 19:49:31","新北市泰山區明志路三段196巷21弄20號","121.4228","25.0385683333333","6501600","泰山區"
"222003","436-BY","2019/08/26 19:49:39","新北市深坑區深南路51-1號","121.621256666667","25.0098933333333","6501800","深坑區"
"222001","628-TS","2019/08/26 19:49:41","新北市深坑區北深路三段83號","121.606485","25.00154","6501800","深坑區"
"222002","659-BX","2019/08/26 19:49:40","新北市深坑區北深路一段288號","121.628568333333","25.0080133333333","6501800","深坑區"
"231061","002-UM","2019/08/26 19:49:38","新北市新店區安民街200號","121.517331666667","24.9717133333333","6500600","新店區"
"231044","046-UY","2019/08/26 19:49:30","新北市新店區復興路44-5號","121.538296666667","24.986695","6500600","新店區"
"231060","106-UY","2019/08/26 19:49:46","新北市新店區安康路二段161號","121.510128333333","24.9593316666667","6500600","新店區"
"231051","107-UY","2019/08/26 19:49:36","新北市新店區中央三街50號","121.527418333333","24.97449","6500600","新店區"
"231049","108-UY","2019/08/26 19:49:41","新北市新店區民權路127巷13號","121.535781666667","24.9816883333333","6500600","新店區"
"231065","110-UY","2019/08/26 19:49:21","新北市新店區安祥路109巷90弄58號","121.476453333333","24.95879","6500600","新店區"
"231068","187-VK","2019/08/26 19:49:42","新北市新店區安一路一段1-1號","121.519678333333","24.9611866666667","6500600","新店區"
"231062","256-BX","2019/08/26 19:49:42","新北市新店區永業路41號","121.5324","24.9552133333333","6500600","新店區"
"231054","260-TV","2019/08/26 19:49:32","新北市新店區光明街1號","121.538281666667","24.9590533333333","6500600","新店區"
"231042","268-BY","2019/08/26 19:49:14","新北市新店區中興路一段268-3號","121.545185","24.96791","6500600","新店區"
"231064","278-BY","2019/08/26 19:49:34","新北市新店區光華街5巷1號","121.517846666667","24.9687916666667","6500600","新店區"
"231050","AAD-862","2019/08/26 19:49:39","新北市新店區北宜路二段449號","121.561411666667","24.954165","6500600","新店區"
"231045","355-BY","2019/08/26 19:49:44","新北市新店區北宜路二段288號","121.561205","24.9541583333333","6500600","新店區"
"231056","4715-K9","2019/08/26 19:49:44","新北市新店區中央路25號","121.533131666667","24.9779933333333","6500600","新店區"
"231067","4772-VM","2019/08/26 19:49:28","新北市新店區精忠路10-1號","121.532546666667","24.9591183333333","6500600","新店區"
"231052","513-UM","2019/08/26 19:49:30","新北市新店區新烏路三段208號","121.550848333333","24.90154","6500600","新店區"
"231041","618-UM","2019/08/26 19:49:43","新北市新店區中央路121號","121.530785","24.974205","6500600","新店區"
"231063","641-BX","2019/08/26 19:49:46","新北市新店區車子路11號","121.503125","24.9519216666667","6500600","新店區"
"231047","KED-0819","2019/08/26 19:49:44","新北市新店區中興路二段100巷1號","121.547648333333","24.9715366666667","6500600","新店區"
"231046","719-UM","2019/08/26 19:48:58","新北市新店區福園街10巷3號","121.532698333333","24.9728516666667","6500600","新店區"
"231057","720-UM","2019/08/26 19:49:31","新北市新店區梅崗三路1號","121.558161666667","24.931165","6500600","新店區"
"231059","897-TW","2019/08/26 19:49:45","新北市新店區安和路二段197號","121.517975","24.9750516666667","6500600","新店區"
"231040","898-TW","2019/08/26 19:49:27","新北市新店區中正路75巷71號","121.5432","24.9688716666667","6500600","新店區"
"231043","899-TW","2019/08/26 19:49:29","新北市新店區中正路263-1號","121.53846","24.9736533333333","6500600","新店區"
"231066","AKT-0513","2019/08/26 19:49:46","新北市新店區安康路三段165巷2弄2號","121.489513333333","24.951375","6500600","新店區"
"241011","013-R5","2019/08/26 19:49:41","新北市三重區三和路三段1號","121.497215","25.070425","6500200","三重區"
"241028","022-UY","2019/08/26 19:49:29","新北市三重區中正南路150號","121.494133333333","25.0573583333333","6500200","三重區"
"241008","059-VK","2019/08/26 19:49:32","新北市三重區永福街80號","121.4788","25.0764366666667","6500200","三重區"
"241029","060-VK","2019/08/26 19:49:42","新北市三重區光明路11號","121.490993333333","25.0587533333333","6500200","三重區"
"241031","061-VK","2019/08/26 19:49:29","新北市三重區重新路四段101號","121.485815","25.0544766666667","6500200","三重區"
"241015","062-VK","2019/08/26 19:49:44","新北市三重區三和路一段2號","121.503916666667","25.0644316666667","6500200","三重區"
"241004","742-BX","2019/08/26 19:49:42","新北市三重區仁愛街377巷132號","121.493535","25.081945","6500200","三重區"
"241006","262-UM","2019/08/26 19:49:35","新北市三重區永福街289-4號","121.483515","25.0741733333333","6500200","三重區"
"241016","266-UM","2019/08/26 19:49:29","新北市三重區正德街41巷11號","121.496291666667","25.06263","6500200","三重區"
"241009","267-UM","2019/08/26 19:49:35","新北市三重區三和路四段396巷2-1號","121.48145","25.0791466666667","6500200","三重區"
"241018","268-UM","2019/08/26 19:49:44","新北市三重區雙園街110號","121.49486","25.0675016666667","6500200","三重區"
"241032","269-UM","2019/08/26 19:49:31","新北市三重區三陽路3號","121.486193333333","25.0588066666667","6500200","三重區"
"241013","270-UM","2019/08/26 19:49:33","新北市三重區仁愛街92巷13號","121.494736666667","25.073805","6500200","三重區"
"241025","271-UM","2019/08/26 19:49:37","新北市三重區頂崁街210巷16號","121.476545","25.067745","6500200","三重區"
"241007","398-BY","2019/08/26 19:49:44","新北市三重區三和路四段143-1號","121.484388333333","25.0782933333333","6500200","三重區"
"241035","KEA-2210","2019/08/26 19:49:42","新北市三重區大榮街53號","121.499196666667","25.0635266666667","6500200","三重區"
"241030","KED-0822","2019/08/26 19:49:46","新北市三重區環河南路253號","121.491298333333","25.0505766666667","6500200","三重區"
"241020","478-VK","2019/08/26 19:49:29","新北市三重區後竹圍街79號","121.489761666667","25.0731","6500200","三重區"
"241026","480-VK","2019/08/26 19:49:47","新北市三重區文化南路42號","121.500476666667","25.0602616666667","6500200","三重區"
"241014","543-UM","2019/08/26 19:49:27","新北市三重區長元街98巷18弄20號","121.502013333333","25.067455","6500200","三重區"
"241023","545-UM","2019/08/26 19:49:31","新北市三重區頂崁街172號","121.477591666667","25.06593","6500200","三重區"
"241001","547-UM","2019/08/26 19:49:42","新北市三重區仁愛街327巷29號","121.493013333333","25.0799333333333","6500200","三重區"
"241019","KEA-2593","2019/08/26 19:49:38","新北市三重區力行路一段71號","121.487221666667","25.067745","6500200","三重區"
"241005","AAD-863","2019/08/26 19:49:38","新北市三重區溪尾街325巷32號","121.488656666667","25.0834683333333","6500200","三重區"
"241017","743-BX","2019/08/26 19:49:26","新北市三重區重陽路三段105號","121.490528333333","25.0684133333333","6500200","三重區"
"241012","941-UM","2019/08/26 19:49:34","新北市三重區仁興街39巷2號","121.499226666667","25.0758416666667","6500200","三重區"
"241033","AAC-255","2019/08/26 19:49:45","新北市三重區中興南街66號","121.470668333333","25.043965","6500200","三重區"
"235056","096-UM","2019/08/26 19:49:40","新北市板橋區漢生東路338號","121.47184","25.00758","6500300","中和區"
"235039","097-UM","2019/08/26 19:49:40","新北市中和區大勇街27巷21號","121.516543333333","24.9937316666667","6500300","中和區"
"235065","098-UM","2019/08/26 19:49:48","新北市中和區永和路39巷2號","121.497968333333","25.0049816666667","6500300","中和區"
"235040","150-BY","2019/08/26 19:49:44","新北市中和區安和路39號","121.509665","24.9949083333333","6500300","中和區"
"235058","151-BY","2019/08/26 19:49:42","新北市中和區員山路150巷1號","121.481518333333","24.9983566666667","6500300","中和區"
"235055","183-VK","2019/08/26 19:49:32","","121.471173333333","25.00416","6500300","中和區"
"235038","185-VK","2019/08/26 19:49:37","新北市永和區民生路46巷50號","121.521073333333","24.9962883333333","6500300","中和區"
"235049","186-VK","2019/08/26 19:49:29","新北市中和區景平路516號","121.503441666667","24.993855","6500300","中和區"
"235067","255-BX","2019/08/26 19:49:30","新北市中和區新生街231號","121.483855","24.9991216666667","6500300","中和區"
"235044","293-VK","2019/08/26 19:49:37","新北市中和區南山路281號","121.504191666667","24.9922716666667","6500300","中和區"
"235043","352-BY","2019/08/26 19:49:30","新北市中和區華新街232巷24號","121.505566666667","24.9826","6500300","中和區"
"235042","KEA-2878","2019/08/26 19:49:28","新北市中和區宜安路1巷24號","121.512563333333","24.9944766666667","6500300","中和區"
"247014","KEA-2869","2019/08/26 19:49:34","新北市蘆洲區復興路30-7號","121.472863333333","25.084465","6501400","蘆洲區"
"235070","558-UM","2019/08/26 19:49:32","新北市中和區圓通路120-4號","121.498953333333","24.9959083333333","6500300","中和區"
"235060","KED-0823","2019/08/26 19:49:25","新北市中和區員山路429號","121.48093","25.0036016666667","6500300","中和區"
"235047","732-UM","2019/08/26 19:49:37","新北市中和區興南路一段71號","121.510088333333","24.9893266666667","6500300","中和區"
"235046","733-UM","2019/08/26 19:49:33","新北市中和區興南路一段63-6號","121.510386666667","24.98954","6500300","中和區"
"235041","802-TS","2019/08/26 19:49:37","新北市中和區中安街54號","121.51283","25.0023216666667","6500300","中和區"
"235052","805-TS","2019/08/26 19:49:27","新北市中和區華新街30巷3號","121.507318333333","24.9843666666667","6500300","中和區"
"235048","896-TW","2019/08/26 19:49:35","新北市中和區興南路一段29號","121.51106","24.9906133333333","6500300","中和區"
"235053","900-TW","2019/08/26 19:49:47","新北市中和區民德路220號","121.468091666667","24.99782","6500300","中和區"
"235066","911-UM","2019/08/26 19:49:46","新北市中和區南工路56號","121.506038333333","25.0016433333333","6500300","中和區"
"235051","157-BY","2019/08/26 19:49:39","新北市中和區中興街127號","121.499953333333","24.9917233333333","6500300","中和區"
"235037","AAC-213","2019/08/26 19:49:37","","121.52193","24.9939433333333","6500300","中和區"
"235059","AAC-215","2019/08/26 19:49:36","新北市中和區圓通路305巷13弄2號","121.49414","24.9897483333333","6500300","中和區"
"220035","015-TV","2019/08/26 19:49:28","新北市板橋區金華街85巷31號","121.458675","25.021295","6500100","板橋區"
"220065","072-UY","2019/08/26 19:49:45","新北市板橋區國泰街39巷9弄15號","121.468975","25.0053716666667","6500100","板橋區"
"220086","073-UY","2019/08/26 19:49:45","新北市板橋區中正路236巷16號","121.456435","25.019085","6500100","板橋區"
"220106","075-UY","2019/08/26 19:49:41","新北市板橋區懷德街13號","121.476828333333","25.0329183333333","6500100","板橋區"
"220069","AAD-861","2019/08/26 19:49:28","新北市板橋區貴興路49號","121.45731","25.0032016666667","6500100","板橋區"
"220068","120-SR","2019/08/26 19:49:31","新北市板橋區光復街156巷2號","121.484783333333","25.01951","6500100","板橋區"
"247004","893-R6","2019/08/26 19:49:38","新北市蘆洲區中原路73號","121.458496666667","25.08183","6501400","蘆洲區"
"247002","336-TH","2019/08/26 19:49:32","新北市蘆洲區永平街20號","121.459105","25.090635","6501400","蘆洲區"
"247016","053-VK","2019/08/26 19:49:45","新北市蘆洲區中正路251號","121.467601666667","25.0870316666667","6501400","蘆洲區"
"226004","312-R5","2019/08/26 19:49:30","新北市平溪區十分里十分街59號","121.775676666667","25.041545","6502400","平溪區"
"228003","097-TW","2019/08/26 19:49:35","新北市貢寮區真理里美艷山街3-1號","121.925735","25.05959","6502600","貢寮區"
"228001","670-TC","2019/08/26 19:49:28","新北市貢寮區真理里新港街90號","121.927603333333","25.0564516666667","6502600","貢寮區"
"224010","AGQ-8101","2019/08/26 19:49:31","新北市瑞芳區輕便路282號","121.843998333333","25.10919","6501200","瑞芳區"
"224002","639-TC","2019/08/26 19:49:33","新北市瑞芳區民享新村7號","121.817035","25.1054666666667","6501200","瑞芳區"
"227002","642-TC","2019/08/26 19:49:30","新北市雙溪區雙溪里內挖路47號","121.863203333333","25.03678","6502500","雙溪區"
"227001","400-TW","2019/08/26 19:49:36","新北市雙溪區新基里中華路63號","121.865796666667","25.038085","6502500","雙溪區"
"208002","KEA-2872","2019/08/26 19:49:35","新北市金山區中山路373號","121.63443","25.2246666666667","6502700","金山區"
"208003","665-BX","2019/08/26 19:49:49","新北市金山區清泉里清水路36號","121.629875","25.23129","6502700","金山區"
"251009","008-UM","2019/08/26 19:49:36","新北市淡水區中山路157-3號","121.4407","25.172925","6501000","淡水區"
"251004","009-UM","2019/08/26 19:49:28","新北市淡水區民權路185巷17號","121.46041","25.1338866666667","6501000","淡水區"
"251005","010-UM","2019/08/26 19:49:28","新北市淡水區中正東路6號","121.446948333333","25.1672383333333","6501000","淡水區"
"251001","011-UM","2019/08/26 19:49:41","新北市淡水區中正東路二段7號","121.458091666667","25.158395","6501000","淡水區"
"251015","KEA-2871","2019/08/26 19:49:47","新北市淡水區山子頂24-1號","121.491473333333","25.187315","6501000","淡水區"
"251016","179-VK","2019/08/26 19:49:45","新北市淡水區三塊厝3-3號","121.45649","25.20958","6501000","淡水區"
"251013","180-VK","2019/08/26 19:49:44","新北市淡水區頂田寮路168號","121.459686666667","25.21566","6501000","淡水區"
"251008","181-VK","2019/08/26 19:49:46","新北市淡水區中正路一段24巷11號","121.426646666667","25.1771233333333","6501000","淡水區"
"251007","182-VK","2019/08/26 19:49:42","新北市淡水區竿蓁一街56號","121.452965","25.1663583333333","6501000","淡水區"
"251012","441-VK","2019/08/26 19:49:30","新北市淡水區淡金路三段64號","121.448226666667","25.1998266666667","6501000","淡水區"
"251006","561-UM","2019/08/26 19:49:45","新北市淡水區水碓街15號","121.443521666667","25.17696","6501000","淡水區"
"251014","577-R6","2019/08/26 19:49:40","新北市淡水區番社前1-8號","121.468316666667","25.236035","6501000","淡水區"
"251011","650-BX","2019/08/26 19:49:39","新北市淡水區中正東路二段5巷31號","121.460618333333","25.1585016666667","6501000","淡水區"
"251002","672-BX","2019/08/26 19:49:45","新北市淡水區崁頂146號","121.43035","25.205885","6501000","淡水區"
"207003","550-UM","2019/08/26 19:49:29","新北市萬里區大鵬里下社9-4號","121.64705","25.2172666666667","6502800","萬里區"
"207004","291-VK","2019/08/26 19:49:35","新北市萬里區萬里里瑪鋉路207號","121.69034","25.1794483333333","6502800","萬里區"
"252002","178-VK","2019/08/26 19:49:45","新北市三芝區三民街33-1號","121.504636666667","25.25851","6502100","三芝區"
"208001","170-UY","2019/08/26 19:49:41","新北市金山區重和里六股林口19號","121.603648333333","25.218195","6502700","金山區"
"237004","KEA-2597","2019/08/26 19:49:39","新北市三峽區添福263號","121.375456666667","24.893725","6500900","三峽區"
"237007","153-BY","2019/08/26 19:49:29","新北市三峽區二鬮路110巷56號","121.357898333333","24.91022","6500900","三峽區"
"237009","210-TH","2019/08/26 19:49:30","新北市三峽區清水街426號","121.368728333333","24.9261416666667","6500900","三峽區"
"237013","252-BX","2019/08/26 19:49:29","新北市三峽區溪北街78號","121.397625","24.935585","6500900","三峽區"
"237012","275-BY","2019/08/26 19:49:29","新北市三峽區光明路15號","121.373073333333","24.9313766666667","6500900","三峽區"
"237008","302-VK","2019/08/26 19:49:39","新北市三峽區安溪路343號","121.370061666667","24.92648","6500900","三峽區"
"237014","433-BY","2019/08/26 19:49:28","新北市三峽區中正路二段66號","121.366561666667","24.918315","6500900","三峽區"
"237006","5529-G3","2019/08/26 19:49:35","新北市三峽區中正路一段336巷15弄2號","121.369956666667","24.9249616666667","6500900","三峽區"
"237011","KEA-2596","2019/08/26 19:49:41","新北市三峽區中正路一段328-2號","121.3713","24.92482","6500900","三峽區"
"237015","649-BX","2019/08/26 19:49:37","新北市三峽區溪東路367號","121.41164","24.9293433333333","6500900","三峽區"
"237010","706-TV","2019/08/26 19:49:33","新北市三峽區復興路47號","121.373398333333","24.9369616666667","6500900","三峽區"
"237005","AKY-6261","2019/08/26 19:49:32","新北市三峽區民生街111號","121.373903333333","24.935395","6500900","三峽區"
"236042","KED-0685","2019/08/26 19:49:37","新北市土城區金城路二段245巷21號","121.455076666667","24.983505","6501300","土城區"
"236078","166-UM","2019/08/26 19:49:37","新北市土城區溪頭路155號","121.409138333333","24.9506916666667","6501300","土城區"
"236030","253-BX","2019/08/26 19:49:45","新北市土城區中央路一段290號","121.443328333333","24.9824166666667","6501300","土城區"
"236026","269-VK","2019/08/26 19:49:41","新北市土城區中央路二段61巷36號","121.443673333333","24.9787066666667","6501300","土城區"
"236069","KEA-2877","2019/08/26 19:49:39","新北市土城區中央路二段252號","121.441663333333","24.9746916666667","6501300","土城區"
"252001","KED-0821","2019/08/26 19:49:48","新北市三芝區公正街66號","121.499883333333","25.2574916666667","6502100","三芝區"
"236020","401-BY","2019/08/26 19:49:36","新北市土城區峰廷街41號","121.46971","24.9862233333333","6501300","土城區"
"236059","912-UM","2019/08/26 19:49:45","新北市土城區中央路一段100號","121.446806666667","24.9884666666667","6501300","土城區"
"236048","913-UM","2019/08/26 19:49:30","新北市土城區青雲路220號","121.45899","24.9813333333333","6501300","土城區"
"236063","915-UM","2019/08/26 19:49:35","新北市土城區延和路105巷5弄1號","121.467318333333","24.9910883333333","6501300","土城區"
"236055","AAC-216","2019/08/26 19:49:39","新北市土城區延和路203號","121.469568333333","24.99016","6501300","土城區"
"242031","AAC-296","2019/08/26 19:49:34","新北市新莊區公園一路112號","121.444905","25.0379083333333","6500500","新莊區"
"242060","986-R7","2019/08/26 19:49:46","新北市新莊區瓊林路59-75號","121.44411","25.0272483333333","6500500","新莊區"
"242002","751-BX","2019/08/26 19:49:48","新北市新莊區瓊林路1-1號","121.450621666667","25.0321283333333","6500500","新莊區"
"242039","442-UM","2019/08/26 19:49:34","新北市新莊區民安路299巷49號","121.429628333333","25.0234933333333","6500500","新莊區"
"242004","440-UM","2019/08/26 19:49:32","新北市新莊區化成路63巷24弄13號","121.462755","25.0458983333333","6500500","新莊區"
"242048","400-BY","2019/08/26 19:49:37","新北市新莊區後港一路28巷16弄2號","121.425538333333","25.0250283333333","6500500","新莊區"
"242025","362-BY","2019/08/26 19:49:32","新北市新莊區五權一路12巷21弄1號","121.457701666667","25.064475","6500500","新莊區"
"242023","353-BY","2019/08/26 19:49:41","新北市新莊區化成路160號","121.465518333333","25.04524","6500500","新莊區"
"242013","132-UY","2019/08/26 19:49:41","新北市新莊區中泰街64號","121.450156666667","25.0468816666667","6500500","新莊區"
"242036","135-UY","2019/08/26 19:49:33","新北市新莊區建安街70號","121.426863333333","25.0244733333333","6500500","新莊區"
"242015","173-VK","2019/08/26 19:49:43","新北市新莊區新泰路357巷3弄41號","121.44233","25.0402716666667","6500500","新莊區"
"242034","348-TH","2019/08/26 19:49:38","新北市新莊區仁愛街54巷12號","121.444971666667","25.0370683333333","6500500","新莊區"
"242007","349-TH","2019/08/26 19:49:38","新北市新莊區新北大道三段7號","121.458096666667","25.0603866666667","6500500","新莊區"
"238015","755-BX","2019/08/26 19:49:41","新北市樹林區中山路一段135-4號","121.422386666667","24.9898033333333","6500700","樹林區"
"238023","601-UM","2019/08/26 19:49:27","新北市樹林區中正路105號","121.424975","25.0011216666667","6500700","樹林區"
"238019","599-UM","2019/08/26 19:49:40","新北市樹林區中華路188號","121.41368","24.98053","6500700","樹林區"
"238024","5061-A6","2019/08/26 19:49:43","新北市樹林區佳園路一段80巷46號","121.3919","24.9695716666667","6500700","樹林區"
"238022","KEA-2213","2019/08/26 19:49:34","新北市樹林區國凱街50巷7號","121.420615","24.978345","6500700","樹林區"
"238021","KEA-2539","2019/08/26 19:49:40","新北市樹林區佳園路三段101巷146號","121.399131666667","24.95041","6500700","樹林區"
"238025","303-VK","2019/08/26 19:49:41","新北市樹林區中山路二段34號","121.417396666667","24.98499","6500700","樹林區"
"238017","283-BY","2019/08/26 19:49:28","新北市樹林區保安街二段167巷32號","121.413903333333","25.0027966666667","6500700","樹林區"
"238014","282-BY","2019/08/26 19:49:27","新北市樹林區千歲街34號","121.425688333333","24.99658","6500700","樹林區"
"238026","172-UY","2019/08/26 19:49:38","新北市樹林區佳園路二段86巷82號","121.390526666667","24.9589066666667","6500700","樹林區"
"239007","AAC-297","2019/08/26 19:49:41","新北市鶯歌區大湖路326巷24號","121.346205","24.9698766666667","6500800","鶯歌區"
"239006","891-R6","2019/08/26 19:49:40","新北市鶯歌區建國路512巷30號","121.339843333333","24.9512166666667","6500800","鶯歌區"
"239001","417-VK","2019/08/26 19:49:49","新北市鶯歌區尖山埔路126號","121.343928333333","24.9499233333333","6500800","鶯歌區"
"239002","359-BY","2019/08/26 19:49:29","新北市鶯歌區湖山路56巷1號","121.339555","24.9756283333333","6500800","鶯歌區"
"239004","193-VK","2019/08/26 19:49:44","新北市鶯歌區二甲路83-8號","121.340216666667","24.93184","6500800","鶯歌區"
"221008","489-VK","2019/08/26 19:49:35","新北市汐止區康寧街61巷22弄3號","121.619551666667","25.0670633333333","6501100","汐止區"
"221010","269-BY","2019/08/26 19:49:48","新北市汐止區汐萬路二段23巷1號","121.649401666667","25.0806433333333","6501100","汐止區"
"221012","278-VK","2019/08/26 19:49:31","新北市汐止區茄安路235號","121.678915","25.0706583333333","6501100","汐止區"
"221023","279-VK","2019/08/26 19:49:43","新北市汐止區中興路276號","121.628708333333","25.0690633333333","6501100","汐止區"
"221029","298-VK","2019/08/26 19:49:14","新北市汐止區康寧街901號","121.651475","25.0749516666667","6501100","汐止區"
"221021","299-VK","2019/08/26 19:49:43","新北市汐止區青山路41-1號","121.656568333333","25.061365","6501100","汐止區"
"221031","353-TW","2019/08/26 19:49:42","新北市汐止區翠峰街21巷3弄16號","121.64427","25.0757816666667","6501100","汐止區"
"221025","623-UM","2019/08/26 19:49:42","新北市汐止區秀峰路81巷23號","121.661036666667","25.06474","6501100","汐止區"
"221038","646-BX","2019/08/26 19:49:37","新北市汐止區忠孝東路409號","121.665841666667","25.0712266666667","6501100","汐止區"
"221033","647-BX","2019/08/26 19:49:46","新北市汐止區東勢街78號","121.633223333333","25.0403666666667","6501100","汐止區"
"220079","145-BY","2019/08/26 19:49:27","新北市板橋區民權路202巷18弄1號","121.460868333333","25.0167166666667","6500100","板橋區"
"220082","610-BX","2019/08/26 19:49:44","新北市板橋區大觀路三段191號","121.431945","24.9936866666667","6500100","板橋區"
"220056","276-BY","2019/08/26 19:49:36","新北市板橋區四川路二段47巷2弄1號","121.454106666667","24.9949416666667","6500100","板橋區"
"220072","277-BY","2019/08/26 19:49:37","新北市板橋區金門街151巷40弄2號","121.433548333333","24.9903083333333","6500100","板橋區"
"220101","280-UM","2019/08/26 19:49:48","新北市板橋區莊敬路257號","121.473631666667","25.021475","6500100","板橋區"
"220071","283-VK","2019/08/26 19:49:40","新北市板橋區和平路174巷25號","121.464651666667","24.9945233333333","6500100","板橋區"
"220094","285-UM","2019/08/26 19:49:36","新北市板橋區雨農路15號","121.462215","25.0245383333333","6500100","板橋區"
"220053","285-VK","2019/08/26 19:49:45","新北市板橋區中山路二段60巷1弄27號","121.475156666667","25.0158266666667","6500100","板橋區"
"220083","286-VK","2019/08/26 19:49:46","新北市板橋區龍興街65巷82號","121.441863333333","25.0022383333333","6500100","板橋區"
"220081","287-VK","2019/08/26 19:49:32","新北市板橋區大觀路一段29巷131弄29號","121.450581666667","25.00464","6500100","板橋區"
"220090","288-VK","2019/08/26 19:49:40","新北市板橋區英士路192-1號","121.458558333333","25.0234616666667","6500100","板橋區"
"220061","293-UM","2019/08/26 19:49:31","新北市板橋區觀光街1巷2號","121.472111666667","25.0154833333333","6500100","板橋區"
"220062","295-UM","2019/08/26 19:49:37","新北市板橋區三民路二段81巷27弄31號","121.481411666667","25.017615","6500100","板橋區"
"220084","296-UM","2019/08/26 19:49:45","新北市板橋區溪崑二街118巷3號","121.425558333333","24.9886816666667","6500100","板橋區"
"220075","303-R5","2019/08/26 19:49:46","新北市板橋區大勇街8巷1號","121.454041666667","25.0171066666667","6500100","板橋區"
"220092","307-R5","2019/08/26 19:49:44","新北市板橋區幸福路32巷2弄24號","121.461053333333","25.0216883333333","6500100","板橋區"
"220098","317-R6","2019/08/26 19:49:48","新北市板橋區四維路269巷62號","121.460756666667","25.027205","6500100","板橋區"
"220089","487-VK","2019/08/26 19:49:33","新北市板橋區四維路232號","121.463588333333","25.0279183333333","6500100","板橋區"
"220088","491-VK","2019/08/26 19:49:45","新北市板橋區懷德街181巷3號","121.479451666667","25.0300966666667","6500100","板橋區"
"220103","561-BX","2019/08/26 19:49:43","新北市板橋區英士路60號","121.460866666667","25.0248466666667","6500100","板橋區"
"220080","568-UM","2019/08/26 19:49:28","新北市板橋區大觀路二段37巷48號","121.448938333333","25.002615","6500100","板橋區"
"220063","609-BX","2019/08/26 19:49:48","新北市板橋區三民路一段3巷2號","121.4789","25.0235183333333","6500100","板橋區"
"220091","637-BX","2019/08/26 19:49:46","新北市板橋區懷德街127巷23弄7號","121.479266666667","25.03167","6500100","板橋區"
"220057","686-BX","2019/08/26 19:49:42","新北市板橋區德興街20號","121.453418333333","24.9942933333333","6500100","板橋區"
"220077","687-BX","2019/08/26 19:49:39","新北市板橋區僑中二街116巷2號","121.445651666667","25.0065033333333","6500100","板橋區"
"220093","689-BX","2019/08/26 19:49:39","新北市板橋區文化路二段606號","121.477471666667","25.0352166666667","6500100","板橋區"
"220054","741-BX","2019/08/26 19:49:45","新北市板橋區忠孝路239巷10號","121.466503333333","25.0031966666667","6500100","板橋區"
"220102","KEA-2699","2019/08/26 19:49:47","新北市板橋區雙十路二段138-1號","121.473765","25.02926","6500100","板橋區"
"220055","827-TW","2019/08/26 19:49:46","新北市板橋區國慶路149巷21弄12號","121.460261666667","24.997345","6500100","板橋區"
"220067","831-TW","2019/08/26 19:49:34","新北市板橋區民生路一段19號","121.475","25.011455","6500100","板橋區"
"220074","895-R6","2019/08/26 19:49:36","新北市板橋區大東街34號","121.456535","25.008745","6500100","板橋區"
"220073","985-R7","2019/08/26 19:49:41","新北市板橋區國光路51號","121.458053333333","25.0178633333333","6500100","板橋區"
"220097","AAC-210","2019/08/26 19:49:29","新北市板橋區光正街18巷2號","121.462761666667","25.017175","6500100","板橋區"
"220064","AAC-253","2019/08/26 19:49:38","新北市板橋區民族路243號","121.470078333333","25.0070233333333","6500100","板橋區"
"235068","KEA-2873","2019/08/26 19:49:18","新北市中和區莊敬路1-6號","121.499535","25.0043416666667","6500300","中和區"
