"lineid","car","time","location","longitude","latitude","cityid","cityname"
"234046","148-BY","2019/08/26 20:09:29","新北市永和區成功路一段116號","121.526806666667","25.0023833333333","6500400","永和區"
"234081","298-R6","2019/08/26 20:09:41","新北市永和區國中路1號","121.523813333333","25.0044533333333","6500400","永和區"
"234038","336-UY","2019/08/26 20:09:36","新北市永和區成功路一段124號","121.526745","25.0022833333333","6500400","永和區"
"234064","337-UY","2019/08/26 20:09:29","新北市永和區永元路94號","121.52245","25.0017116666667","6500400","永和區"
"234086","338-UY","2019/08/26 20:09:45","新北市永和區福和路100號","121.522265","25.007995","6500400","永和區"
"234070","552-UM","2019/08/26 20:09:39","新北市永和區福和路196號","121.520006666667","25.0078083333333","6500400","永和區"
"234017","745-BX","2019/08/26 20:09:33","新北市永和區文化路170號","121.511928333333","25.0154616666667","6500400","永和區"
"234030","746-BX","2019/08/26 20:09:29","新北市永和區民權路49巷5弄32號","121.522063333333","24.99783","6500400","永和區"
"234054","KEA-2590","2019/08/26 20:09:46","新北市永和區博愛街1-1號","121.5165","25.015835","6500400","永和區"
"234007","KED-0605","2019/08/26 20:09:40","新北市永和區仁愛路306巷35弄2號","121.50205","25.00861","6500400","永和區"
"234013","KEA-2591","2019/08/26 20:09:42","新北市永和區永貞路431號","121.506938333333","25.0098316666667","6500400","永和區"
"234061","AAD-866","2019/08/26 20:09:37","新北市永和區中正路151巷1-1號","121.516368333333","24.998255","6500400","永和區"
"234042","862-TW","2019/08/26 20:09:44","新北市永和區雙和街43號","121.508921666667","25.002845","6500400","永和區"
"234050","863-TW","2019/08/26 20:09:44","新北市永和區環河西路二段151號","121.505613333333","25.013995","6500400","永和區"
"234026","9371-KE","2019/08/26 20:09:38","新北市永和區保生路55-1號","121.504561666667","25.0108783333333","6500400","永和區"
"249005","172-UM","2019/08/26 20:09:47","新北市八里區下罟子61-10號","121.38697","25.1360783333333","6502300","八里區"
"249001","173-UM","2019/08/26 20:09:34","新北市八里區中華路二段320號","121.403446666667","25.14804","6502300","八里區"
"249004","303-UY","2019/08/26 20:09:43","新北市八里區中山路一段157巷67號","121.41228","25.1577633333333","6502300","八里區"
"249002","305-UY","2019/08/26 20:09:41","新北市五股區成泰路四段22巷46-3號","121.458401666667","25.1132733333333","6502300","八里區"
"249003","593-UM","2019/08/26 20:09:45","新北市八里區中山路二段540巷9弄28號","121.396403333333","25.1465866666667","6502300","八里區"
"248016","026-BX","2019/08/26 20:09:48","新北市五股區成泰路三段577巷80弄72號","121.448973333333","25.104775","6501500","五股區"
"248008","KED-0815","2019/08/26 20:09:27","","121.469793333333","25.0706266666667","6501500","五股區"
"248018","KED-0813","2019/08/26 20:09:34","","121.431613333333","25.069325","6501500","五股區"
"248012","247-BX","2019/08/26 20:09:44","新北市五股區六合街70號","121.431895","25.0901166666667","6501500","五股區"
"248010","272-BY","2019/08/26 20:09:36","新北市五股區成泰路一段7巷48弄8號","121.432695","25.0678733333333","6501500","五股區"
"248004","677-BX","2019/08/26 20:09:34","","121.43505","25.0757833333333","6501500","五股區"
"248002","678-BX","2019/08/26 20:09:33","新北市五股區成泰路三段369-1號","121.448901666667","25.0960833333333","6501500","五股區"
"234023","9380-KE","2019/08/26 20:09:20","新北市永和區永和路二段35號","121.514366666667","25.010415","6500400","永和區"
"234077","969-R7","2019/08/26 20:09:42","新北市永和區民光街18號","121.515783333333","24.9958966666667","6500400","永和區"
"234074","AAC-211","2019/08/26 20:09:45","新北市永和區豫溪街159-1號","121.521321666667","25.0103983333333","6500400","永和區"
"234067","AAC-212","2019/08/26 20:09:43","新北市永和區保平路214巷9號","121.508991666667","25.0067116666667","6500400","永和區"
"234003","AAC-295","2019/08/26 20:09:31","","121.516953333333","25.007745","6500400","永和區"
"243012","AAD-798","2019/08/26 20:09:43","新北市泰山區楓江路24號","121.434135","25.0624116666667","6501600","泰山區"
"243010","297-R6","2019/08/26 20:09:36","新北市泰山區明志路二段136巷21弄6號","121.42596","25.0518716666667","6501600","泰山區"
"243014","KEA-2801","2019/08/26 20:09:31","新北市泰山區明志路一段68號","121.4335","25.064635","6501600","泰山區"
"243016","421-VK","2019/08/26 20:09:34","新北市泰山區明志路三段409號","121.421225","25.03401","6501600","泰山區"
"243009","KEA-2215","2019/08/26 20:09:30","新北市泰山區泰林路二段116巷3弄2號","121.435223333333","25.059605","6501600","泰山區"
"243011","KEA-2216","2019/08/26 20:09:31","新北市新莊區丹鳳街36號","121.42163","25.029595","6501600","泰山區"
"243015","680-BX","2019/08/26 20:09:37","新北市泰山區明志路二段68號","121.428846666667","25.05251","6501600","泰山區"
"222003","436-BY","2019/08/26 20:09:39","新北市深坑區埔新街62號","121.620101666667","25.002465","6501800","深坑區"
"222001","628-TS","2019/08/26 20:09:41","新北市深坑區北深路三段191號","121.601213333333","25.00364","6501800","深坑區"
"222002","659-BX","2019/08/26 20:09:40","新北市深坑區北深路三段192巷8號","121.6021","25.0040483333333","6501800","深坑區"
"231061","002-UM","2019/08/26 20:09:38","新北市新店區安興路32號","121.515576666667","24.970095","6500600","新店區"
"231055","0291-UT","2019/08/26 20:09:41","新北市新店區中華路48巷30號","121.54082","24.9692233333333","6500600","新店區"
"231044","046-UY","2019/08/26 20:09:30","新北市新店區寶慶街66號","121.541988333333","24.986865","6500600","新店區"
"231060","106-UY","2019/08/26 20:09:26","新北市新店區安康路三段356-1號","121.486111666667","24.95171","6500600","新店區"
"231051","107-UY","2019/08/26 20:09:36","新北市新店區中央路192號","121.530898333333","24.97472","6500600","新店區"
"231049","108-UY","2019/08/26 20:09:42","新北市新店區北新路二段139巷12弄2號","121.542198333333","24.97601","6500600","新店區"
"231065","110-UY","2019/08/26 20:09:41","新北市新店區安祥路106巷274號","121.472898333333","24.958585","6500600","新店區"
"231068","187-VK","2019/08/26 20:09:42","新北市新店區中興路三段202號","121.543903333333","24.981955","6500600","新店區"
"221035","KEA-2785","2019/08/26 20:09:44","新北市汐止區長江街39巷22號","121.655346666667","25.072155","6501100","汐止區"
"231062","256-BX","2019/08/26 20:09:42","新北市新店區安康路一段222-1號","121.522761666667","24.9637316666667","6500600","新店區"
"231054","260-TV","2019/08/26 20:09:31","新北市新店區檳榔路34號","121.541513333333","24.9638816666667","6500600","新店區"
"231042","268-BY","2019/08/26 20:09:37","新北市新店區中興路二段61號","121.546623333333","24.9705416666667","6500600","新店區"
"231064","278-BY","2019/08/26 20:09:34","新北市新店區安德街2號","121.51238","24.962875","6500600","新店區"
"231050","AAD-862","2019/08/26 20:09:39","新北市新店區北新路一段90號","121.541898333333","24.9685266666667","6500600","新店區"
"231045","355-BY","2019/08/26 20:09:44","新北市新店區北宜路二段39-1號","121.54877","24.9514183333333","6500600","新店區"
"231056","4715-K9","2019/08/26 20:09:44","新北市新店區中正路275巷35號","121.536713333333","24.9726533333333","6500600","新店區"
"231067","4772-VM","2019/08/26 20:09:28","新北市新店區溪洲路6巷5號","121.533965","24.961435","6500600","新店區"
"231052","513-UM","2019/08/26 20:09:30","新北市新店區新烏路三段寶島巷2弄3號","121.552015","24.89861","6500600","新店區"
"231041","618-UM","2019/08/26 20:09:43","新北市新店區中正路460號","121.533988333333","24.97934","6500600","新店區"
"231063","641-BX","2019/08/26 20:09:46","新北市新店區黎明路59巷2號","121.502451666667","24.9473433333333","6500600","新店區"
"231047","KED-0819","2019/08/26 20:09:44","新北市新店區寶橋路103號","121.548248333333","24.9768583333333","6500600","新店區"
"231057","720-UM","2019/08/26 20:09:31","新北市新店區百齡一路12號","121.553068333333","24.932485","6500600","新店區"
"231059","897-TW","2019/08/26 20:09:45","新北市新店區安德街80號","121.510075","24.9615116666667","6500600","新店區"
"231040","898-TW","2019/08/26 20:09:27","新北市新店區中正路28號","121.545236666667","24.969785","6500600","新店區"
"231043","899-TW","2019/08/26 20:09:29","新北市新店區民族路162號","121.53744","24.97665","6500600","新店區"
"231066","AKT-0513","2019/08/26 20:09:26","新北市新店區薏仁坑路6號","121.500041666667","24.9582883333333","6500600","新店區"
"241011","013-R5","2019/08/26 20:09:41","新北市三重區秀江街265號","121.495685","25.071255","6500200","三重區"
"241028","022-UY","2019/08/26 20:09:46","新北市三重區仁化街118號","121.494383333333","25.0581133333333","6500200","三重區"
"241008","059-VK","2019/08/26 20:09:38","新北市三重區永福街197巷27號","121.478543333333","25.0744266666667","6500200","三重區"
"241029","060-VK","2019/08/26 20:09:42","新北市三重區光明路32巷28號","121.49201","25.058715","6500200","三重區"
"241031","061-VK","2019/08/26 20:09:49","新北市三重區過圳街9-1號","121.488878333333","25.06018","6500200","三重區"
"241015","062-VK","2019/08/26 20:09:44","新北市三重區福德北路24號","121.502235","25.0648566666667","6500200","三重區"
"241024","065-VK","2019/08/26 20:09:40","新北市三重區力行路一段265號","121.48233","25.0712133333333","6500200","三重區"
"241002","090-VK","2019/08/26 20:09:32","新北市三重區仁忠街43號","121.495358333333","25.08179","6500200","三重區"
"241003","091-VK","2019/08/26 20:09:32","新北市三重區仁愛街443號","121.490158333333","25.0821366666667","6500200","三重區"
"241004","742-BX","2019/08/26 20:09:42","新北市三重區仁愛街415號","121.490746666667","25.081395","6500200","三重區"
"241006","262-UM","2019/08/26 20:09:35","新北市三重區力行路二段103號","121.482773333333","25.0761583333333","6500200","三重區"
"241016","266-UM","2019/08/26 20:09:29","新北市三重區大同北路91號","121.494781666667","25.0636783333333","6500200","三重區"
"241009","267-UM","2019/08/26 20:09:35","新北市三重區力行路二段206號","121.483601666667","25.077855","6500200","三重區"
"241018","268-UM","2019/08/26 20:09:44","新北市三重區雙園街57巷23-3號","121.494681666667","25.0682766666667","6500200","三重區"
"241032","269-UM","2019/08/26 20:09:31","新北市三重區捷運路65號","121.48344","25.05561","6500200","三重區"
"241013","270-UM","2019/08/26 20:09:33","新北市三重區三和路三段151巷33號","121.493478333333","25.0741933333333","6500200","三重區"
"241025","271-UM","2019/08/26 20:09:37","新北市三重區中正北路334號","121.478573333333","25.069245","6500200","三重區"
"241007","398-BY","2019/08/26 20:09:44","新北市三重區三和路四段111-13號","121.486898333333","25.0776683333333","6500200","三重區"
"241035","KEA-2210","2019/08/26 20:09:43","新北市三重區平安街7號","121.498783333333","25.06435","6500200","三重區"
"241030","KED-0822","2019/08/26 20:09:37","新北市三重區成功路145巷11號","121.487333333333","25.0526533333333","6500200","三重區"
"241020","478-VK","2019/08/26 20:09:29","新北市三重區後竹圍街2巷1弄1號","121.491845","25.073415","6500200","三重區"
"241026","480-VK","2019/08/26 20:09:47","新北市三重區福德南路65巷2號","121.502285","25.0604966666667","6500200","三重區"
"241014","543-UM","2019/08/26 20:09:47","新北市三重區長樂街57號","121.500678333333","25.0692583333333","6500200","三重區"
"241023","545-UM","2019/08/26 20:09:31","新北市三重區頂崁街239號","121.476933333333","25.068605","6500200","三重區"
"241001","547-UM","2019/08/26 20:09:42","新北市三重區溪尾街24-1號","121.491013333333","25.0763733333333","6500200","三重區"
"241019","KEA-2593","2019/08/26 20:09:38","新北市三重區自強路二段24號","121.489645","25.0692466666667","6500200","三重區"
"241005","AAD-863","2019/08/26 20:09:38","新北市三重區溪尾街263號","121.487851666667","25.0820116666667","6500200","三重區"
"241017","743-BX","2019/08/26 20:09:26","新北市三重區自強路一段157號","121.493413333333","25.0671766666667","6500200","三重區"
"241012","941-UM","2019/08/26 20:09:34","新北市三重區仁愛街125巷113號","121.499108333333","25.0765283333333","6500200","三重區"
"241033","AAC-255","2019/08/26 20:09:45","新北市三重區光復路一段61巷21號","121.47342","25.049315","6500200","三重區"
"235039","097-UM","2019/08/26 20:09:43","新北市中和區大勇街48號","121.51746","24.9940216666667","6500300","中和區"
"235065","098-UM","2019/08/26 20:09:47","新北市中和區橋和路300號","121.496978333333","25.007005","6500300","中和區"
"235040","150-BY","2019/08/26 20:09:44","新北市中和區保健路42號","121.509168333333","24.99731","6500300","中和區"
"235055","183-VK","2019/08/26 20:09:31","","121.464555","25.0301583333333","6500300","中和區"
"247014","KEA-2869","2019/08/26 20:09:34","新北市蘆洲區中山二路265巷35號","121.471215","25.07958","6501400","蘆洲區"
"247008","KED-0682","2019/08/26 20:09:40","新北市蘆洲區中山一路197巷1號","121.474486666667","25.08096","6501400","蘆洲區"
"235050","4979-A6","2019/08/26 20:09:45","新北市中和區安樂路8-1號","121.51172","24.9918433333333","6500300","中和區"
"235069","4980-A6","2019/08/26 20:09:45","新北市中和區景新街132巷8-4號","121.504598333333","24.99818","6500300","中和區"
"235070","558-UM","2019/08/26 20:09:32","新北市中和區永和路103巷15弄4號","121.495246666667","25.0074566666667","6500300","中和區"
"235066","911-UM","2019/08/26 20:09:46","新北市中和區水源路127巷2弄2號","121.508041666667","25.0040233333333","6500300","中和區"
"235051","157-BY","2019/08/26 20:09:39","新北市中和區景安路220巷16號","121.502846666667","24.991415","6500300","中和區"
"235059","AAC-215","2019/08/26 20:09:36","新北市中和區圓通路335巷3弄2號","121.492665","24.9899783333333","6500300","中和區"
"220035","015-TV","2019/08/26 20:09:28","新北市板橋區新生街53巷3弄9號","121.457031666667","25.0217133333333","6500100","板橋區"
"220065","072-UY","2019/08/26 20:09:45","新北市板橋區中山路一段154巷18號","121.464748333333","25.0111883333333","6500100","板橋區"
"220086","073-UY","2019/08/26 20:09:42","新北市板橋區館前西路160巷30號","121.452251666667","25.0091816666667","6500100","板橋區"
"220069","AAD-861","2019/08/26 20:09:48","新北市板橋區南雅南路二段114號","121.452835","25.0006766666667","6500100","板橋區"
"247004","893-R6","2019/08/26 20:09:38","新北市蘆洲區永安南路二段328巷17弄6號","121.456381666667","25.0840233333333","6501400","蘆洲區"
"247018","546-UM","2019/08/26 20:09:40","新北市蘆洲區民族路314巷11-1號","121.477911666667","25.090515","6501400","蘆洲區"
"247002","336-TH","2019/08/26 20:09:32","新北市蘆洲區長榮路317號","121.459215","25.0863183333333","6501400","蘆洲區"
"247022","057-VK","2019/08/26 20:09:47","新北市蘆洲區保和街24號","121.470506666667","25.0866666666667","6501400","蘆洲區"
"247012","056-VK","2019/08/26 20:09:41","新北市蘆洲區民族路250巷11號","121.479876666667","25.0890483333333","6501400","蘆洲區"
"247016","053-VK","2019/08/26 20:09:45","新北市蘆洲區光華路165號","121.465111666667","25.0820583333333","6501400","蘆洲區"
"247020","007-UY","2019/08/26 20:09:36","新北市蘆洲區民權路106巷5弄22號","121.474335","25.089195","6501400","蘆洲區"
"247006","002-UY","2019/08/26 20:09:29","新北市蘆洲區永安南路二段16巷8號","121.46776","25.0771933333333","6501400","蘆洲區"
"247024","001-UY","2019/08/26 20:09:44","新北市蘆洲區長樂路56巷15號","121.463566666667","25.08661","6501400","蘆洲區"
"226004","312-R5","2019/08/26 20:09:30","新北市平溪區靜安路二段536號","121.746705","25.02664","6502400","平溪區"
"228003","097-TW","2019/08/26 20:09:35","新北市貢寮區仁理村研海街20號","121.928548333333","25.0377733333333","6502600","貢寮區"
"224002","639-TC","2019/08/26 20:09:33","新北市瑞芳區員山子路23號","121.821543333333","25.1029433333333","6501200","瑞芳區"
"227002","642-TC","2019/08/26 20:09:30","新北市雙溪區魚行里新店74-1號","121.871943333333","25.030275","6502500","雙溪區"
"208003","665-BX","2019/08/26 20:09:29","新北市金山區海興路1-3號","121.63417","25.2463","6502700","金山區"
"251009","008-UM","2019/08/26 20:09:36","新北市淡水區英專路2巷24號","121.446468333333","25.1692516666667","6501000","淡水區"
"251004","009-UM","2019/08/26 20:09:28","新北市淡水區民族路29巷24-1號","121.461706666667","25.13666","6501000","淡水區"
"251001","011-UM","2019/08/26 20:09:41","新北市淡水區淡金路二段15號","121.446351666667","25.189185","6501000","淡水區"
"251010","012-UM","2019/08/26 20:09:38","新北市淡水區崁頂五路303號","121.424185","25.1976833333333","6501000","淡水區"
"251015","KEA-2871","2019/08/26 20:09:27","新北市淡水區泉洲厝25-8號","121.484005","25.18987","6501000","淡水區"
"251016","179-VK","2019/08/26 20:09:25","新北市淡水區番子田16-12號","121.453966666667","25.2311116666667","6501000","淡水區"
"251013","180-VK","2019/08/26 20:09:44","新北市淡水區奎柔山路576號","121.468145","25.2051016666667","6501000","淡水區"
"251008","181-VK","2019/08/26 20:09:26","新北市淡水區淡海路72巷30弄9號","121.424735","25.1826816666667","6501000","淡水區"
"251012","441-VK","2019/08/26 20:09:30","新北市淡水區淡金路三段224號","121.448953333333","25.204855","6501000","淡水區"
"251006","561-UM","2019/08/26 20:09:45","新北市淡水區北新路141巷2弄2號","121.449318333333","25.1791683333333","6501000","淡水區"
"251014","577-R6","2019/08/26 20:09:40","新北市淡水區石頭厝2號","121.45816","25.2358183333333","6501000","淡水區"
"251011","650-BX","2019/08/26 20:09:39","新北市淡水區崁頂57號","121.442761666667","25.1972083333333","6501000","淡水區"
"251002","672-BX","2019/08/26 20:09:45","新北市淡水區中正路332-1號","121.435838333333","25.173125","6501000","淡水區"
"251003","673-BX","2019/08/26 20:09:43","新北市淡水區中山北路二段1號","121.444285","25.183005","6501000","淡水區"
"207003","550-UM","2019/08/26 20:09:39","新北市萬里區大鵬里萬里加投166號","121.643466666667","25.2155416666667","6502800","萬里區"
"207004","291-VK","2019/08/26 20:09:35","新北市萬里區北基里仁一街30號","121.682436666667","25.1766683333333","6502800","萬里區"
"252002","178-VK","2019/08/26 20:09:45","新北市三芝區中正路一段72號","121.503961666667","25.2577416666667","6502100","三芝區"
"237012","275-BY","2019/08/26 20:09:49","新北市三峽區中華路115號","121.371341666667","24.9281116666667","6500900","三峽區"
"237014","433-BY","2019/08/26 20:09:48","新北市三峽區添福29-2號","121.373063333333","24.9035433333333","6500900","三峽區"
"237006","5529-G3","2019/08/26 20:09:35","新北市三峽區嘉添95號","121.37033","24.90955","6500900","三峽區"
"237015","649-BX","2019/08/26 20:09:37","新北市三峽區介壽路二段167號","121.394256666667","24.936","6500900","三峽區"
"237005","AKY-6261","2019/08/26 20:09:32","新北市三峽區三樹路44巷19號","121.378556666667","24.9375433333333","6500900","三峽區"
"236042","KED-0685","2019/08/26 20:09:37","新北市土城區學成路4號","121.453515","24.9864366666667","6501300","土城區"
"236078","166-UM","2019/08/26 20:09:37","新北市土城區福安街31號","121.419331666667","24.9647766666667","6501300","土城區"
"236030","253-BX","2019/08/26 20:09:45","新北市土城區中央路一段143巷1號","121.446946666667","24.98786","6501300","土城區"
"236026","269-VK","2019/08/26 20:09:28","新北市土城區中央路一段287號","121.444531666667","24.9843266666667","6501300","土城區"
"236014","270-VK","2019/08/26 20:09:35","新北市土城區德興街135號","121.455138333333","24.99178","6501300","土城區"
"236039","271-VK","2019/08/26 20:09:34","新北市土城區延吉街296巷1弄2號","121.464405","24.984475","6501300","土城區"
"247010","KED-0683","2019/08/26 20:09:46","新北市蘆洲區集賢路376號","121.480588333333","25.0830233333333","6501400","蘆洲區"
"236069","KEA-2877","2019/08/26 20:09:39","新北市土城區中央路三段173號","121.431615","24.9653233333333","6501300","土城區"
"252001","KED-0821","2019/08/26 20:09:28","新北市三芝區公正街9號","121.499725","25.2576183333333","6502100","三芝區"
"236020","401-BY","2019/08/26 20:09:36","新北市土城區延吉街111巷1弄1號","121.471503333333","24.9864833333333","6501300","土城區"
"236059","912-UM","2019/08/26 20:09:25","新北市土城區中央路二段241號","121.440148333333","24.9717333333333","6501300","土城區"
"236048","913-UM","2019/08/26 20:09:30","新北市土城區清水路117號","121.457375","24.9816916666667","6501300","土城區"
"236063","915-UM","2019/08/26 20:09:34","新北市土城區延和路12巷13號","121.46442","24.9873633333333","6501300","土城區"
"236055","AAC-216","2019/08/26 20:09:39","新北市土城區中華路一段217號","121.44226","24.9843366666667","6501300","土城區"
"242031","AAC-296","2019/08/26 20:09:34","新北市新莊區公園一路37號","121.443165","25.0355083333333","6500500","新莊區"
"242060","986-R7","2019/08/26 20:09:46","新北市新莊區瓊林路59-38號","121.441126666667","25.023425","6500500","新莊區"
"242002","751-BX","2019/08/26 20:09:48","新北市新莊區中正路147-17號","121.457303333333","25.03693","6500500","新莊區"
"242029","705-TV","2019/08/26 20:09:39","新北市新莊區中平路378號","121.444701666667","25.0534733333333","6500500","新莊區"
"242027","613-BX","2019/08/26 20:09:35","新北市新莊區中平路377巷16號","121.444131666667","25.0525483333333","6500500","新莊區"
"242058","612-BX","2019/08/26 20:09:40","新北市新莊區八德街160號","121.423545","25.0197866666667","6500500","新莊區"
"242046","566-BX","2019/08/26 20:09:36","新北市新莊區裕民街85巷9號","121.419131666667","25.0235383333333","6500500","新莊區"
"242050","497-BY","2019/08/26 20:09:32","新北市新莊區民安西路172巷3號","121.4256","25.0160033333333","6500500","新莊區"
"242039","442-UM","2019/08/26 20:09:33","新北市新莊區民安西路107號","121.426846666667","25.018435","6500500","新莊區"
"242056","441-UM","2019/08/26 20:09:44","新北市新莊區新莊路649巷15弄1號","121.444928333333","25.0314716666667","6500500","新莊區"
"242004","440-UM","2019/08/26 20:09:32","新北市新莊區頭興街52號","121.463705","25.053555","6500500","新莊區"
"242042","415-TV","2019/08/26 20:09:35","新北市新莊區青山路一段200-4號","121.397808333333","25.0317883333333","6500500","新莊區"
"242011","413-TV","2019/08/26 20:09:37","新北市新莊區中信街52號","121.449281666667","25.0508933333333","6500500","新莊區"
"242048","400-BY","2019/08/26 20:09:37","新北市新莊區後港二路25號","121.422385","25.0233466666667","6500500","新莊區"
"242025","362-BY","2019/08/26 20:09:43","新北市新莊區五工三路79號","121.458715","25.0648233333333","6500500","新莊區"
"242023","353-BY","2019/08/26 20:09:41","新北市新莊區化成路540-2號","121.466335","25.0533666666667","6500500","新莊區"
"242013","132-UY","2019/08/26 20:09:41","新北市新莊區中港路396號","121.452223333333","25.04969","6500500","新莊區"
"242036","135-UY","2019/08/26 20:09:29","新北市新莊區建安街9巷16號","121.42956","25.026635","6500500","新莊區"
"242053","172-VK","2019/08/26 20:09:28","新北市新莊區西盛街387巷34弄5號","121.428541666667","25.012955","6500500","新莊區"
"242015","173-VK","2019/08/26 20:09:43","新北市新莊區中平路6巷19號","121.445508333333","25.0426933333333","6500500","新莊區"
"242021","175-VK","2019/08/26 20:09:31","新北市新莊區中興街15巷1號","121.44906","25.0361566666667","6500500","新莊區"
"242019","347-TH","2019/08/26 20:09:29","新北市新莊區民樂街60號","121.45798","25.04185","6500500","新莊區"
"242034","348-TH","2019/08/26 20:09:43","新北市新莊區建中街95號","121.446743333333","25.0360516666667","6500500","新莊區"
"242007","349-TH","2019/08/26 20:09:38","新北市新莊區福壽街184巷19號","121.459238333333","25.0532783333333","6500500","新莊區"
"242017","351-TH","2019/08/26 20:09:41","新北市新莊區中港路409號","121.452193333333","25.0472583333333","6500500","新莊區"
"239006","891-R6","2019/08/26 20:09:40","新北市鶯歌區文化路72-4號","121.354931666667","24.9537683333333","6500800","鶯歌區"
"239002","359-BY","2019/08/26 20:09:37","新北市鶯歌區大湖路44號","121.342731666667","24.9616416666667","6500800","鶯歌區"
"221008","489-VK","2019/08/26 20:09:35","台北市內湖區康樂街138號","121.619353333333","25.0721916666667","6501100","汐止區"
"221036","130-UY","2019/08/26 20:09:36","新北市汐止區新台五路二段41巷1號","121.663045","25.06668","6501100","汐止區"
"221015","131-UY","2019/08/26 20:09:40","新北市汐止區建成路24號","121.664565","25.0726066666667","6501100","汐止區"
"221010","269-BY","2019/08/26 20:09:27","新北市汐止區連峰街244號","121.645043333333","25.080765","6501100","汐止區"
"221012","278-VK","2019/08/26 20:09:31","新北市汐止區大同路三段491號","121.679966666667","25.071175","6501100","汐止區"
"221023","279-VK","2019/08/26 20:09:43","新北市汐止區明峰街201號","121.627893333333","25.0694933333333","6501100","汐止區"
"221032","280-BY","2019/08/26 20:09:43","新北市汐止區橫科路18巷32弄8號","121.617506666667","25.0498533333333","6501100","汐止區"
"221027","281-BY","2019/08/26 20:09:29","新北市汐止區民生街1-1號","121.660153333333","25.0687516666667","6501100","汐止區"
"221029","298-VK","2019/08/26 20:09:34","新北市汐止區樟樹一路119巷8-6號","121.641355","25.0644216666667","6501100","汐止區"
"221021","299-VK","2019/08/26 20:09:43","新北市汐止區新台五路一段159號","121.654001666667","25.0625116666667","6501100","汐止區"
"221031","353-TW","2019/08/26 20:09:48","新北市汐止區福德一路262號","121.633015","25.06432","6501100","汐止區"
"221025","623-UM","2019/08/26 20:09:42","新北市汐止區秀峰路74號","121.659823333333","25.0642916666667","6501100","汐止區"
"221038","646-BX","2019/08/26 20:09:37","新北市汐止區忠孝東路528號","121.666941666667","25.07627","6501100","汐止區"
"221033","647-BX","2019/08/26 20:09:46","新北市汐止區東勢街201巷104號","121.63349","25.0428783333333","6501100","汐止區"
"221002","707-TV","2019/08/26 20:09:39","新北市汐止區伯爵街2巷5號","121.642251666667","25.0754883333333","6501100","汐止區"
"221018","753-BX","2019/08/26 20:09:32","新北市汐止區茄苳路321號","121.673685","25.0665233333333","6501100","汐止區"
"220079","145-BY","2019/08/26 20:09:47","新北市板橋區建國街94號","121.45973","25.0173116666667","6500100","板橋區"
"220082","610-BX","2019/08/26 20:09:44","新北市板橋區篤行路二段109號","121.431401666667","24.99109","6500100","板橋區"
"220101","280-UM","2019/08/26 20:09:44","新北市板橋區莊敬路40-2號","121.472926666667","25.02712","6500100","板橋區"
"220083","286-VK","2019/08/26 20:09:47","新北市板橋區僑中二街12巷28號","121.445628333333","25.01084","6500100","板橋區"
"220081","287-VK","2019/08/26 20:09:46","新北市板橋區僑中一街80巷14弄2號","121.448171666667","25.0133233333333","6500100","板橋區"
"220061","293-UM","2019/08/26 20:09:39","新北市板橋區四川路一段274巷1弄2號","121.458393333333","25.0012783333333","6500100","板橋區"
"220062","295-UM","2019/08/26 20:09:37","新北市板橋區光復街234號","121.484698333333","25.0218666666667","6500100","板橋區"
"242044","281-VK","2019/08/26 20:09:37","桃園市龜山區萬壽路一段21巷8號","121.410518333333","25.0203883333333","6500500","新莊區"
"220075","303-R5","2019/08/26 20:09:46","新北市板橋區金華街10巷105號","121.459218333333","25.0205033333333","6500100","板橋區"
"242009","280-VK","2019/08/26 20:09:42","新北市新莊區昌盛街35巷3弄2號","121.454088333333","25.05061","6500500","新莊區"
"220103","561-BX","2019/08/26 20:09:42","新北市板橋區漢生東路23巷56弄1號","121.466218333333","25.0182783333333","6500100","板橋區"
"220080","568-UM","2019/08/26 20:09:46","新北市板橋區大觀路二段169巷20號","121.446226666667","24.999865","6500100","板橋區"
"220077","687-BX","2019/08/26 20:09:34","新北市板橋區僑中一街124巷7號","121.44592","25.01256","6500100","板橋區"
"220054","741-BX","2019/08/26 20:09:45","新北市板橋區實踐路93巷10號","121.464521666667","25.0054566666667","6500100","板橋區"
"220055","827-TW","2019/08/26 20:09:39","新北市板橋區仁愛路86巷22-1號","121.4609","24.9986383333333","6500100","板橋區"
"220067","831-TW","2019/08/26 20:09:34","新北市板橋區中山路一段208號","121.46981","25.0137683333333","6500100","板橋區"
"220074","895-R6","2019/08/26 20:09:34","新北市板橋區縣民大道一段287號","121.460695","25.0102266666667","6500100","板橋區"
"220073","985-R7","2019/08/26 20:09:41","新北市板橋區南雅東路89號","121.453231666667","25.008635","6500100","板橋區"
"220097","AAC-210","2019/08/26 20:09:29","新北市板橋區文化路一段101巷11號","121.460713333333","25.0146366666667","6500100","板橋區"
"220064","AAC-253","2019/08/26 20:09:30","新北市板橋區長安街331巷6號","121.474308333333","25.01227","6500100","板橋區"
"235068","KEA-2873","2019/08/26 20:09:48","新北市中和區福祥路85巷2弄5號","121.49857","25.0059833333333","6500300","中和區"
