"lineid","car","time","location","longitude","latitude","cityid","cityname"
"232017","290-BY","2019/07/08 07:49:28","新北市坪林區坪雙路二段128號","121.755916666667","24.9619133333333","6502000","坪林區"
"232005","291-BY","2019/07/08 07:49:28","新北市坪林區魚堀48-5號","121.702796666667","24.9327216666667","6502000","坪林區"
"232010","375-UM","2019/07/08 07:49:46","新北市坪林區厚德岡坑3號","121.731223333333","24.9404316666667","6502000","坪林區"
"232012","705-BZ","2019/07/08 07:49:41","新北市坪林區金瓜寮23-1號","121.679275","24.91161","6502000","坪林區"
"232001","758-BX","2019/07/08 07:49:29","新北市坪林區下坑子口18-3號","121.710408333333","24.9469","6502000","坪林區"
"244001","248-BX","2019/07/08 07:49:31","新北市林口區頂福里75-5號","121.340898333333","25.0953816666667","6501700","林口區"
"244012","KEA-2802","2019/07/08 07:49:34","新北市林口區東林里4鄰64號","121.404903333333","25.0906366666667","6501700","林口區"
"244008","656-BX","2019/07/08 07:49:42","新北市林口區粉寮69號","121.405101666667","25.0908216666667","6501700","林口區"
"231008","718-UY","2019/07/08 07:49:38","新北市新店區安一路一段1-1號","121.519313333333","24.9612583333333","6500600","新店區"
"226001","7418-A5","2019/07/08 07:49:38","新北市平溪區平湖里大厝31號","121.780551666667","25.02844","6502400","平溪區"
"226003","AGD-0702","2019/07/08 07:36:45","新北市平溪區嶺腳里嶺腳寮85號","121.749441666667","25.0353833333333","6502400","平溪區"
"223003","205-TH","2019/07/08 07:49:42","新北市石碇區蛇舌子6-5號","121.664705","24.969305","6501900","石碇區"
"223008","406-TH","2019/07/08 07:32:37","新北市石碇區靜安路一段337號","121.698795","25.0146133333333","6501900","石碇區"
"223001","592-UM","2019/07/08 07:49:08","新北市石碇區蛇舌子3號","121.665091666667","24.9676683333333","6501900","石碇區"
"223004","660-BX","2019/07/08 07:49:34","新北市石碇區八分寮31-3號","121.643376666667","25.01212","6501900","石碇區"
"223007","661-BX","2019/07/08 07:48:12","新北市石碇區靜安路一段337號","121.698843333333","25.0144933333333","6501900","石碇區"
"227003","282-VK","2019/07/08 07:49:34","新北市雙溪區雙溪里大同街17號","121.864491666667","25.035155","6502500","雙溪區"
"252006","073-UM","2019/07/08 07:49:36","新北市三芝區古庄里四棧橋41號","121.481846666667","25.2636916666667","6502100","三芝區"
"252004","292-VK","2019/07/08 07:49:27","新北市三芝區店子里菜公坑102號","121.51748","25.20711","6502100","三芝區"
"237014","760-BX","2019/07/08 07:49:41","新北市三峽區插角220-2號","121.413981666667","24.8673","6500900","三峽區"
"226005","ANY-2373","2019/07/08 07:49:25","新北市平溪區嶺腳里中華街53號","121.739211666667","25.024835","6502400","平溪區"
"242038","AAC-296","2019/07/08 07:49:41","新北市新莊區民安路432號","121.434","25.0225966666667","6500500","新莊區"
"242059","986-R7","2019/07/08 07:49:39","新北市新莊區中正路473-1號","121.442011666667","25.03314","6500500","新莊區"
"242001","751-BX","2019/07/08 07:49:44","新北市新莊區瓊林路100巷1號","121.443456666667","25.0264416666667","6500500","新莊區"
"242028","615-BX","2019/07/08 07:49:30","新北市新莊區幸福路772號","121.446986666667","25.0491166666667","6500500","新莊區"
"242026","613-BX","2019/07/08 07:49:30","新北市新莊區復興路二段181號","121.45893","25.0444916666667","6500500","新莊區"
"242057","612-BX","2019/07/08 07:49:36","新北市新莊區新泰路357巷3弄57號","121.442026666667","25.03912","6500500","新莊區"
"242045","566-BX","2019/07/08 07:49:30","新北市新莊區新泰路357巷3弄19號","121.441963333333","25.04078","6500500","新莊區"
"242049","497-BY","2019/07/08 07:49:32","新北市新莊區瓊林南路12-3號","121.43625","25.0188716666667","6500500","新莊區"
"242055","441-UM","2019/07/08 07:49:36","新北市新莊區新莊路660號","121.442453333333","25.0328266666667","6500500","新莊區"
"242003","440-UM","2019/07/08 07:49:39","新北市新莊區中港一街151號","121.44768","25.0449666666667","6500500","新莊區"
"242040","415-TV","2019/07/08 07:49:29","新北市新莊區新樹路69號","121.43885","25.0299216666667","6500500","新莊區"
"242010","413-TV","2019/07/08 07:49:32","新北市新莊區中港路397號","121.451911666667","25.0468833333333","6500500","新莊區"
"242047","400-BY","2019/07/08 07:49:34","新北市新莊區福營路435號","121.42053","25.0260883333333","6500500","新莊區"
"242024","362-BY","2019/07/08 07:49:40","新北市新莊區中港一街155號","121.447526666667","25.0449766666667","6500500","新莊區"
"242022","353-BY","2019/07/08 07:49:34","新北市新莊區中港一街149號","121.447701666667","25.0450416666667","6500500","新莊區"
"242035","135-UY","2019/07/08 07:49:27","新北市新莊區新樹路69號","121.438826666667","25.029885","6500500","新莊區"
"242052","172-VK","2019/07/08 07:49:38","新北市新莊區新莊路771巷10號","121.442028333333","25.0318483333333","6500500","新莊區"
"242014","173-VK","2019/07/08 07:49:40","新北市新莊區三和路12-21號","121.442063333333","25.03869","6500500","新莊區"
"242020","175-VK","2019/07/08 07:49:33","新北市新莊區中港路281號","121.453253333333","25.0438133333333","6500500","新莊區"
"242018","KED-0687","2019/07/08 07:49:31","新北市新莊區新泰路279號","121.445685","25.0404466666667","6500500","新莊區"
"242030","346-TH","2019/07/08 07:49:38","新北市新莊區新泰路464號","121.443171666667","25.0448533333333","6500500","新莊區"
"242043","347-TH","2019/07/08 07:49:37","新北市新莊區中正路535-1號","121.43766","25.0331083333333","6500500","新莊區"
"242033","348-TH","2019/07/08 07:49:27","新北市新莊區新莊路773號","121.442016666667","25.03288","6500500","新莊區"
"242006","349-TH","2019/07/08 07:49:30","新北市新莊區新泰路500號","121.442156666667","25.046175","6500500","新莊區"
"242016","351-TH","2019/07/08 07:49:38","新北市新莊區中港一街161號","121.447175","25.0449233333333","6500500","新莊區"
"242008","280-VK","2019/07/08 07:49:40","新北市新莊區新泰路498號","121.442573333333","25.046125","6500500","新莊區"
