"lineid","car","time","location","longitude","latitude","cityid","cityname"
"222004","289-BY","2019/07/06 09:09:36","新北市深坑區王軍寮3號","121.616246666667","24.98614","6501800","深坑區"
"231007","189-VK","2019/07/06 09:09:41","新北市新店區新潭路三段215巷25號","121.50808","24.903955","6500600","新店區"
"231008","515-UM","2019/07/06 09:09:39","新北市新店區廣興路136號","121.535211666667","24.91108","6500600","新店區"
"226007","7418-A5","2019/07/06 09:09:27","新北市平溪區東勢里芊蓁坑3號","121.743135","25.002535","6502400","平溪區"
"226003","AGD-0702","2019/07/06 09:05:12","新北市平溪區望古里望古坑21-5號","121.760796666667","25.03356","6502400","平溪區"
"223003","205-TH","2019/07/06 09:09:40","新北市石碇區北宜路五段80號","121.64675","24.9513266666667","6501900","石碇區"
"223008","406-TH","2019/07/06 08:59:50","新北市石碇區光明路13號","121.679971666667","25.033615","6501900","石碇區"
"223001","592-UM","2019/07/06 09:09:36","新北市石碇區北宜路五段80號","121.646723333333","24.9512833333333","6501900","石碇區"
"223004","660-BX","2019/07/06 09:09:38","新北市石碇區崩山53號","121.68328","24.9688133333333","6501900","石碇區"
"223007","661-BX","2019/07/06 09:09:18","新北市石碇區光明路8號","121.679275","25.0270983333333","6501900","石碇區"
"223005","677-TV","2019/07/06 09:09:25","新北市石碇區崩山58號","121.686101666667","24.9660366666667","6501900","石碇區"
"227004","282-VK","2019/07/06 09:09:28","新北市雙溪區上林里新寮子25號","121.831375","25.027155","6502500","雙溪區"
"252004","249-BX","2019/07/06 09:09:34","新北市三芝區興華里車埕69-3號","121.493356666667","25.1936916666667","6502100","三芝區"
"252007","AAC-283","2019/07/06 09:09:44","新北市三芝區樂全街2號","121.487651666667","25.2592616666667","6502100","三芝區"
"233003","KEA-2870","2019/07/06 09:09:28","新北市烏來區大羅蘭17號","121.500983333333","24.775085","6502900","烏來區"
