"lineid","car","time","location","longitude","latitude","cityid","cityname"
"234044","148-BY","2019/07/06 13:09:24","新北市永和區永元路18巷17號","121.523375","25.0002283333333","6500400","永和區"
"234078","298-R6","2019/07/06 13:09:42","新北市永和區國中路156號","121.522625","25.0066133333333","6500400","永和區"
"234036","336-UY","2019/07/06 13:09:45","新北市永和區民樂街71巷1號","121.527373333333","24.9975033333333","6500400","永和區"
"234062","337-UY","2019/07/06 13:09:32","新北市永和區秀朗路二段17號","121.521066666667","25.0026166666667","6500400","永和區"
"234084","338-UY","2019/07/06 13:09:43","新北市永和區永貞路75號","121.518676666667","25.0044","6500400","永和區"
"234068","552-UM","2019/07/06 13:09:25","新北市永和區豫溪街95巷8號","121.518175","25.01081","6500400","永和區"
"234015","745-BX","2019/07/06 13:09:27","新北市永和區文化路90巷3弄2號","121.513883333333","25.0156866666667","6500400","永和區"
"234028","746-BX","2019/07/06 13:09:35","新北市永和區民生路23號","121.522898333333","24.9988033333333","6500400","永和區"
"234052","KEA-2590","2019/07/06 13:09:27","新北市永和區竹林路78號","121.519243333333","25.0128483333333","6500400","永和區"
"234005","KED-0605","2019/07/06 13:09:39","新北市永和區中山路一段203號","121.508901666667","25.0085933333333","6500400","永和區"
"234012","KEA-2591","2019/07/06 13:09:25","新北市永和區中山路一段77號","121.512346666667","25.0107083333333","6500400","永和區"
"234060","AAD-866","2019/07/06 13:09:34","新北市永和區自由街35號","121.514345","25.0061833333333","6500400","永和區"
"234040","862-TW","2019/07/06 13:09:31","新北市永和區永貞路330號","121.5113","25.0055216666667","6500400","永和區"
"234048","863-TW","2019/07/06 13:09:23","新北市永和區文化路135巷9號","121.51065","25.01445","6500400","永和區"
"234025","9371-KE","2019/07/06 13:09:33","新北市永和區自由街49號","121.513935","25.0058916666667","6500400","永和區"
"234010","9381-KE","2019/07/06 13:09:23","新北市永和區仁愛路31巷2弄3號","121.513941666667","25.0128116666667","6500400","永和區"
"248017","KED-0813","2019/07/06 13:09:22","新北市五股區成泰路三段101-1號","121.444213333333","25.0901383333333","6501500","五股區"
"234022","9380-KE","2019/07/06 13:09:43","新北市永和區中興街10巷23號","121.516115","25.011175","6500400","永和區"
"234076","969-R7","2019/07/06 13:09:35","新北市永和區民光街12號","121.515538333333","24.9960366666667","6500400","永和區"
"234072","AAC-211","2019/07/06 13:09:29","新北市永和區竹林路198號","121.520481666667","25.0096116666667","6500400","永和區"
"234066","AAC-212","2019/07/06 13:09:41","新北市永和區保平路23號","121.51261","25.0073283333333","6500400","永和區"
"234001","AAC-295","2019/07/06 13:09:29","新北市永和區和平街2號","121.514213333333","25.0099333333333","6500400","永和區"
"244005","248-BX","2019/07/06 13:09:31","新北市林口區中山路518號","121.378873333333","25.0831466666667","6501700","林口區"
"231030","002-UM","2019/07/06 13:09:41","新北市新店區安華路28-1號","121.519808333333","24.9609033333333","6500600","新店區"
"231005","046-UY","2019/07/06 13:09:27","新北市新店區安華路28-1號","121.519625","24.9608583333333","6500600","新店區"
"231029","106-UY","2019/07/06 13:09:38","新北市新店區安華路28-1號","121.519501666667","24.96076","6500600","新店區"
"231018","107-UY","2019/07/06 13:09:34","新北市新店區安一路一段1-1號","121.519533333333","24.9612883333333","6500600","新店區"
"231013","108-UY","2019/07/06 13:09:42","新北市新店區安一路一段1-1號","121.519468333333","24.9613316666667","6500600","新店區"
"231036","110-UY","2019/07/06 13:09:33","新北市新店區安華路30巷3號","121.519423333333","24.9584533333333","6500600","新店區"
"231032","256-BX","2019/07/06 13:09:27","新北市新店區安一路一段1-1號","121.520116666667","24.961245","6500600","新店區"
"231023","260-TV","2019/07/06 13:09:26","新北市新店區安一路一段1-1號","121.519436666667","24.961205","6500600","新店區"
"231003","268-BY","2019/07/06 13:09:22","新北市新店區安一路一段1-1號","121.519711666667","24.9613166666667","6500600","新店區"
"231035","278-BY","2019/07/06 13:09:33","新北市新店區安一路一段1-1號","121.519655","24.961215","6500600","新店區"
"231017","AAD-862","2019/07/06 13:09:23","新北市新店區安一路一段1-1號","121.51978","24.9613533333333","6500600","新店區"
"231006","355-BY","2019/07/06 13:09:40","新北市新店區安華路28-1號","121.51919","24.9609233333333","6500600","新店區"
"231027","3713-VJ","2019/07/06 13:09:32","新北市新店區安華路28-1號","121.519263333333","24.9606266666667","6500600","新店區"
"231024","4716-K9","2019/07/06 13:09:41","新北市新店區安華路28-1號","121.519865","24.9605266666667","6500600","新店區"
"231025","4715-K9","2019/07/06 13:09:31","新北市新店區安華路3號","121.519148333333","24.96032","6500600","新店區"
"231020","513-UM","2019/07/06 13:09:21","新北市新店區安一路一段1-1號","121.519696666667","24.9611566666667","6500600","新店區"
"231001","617-UM","2019/07/06 13:09:35","新北市新店區安華路28-1號","121.519346666667","24.9609666666667","6500600","新店區"
"231002","619-UM","2019/07/06 13:09:25","新北市新店區安華路28-1號","121.519305","24.9606316666667","6500600","新店區"
"231034","641-BX","2019/07/06 13:09:25","新北市新店區安華路28-1號","121.51969","24.9605116666667","6500600","新店區"
"231012","KED-0819","2019/07/06 13:09:26","新北市新店區安一路一段1-1號","121.51972","24.9613333333333","6500600","新店區"
"231010","719-UM","2019/07/06 13:09:39","新北市新店區安一路一段1-1號","121.51956","24.961105","6500600","新店區"
"231026","720-UM","2019/07/06 13:09:23","新北市新店區安一路一段1-1號","121.519321666667","24.9611483333333","6500600","新店區"
"231028","897-TW","2019/07/06 13:09:27","新北市新店區安華路28-1號","121.519643333333","24.9607433333333","6500600","新店區"
"231004","899-TW","2019/07/06 13:09:17","新北市新店區安華路28-1號","121.519031666667","24.9609016666667","6500600","新店區"
"231037","AKT-0513","2019/07/06 13:09:30","新北市新店區安華路28-1號","121.51956","24.9605466666667","6500600","新店區"
"235028","005-UY","2019/07/06 13:09:38","新北市中和區中正路161巷2號","121.498636666667","24.9935516666667","6500300","中和區"
"235027","006-UY","2019/07/06 13:09:32","新北市中和區員山路36巷16-3號","121.484975","24.9913383333333","6500300","中和區"
"235020","096-UM","2019/07/06 13:09:37","新北市中和區員山路36巷16-3號","121.484693333333","24.9910116666667","6500300","中和區"
"235003","097-UM","2019/07/06 13:09:40","新北市中和區中正路637巷52弄1號","121.485441666667","24.99342","6500300","中和區"
"235029","098-UM","2019/07/06 13:09:37","新北市中和區中山路二段64巷22號","121.502991666667","25.0059133333333","6500300","中和區"
"235004","150-BY","2019/07/06 13:09:39","新北市中和區中正路637巷52弄1號","121.485558333333","24.9935716666667","6500300","中和區"
"235022","151-BY","2019/07/06 13:09:37","新北市中和區圓通路367巷65號","121.492956666667","24.9826733333333","6500300","中和區"
"235019","183-VK","2019/07/06 13:09:28","新北市中和區員山路36巷16-3號","121.485046666667","24.9913816666667","6500300","中和區"
"235002","185-VK","2019/07/06 13:09:38","新北市中和區大仁街20巷2號","121.517806666667","24.9930516666667","6500300","中和區"
"235031","255-BX","2019/07/06 13:09:28","新北市中和區新生街13巷9-1號","121.483791666667","25.0043616666667","6500300","中和區"
"235036","301-VK","2019/07/06 13:09:33","新北市中和區員山路36巷13號","121.484253333333","24.990835","6500300","中和區"
"235007","352-BY","2019/07/06 13:09:36","新北市中和區中正路271-1號","121.495728333333","24.9935916666667","6500300","中和區"
"235006","KEA-2878","2019/07/06 13:09:23","新北市中和區錦和路350-1號","121.490626666667","24.99375","6500300","中和區"
"235014","4979-A6","2019/07/06 13:09:34","新北市中和區中正路395號","121.489983333333","24.99353","6500300","中和區"
"235034","558-UM","2019/07/06 13:09:34","新北市中和區圓通路164號","121.497435","24.9948266666667","6500300","中和區"
"235009","565-BX","2019/07/06 13:09:37","新北市中和區中正路167巷58號","121.498986666667","24.9924333333333","6500300","中和區"
"235018","640-BX","2019/07/06 13:09:39","新北市中和區民德路155號","121.468693333333","25.0000716666667","6500300","中和區"
"235035","783-BX","2019/07/06 13:09:24","新北市中和區立德街218號","121.483811666667","25.0098183333333","6500300","中和區"
"235026","800-TS","2019/07/06 13:09:27","新北市中和區橋和路81號","121.489435","25.00522","6500300","中和區"
"235021","801-TS","2019/07/06 13:09:32","新北市中和區員山路75號","121.480855","24.994075","6500300","中和區"
"235005","802-TS","2019/07/06 13:09:28","新北市中和區中正路273號","121.495661666667","24.9936533333333","6500300","中和區"
"235016","805-TS","2019/07/06 13:09:26","新北市中和區中正路13號","121.503041666667","24.9933033333333","6500300","中和區"
"235017","900-TW","2019/07/06 13:09:31","新北市中和區員山路36巷16-2號","121.485316666667","24.99141","6500300","中和區"
"235015","157-BY","2019/07/06 13:09:39","新北市中和區板南路187號","121.50008","24.9928366666667","6500300","中和區"
"235001","AAC-213","2019/07/06 13:09:24","新北市中和區景平路73號","121.518863333333","24.9913833333333","6500300","中和區"
"235023","AAC-215","2019/07/06 13:09:32","新北市中和區員山路36巷16-3號","121.485125","24.9912866666667","6500300","中和區"
"228005","097-TW","2019/07/06 13:09:25","新北市貢寮區仁理村研海街45號","121.92593","25.04214","6502600","貢寮區"
"228004","212-TW","2019/07/06 13:09:27","新北市貢寮區吉林里內寮街75號","121.8913","24.9723383333333","6502600","貢寮區"
"253003","6232-TK","2019/07/06 13:09:25","新北市石門區石崩山1號","121.564856666667","25.284975","6502200","石門區"
"253004","6251-TK","2019/07/06 13:09:36","新北市石門區阿里荖6-2號","121.60995","25.27983","6502200","石門區"
"253002","637-UY","2019/07/06 13:09:22","新北市石門區老崩山31號","121.557723333333","25.27685","6502200","石門區"
"253001","KEC-0718","2019/07/06 13:09:25","新北市石門區楓林7號","121.537783333333","25.2939233333333","6502200","石門區"
"207002","749-BX","2019/07/06 13:09:37","新北市萬里區雙興里大坪路37-4號","121.62903","25.1695616666667","6502800","萬里區"
"207001","662-BX","2019/07/06 13:09:31","新北市萬里區萬里里瑪鋉路145號","121.689475","25.1777916666667","6502800","萬里區"
"252005","AAC-283","2019/07/06 13:09:34","新北市三芝區八賢里八連溪18號","121.51085","25.2420366666667","6502100","三芝區"
"221029","298-VK","2019/07/06 13:09:25","新北市汐止區福德二路351號","121.62437","25.0641616666667","6501100","汐止區"
"235025","KEA-2875","2019/07/06 13:09:16","新北市中和區華安街99號","121.468168333333","24.9963966666667","6500300","中和區"
