"lineid","car","time","location","longitude","latitude","cityid","cityname"
"234044","148-BY","2019/07/06 13:39:24","新北市永和區秀朗路二段84號","121.523275","25.00168","6500400","永和區"
"234078","298-R6","2019/07/06 13:39:41","新北市永和區國中路104巷8弄9號","121.52507","25.0066433333333","6500400","永和區"
"234036","336-UY","2019/07/06 13:39:34","新北市永和區民樂街29號","121.527763333333","25.0015083333333","6500400","永和區"
"234062","337-UY","2019/07/06 13:39:32","新北市永和區秀朗路二段24巷21號","121.520623333333","25.0019283333333","6500400","永和區"
"234084","338-UY","2019/07/06 13:39:43","新北市永和區永亨路150號","121.525433333333","25.0038616666667","6500400","永和區"
"234068","552-UM","2019/07/06 13:39:25","新北市永和區中興街80號","121.517921666667","25.0119083333333","6500400","永和區"
"234015","745-BX","2019/07/06 13:39:27","新北市永和區永和路二段425巷33-1號","121.514366666667","25.0176166666667","6500400","永和區"
"234028","746-BX","2019/07/06 13:39:35","新北市永和區民權路23號","121.520146666667","24.9977766666667","6500400","永和區"
"234052","KEA-2590","2019/07/06 13:39:27","新北市永和區竹林路39巷26號","121.519046666667","25.01473","6500400","永和區"
"234005","KED-0605","2019/07/06 13:39:30","新北市永和區永和路一段93號","121.513438333333","25.0074","6500400","永和區"
"234012","KEA-2591","2019/07/06 13:39:26","新北市永和區永平路234號","121.508693333333","25.0108883333333","6500400","永和區"
"234060","AAD-866","2019/07/06 13:39:34","新北市永和區中正路446號","121.517465","25.0028","6500400","永和區"
"234040","862-TW","2019/07/06 13:39:31","新北市永和區中和路305巷10弄1號","121.506938333333","25.0008416666667","6500400","永和區"
"234048","863-TW","2019/07/06 13:39:43","新北市永和區保安路35號","121.509808333333","25.0161933333333","6500400","永和區"
"234010","9381-KE","2019/07/06 13:39:23","新北市永和區保福路二段23巷19號","121.510076666667","25.0111066666667","6500400","永和區"
"248017","KED-0813","2019/07/06 13:39:42","新北市五股區民義路二段66-1號","121.406256666667","25.1082583333333","6501500","五股區"
"234022","9380-KE","2019/07/06 13:39:43","新北市永和區中正路702巷18號","121.516406666667","25.01052","6500400","永和區"
"234076","969-R7","2019/07/06 13:39:35","新北市永和區得和路194號","121.52016","24.99996","6500400","永和區"
"234072","AAC-211","2019/07/06 13:39:29","新北市永和區竹林路213巷10號","121.521416666667","25.0088116666667","6500400","永和區"
"234066","AAC-212","2019/07/06 13:39:27","新北市永和區中山路一段188號","121.50898","25.0088416666667","6500400","永和區"
"234001","AAC-295","2019/07/06 13:39:29","新北市永和區永和路一段118號","121.513923333333","25.0078466666667","6500400","永和區"
"244005","248-BX","2019/07/06 13:39:31","新北市林口區粉寮路一段88號","121.398325","25.080495","6501700","林口區"
"231030","002-UM","2019/07/06 13:39:41","新北市新店區安康路一段259號","121.524396666667","24.9633166666667","6500600","新店區"
"231005","046-UY","2019/07/06 13:39:27","新北市新店區中興路三段6號","121.547426666667","24.97756","6500600","新店區"
"231029","106-UY","2019/07/06 13:39:38","新北市新店區安康路二段308-1號","121.506913333333","24.9582033333333","6500600","新店區"
"231018","107-UY","2019/07/06 13:39:40","新北市新店區三民路189號","121.53536","24.9755066666667","6500600","新店區"
"231013","108-UY","2019/07/06 13:39:42","新北市新店區中正路454-5號","121.534476666667","24.9790433333333","6500600","新店區"
"231036","110-UY","2019/07/06 13:39:33","新北市新店區安祥路145巷2號","121.474721666667","24.955445","6500600","新店區"
"231033","256-BX","2019/07/06 13:39:27","新北市新店區莒光路35號","121.52374","24.9593583333333","6500600","新店區"
"231023","260-TV","2019/07/06 13:39:26","新北市新店區新店路157號","121.537098333333","24.955215","6500600","新店區"
"231003","268-BY","2019/07/06 13:39:42","新北市新店區中正路7號","121.545838333333","24.9692516666667","6500600","新店區"
"231035","278-BY","2019/07/06 13:39:33","新北市新店區安忠路56巷6號","121.513041666667","24.9594766666667","6500600","新店區"
"231017","AAD-862","2019/07/06 13:39:23","新北市新店區竹林路2巷27弄2號","121.550176666667","24.950705","6500600","新店區"
"231006","355-BY","2019/07/06 13:39:40","新北市新店區北新路一段2-18號","121.53846","24.9601716666667","6500600","新店區"
"231038","3712-VJ","2019/07/06 13:39:22","新北市新店區安華路30巷1號","121.519495","24.9592633333333","6500600","新店區"
"231027","3713-VJ","2019/07/06 13:39:12","新北市新店區新店後街58號","121.537785","24.9540433333333","6500600","新店區"
"231024","4716-K9","2019/07/06 13:39:41","新北市新店區華興街38巷5號","121.537078333333","24.9691733333333","6500600","新店區"
"231025","4715-K9","2019/07/06 13:39:31","新北市新店區中央五街36號","121.528585","24.9749433333333","6500600","新店區"
"231020","513-UM","2019/07/06 13:39:41","新北市新店區永興路88-1號","121.544058333333","24.933765","6500600","新店區"
"231001","617-UM","2019/07/06 13:39:35","新北市新店區中央路69號","121.532483333333","24.976885","6500600","新店區"
"231002","619-UM","2019/07/06 13:39:25","新北市新店區中央三街127號","121.524006666667","24.9767416666667","6500600","新店區"
"231034","641-BX","2019/07/06 13:39:25","新北市新店區車子路121號","121.505338333333","24.950955","6500600","新店區"
"231012","KED-0819","2019/07/06 13:39:27","新北市新店區德正街25巷2號","121.544343333333","24.9715966666667","6500600","新店區"
"231010","719-UM","2019/07/06 13:39:39","新北市新店區平等街1號","121.537088333333","24.9742916666667","6500600","新店區"
"231026","720-UM","2019/07/06 13:39:43","新北市新店區北宜路一段76號","121.538506666667","24.9557816666667","6500600","新店區"
"231028","897-TW","2019/07/06 13:39:34","新北市新店區安和路一段52巷2號","121.517608333333","24.9661883333333","6500600","新店區"
"231004","899-TW","2019/07/06 13:39:37","新北市新店區北新路二段2號","121.54265","24.9709483333333","6500600","新店區"
"231037","AKT-0513","2019/07/06 13:39:30","新北市新店區薏仁坑路35號","121.493505","24.9630466666667","6500600","新店區"
"235030","003-UY","2019/07/06 13:39:33","新北市中和區水源路39號","121.504656666667","25.0035533333333","6500300","中和區"
"235028","005-UY","2019/07/06 13:39:38","新北市中和區景平路634-3號","121.499441666667","24.9989133333333","6500300","中和區"
"235027","006-UY","2019/07/06 13:39:32","新北市中和區連城路389巷10弄7號","121.486273333333","24.9956216666667","6500300","中和區"
"235020","096-UM","2019/07/06 13:39:37","新北市中和區員山路466巷15號","121.480648333333","25.0067333333333","6500300","中和區"
"235003","097-UM","2019/07/06 13:39:39","新北市中和區大勇街25巷38弄1號","121.51566","24.9937883333333","6500300","中和區"
"235029","098-UM","2019/07/06 13:39:29","新北市中和區中山路二段2巷81弄11號","121.500705","25.0072066666667","6500300","中和區"
"235004","150-BY","2019/07/06 13:39:39","新北市中和區保健路50巷68號","121.509335","24.99496","6500300","中和區"
"235022","151-BY","2019/07/06 13:39:37","新北市中和區員山路28-29號","121.480908333333","24.9872683333333","6500300","中和區"
"235019","183-VK","2019/07/06 13:39:28","新北市中和區民德路25巷11號","121.469921666667","25.0031083333333","6500300","中和區"
"235002","185-VK","2019/07/06 13:39:38","新北市中和區大勇街60巷22號","121.518973333333","24.994655","6500300","中和區"
"235013","186-VK","2019/07/06 13:39:31","新北市中和區明義街11巷10弄1號","121.503838333333","24.9947716666667","6500300","中和區"
"235031","255-BX","2019/07/06 13:39:28","新北市中和區新生街220巷4號","121.482898333333","24.998595","6500300","中和區"
"235008","293-VK","2019/07/06 13:39:39","新北市中和區復興路267號","121.502688333333","24.9903","6500300","中和區"
"235036","301-VK","2019/07/06 13:39:33","新北市中和區中山路二段193號","121.499935","25.00264","6500300","中和區"
"235007","352-BY","2019/07/06 13:39:36","新北市中和區景平路155號","121.513455","24.9920283333333","6500300","中和區"
"235006","KEA-2878","2019/07/06 13:39:22","新北市中和區成功路127巷12弄4號","121.526666666667","24.9906583333333","6500300","中和區"
"247013","KEA-2869","2019/07/06 13:39:40","新北市五股區新五路三段179號","121.448656666667","25.0918383333333","6501400","蘆洲區"
"235014","4979-A6","2019/07/06 13:39:43","新北市中和區忠孝街122-2號","121.51221","24.9861133333333","6500300","中和區"
"235033","4980-A6","2019/07/06 13:39:27","新北市中和區連城路89巷4號","121.49695","24.9996083333333","6500300","中和區"
"235034","558-UM","2019/07/06 13:39:34","新北市中和區南山路24號","121.50202","24.99818","6500300","中和區"
"235009","565-BX","2019/07/06 13:39:37","新北市中和區南山路236巷63弄1號","121.503853333333","24.9875683333333","6500300","中和區"
"235024","KED-0823","2019/07/06 13:39:22","新北市中和區中山路三段35號","121.478938333333","25.0057916666667","6500300","中和區"
"235018","640-BX","2019/07/06 13:39:39","新北市中和區民享街35巷10號","121.474613333333","25.003965","6500300","中和區"
"235011","732-UM","2019/07/06 13:39:28","新北市中和區南山路320巷10弄21號","121.506798333333","24.9866516666667","6500300","中和區"
"235010","733-UM","2019/07/06 13:39:30","新北市中和區忠孝街126-1號","121.512145","24.9862483333333","6500300","中和區"
"235035","783-BX","2019/07/06 13:39:44","新北市中和區立德街98巷55號","121.487673333333","25.0089966666667","6500300","中和區"
"235026","800-TS","2019/07/06 13:39:27","新北市中和區景平路709號","121.49645","25.0037033333333","6500300","中和區"
"235021","801-TS","2019/07/06 13:39:32","新北市中和區民安街1號","121.480946666667","25.00105","6500300","中和區"
"235005","802-TS","2019/07/06 13:39:43","新北市中和區中和路406號","121.51144","25.0029366666667","6500300","中和區"
"235016","805-TS","2019/07/06 13:39:26","新北市中和區興南路三段73巷8號","121.49214","24.9741016666667","6500300","中和區"
"235012","896-TW","2019/07/06 13:39:34","新北市中和區中正路83號","121.500645","24.99336","6500300","中和區"
"235017","900-TW","2019/07/06 13:39:31","新北市中和區華福街24號","121.465945","24.9966666666667","6500300","中和區"
"235015","157-BY","2019/07/06 13:39:39","新北市中和區華新街147號","121.506283333333","24.98166","6500300","中和區"
"235001","AAC-213","2019/07/06 13:39:44","新北市中和區秀朗路三段128巷7弄1號","121.52452","24.9927983333333","6500300","中和區"
"235023","AAC-215","2019/07/06 13:39:32","新北市中和區錦和路350-1號","121.490591666667","24.99354","6500300","中和區"
"220016","015-TV","2019/07/06 13:28:24","新北市板橋區民生路二段120號","121.470671666667","25.0194416666667","6500100","板橋區"
"220013","072-UY","2019/07/06 13:39:30","新北市板橋區實踐路66號","121.463873333333","25.0058216666667","6500100","板橋區"
"220034","073-UY","2019/07/06 13:39:25","新北市板橋區大觀路二段266號","121.44932","24.9965883333333","6500100","板橋區"
"220105","075-UY","2019/07/06 13:39:27","新北市板橋區民生路二段161巷5號","121.470176666667","25.0196983333333","6500100","板橋區"
"220017","AAD-861","2019/07/06 13:39:30","新北市板橋區稚暉街1號","121.456016666667","25.004635","6500100","板橋區"
"220047","120-SR","2019/07/06 13:39:28","新北市板橋區民生路二段161巷5號","121.47027","25.0197566666667","6500100","板橋區"
"247023","337-TH","2019/07/06 13:39:40","新北市蘆洲區環堤大道365號","121.45846","25.096865","6501400","蘆洲區"
"247011","056-VK","2019/07/06 13:39:38","新北市五股區中興路三段163號","121.449155","25.0807633333333","6501400","蘆洲區"
"247005","002-UY","2019/07/06 13:39:31","新北市五股區工商路8號","121.440608333333","25.082565","6501400","蘆洲區"
"228005","097-TW","2019/07/06 13:39:25","新北市貢寮區美豐里文秀坑3號","121.904111666667","25.0524333333333","6502600","貢寮區"
"228004","212-TW","2019/07/06 13:39:26","新北市貢寮區龍崗里石壁坑街30-3號","121.908313333333","25.0047816666667","6502600","貢寮區"
"253003","6232-TK","2019/07/06 13:39:25","新北市石門區內石門21-1號","121.571563333333","25.2735233333333","6502200","石門區"
"253004","6251-TK","2019/07/06 13:39:36","新北市石門區阿里荖60-1號","121.607531666667","25.2703983333333","6502200","石門區"
"253002","637-UY","2019/07/06 13:39:42","新北市石門區九芎林33-3號","121.566061666667","25.257295","6502200","石門區"
"253001","KEC-0718","2019/07/06 13:39:25","新北市三芝區新庄里新庄子57-5號","121.508251666667","25.278425","6502200","石門區"
"207002","749-BX","2019/07/06 13:39:37","新北市萬里區崁腳里崁腳路166號","121.645071666667","25.1558133333333","6502800","萬里區"
"207001","662-BX","2019/07/06 13:39:06","新北市萬里區大鵬里萬里加投45-1號","121.641838333333","25.21107","6502800","萬里區"
"252005","AAC-283","2019/07/06 13:39:34","新北市三芝區圓山里木屐寮38-2號","121.532095","25.22825","6502100","三芝區"
"220038","KED-0812","2019/07/06 13:39:31","新北市板橋區民生路二段188號","121.469938333333","25.0203333333333","6500100","板橋區"
"236013","270-VK","2019/07/06 13:39:36","新北市土城區城林路6巷80號","121.438591666667","24.979765","6501300","土城區"
"247009","KED-0683","2019/07/06 13:39:37","新北市五股區中興路三段163號","121.449121666667","25.0809733333333","6501400","蘆洲區"
"236068","KEA-2877","2019/07/06 13:39:36","新北市土城區中華路二段2號","121.438791666667","24.9798966666667","6501300","土城區"
"236017","401-BY","2019/07/06 13:39:38","新北市土城區城林路6巷80號","121.438528333333","24.97982","6501300","土城區"
"236057","912-UM","2019/07/06 13:39:34","新北市土城區城林路6巷80號","121.438561666667","24.9797316666667","6501300","土城區"
"236045","913-UM","2019/07/06 13:39:32","新北市土城區城林路6巷80號","121.43848","24.9797433333333","6501300","土城區"
"236060","915-UM","2019/07/06 13:39:33","新北市土城區城林路6巷80號","121.438228333333","24.9793633333333","6501300","土城區"
"221029","298-VK","2019/07/06 13:39:25","新北市汐止區中興路141號","121.631451666667","25.0654266666667","6501100","汐止區"
"220028","200-UY","2019/07/06 13:39:30","新北市板橋區大觀路二段435-1號","121.446788333333","24.9947283333333","6500100","板橋區"
"220030","610-BX","2019/07/06 13:39:36","新北市板橋區大觀路三段59巷17弄6-1號","121.43808","24.995285","6500100","板橋區"
"220050","245-BX","2019/07/06 13:39:21","新北市板橋區民生路二段161巷1號","121.470066666667","25.0199866666667","6500100","板橋區"
"220027","256-TC","2019/07/06 13:39:38","新北市板橋區大觀路二段153巷51號","121.44721","25.0008866666667","6500100","板橋區"
"220004","276-BY","2019/07/06 13:39:26","新北市板橋區南雅南路二段100號","121.453476666667","25.0010983333333","6500100","板橋區"
"220020","277-BY","2019/07/06 13:39:39","新北市板橋區大觀路二段443-2號","121.438225","24.9952716666667","6500100","板橋區"
"220043","283-UM","2019/07/06 13:39:22","新北市板橋區民生路二段120號","121.470311666667","25.0198633333333","6500100","板橋區"
"220019","283-VK","2019/07/06 13:39:30","新北市板橋區四川路二段140巷14號","121.449435","24.993325","6500100","板橋區"
"220031","286-VK","2019/07/06 13:39:42","新北市板橋區華東街1-10號","121.448338333333","24.99511","6500100","板橋區"
"220029","287-VK","2019/07/06 13:39:22","新北市板橋區板城路421號","121.448076666667","24.9963266666667","6500100","板橋區"
"220039","288-VK","2019/07/06 13:39:42","新北市板橋區民生路二段120號","121.470548333333","25.019535","6500100","板橋區"
"220009","295-UM","2019/07/06 13:39:38","新北市板橋區民生路二段120號","121.470316666667","25.0197916666667","6500100","板橋區"
"220032","296-UM","2019/07/06 13:39:25","新北市板橋區大觀路二段187巷25號","121.446201666667","24.9994","6500100","板橋區"
"220041","307-R5","2019/07/06 13:39:42","新北市板橋區民生路二段120號","121.470553333333","25.0196516666667","6500100","板橋區"
"220104","560-BX","2019/07/06 13:39:34","新北市板橋區南雅西路二段145巷6號","121.451576666667","25.011865","6500100","板橋區"
"220052","561-BX","2019/07/06 13:39:21","新北市板橋區民生路二段76號","121.471628333333","25.0180916666667","6500100","板橋區"
"220011","609-BX","2019/07/06 13:39:39","新北市板橋區民生路二段161巷1號","121.469895","25.02008","6500100","板橋區"
"220005","686-BX","2019/07/06 13:39:38","新北市板橋區館前西路46巷2號","121.459036666667","25.00711","6500100","板橋區"
"220025","687-BX","2019/07/06 13:39:24","新北市板橋區溪崑一街11-3號","121.430818333333","24.99242","6500100","板橋區"
"220042","689-BX","2019/07/06 13:39:30","新北市板橋區民生路二段188號","121.470048333333","25.0204033333333","6500100","板橋區"
"220002","741-BX","2019/07/06 13:39:28","新北市板橋區板城路407號","121.447671666667","24.995385","6500100","板橋區"
"220051","KEA-2699","2019/07/06 13:39:26","新北市板橋區民生路二段161巷1號","121.470213333333","25.019915","6500100","板橋區"
"220003","827-TW","2019/07/06 13:39:26","新北市土城區四川路27號","121.455071666667","24.9958166666667","6500100","板橋區"
"220014","829-TW","2019/07/06 13:39:32","新北市板橋區民生路二段120號","121.470356666667","25.0196266666667","6500100","板橋區"
"220037","833-TW","2019/07/06 13:39:31","新北市板橋區民生路二段89-6號","121.470716666667","25.019055","6500100","板橋區"
"220022","895-R6","2019/07/06 13:39:40","新北市板橋區南雅南路一段29號","121.456105","25.0065533333333","6500100","板橋區"
"220021","985-R7","2019/07/06 13:39:24","新北市板橋區南雅南路二段15號","121.453775","24.9985083333333","6500100","板橋區"
"220046","AAC-210","2019/07/06 13:39:25","新北市板橋區民生路二段171號","121.469886666667","25.0201466666667","6500100","板橋區"
"220012","AAC-253","2019/07/06 13:39:31","新北市板橋區民生路二段36-1號","121.472065","25.0168466666667","6500100","板橋區"
"235032","KEA-2873","2019/07/06 13:39:29","新北市中和區圓通路291巷4號","121.495376666667","24.9924583333333","6500300","中和區"
"235025","KEA-2875","2019/07/06 13:39:16","新北市中和區民享街49巷8號","121.474546666667","25.0028316666667","6500300","中和區"
