"lineid","car","time","location","longitude","latitude","cityid","cityname"
"249002","759-BX","2019/07/06 16:29:25","新北市八里區龍米路二段225號","121.429688333333","25.1588316666667","6502300","八里區"
"231046","719-UM","2019/07/06 16:27:19","新北市新店區灣潭路3-3號","121.538236666667","24.9507833333333","6500600","新店區"
"241011","013-R5","2019/07/06 16:29:27","新北市三重區龍濱路174號","121.501333333333","25.07287","6500200","三重區"
"241028","022-UY","2019/07/06 16:29:24","新北市三重區中正南路210號","121.493831666667","25.0557466666667","6500200","三重區"
"241008","059-VK","2019/07/06 16:29:34","新北市三重區力行路二段136巷49弄4號","121.479266666667","25.0752933333333","6500200","三重區"
"241029","060-VK","2019/07/06 16:29:43","新北市三重區集美街112巷31弄2號","121.490495","25.0540816666667","6500200","三重區"
"241031","061-VK","2019/07/06 16:29:23","新北市三重區重陽路一段68號","121.48666","25.0584816666667","6500200","三重區"
"241015","062-VK","2019/07/06 16:29:32","新北市三重區信義街57號","121.501168333333","25.06507","6500200","三重區"
"241017","063-VK","2019/07/06 16:29:35","新北市三重區重新路三段1號","121.495511666667","25.06185","6500200","三重區"
"241024","065-VK","2019/07/06 16:29:39","新北市三重區中正北路315巷18號","121.475031666667","25.0716066666667","6500200","三重區"
"241002","066-VK","2019/07/06 16:29:34","新北市三重區五華街39號","121.494521666667","25.0809866666667","6500200","三重區"
"241003","091-VK","2019/07/06 16:29:24","新北市三重區五華街57巷30號","121.493873333333","25.0831516666667","6500200","三重區"
"241030","742-BX","2019/07/06 16:29:29","新北市三重區成功路70號","121.488405","25.0509683333333","6500200","三重區"
"241005","262-UM","2019/07/06 16:29:35","新北市三重區溪尾街327號","121.488396666667","25.084845","6500200","三重區"
"241016","266-UM","2019/07/06 16:29:39","新北市三重區自強路一段160巷2弄27號","121.49477","25.0659616666667","6500200","三重區"
"241018","268-UM","2019/07/06 16:29:38","新北市三重區正義北路372巷24號","121.493003333333","25.0710866666667","6500200","三重區"
"241032","269-UM","2019/07/06 16:29:38","新北市三重區三陽路100巷3弄13號","121.48294","25.0580883333333","6500200","三重區"
"241013","270-UM","2019/07/06 16:29:40","新北市三重區三和路三段83巷148號","121.498388333333","25.0732716666667","6500200","三重區"
"241023","271-UM","2019/07/06 16:22:16","新北市三重區忠孝路三段50巷41弄6號","121.482585","25.0644333333333","6500200","三重區"
"241007","398-BY","2019/07/06 16:29:29","新北市三重區三和路四段167巷166號","121.4877","25.08024","6500200","三重區"
"241004","475-VK","2019/07/06 16:29:32","新北市三重區仁愛街377巷13號","121.492245","25.0807633333333","6500200","三重區"
"241020","478-VK","2019/07/06 16:29:40","新北市三重區後竹圍街197號","121.484966666667","25.0715816666667","6500200","三重區"
"241026","480-VK","2019/07/06 16:29:25","新北市三重區文化南路75巷1號","121.500225","25.0605316666667","6500200","三重區"
"241014","543-UM","2019/07/06 16:29:29","新北市三重區長壽街196號","121.504258333333","25.0690383333333","6500200","三重區"
"241001","547-UM","2019/07/06 16:29:43","新北市三重區福隆路57號","121.491103333333","25.07776","6500200","三重區"
"241019","KEA-2593","2019/07/06 16:29:24","新北市三重區重陽路三段97號","121.490283333333","25.0679916666667","6500200","三重區"
"241006","AAD-863","2019/07/06 16:29:27","新北市三重區力行路二段136巷23弄35號","121.481255","25.0763233333333","6500200","三重區"
"241022","KED-0820","2019/07/06 16:29:31","新北市三重區重陽路二段10號","121.486541666667","25.0620333333333","6500200","三重區"
"241025","887-TS","2019/07/06 16:29:28","新北市三重區中正北路560巷100弄14號","121.47259","25.0686516666667","6500200","三重區"
"241012","941-UM","2019/07/06 16:29:32","新北市三重區龍門路274巷12號","121.501388333333","25.0743133333333","6500200","三重區"
"241033","AAC-255","2019/07/06 16:29:27","新北市三重區五谷王北街2巷11號","121.474291666667","25.0478033333333","6500200","三重區"
"235031","255-BX","2019/07/06 16:05:28","新北市中和區和城路一段271巷1號","121.485586666667","24.9918066666667","6500300","中和區"
"235054","640-BX","2019/07/06 16:19:25","新北市中和區和城路一段271巷1號","121.48539","24.991685","6500300","中和區"
"224007","285-BY","2019/07/06 16:29:26","新北市瑞芳區大埔路187號","121.76329","25.10204","6501200","瑞芳區"
"224009","275-VK","2019/07/06 16:29:44","新北市瑞芳區民權街3-1號","121.80935","25.10832","6501200","瑞芳區"
"224005","271-BY","2019/07/06 16:29:32","新北市瑞芳區阿美家園54號","121.821043333333","25.117355","6501200","瑞芳區"
"227001","642-TC","2019/07/06 16:29:25","新北市雙溪區牡丹里聖南10-3號","121.860906666667","25.0492866666667","6502500","雙溪區"
"227002","400-TW","2019/07/06 16:29:30","新北市雙溪區外柑里外柑腳35號","121.810193333333","25.018815","6502500","雙溪區"
"251015","KEA-2871","2019/07/06 16:29:41","新北市淡水區中正路二段31號","121.419468333333","25.18164","6501000","淡水區"
"251016","179-VK","2019/07/06 16:29:34","新北市淡水區沙崙路97號","121.422265","25.1820683333333","6501000","淡水區"
"251013","180-VK","2019/07/06 16:29:23","新北市淡水區北新路三段171-1號","121.49186","25.1914616666667","6501000","淡水區"
"251008","181-VK","2019/07/06 16:29:34","新北市淡水區坪頂路52巷2號","121.457991666667","25.1624366666667","6501000","淡水區"
"251014","577-R6","2019/07/06 16:29:42","新北市淡水區中山北路三段163號","121.445331666667","25.1965616666667","6501000","淡水區"
"233002","762-BX","2019/07/06 16:29:27","新北市烏來區啦卡路70-1號","121.565056666667","24.8560016666667","6502900","烏來區"
"252001","KED-0821","2019/07/06 16:29:37","新北市三芝區埔坪里埔頭坑41號","121.504626666667","25.2645866666667","6502100","三芝區"
