"lineid","car","time","location","longitude","latitude","cityid","cityname"
"234026","9371-KE","2019/07/06 17:59:30","新北市永和區永和路一段39號","121.512855","25.006115","6500400","永和區"
"249005","172-UM","2019/07/06 17:59:40","新北市八里區荖阡坑路24-11號","121.398513333333","25.1381483333333","6502300","八里區"
"249001","173-UM","2019/07/06 17:59:35","新北市八里區龍米路二段35號","121.448445","25.1399683333333","6502300","八里區"
"249004","303-UY","2019/07/06 17:59:23","新北市八里區龍米路三段46號","121.427876666667","25.1592066666667","6502300","八里區"
"249003","593-UM","2019/07/06 17:59:23","新北市八里區中華路二段256號","121.405238333333","25.14964","6502300","八里區"
"249002","759-BX","2019/07/06 17:59:25","新北市八里區龍形五街35巷3號","121.449465","25.133115","6502300","八里區"
"248008","KED-0815","2019/07/06 17:59:35","新北市五股區更洲路10號","121.458296666667","25.0788366666667","6501500","五股區"
"248020","KED-0813","2019/07/06 17:59:25","新北市五股區中興路二段83巷26-3號","121.46009","25.075475","6501500","五股區"
"248004","677-BX","2019/07/06 17:59:42","新北市五股區中興路三段163號","121.449503333333","25.08047","6501500","五股區"
"248002","678-BX","2019/07/06 17:59:22","新北市五股區中興路二段83巷26-3號","121.460035","25.07548","6501500","五股區"
"232011","375-UM","2019/07/06 17:59:27","新北市坪林區水柳腳37號","121.709881666667","24.9352083333333","6502000","坪林區"
"244007","080-UY","2019/07/06 17:59:42","新北市林口區林口路124巷13號","121.389013333333","25.0818783333333","6501700","林口區"
"244019","402-UM","2019/07/06 17:59:37","新北市林口區文化一路一段100巷12號","121.373915","25.0706833333333","6501700","林口區"
"244013","KEA-2802","2019/07/06 17:59:31","新北市林口區中山路40號","121.395488333333","25.0783533333333","6501700","林口區"
"244023","483-VK","2019/07/06 17:59:30","新北市林口區東湖路41巷17號","121.38635","25.073045","6501700","林口區"
"244017","485-VK","2019/07/06 17:59:38","新北市林口區忠孝路478號","121.370196666667","25.0706066666667","6501700","林口區"
"244009","656-BX","2019/07/06 17:59:36","新北市林口區佳林路56巷6弄16號","121.385546666667","25.0822883333333","6501700","林口區"
"244011","701-TV","2019/07/06 17:59:39","新北市林口區中正路85號","121.394725","25.0773316666667","6501700","林口區"
"244025","837-TS","2019/07/06 17:59:32","新北市林口區惠民街56號","121.357441666667","25.068015","6501700","林口區"
"244021","838-TS","2019/07/06 17:59:38","新北市林口區新寮38號","121.400628333333","25.0659266666667","6501700","林口區"
"243010","297-R6","2019/07/06 17:59:40","新北市泰山區黎明路25號","121.421921666667","25.06095","6501600","泰山區"
"222002","016-RS","2019/07/06 17:59:41","新北市深坑區文化街116號","121.615836666667","25.0018083333333","6501800","深坑區"
"222003","436-BY","2019/07/06 17:59:44","新北市深坑區炮子崙24號","121.605345","24.9877016666667","6501800","深坑區"
"231061","002-UM","2019/07/06 17:59:29","新北市新店區安華路28-1號","121.519576666667","24.9608233333333","6500600","新店區"
"231051","107-UY","2019/07/06 17:59:41","新北市新店區安華路28-1號","121.519823333333","24.961055","6500600","新店區"
"231055","4716-K9","2019/07/06 17:59:34","新北市新店區安華路28-1號","121.519568333333","24.9605516666667","6500600","新店區"
"241024","065-VK","2019/07/06 17:59:39","新北市三重區中正北路193巷35弄69號","121.478631666667","25.071425","6500200","三重區"
"241002","066-VK","2019/07/06 17:31:43","新北市三重區仁義街91號","121.499803333333","25.07954","6500200","三重區"
"241033","AAC-255","2019/07/06 17:59:27","新北市三重區光復路一段57號","121.472156666667","25.0491883333333","6500200","三重區"
"235064","005-UY","2019/07/06 17:59:36","新北市中和區中正路637巷52弄1號","121.48547","24.9934883333333","6500300","中和區"
"235063","006-UY","2019/07/06 17:59:42","新北市中和區員山路36巷16-3號","121.485078333333","24.9913166666667","6500300","中和區"
"235065","098-UM","2019/07/06 17:59:27","新北市中和區中山路二段2巷45弄4號","121.502191666667","25.0070183333333","6500300","中和區"
"235058","151-BY","2019/07/06 17:59:43","新北市中和區圓通路367巷7號","121.492198333333","24.988","6500300","中和區"
"235038","185-VK","2019/07/06 17:59:27","新北市中和區中正路460號","121.490168333333","24.99408","6500300","中和區"
"247014","KEA-2869","2019/07/06 17:59:32","新北市蘆洲區忠孝路98號","121.471381666667","25.086125","6501400","蘆洲區"
"235045","565-BX","2019/07/06 17:59:42","新北市中和區員山路36巷13號","121.483993333333","24.9910633333333","6500300","中和區"
"235054","640-BX","2019/07/06 17:59:43","新北市中和區連城路583巷15號","121.479146666667","24.9933916666667","6500300","中和區"
"235026","800-TS","2019/07/06 17:59:36","新北市中和區中正路748號","121.485456666667","24.9985266666667","6500300","中和區"
"235057","801-TS","2019/07/06 17:59:35","新北市中和區員山路82巷6-3號","121.481326666667","24.9935783333333","6500300","中和區"
"235041","802-TS","2019/07/06 17:59:38","新北市中和區和城路一段271巷1號","121.48554","24.9916766666667","6500300","中和區"
"235052","805-TS","2019/07/06 17:59:38","新北市中和區員山路36巷16-3號","121.4847","24.9910883333333","6500300","中和區"
"235053","900-TW","2019/07/06 17:59:29","新北市中和區員山路36巷16-2號","121.485245","24.9914916666667","6500300","中和區"
"235051","157-BY","2019/07/06 17:59:27","新北市中和區員山路36巷12號","121.483988333333","24.9909083333333","6500300","中和區"
"235037","AAC-213","2019/07/06 17:59:41","新北市中和區景平路151巷1號","121.514036666667","24.9919833333333","6500300","中和區"
"235059","AAC-215","2019/07/06 17:59:31","新北市中和區員山路36巷16-3號","121.485018333333","24.9911966666667","6500300","中和區"
"247018","546-UM","2019/07/06 17:59:31","新北市蘆洲區復興路252號","121.479855","25.0896916666667","6501400","蘆洲區"
"247002","500-BY","2019/07/06 17:59:38","新北市蘆洲區永平街32巷45弄36號","121.458365","25.09311","6501400","蘆洲區"
"247012","056-VK","2019/07/06 17:59:39","新北市蘆洲區民族路167巷4號","121.478768333333","25.0881866666667","6501400","蘆洲區"
"247020","007-UY","2019/07/06 17:59:32","新北市蘆洲區水湳街36-8號","121.471341666667","25.0898133333333","6501400","蘆洲區"
"226004","312-R5","2019/07/06 17:59:34","新北市平溪區石底里公園街18-3號","121.733326666667","25.02591","6502400","平溪區"
"228003","097-TW","2019/07/06 17:59:42","新北市貢寮區真理里美艷山街6-2號","121.928848333333","25.060785","6502600","貢寮區"
"228001","212-TW","2019/07/06 17:59:36","新北市貢寮區真理里新港街26巷53號","121.928045","25.05356","6502600","貢寮區"
"228002","663-BX","2019/07/06 17:59:35","新北市貢寮區福連里香蘭街5號","121.973771666667","25.02436","6502600","貢寮區"
"224006","676-BX","2019/07/06 17:59:38","新北市瑞芳區大寮路356-1號","121.784846666667","25.1031683333333","6501200","瑞芳區"
"224009","275-VK","2019/07/06 17:59:24","新北市瑞芳區山尖路115號","121.852585","25.114035","6501200","瑞芳區"
"224008","273-VK","2019/07/06 17:59:22","新北市瑞芳區明燈路一段45巷61-4號","121.821805","25.10515","6501200","瑞芳區"
"224005","271-BY","2019/07/06 17:59:32","新北市瑞芳區弘祥新村10號","121.817705","25.12879","6501200","瑞芳區"
"253006","032-BX","2019/07/06 17:59:32","新北市石門區大丘田45-2號","121.549816666667","25.274835","6502200","石門區"
"253005","741-TV","2019/07/06 17:59:28","新北市石門區中山路62-12號","121.56745","25.2897233333333","6502200","石門區"
"222001","KEA-2212","2019/07/06 17:59:31","新北市深坑區深坑街174號","121.612036666667","25.0006216666667","6501800","深坑區"
"208002","KEA-2872","2019/07/06 17:59:42","新北市金山區三界壇路37號","121.62744","25.227985","6502700","金山區"
"208003","665-BX","2019/07/06 17:59:40","新北市金山區磺港里磺港路311號","121.64416","25.22771","6502700","金山區"
"251009","008-UM","2019/07/06 17:59:34","新北市淡水區中山路130-1號","121.441633333333","25.1710966666667","6501000","淡水區"
"251004","009-UM","2019/07/06 17:59:45","新北市淡水區民權路187巷5號","121.459751666667","25.1335633333333","6501000","淡水區"
"251005","010-UM","2019/07/06 17:59:36","新北市淡水區英專路120號","121.445945","25.1724566666667","6501000","淡水區"
"251015","KEA-2871","2019/07/06 17:59:40","新北市淡水區興福寮31-1號","121.48983","25.162505","6501000","淡水區"
"251016","179-VK","2019/07/06 17:59:40","新北市淡水區淡金路三段36號","121.448033333333","25.1989866666667","6501000","淡水區"
"251013","180-VK","2019/07/06 17:59:22","新北市淡水區泉洲厝31號","121.479563333333","25.1910183333333","6501000","淡水區"
"251008","181-VK","2019/07/06 17:59:36","新北市淡水區八勢一街73號","121.461695","25.1551433333333","6501000","淡水區"
"251010","413-VK","2019/07/06 17:59:33","新北市淡水區中正路一段132巷22號","121.423026666667","25.1800033333333","6501000","淡水區"
"251012","441-VK","2019/07/06 17:59:41","新北市淡水區北新路三段38巷7號","121.484513333333","25.187005","6501000","淡水區"
"251001","559-UM","2019/07/06 17:59:35","新北市淡水區民權路94巷1號","121.46314","25.12481","6501000","淡水區"
"251006","561-UM","2019/07/06 17:59:37","新北市淡水區新生街20-5號","121.438861666667","25.17391","6501000","淡水區"
"251014","577-R6","2019/07/06 17:59:22","新北市淡水區公埔子16-6號","121.481058333333","25.2245483333333","6501000","淡水區"
"251011","650-BX","2019/07/06 17:58:38","新北市淡水區吳(仔)厝20號","121.47926","25.1485283333333","6501000","淡水區"
"251002","672-BX","2019/07/06 17:59:37","新北市淡水區中正路28號","121.444365","25.1693433333333","6501000","淡水區"
"251003","766-UM","2019/07/06 17:59:28","新北市淡水區大忠街66號","121.444513333333","25.1762633333333","6501000","淡水區"
"207003","550-UM","2019/07/06 17:59:34","新北市萬里區港東路野柳風景區攤販66號","121.69117","25.2057633333333","6502800","萬里區"
"207004","225-TW","2019/07/06 17:59:33","新北市萬里區中幅里中福路48號","121.683468333333","25.1741216666667","6502800","萬里區"
"252002","178-VK","2019/07/06 17:59:41","新北市三芝區中山路二段29號","121.502776666667","25.2553383333333","6502100","三芝區"
"252003","249-BX","2019/07/06 17:59:26","新北市三芝區埔坪里埔頭坑41號","121.504568333333","25.2645616666667","6502100","三芝區"
"208001","170-UY","2019/07/06 17:59:29","新北市金山區磺港里磺港路163號","121.644018333333","25.22508","6502700","金山區"
"237007","153-BY","2019/07/06 17:59:25","新北市三峽區中園街108-2號","121.366863333333","24.9230216666667","6500900","三峽區"
"237009","210-TH","2019/07/06 17:59:38","新北市三峽區中山路106巷2號","121.366118333333","24.9360183333333","6500900","三峽區"
"237013","252-BX","2019/07/06 17:59:29","新北市三峽區介壽路一段131-1號","121.37617","24.9317183333333","6500900","三峽區"
"237012","275-BY","2019/07/06 17:59:36","新北市三峽區民生街19巷11-1號","121.376073333333","24.9355683333333","6500900","三峽區"
"237008","302-VK","2019/07/06 17:59:40","新北市三峽區白雞38-20號","121.373571666667","24.9116066666667","6500900","三峽區"
"237014","433-BY","2019/07/06 17:59:29","新北市三峽區和平街36巷14號","121.370745","24.937045","6500900","三峽區"
"237006","5529-G3","2019/07/06 17:59:25","新北市三峽區介壽路二段138巷13-1號","121.395621666667","24.9337833333333","6500900","三峽區"
"237011","KEA-2596","2019/07/06 17:59:39","新北市三峽區中正路一段60-1號","121.374993333333","24.9302116666667","6500900","三峽區"
"237015","649-BX","2019/07/06 17:59:38","新北市三峽區詩朗139號","121.405551666667","24.9111516666667","6500900","三峽區"
"237010","706-TV","2019/07/06 17:59:42","新北市三峽區民權街162號","121.368011666667","24.9305233333333","6500900","三峽區"
"237004","756-BX","2019/07/06 17:59:25","新北市三峽區中正路二段334號","121.365945","24.9105133333333","6500900","三峽區"
"237005","AKY-6261","2019/07/06 17:59:36","新北市三峽區復興路233號","121.368643333333","24.9388566666667","6500900","三峽區"
"236042","KED-0685","2019/07/06 17:59:26","新北市土城區城林路6巷80號","121.438513333333","24.9797166666667","6501300","土城區"
"233002","762-BX","2019/07/06 17:59:27","新北市烏來區西羅岸路22號","121.549173333333","24.867445","6502900","烏來區"
"236030","253-BX","2019/07/06 17:59:25","新北市土城區城林路6巷80號","121.438496666667","24.979705","6501300","土城區"
"236026","269-VK","2019/07/06 17:59:37","新北市土城區中央路三段96-1號","121.435703333333","24.9664416666667","6501300","土城區"
"236014","270-VK","2019/07/06 17:59:42","新北市土城區城林路6巷80號","121.438166666667","24.97971","6501300","土城區"
"236038","271-VK","2019/07/06 17:59:26","新北市土城區員福街58號","121.440243333333","24.97924","6501300","土城區"
"236070","KEA-2877","2019/07/06 17:59:42","新北市土城區青雲路665-1號","121.466233333333","24.964895","6501300","土城區"
"252001","KED-0821","2019/07/06 17:59:37","新北市三芝區中興街二段2號","121.498335","25.2566616666667","6502100","三芝區"
"236021","401-BY","2019/07/06 17:59:34","新北市土城區城林路6巷80號","121.438825","24.9796533333333","6501300","土城區"
"236059","912-UM","2019/07/06 17:59:34","新北市土城區中央路三段282號","121.426658333333","24.96369","6501300","土城區"
"236049","913-UM","2019/07/06 17:59:24","新北市土城區城林路6巷80號","121.438588333333","24.9796566666667","6501300","土城區"
"236063","915-UM","2019/07/06 17:59:33","新北市土城區城林路6巷80號","121.438531666667","24.9795866666667","6501300","土城區"
"236055","AAC-216","2019/07/06 17:59:34","新北市土城區中央路二段280號","121.44089","24.9739883333333","6501300","土城區"
"242039","AAC-296","2019/07/06 17:59:31","新北市新莊區民安西路22號","121.42669","25.0213383333333","6500500","新莊區"
"242061","986-R7","2019/07/06 17:59:33","新北市新莊區新樹路194號","121.434151666667","25.0209133333333","6500500","新莊區"
"242002","751-BX","2019/07/06 17:59:39","新北市新莊區大觀街42巷15號","121.454416666667","25.0359866666667","6500500","新莊區"
"242029","615-BX","2019/07/06 17:59:40","新北市新莊區中平路110巷13號","121.445698333333","25.0460366666667","6500500","新莊區"
"242027","613-BX","2019/07/06 17:59:23","新北市新莊區思源路451號","121.459933333333","25.053345","6500500","新莊區"
"242058","612-BX","2019/07/06 17:59:43","新北市新莊區雙鳳路134巷5號","121.412686666667","25.0280916666667","6500500","新莊區"
"242046","566-BX","2019/07/06 17:59:28","新北市新莊區福營路184號","121.431261666667","25.0308016666667","6500500","新莊區"
"242051","497-BY","2019/07/06 17:59:34","新北市新莊區西盛街159號","121.428235","25.017905","6500500","新莊區"
"242056","441-UM","2019/07/06 17:59:40","新北市新莊區瓊林路46-11號","121.44686","25.029155","6500500","新莊區"
"242004","440-UM","2019/07/06 17:59:41","新北市新莊區思源路177巷33弄2號","121.459048333333","25.0466966666667","6500500","新莊區"
"242042","415-TV","2019/07/06 17:59:40","新北市新莊區壽山路31號","121.420041666667","25.0287333333333","6500500","新莊區"
"242011","413-TV","2019/07/06 17:59:41","新北市新莊區中港路629-1號","121.450641666667","25.0538183333333","6500500","新莊區"
"242048","400-BY","2019/07/06 17:59:30","新北市新莊區萬安街161號","121.420201666667","25.02127","6500500","新莊區"
"242025","362-BY","2019/07/06 17:59:32","新北市新莊區五工路82號","121.457393333333","25.063915","6500500","新莊區"
"242023","353-BY","2019/07/06 17:59:24","新北市新莊區福壽街1號","121.457646666667","25.0476066666667","6500500","新莊區"
"242013","132-UY","2019/07/06 17:59:36","新北市新莊區中和街126號","121.447555","25.04791","6500500","新莊區"
"242036","135-UY","2019/07/06 17:59:35","新北市新莊區建福路71號","121.426866666667","25.0269066666667","6500500","新莊區"
"242053","172-VK","2019/07/06 17:59:30","新北市新莊區光華街11號","121.428836666667","25.0107116666667","6500500","新莊區"
"242015","173-VK","2019/07/06 17:59:26","新北市新莊區新泰路502巷41弄12號","121.443835","25.0467366666667","6500500","新莊區"
"242021","175-VK","2019/07/06 17:59:25","新北市新莊區中華路一段6號","121.451923333333","25.036565","6500500","新莊區"
"242019","KED-0687","2019/07/06 17:59:42","新北市新莊區明中街18號","121.457458333333","25.0393316666667","6500500","新莊區"
"242031","346-TH","2019/07/06 17:59:37","新北市新莊區新泰路329號","121.444988333333","25.0416983333333","6500500","新莊區"
"242044","347-TH","2019/07/06 17:59:35","新北市新莊區雙鳳路39號","121.41622","25.0271133333333","6500500","新莊區"
"242034","348-TH","2019/07/06 17:59:41","新北市新莊區福海街11號","121.445215","25.0334433333333","6500500","新莊區"
"242007","349-TH","2019/07/06 17:59:43","新北市新莊區自信街75巷13號","121.45573","25.0488733333333","6500500","新莊區"
"242017","351-TH","2019/07/06 17:59:29","新北市新莊區中港路339巷6號","121.451785","25.045305","6500500","新莊區"
"238023","601-UM","2019/07/06 17:59:37","新北市樹林區龍興街46巷22號","121.40231","25.0152816666667","6500700","樹林區"
"238019","599-UM","2019/07/06 17:59:41","新北市樹林區太平路243號","121.41866","24.975625","6500700","樹林區"
"238018","KEA-2217","2019/07/06 17:59:32","新北市樹林區中正路241號","121.430236666667","24.9986233333333","6500700","樹林區"
"238022","KEA-2213","2019/07/06 17:59:34","新北市樹林區太順街51巷1號","121.417735","24.9790583333333","6500700","樹林區"
"238021","KEA-2539","2019/07/06 17:59:31","新北市樹林區柑園街一段371號","121.388596666667","24.955955","6500700","樹林區"
"238025","303-VK","2019/07/06 17:59:39","新北市樹林區中正路741號","121.411078333333","25.0144083333333","6500700","樹林區"
"238017","283-BY","2019/07/06 17:59:35","新北市樹林區中正路464號","121.412766666667","25.0127566666667","6500700","樹林區"
"238014","282-BY","2019/07/06 17:59:40","新北市樹林區千歲街61巷38號","121.425796666667","24.9987233333333","6500700","樹林區"
"238020","268-VK","2019/07/06 17:59:40","新北市新莊區龍安路254巷18-1號","121.42067","25.0184316666667","6500700","樹林區"
"238026","172-UY","2019/07/06 17:59:28","新北市樹林區中洲街30巷13弄35號","121.39818","24.97229","6500700","樹林區"
"238016","169-UY","2019/07/06 17:54:56","新北市樹林區啟智街189巷1號","121.415036666667","24.9871283333333","6500700","樹林區"
"239007","AAC-297","2019/07/06 17:59:33","新北市鶯歌區尖山埔路189號","121.345571666667","24.950625","6500800","鶯歌區"
"239006","891-R6","2019/07/06 17:59:36","新北市鶯歌區鶯桃路455巷4弄4號","121.331955","24.9650466666667","6500800","鶯歌區"
"239008","527-UM","2019/07/06 17:59:31","新北市鶯歌區明圓街31號","121.336448333333","24.9774783333333","6500800","鶯歌區"
"239001","417-VK","2019/07/06 17:59:21","新北市鶯歌區中正三路135號","121.337383333333","24.9404766666667","6500800","鶯歌區"
"239003","360-BY","2019/07/06 17:59:26","新北市鶯歌區鶯桃路234巷1號","121.336685","24.959285","6500800","鶯歌區"
"239002","359-BY","2019/07/06 17:59:40","新北市鶯歌區光明街94號","121.346385","24.9557983333333","6500800","鶯歌區"
"239004","193-VK","2019/07/06 17:59:32","新北市鶯歌區尖山路83號","121.348733333333","24.94946","6500800","鶯歌區"
"221008","489-VK","2019/07/06 17:59:37","新北市汐止區康寧街753巷2弄8號","121.639271666667","25.0738866666667","6501100","汐止區"
"221036","130-UY","2019/07/06 17:59:26","新北市汐止區橋東街46號","121.665755","25.0753","6501100","汐止區"
"221010","269-BY","2019/07/06 17:59:30","新北市汐止區汐萬路二段247號","121.64643","25.0882933333333","6501100","汐止區"
"221012","278-VK","2019/07/06 17:59:29","新北市汐止區長興街一段35號","121.669613333333","25.0794166666667","6501100","汐止區"
"221023","279-VK","2019/07/06 17:59:41","新北市汐止區明峰街119號","121.631063333333","25.0710016666667","6501100","汐止區"
"221033","297-VK","2019/07/06 17:59:32","新北市汐止區合順街37號","121.620616666667","25.0432633333333","6501100","汐止區"
"221029","298-VK","2019/07/06 17:59:43","新北市汐止區樟樹二路328號","121.64144","25.0701933333333","6501100","汐止區"
"221031","353-TW","2019/07/06 17:59:26","新北市汐止區中興路96巷1-3號","121.6353","25.0624866666667","6501100","汐止區"
"221025","623-UM","2019/07/06 17:59:40","新北市汐止區仁愛路10號","121.659283333333","25.063655","6501100","汐止區"
"221038","646-BX","2019/07/06 17:59:43","新北市汐止區連興街124號","121.65383","25.061945","6501100","汐止區"
"221018","753-BX","2019/07/06 17:59:40","新北市汐止區忠孝東路341號","121.665271666667","25.07007","6501100","汐止區"
"224002","257-TC","2019/07/06 17:59:42","新北市瑞芳區三爪子坑路14號","121.810321666667","25.106655","6501200","瑞芳區"
"242009","280-VK","2019/07/06 17:59:37","新北市新莊區中華路二段290號","121.452405","25.0536016666667","6500500","新莊區"
"235068","KEA-2873","2019/07/06 17:59:39","新北市中和區員山路36巷16-3號","121.485128333333","24.9911783333333","6500300","中和區"
"235061","KEA-2875","2019/07/06 17:59:18","新北市中和區員山路77巷11弄8號","121.480123333333","24.9935533333333","6500300","中和區"
