"lineid","car","time","location","longitude","latitude","cityid","cityname"
"234046","148-BY","2019/07/06 18:59:38","新北市永和區永元路52巷52號","121.524513333333","25.0007166666667","6500400","永和區"
"234081","298-R6","2019/07/06 18:59:26","新北市永和區國中路206號","121.522175","25.0059616666667","6500400","永和區"
"234038","336-UY","2019/07/06 18:59:32","新北市永和區成功路二段203號","121.52656","24.99599","6500400","永和區"
"234064","337-UY","2019/07/06 18:59:29","新北市永和區中正路454巷1號","121.517753333333","25.00319","6500400","永和區"
"234086","338-UY","2019/07/06 18:59:42","新北市永和區永利路18號","121.517985","25.0057866666667","6500400","永和區"
"234070","552-UM","2019/07/06 18:59:34","新北市永和區竹林路96巷15弄2號","121.518875","25.0119216666667","6500400","永和區"
"234017","745-BX","2019/07/06 18:59:24","新北市永和區永和路二段297號","121.516025","25.01607","6500400","永和區"
"234030","746-BX","2019/07/06 18:59:42","新北市永和區得和路417號","121.525955","24.9991383333333","6500400","永和區"
"234054","KEA-2590","2019/07/06 18:59:27","新北市永和區竹林路66巷5號","121.51826","25.0132966666667","6500400","永和區"
"234007","KED-0605","2019/07/06 18:59:35","新北市永和區中山路一段54號","121.513088333333","25.010715","6500400","永和區"
"234013","KEA-2591","2019/07/06 18:59:24","新北市永和區保福路二段2號","121.511118333333","25.0108316666667","6500400","永和區"
"234061","AAD-866","2019/07/06 18:59:37","新北市永和區福和路307號","121.516258333333","25.007155","6500400","永和區"
"234042","862-TW","2019/07/06 18:59:42","新北市永和區永貞路312-1號","121.511693333333","25.0049483333333","6500400","永和區"
"234050","863-TW","2019/07/06 18:59:24","新北市永和區文化路145號","121.510805","25.0161183333333","6500400","永和區"
"234026","9371-KE","2019/07/06 18:59:30","新北市永和區安樂路453號","121.514271666667","25.0050283333333","6500400","永和區"
"234011","9381-KE","2019/07/06 18:59:25","新北市永和區仁愛路141巷3弄2號","121.511701666667","25.0124033333333","6500400","永和區"
"249005","172-UM","2019/07/06 18:59:40","新北市八里區長道坑2號","121.393775","25.1243566666667","6502300","八里區"
"249001","173-UM","2019/07/06 18:59:35","新北市八里區龍米路二段203-1號","121.432861666667","25.1583966666667","6502300","八里區"
"248016","026-BX","2019/07/06 18:59:38","新北市五股區成泰路三段559巷16號","121.451381666667","25.1026083333333","6501500","五股區"
"248006","077-UY","2019/07/06 18:59:32","新北市五股區四維路183號","121.468151666667","25.0755483333333","6501500","五股區"
"248008","KED-0815","2019/07/06 18:59:37","新北市五股區中興路一段116號","121.465961666667","25.073585","6501500","五股區"
"248020","KED-0813","2019/07/06 18:59:25","新北市五股區凌雲路三段57號","121.425208333333","25.1249983333333","6501500","五股區"
"248012","247-BX","2019/07/06 18:59:33","新北市五股區中興路四段48巷16號","121.438663333333","25.0834066666667","6501500","五股區"
"248010","272-BY","2019/07/06 18:59:24","新北市五股區水碓三路41號","121.43022","25.0713833333333","6501500","五股區"
"248004","677-BX","2019/07/06 18:59:22","新北市五股區民義路二段50號","121.41319","25.1019383333333","6501500","五股區"
"248002","678-BX","2019/07/06 18:59:22","新北市五股區凌雲路一段138號","121.449506666667","25.10221","6501500","五股區"
"234023","9380-KE","2019/07/06 18:59:42","新北市永和區竹林路75巷33弄47號","121.521093333333","25.014585","6500400","永和區"
"234077","969-R7","2019/07/06 18:59:28","新北市永和區得和路104巷16號","121.517841666667","24.9995433333333","6500400","永和區"
"234074","AAC-211","2019/07/06 18:59:36","新北市永和區環河東路二段100號","121.52411","25.0103233333333","6500400","永和區"
"234067","AAC-212","2019/07/06 18:59:42","新北市永和區自由街56號","121.513705","25.0059483333333","6500400","永和區"
"234003","AAC-295","2019/07/06 18:59:25","新北市永和區和平街38號","121.512988333333","25.0099283333333","6500400","永和區"
"232011","375-UM","2019/07/06 18:59:27","新北市坪林區水聳淒坑27號","121.71137","24.934085","6502000","坪林區"
"244019","402-UM","2019/07/06 18:59:37","新北市林口區麗園一街1號","121.375595","25.0729566666667","6501700","林口區"
"244013","KEA-2802","2019/07/06 18:59:31","新北市林口區麗園一街6巷5-2號","121.375496666667","25.070235","6501700","林口區"
"244023","483-VK","2019/07/06 18:59:30","新北市林口區文化三路二段160號","121.375785","25.0819783333333","6501700","林口區"
"244009","656-BX","2019/07/06 18:59:36","新北市林口區林口路91號","121.389453333333","25.08011","6501700","林口區"
"244011","701-TV","2019/07/06 18:59:39","新北市林口區中興街3-1號","121.389063333333","25.0776666666667","6501700","林口區"
"244025","837-TS","2019/07/06 18:59:32","新北市林口區文化北路一段370號","121.362383333333","25.0745383333333","6501700","林口區"
"243009","267-VK","2019/07/06 18:59:35","新北市泰山區泰林路二段353號","121.428386666667","25.0636766666667","6501600","泰山區"
"243010","297-R6","2019/07/06 18:59:39","新北市泰山區辭修路30號","121.42896","25.0581216666667","6501600","泰山區"
"243014","KEA-2801","2019/07/06 18:59:35","新北市泰山區黎明路2-5號","121.42082","25.062615","6501600","泰山區"
"243016","421-VK","2019/07/06 18:59:35","新北市泰山區明志路二段135號","121.427618333333","25.05075","6501600","泰山區"
"243012","539-UM","2019/07/06 18:59:39","新北市泰山區福興街24號","121.43433","25.0577616666667","6501600","泰山區"
"243011","KEA-2216","2019/07/06 18:59:36","新北市泰山區明志路二段246-1號","121.427085","25.0480166666667","6501600","泰山區"
"243015","680-BX","2019/07/06 18:59:43","新北市泰山區美寧街54號","121.43049","25.0645116666667","6501600","泰山區"
"222002","016-RS","2019/07/06 18:59:21","新北市深坑區文山路一段33號","121.629458333333","25.0038666666667","6501800","深坑區"
"222003","436-BY","2019/07/06 18:59:44","新北市深坑區深南路88巷1號","121.621395","25.0109316666667","6501800","深坑區"
"231061","002-UM","2019/07/06 18:59:29","新北市新店區安華路28-1號","121.519791666667","24.9608416666667","6500600","新店區"
"231044","046-UY","2019/07/06 18:59:29","新北市新店區寶中路72號","121.547858333333","24.9806066666667","6500600","新店區"
"231060","106-UY","2019/07/06 18:59:30","新北市新店區安忠路57巷11弄14號","121.515303333333","24.957885","6500600","新店區"
"231051","107-UY","2019/07/06 18:59:41","新北市新店區三民路189號","121.535356666667","24.97551","6500600","新店區"
"231049","108-UY","2019/07/06 18:59:29","新北市新店區中正路454-5號","121.534503333333","24.9790366666667","6500600","新店區"
"231065","110-UY","2019/07/06 18:59:39","新北市新店區安祥路145巷2號","121.47481","24.9553766666667","6500600","新店區"
"221035","KEA-2785","2019/07/06 18:59:35","新北市汐止區大同路二段294號","121.655198333333","25.0665466666667","6501100","汐止區"
"231062","256-BX","2019/07/06 18:59:33","新北市新店區安康路二段330號","121.504328333333","24.9578766666667","6500600","新店區"
"231054","260-TV","2019/07/06 18:59:40","新北市新店區新店路47號","121.539453333333","24.9526516666667","6500600","新店區"
"231042","268-BY","2019/07/06 18:59:32","新北市新店區中正路23號","121.545311666667","24.9694416666667","6500600","新店區"
"231064","278-BY","2019/07/06 18:59:28","新北市新店區安一路一段1-1號","121.51966","24.96123","6500600","新店區"
"231050","AAD-862","2019/07/06 18:59:40","新北市新店區新烏路一段11巷1弄2號","121.5473","24.9513633333333","6500600","新店區"
"231045","355-BY","2019/07/06 18:59:37","新北市新店區安康路一段107-2號","121.528753333333","24.961625","6500600","新店區"
"231058","3713-VJ","2019/07/06 18:59:27","新北市新店區光明街138巷13弄5號","121.540496666667","24.961265","6500600","新店區"
"231055","4716-K9","2019/07/06 18:59:35","新北市新店區北新路一段271巷17號","121.540316666667","24.9669733333333","6500600","新店區"
"231056","4715-K9","2019/07/06 18:59:33","新北市新店區二十張路46巷37弄23號","121.535993333333","24.9815266666667","6500600","新店區"
"231067","4772-VM","2019/07/06 18:59:41","新北市新店區安康路一段167號","121.527235","24.9624783333333","6500600","新店區"
"231052","513-UM","2019/07/06 18:59:28","新北市新店區新烏路二段7號","121.544046666667","24.9294716666667","6500600","新店區"
"231040","617-UM","2019/07/06 18:59:40","新北市新店區中央路45號","121.532835","24.9776566666667","6500600","新店區"
"231041","619-UM","2019/07/06 18:59:39","新北市新店區安康路一段104號","121.527308333333","24.9624683333333","6500600","新店區"
"231063","641-BX","2019/07/06 18:59:29","新北市新店區安忠路57巷13號","121.513368333333","24.9574166666667","6500600","新店區"
"231048","KED-0819","2019/07/06 18:59:41","新北市新店區德正街21巷1號","121.543895","24.9721983333333","6500600","新店區"
"231046","719-UM","2019/07/06 18:56:18","新北市新店區直潭四街30號","121.534048333333","24.94164","6500600","新店區"
"231057","720-UM","2019/07/06 18:59:25","新北市新店區百齡一路12號","121.55305","24.9324683333333","6500600","新店區"
"231059","897-TW","2019/07/06 18:59:21","新北市新店區安華路28-1號","121.519985","24.960745","6500600","新店區"
"231043","899-TW","2019/07/06 18:59:41","新北市新店區北新路二段1號","121.542703333333","24.9711833333333","6500600","新店區"
"231066","AKT-0513","2019/07/06 18:59:28","新北市新店區安豐路22巷1號","121.501383333333","24.956085","6500600","新店區"
"241029","060-VK","2019/07/06 18:59:23","新北市三重區重安街1號","121.490058333333","25.058285","6500200","三重區"
"241024","065-VK","2019/07/06 18:59:39","新北市五股區四維路1巷2弄2號","121.46657","25.0701183333333","6500200","三重區"
"235066","003-UY","2019/07/06 18:59:27","新北市中和區中山路二段131巷5弄4號","121.502918333333","25.002865","6500300","中和區"
"235064","005-UY","2019/07/06 18:59:36","新北市中和區泰和街44巷26號","121.498431666667","25.000785","6500300","中和區"
"235063","006-UY","2019/07/06 18:59:22","新北市中和區中正路580號","121.486115","24.994875","6500300","中和區"
"235056","096-UM","2019/07/06 18:59:35","新北市板橋區三民路二段204號","121.478861666667","25.0122533333333","6500300","中和區"
"235039","097-UM","2019/07/06 18:59:32","新北市中和區景平路64巷13弄22號","121.521425","24.9915516666667","6500300","中和區"
"235065","098-UM","2019/07/06 18:59:27","新北市中和區福祥路158號","121.49841","25.0076416666667","6500300","中和區"
"235040","150-BY","2019/07/06 18:59:29","新北市中和區安樂路51巷10號","121.511768333333","24.9938583333333","6500300","中和區"
"235058","151-BY","2019/07/06 18:59:23","新北市中和區員山路75號","121.480805","24.9941216666667","6500300","中和區"
"235055","183-VK","2019/07/06 18:59:40","新北市中和區民德路25巷18-3號","121.469725","25.0029483333333","6500300","中和區"
"235038","185-VK","2019/07/06 18:59:27","新北市中和區大勇街43巷13號","121.517025","24.9946266666667","6500300","中和區"
"235049","186-VK","2019/07/06 18:59:34","新北市中和區景安路70號","121.505796666667","24.9966616666667","6500300","中和區"
"235067","255-BX","2019/07/06 18:59:39","新北市中和區新生街177巷14號","121.484223333333","25.0002266666667","6500300","中和區"
"235044","293-VK","2019/07/06 18:59:25","新北市中和區中興街202巷57號","121.498435","24.989575","6500300","中和區"
"235072","301-VK","2019/07/06 18:59:41","新北市中和區中山路二段248號","121.497808333333","25.0025366666667","6500300","中和區"
"235043","352-BY","2019/07/06 18:59:34","新北市中和區秀朗路三段179號","121.52456","24.9906316666667","6500300","中和區"
"235042","KEA-2878","2019/07/06 18:59:26","新北市中和區秀朗路三段22巷7號","121.5259","24.9962083333333","6500300","中和區"
"235050","4979-A6","2019/07/06 18:59:32","新北市中和區忠孝街58巷7號","121.51206","24.983335","6500300","中和區"
"235069","4980-A6","2019/07/06 18:59:29","新北市中和區南山路111巷1號","121.502308333333","24.9976266666667","6500300","中和區"
"235070","558-UM","2019/07/06 18:59:24","新北市中和區中和路122號","121.503196666667","24.9996183333333","6500300","中和區"
"235045","565-BX","2019/07/06 18:59:42","新北市中和區景新街467巷20弄102號","121.514853333333","24.9872716666667","6500300","中和區"
"235060","KED-0823","2019/07/06 18:59:27","新北市中和區民享街83號","121.47421","25.0017133333333","6500300","中和區"
"235054","640-BX","2019/07/06 18:59:43","新北市中和區民德路153號","121.468726666667","25.00018","6500300","中和區"
"235047","732-UM","2019/07/06 18:59:41","新北市中和區興南路二段54巷3號","121.50622","24.9852166666667","6500300","中和區"
"235046","733-UM","2019/07/06 18:59:25","新北市中和區興南路二段33號","121.50769","24.9858266666667","6500300","中和區"
"235026","800-TS","2019/07/06 18:59:36","新北市中和區中山路二段530號","121.485805","25.004915","6500300","中和區"
"235057","801-TS","2019/07/06 18:59:35","新北市中和區民利街100巷7號","121.477006666667","24.998355","6500300","中和區"
"235041","802-TS","2019/07/06 18:59:38","新北市中和區景安路29號","121.507761666667","24.99863","6500300","中和區"
"235052","805-TS","2019/07/06 18:59:38","新北市中和區興南路二段347號","121.500246666667","24.980195","6500300","中和區"
"235048","896-TW","2019/07/06 18:59:36","新北市中和區忠孝街2號","121.508683333333","24.9828733333333","6500300","中和區"
"235053","900-TW","2019/07/06 18:59:29","新北市中和區和平路200巷33-3號","121.465206666667","24.99453","6500300","中和區"
"235051","157-BY","2019/07/06 18:59:27","新北市中和區忠孝街19巷31號","121.509613333333","24.984555","6500300","中和區"
"235037","AAC-213","2019/07/06 18:59:24","新北市中和區秀朗路三段60巷22號","121.525576666667","24.9950383333333","6500300","中和區"
"235059","AAC-215","2019/07/06 18:59:31","新北市中和區圓通路369巷19弄8號","121.491226666667","24.98822","6500300","中和區"
"220068","015-TV","2019/07/06 18:59:39","新北市板橋區中山路二段465巷92-1號","121.48117","25.0225383333333","6500100","板橋區"
"220065","072-UY","2019/07/06 18:59:25","新北市板橋區漢生東路324號","121.471741666667","25.00789","6500100","板橋區"
"220086","073-UY","2019/07/06 18:59:35","新北市板橋區大智街59號","121.453995","25.015465","6500100","板橋區"
"220106","075-UY","2019/07/06 18:59:23","新北市板橋區雙十路三段10巷14號","121.472183333333","25.0307766666667","6500100","板橋區"
"220069","AAD-861","2019/07/06 18:59:40","新北市板橋區四川路一段147號","121.459908333333","25.0042066666667","6500100","板橋區"
"220098","120-SR","2019/07/06 18:59:24","新北市板橋區民生路二段226巷32號","121.471185","25.0221066666667","6500100","板橋區"
"226004","312-R5","2019/07/06 18:59:34","新北市平溪區平溪里平溪街22號","121.73881","25.0253966666667","6502400","平溪區"
"228003","097-TW","2019/07/06 18:59:42","新北市貢寮區和美里龍洞街62-3號","121.915915","25.1174566666667","6502600","貢寮區"
"228001","212-TW","2019/07/06 18:59:34","新北市貢寮區仁理村仁義街8號","121.923776666667","25.0518816666667","6502600","貢寮區"
"228002","663-BX","2019/07/06 18:59:35","新北市貢寮區福隆里東興街106巷25弄1號","121.94642","25.0183583333333","6502600","貢寮區"
"224006","676-BX","2019/07/06 18:59:38","新北市瑞芳區民權街6巷25號","121.80704","25.1067483333333","6501200","瑞芳區"
"224007","285-BY","2019/07/06 18:59:26","新北市瑞芳區中央路48巷162號","121.759398333333","25.1035166666667","6501200","瑞芳區"
"224009","275-VK","2019/07/06 18:59:24","新北市瑞芳區長仁路40號","121.864501666667","25.117895","6501200","瑞芳區"
"224008","273-VK","2019/07/06 18:59:38","新北市瑞芳區逢甲路410號","121.801255","25.1171766666667","6501200","瑞芳區"
"224005","271-BY","2019/07/06 18:59:32","新北市瑞芳區濱二路73號","121.828851666667","25.1209116666667","6501200","瑞芳區"
"227001","642-TC","2019/07/06 18:59:35","新北市雙溪區牡丹里中正路60號","121.866128333333","25.0423666666667","6502500","雙溪區"
"227002","400-TW","2019/07/06 18:59:30","新北市雙溪區平林里外平林9-5號","121.859121666667","25.038025","6502500","雙溪區"
"253006","032-BX","2019/07/06 18:59:32","新北市石門區八甲4-10號","121.521098333333","25.28271","6502200","石門區"
"253005","741-TV","2019/07/06 18:59:27","新北市石門區中山路37號","121.566788333333","25.2911566666667","6502200","石門區"
"222001","KEA-2212","2019/07/06 18:59:31","新北市深坑區北深路一段300號","121.624236666667","25.0057466666667","6501800","深坑區"
"208002","KEA-2872","2019/07/06 18:59:22","新北市金山區信義路72號","121.63516","25.2195283333333","6502700","金山區"
"208003","665-BX","2019/07/06 18:59:40","新北市金山區中正路81號","121.633498333333","25.221705","6502700","金山區"
"251009","008-UM","2019/07/06 18:59:40","新北市淡水區建設街1巷1號","121.439138333333","25.1728216666667","6501000","淡水區"
"251015","KEA-2871","2019/07/06 18:59:40","新北市淡水區糞箕湖131巷2號","121.488371666667","25.17334","6501000","淡水區"
"251016","179-VK","2019/07/06 18:59:33","新北市淡水區淡金路三段325號","121.448971666667","25.2060383333333","6501000","淡水區"
"251013","180-VK","2019/07/06 18:59:22","新北市淡水區安子內3號","121.48693","25.21351","6501000","淡水區"
"251010","413-VK","2019/07/06 18:59:33","新北市淡水區淡海路69巷8弄6號","121.422773333333","25.18162","6501000","淡水區"
"251012","441-VK","2019/07/06 18:59:41","新北市淡水區新春街126巷15弄1號","121.440545","25.1808916666667","6501000","淡水區"
"251007","442-VK","2019/07/06 18:59:38","新北市淡水區民生路113巷1弄29號","121.463423333333","25.1386383333333","6501000","淡水區"
"251001","559-UM","2019/07/06 18:59:35","新北市淡水區自強路60號","121.46313","25.1276016666667","6501000","淡水區"
"251014","577-R6","2019/07/06 18:59:21","新北市淡水區小中寮32-1號","121.491911666667","25.2261366666667","6501000","淡水區"
"251011","650-BX","2019/07/06 18:59:38","新北市淡水區鄧公路30巷2弄2號","121.452533333333","25.1690866666667","6501000","淡水區"
"251002","672-BX","2019/07/06 18:59:37","新北市淡水區中正東路49號","121.446738333333","25.16792","6501000","淡水區"
"251003","766-UM","2019/07/06 18:59:28","新北市淡水區中山北路一段149巷24號","121.442931666667","25.1780116666667","6501000","淡水區"
"207003","550-UM","2019/07/06 18:59:34","新北市萬里區大鵬里頂社24-5號","121.657606666667","25.2098866666667","6502800","萬里區"
"207004","225-TW","2019/07/06 18:59:33","新北市萬里區萬里里獅頭路23號","121.69324","25.1782233333333","6502800","萬里區"
"252002","178-VK","2019/07/06 18:59:41","新北市三芝區中正路一段34號","121.503236666667","25.258375","6502100","三芝區"
"252003","249-BX","2019/07/06 18:59:26","新北市三芝區後厝里北勢子45-1號","121.468718333333","25.2504033333333","6502100","三芝區"
"208001","170-UY","2019/07/06 18:59:29","新北市金山區中山路73號","121.640585","25.2184166666667","6502700","金山區"
"237007","153-BY","2019/07/06 18:59:25","新北市三峽區大埔路68號","121.366438333333","24.9075716666667","6500900","三峽區"
"237013","252-BX","2019/07/06 18:59:29","新北市三峽區大同路48巷17弄8-1號","121.376671666667","24.9289416666667","6500900","三峽區"
"237012","275-BY","2019/07/06 18:59:36","新北市三峽區三樹路224號","121.379156666667","24.9426783333333","6500900","三峽區"
"237008","302-VK","2019/07/06 18:59:40","新北市三峽區大同路174巷8號","121.37261","24.9271983333333","6500900","三峽區"
"237014","433-BY","2019/07/06 18:59:29","新北市三峽區隆恩街232號","121.357858333333","24.9411633333333","6500900","三峽區"
"237006","5529-G3","2019/07/06 18:59:25","新北市三峽區溪東路233巷4弄1號","121.406741666667","24.9335966666667","6500900","三峽區"
"237011","KEA-2596","2019/07/06 18:59:39","新北市三峽區介壽路三段245號","121.407576666667","24.9492866666667","6500900","三峽區"
"237015","649-BX","2019/07/06 18:59:38","新北市三峽區建安85號","121.453098333333","24.9218016666667","6500900","三峽區"
"237010","706-TV","2019/07/06 18:59:42","新北市三峽區復興路174巷1號","121.370713333333","24.9389333333333","6500900","三峽區"
"237004","756-BX","2019/07/06 18:59:25","新北市三峽區有木212號","121.439933333333","24.851915","6500900","三峽區"
"237005","AKY-6261","2019/07/06 18:59:36","新北市三峽區中山路459巷135號","121.348658333333","24.932885","6500900","三峽區"
"236042","KED-0685","2019/07/06 18:59:26","新北市土城區學府路一段199巷9號","121.452401666667","24.9843383333333","6501300","土城區"
"220089","KED-0812","2019/07/06 18:59:40","新北市板橋區文化路二段435號","121.475041666667","25.033065","6500100","板橋區"
"236030","253-BX","2019/07/06 18:59:25","新北市土城區中央路三段1號","121.43978","24.9707466666667","6501300","土城區"
"236026","269-VK","2019/07/06 18:59:37","新北市土城區中正路56巷13號","121.444138333333","24.9746933333333","6501300","土城區"
"236014","270-VK","2019/07/06 18:59:42","新北市土城區永豐路29巷2號","121.463183333333","24.9882933333333","6501300","土城區"
"236038","271-VK","2019/07/06 18:59:30","新北市土城區仁愛路18號","121.460735","24.9802966666667","6501300","土城區"
"236070","KEA-2877","2019/07/06 18:59:42","新北市土城區金城路二段217號","121.454801666667","24.9819283333333","6501300","土城區"
"252001","KED-0821","2019/07/06 18:59:37","新北市三芝區中興街二段260號","121.50181","25.2530166666667","6502100","三芝區"
"236021","401-BY","2019/07/06 18:59:34","新北市土城區明峰街53巷8號","121.467571666667","24.9869683333333","6501300","土城區"
"236059","912-UM","2019/07/06 18:59:41","新北市土城區金城路二段246號","121.456943333333","24.9831566666667","6501300","土城區"
"236049","913-UM","2019/07/06 18:59:29","新北市土城區青雲路322巷2弄4號","121.458081666667","24.9773233333333","6501300","土城區"
"236063","915-UM","2019/07/06 18:59:33","新北市土城區延和路41巷6弄18號","121.466733333333","24.9902416666667","6501300","土城區"
"236055","AAC-216","2019/07/06 18:59:34","新北市土城區學成路164號","121.44809","24.98909","6501300","土城區"
"242056","441-UM","2019/07/06 18:59:40","新北市樹林區八德街495-2號","121.401311666667","24.96931","6500500","新莊區"
"238023","601-UM","2019/07/06 18:59:36","新北市樹林區大慶街47號","121.39647","25.0138633333333","6500700","樹林區"
"238019","599-UM","2019/07/06 18:59:40","新北市樹林區東榮街169號","121.414","24.9813716666667","6500700","樹林區"
"238022","KEA-2213","2019/07/06 18:59:34","新北市樹林區東興街49-2號","121.411333333333","24.9772533333333","6500700","樹林區"
"238021","KEA-2539","2019/07/06 18:59:34","新北市樹林區柑園街二段314號","121.373396666667","24.9517816666667","6500700","樹林區"
"238025","303-VK","2019/07/06 18:59:38","新北市樹林區民和街61-1號","121.38141","24.9709316666667","6500700","樹林區"
"238017","283-BY","2019/07/06 18:59:35","新北市樹林區光興街50號","121.409815","25.0027066666667","6500700","樹林區"
"238014","282-BY","2019/07/06 18:59:40","新北市樹林區中正路21號","121.427545","24.999245","6500700","樹林區"
"238020","268-VK","2019/07/06 18:59:40","新北市樹林區俊英街280號","121.423798333333","25.013145","6500700","樹林區"
"238026","172-UY","2019/07/06 18:59:28","新北市樹林區中和街26號","121.390246666667","24.973435","6500700","樹林區"
"238016","169-UY","2019/07/06 18:59:36","新北市樹林區文化街28-1號","121.419176666667","24.9879333333333","6500700","樹林區"
"239007","AAC-297","2019/07/06 18:59:33","新北市鶯歌區中山路138巷15號","121.351156666667","24.9592083333333","6500800","鶯歌區"
"239006","891-R6","2019/07/06 18:59:36","新北市鶯歌區鶯桃路296巷127號","121.337043333333","24.9623083333333","6500800","鶯歌區"
"239008","527-UM","2019/07/06 18:59:27","新北市鶯歌區國際二路46號","121.335546666667","24.9756433333333","6500800","鶯歌區"
"239005","526-UM","2019/07/06 18:59:29","新北市鶯歌區鳳吉一街134號","121.327986666667","24.9750783333333","6500800","鶯歌區"
"239001","417-VK","2019/07/06 18:59:40","新北市鶯歌區永安街18號","121.337885","24.9556216666667","6500800","鶯歌區"
"239003","360-BY","2019/07/06 18:59:25","新北市鶯歌區鶯桃路658巷6號","121.329496666667","24.9694283333333","6500800","鶯歌區"
"239002","359-BY","2019/07/06 18:59:40","新北市鶯歌區中山路129號","121.34957","24.9570666666667","6500800","鶯歌區"
"239004","193-VK","2019/07/06 18:59:32","新北市鶯歌區中正三路318巷32號","121.32623","24.9378666666667","6500800","鶯歌區"
"221008","489-VK","2019/07/06 18:59:38","新北市汐止區康寧街582號","121.635086666667","25.069885","6501100","汐止區"
"221036","130-UY","2019/07/06 18:59:40","新北市汐止區水碓街36號","121.66513","25.0688316666667","6501100","汐止區"
"221015","131-UY","2019/07/06 18:59:39","新北市汐止區鄉長路一段55巷6號","121.665408333333","25.0761516666667","6501100","汐止區"
"221032","280-BY","2019/07/06 18:59:40","新北市汐止區橫科路407巷25弄7號","121.625883333333","25.0484233333333","6501100","汐止區"
"221029","298-VK","2019/07/06 18:59:43","新北市汐止區樟樹一路232號","121.642331666667","25.0667266666667","6501100","汐止區"
"221031","353-TW","2019/07/06 18:59:26","新北市汐止區福德一路300巷35號","121.630453333333","25.0643466666667","6501100","汐止區"
"221002","707-TV","2019/07/06 18:59:35","新北市汐止區大同路一段2號","121.621","25.055025","6501100","汐止區"
"220080","200-UY","2019/07/06 18:59:37","新北市板橋區大觀路二段265巷3弄33號","121.444198333333","24.9978766666667","6500100","板橋區"
"220082","610-BX","2019/07/06 18:59:25","新北市板橋區溪崑一街112號","121.429206666667","24.9887933333333","6500100","板橋區"
"220101","245-BX","2019/07/06 18:59:33","新北市板橋區民生路二段148號","121.471383333333","25.0197566666667","6500100","板橋區"
"220079","256-TC","2019/07/06 18:59:35","新北市板橋區大仁街92號","121.453608333333","25.0161416666667","6500100","板橋區"
"224002","257-TC","2019/07/06 18:59:42","新北市瑞芳區八分寮路6-1號","121.795783333333","25.0953466666667","6501200","瑞芳區"
"220091","267-BY","2019/07/06 18:59:28","新北市板橋區大同街8巷54號","121.477963333333","25.0261566666667","6500100","板橋區"
"220056","276-BY","2019/07/06 18:59:39","新北市板橋區信義路98號","121.458053333333","24.9929","6500100","板橋區"
"220072","277-BY","2019/07/06 18:59:27","新北市樹林區中正路14號","121.430006666667","24.9974233333333","6500100","板橋區"
"220094","283-UM","2019/07/06 18:59:44","新北市板橋區光武街112號","121.465618333333","25.0293333333333","6500100","板橋區"
"220071","283-VK","2019/07/06 18:59:42","新北市板橋區忠孝路176巷46號","121.465301666667","25.0016833333333","6500100","板橋區"
"220053","285-VK","2019/07/06 18:59:36","新北市板橋區太和街5巷4號","121.473491666667","25.0201366666667","6500100","板橋區"
"220083","286-VK","2019/07/06 18:59:44","新北市板橋區大觀路一段38巷156弄61-1號","121.442283333333","25.0069633333333","6500100","板橋區"
"220081","287-VK","2019/07/06 18:59:27","新北市板橋區光華街15巷7-3號","121.453615","25.0116983333333","6500100","板橋區"
"220090","288-VK","2019/07/06 18:59:38","新北市板橋區裕民街33號","121.461808333333","25.02872","6500100","板橋區"
"220061","295-UM","2019/07/06 18:59:40","新北市板橋區懷仁街77巷14號","121.477708333333","25.0187433333333","6500100","板橋區"
"220084","296-UM","2019/07/06 18:59:38","新北市板橋區龍興街30號","121.44303","25.000425","6500100","板橋區"
"220075","303-R5","2019/07/06 18:59:25","新北市板橋區文昌街12號","121.456038333333","25.0104916666667","6500100","板橋區"
"220062","305-R5","2019/07/06 18:59:27","新北市板橋區三民路二段正隆巷4號","121.47862","25.012525","6500100","板橋區"
"220092","307-R5","2019/07/06 18:59:35","新北市板橋區文化路二段225巷60弄54號","121.46912","25.029675","6500100","板橋區"
"220088","491-VK","2019/07/06 18:59:26","新北市板橋區莒光路158-2號","121.473945","25.0239316666667","6500100","板橋區"
"220035","560-BX","2019/07/06 18:59:35","新北市板橋區中正路277號","121.455571666667","25.01893","6500100","板橋區"
"220103","561-BX","2019/07/06 18:59:34","新北市板橋區文化路一段188巷9弄39號","121.469386666667","25.01925","6500100","板橋區"
"220063","609-BX","2019/07/06 18:59:26","新北市板橋區三民路二段77號","121.479346666667","25.01679","6500100","板橋區"
"220057","686-BX","2019/07/06 18:59:39","新北市板橋區重慶路305號","121.463751666667","24.9988466666667","6500100","板橋區"
"220077","687-BX","2019/07/06 18:59:26","新北市板橋區僑中二街152號","121.444916666667","25.004255","6500100","板橋區"
"220093","689-BX","2019/07/06 18:59:35","新北市板橋區民生路三段117號","121.466531666667","25.0255966666667","6500100","板橋區"
"220054","741-BX","2019/07/06 18:59:30","新北市板橋區重慶路127巷20號","121.463658333333","25.0048916666667","6500100","板橋區"
"220102","KEA-2699","2019/07/06 18:59:27","新北市板橋區萬板路818巷2號","121.482891666667","25.0272666666667","6500100","板橋區"
"220055","827-TW","2019/07/06 18:59:43","新北市板橋區中山路一段152號","121.46407","25.0112166666667","6500100","板橋區"
"220067","829-TW","2019/07/06 18:59:31","新北市板橋區民享街116巷13號","121.47851","25.015565","6500100","板橋區"
"220074","895-R6","2019/07/06 18:59:36","新北市板橋區林園街41號","121.453733333333","25.010045","6500100","板橋區"
"220073","985-R7","2019/07/06 18:59:39","新北市板橋區民權路204號","121.458995","25.0139333333333","6500100","板橋區"
"220097","AAC-210","2019/07/06 18:59:28","新北市板橋區新海路135巷4號","121.459753333333","25.0228416666667","6500100","板橋區"
"220064","AAC-253","2019/07/06 18:59:32","新北市板橋區板新路30號","121.474048333333","25.0135283333333","6500100","板橋區"
"235068","KEA-2873","2019/07/06 18:59:39","新北市中和區圓通路233號","121.496245","24.9941833333333","6500300","中和區"
"235061","KEA-2875","2019/07/06 18:59:18","新北市中和區民有街73號","121.476501666667","25.003165","6500300","中和區"
