"lineid","car","time","location","longitude","latitude","cityid","cityname"
"234046","148-BY","2019/07/06 19:59:38","新北市永和區成功路一段112號","121.526821666667","25.0025266666667","6500400","永和區"
"234081","298-R6","2019/07/06 19:59:40","新北市永和區永利路81巷21號","121.522241666667","25.00384","6500400","永和區"
"234038","336-UY","2019/07/06 19:59:32","新北市永和區成功路二段169號","121.526673333333","24.9970266666667","6500400","永和區"
"234064","337-UY","2019/07/06 19:59:29","新北市永和區中正路368巷1弄50號","121.519156666667","25.000945","6500400","永和區"
"234086","338-UY","2019/07/06 19:59:42","新北市永和區福和路86號","121.522695","25.00806","6500400","永和區"
"234070","552-UM","2019/07/06 19:59:34","新北市永和區國光路6號","121.51976","25.0084933333333","6500400","永和區"
"234017","745-BX","2019/07/06 19:59:37","新北市永和區文化路59號","121.514155","25.014895","6500400","永和區"
"234030","746-BX","2019/07/06 19:59:35","新北市永和區民生路22巷26號","121.521308333333","24.9970983333333","6500400","永和區"
"234054","KEA-2590","2019/07/06 19:59:27","新北市永和區環河東路一段122號","121.520538333333","25.0155466666667","6500400","永和區"
"234007","KED-0605","2019/07/06 19:59:35","新北市永和區保生路22巷21號","121.507253333333","25.0082583333333","6500400","永和區"
"234013","KEA-2591","2019/07/06 19:59:24","新北市永和區保生路55號","121.504735","25.0106083333333","6500400","永和區"
"234061","AAD-866","2019/07/06 19:59:37","新北市永和區中正路283巷1號","121.517121666667","25.0008166666667","6500400","永和區"
"234042","862-TW","2019/07/06 19:59:43","新北市永和區中和路421巷5弄12號","121.508388333333","25.0008533333333","6500400","永和區"
"234050","863-TW","2019/07/06 19:59:42","新北市永和區保安路258號","121.50613","25.0124266666667","6500400","永和區"
"234026","9371-KE","2019/07/06 19:59:40","新北市永和區水源街21巷14弄2號","121.511551666667","25.003935","6500400","永和區"
"234011","9381-KE","2019/07/06 19:59:45","新北市永和區仁愛路352巷122弄13號","121.500683333333","25.0088816666667","6500400","永和區"
"249005","172-UM","2019/07/06 19:59:40","新北市八里區楓林路1-11號","121.38541","25.1312683333333","6502300","八里區"
"249001","173-UM","2019/07/06 19:59:32","新北市八里區中華路二段312號","121.403708333333","25.1484666666667","6502300","八里區"
"249003","593-UM","2019/07/06 19:59:31","新北市八里區中華路二段538-4號","121.398743333333","25.14508","6502300","八里區"
"249002","759-BX","2019/07/06 19:59:43","新北市八里區頂寮一街55號","121.450321666667","25.12449","6502300","八里區"
"248016","026-BX","2019/07/06 19:59:31","新北市五股區成泰路三段577巷80弄6號","121.449488333333","25.1042183333333","6501500","五股區"
"248008","KED-0815","2019/07/06 19:59:35","新北市五股區四維路30巷10號","121.467786666667","25.0715016666667","6501500","五股區"
"248020","KED-0813","2019/07/06 19:59:45","新北市五股區凌雲路三段19-1號","121.430656666667","25.1091566666667","6501500","五股區"
"248012","247-BX","2019/07/06 19:59:36","新北市五股區民義路一段142號","121.433788333333","25.0867216666667","6501500","五股區"
"248014","261-SL","2019/07/06 19:59:44","新北市五股區五福路18號","121.43432","25.0887316666667","6501500","五股區"
"248010","272-BY","2019/07/06 19:59:24","新北市五股區水碓五路3號","121.427301666667","25.07066","6501500","五股區"
"248004","677-BX","2019/07/06 19:59:42","新北市五股區成泰路一段32巷56號","121.434881666667","25.0670433333333","6501500","五股區"
"248002","678-BX","2019/07/06 19:59:22","新北市五股區成泰路三段599號","121.45255","25.1030416666667","6501500","五股區"
"234023","9380-KE","2019/07/06 19:59:31","新北市永和區豫溪街57巷8弄3號","121.517593333333","25.010435","6500400","永和區"
"234077","969-R7","2019/07/06 19:59:34","新北市永和區智光街101號","121.516233333333","24.9968366666667","6500400","永和區"
"234074","AAC-211","2019/07/06 19:59:36","新北市永和區豫溪街158號","121.523163333333","25.0098133333333","6500400","永和區"
"234067","AAC-212","2019/07/06 19:59:38","新北市永和區中山路一段281巷2弄1號","121.50735","25.0066233333333","6500400","永和區"
"234003","AAC-295","2019/07/06 19:59:33","新北市永和區中正路708號","121.515966666667","25.00999","6500400","永和區"
"243009","267-VK","2019/07/06 19:59:34","新北市泰山區楓江路16巷13號","121.433973333333","25.0617866666667","6501600","泰山區"
"243010","297-R6","2019/07/06 19:59:39","新北市泰山區明志路二段51號","121.429438333333","25.0527883333333","6501600","泰山區"
"243014","KEA-2801","2019/07/06 19:59:35","新北市泰山區泰林路二段33-1號","121.435675","25.056995","6501600","泰山區"
"243016","421-VK","2019/07/06 19:59:35","新北市泰山區貴陽街3號","121.421098333333","25.0334416666667","6501600","泰山區"
"243012","539-UM","2019/07/06 19:59:39","新北市泰山區全興路13號","121.432368333333","25.0589466666667","6501600","泰山區"
"243011","KEA-2216","2019/07/06 19:59:36","新北市泰山區工專路65號","121.42211","25.040475","6501600","泰山區"
"243015","680-BX","2019/07/06 19:59:43","新北市泰山區明志路二段232巷8-1號","121.42662","25.0487033333333","6501600","泰山區"
"222002","016-RS","2019/07/06 19:59:41","新北市深坑區埔新街100號","121.618586666667","25.0022366666667","6501800","深坑區"
"222003","436-BY","2019/07/06 19:59:23","新北市深坑區埔新街14號","121.620715","25.0039433333333","6501800","深坑區"
"231061","002-UM","2019/07/06 19:59:29","新北市新店區安民街318號","121.51755","24.97433","6500600","新店區"
"231044","046-UY","2019/07/06 19:59:29","新北市新店區復興路27號","121.538971666667","24.9867266666667","6500600","新店區"
"231060","106-UY","2019/07/06 19:59:30","新北市新店區安康路二段362-5號","121.501696666667","24.9573066666667","6500600","新店區"
"231051","107-UY","2019/07/06 19:59:41","新北市新店區中央路218號","121.529798333333","24.9731433333333","6500600","新店區"
"231049","108-UY","2019/07/06 19:59:29","新北市新店區民族路11號","121.54166","24.9788533333333","6500600","新店區"
"231065","110-UY","2019/07/06 19:59:39","新北市新店區安祥路109巷116號","121.476763333333","24.958565","6500600","新店區"
"231068","187-VK","2019/07/06 19:59:23","新北市新店區安一路一段1-1號","121.519746666667","24.96171","6500600","新店區"
"221035","KEA-2785","2019/07/06 19:59:35","新北市汐止區長江街11號","121.65472","25.0712083333333","6501100","汐止區"
"231062","256-BX","2019/07/06 19:59:33","新北市新店區華潭街10號","121.529661666667","24.952265","6500600","新店區"
"231054","260-TV","2019/07/06 19:59:39","新北市新店區光明街138巷22號","121.540248333333","24.9608383333333","6500600","新店區"
"231042","268-BY","2019/07/06 19:59:31","新北市新店區中興路一段290號","121.545886666667","24.9691033333333","6500600","新店區"
"231064","278-BY","2019/07/06 19:59:28","新北市新店區安光路10-1號","121.513755","24.9641566666667","6500600","新店區"
"231050","AAD-862","2019/07/06 19:59:40","新北市新店區北宜路二段382號","121.564483333333","24.9533066666667","6500600","新店區"
"231045","355-BY","2019/07/06 19:59:37","新北市新店區北宜路二段276號","121.560941666667","24.9541783333333","6500600","新店區"
"231055","4716-K9","2019/07/06 19:59:38","新北市新店區力行路14巷10號","121.539313333333","24.9650633333333","6500600","新店區"
"231056","4715-K9","2019/07/06 19:59:33","新北市新店區明德路26巷6號","121.542105","24.977775","6500600","新店區"
"231067","4772-VM","2019/07/06 19:59:40","新北市新店區精忠路10-1號","121.532551666667","24.9590733333333","6500600","新店區"
"231052","513-UM","2019/07/06 19:59:28","新北市新店區新烏路三段寶島巷2弄2號","121.551965","24.8984916666667","6500600","新店區"
"231040","617-UM","2019/07/06 19:59:40","新北市新店區中正路75巷71號","121.543156666667","24.9688116666667","6500600","新店區"
"231041","619-UM","2019/07/06 19:59:38","新北市新店區中央路47號","121.532883333333","24.9774083333333","6500600","新店區"
"231063","641-BX","2019/07/06 19:59:29","新北市新店區車子路11號","121.50299","24.95186","6500600","新店區"
"231048","KED-0819","2019/07/06 19:59:41","新北市新店區寶橋路138號","121.547723333333","24.9763583333333","6500600","新店區"
"231057","720-UM","2019/07/06 19:59:25","新北市新店區花園二路一段11號","121.555461666667","24.93257","6500600","新店區"
"231059","897-TW","2019/07/06 19:59:42","新北市新店區安和路二段1號","121.517811666667","24.9671983333333","6500600","新店區"
"231043","899-TW","2019/07/06 19:59:41","新北市新店區中正路263-2號","121.538416666667","24.9738","6500600","新店區"
"231066","AKT-0513","2019/07/06 19:59:28","新北市新店區安康路二段341巷38號","121.496655","24.9543516666667","6500600","新店區"
"241011","013-R5","2019/07/06 19:59:29","新北市三重區三和路二段165號","121.497946666667","25.069545","6500200","三重區"
"241028","022-UY","2019/07/06 19:59:45","新北市三重區中正南路47號","121.493966666667","25.0597","6500200","三重區"
"241008","059-VK","2019/07/06 19:59:37","新北市三重區永福街179巷28號","121.478013333333","25.0748083333333","6500200","三重區"
"241029","060-VK","2019/07/06 19:59:23","新北市三重區重安街1號","121.489981666667","25.0581016666667","6500200","三重區"
"241031","061-VK","2019/07/06 19:59:42","新北市三重區重新路四段144巷36號","121.487226666667","25.05492","6500200","三重區"
"241015","062-VK","2019/07/06 19:59:35","新北市三重區三和路二段6-2號","121.501211666667","25.066725","6500200","三重區"
"241017","063-VK","2019/07/06 19:59:25","新北市三重區重陽路三段154號","121.489563333333","25.0676533333333","6500200","三重區"
"241024","065-VK","2019/07/06 19:59:32","新北市三重區力行路二段6號","121.481621666667","25.0720483333333","6500200","三重區"
"241002","066-VK","2019/07/06 19:59:23","新北市三重區仁愛街351號","121.49211","25.0798116666667","6500200","三重區"
"241003","091-VK","2019/07/06 19:59:33","新北市三重區五華街132號","121.491511666667","25.083505","6500200","三重區"
"241030","742-BX","2019/07/06 19:59:29","新北市三重區重新路四段244巷7弄12號","121.486588333333","25.0530033333333","6500200","三重區"
"241005","262-UM","2019/07/06 19:59:35","新北市三重區溪尾街325巷40弄3號","121.488901666667","25.0833183333333","6500200","三重區"
"241016","266-UM","2019/07/06 19:59:19","新北市三重區正義北路36巷14號","121.496568333333","25.0633216666667","6500200","三重區"
"241009","267-UM","2019/07/06 19:59:31","新北市三重區三和路四段392-1號","121.481566666667","25.0790633333333","6500200","三重區"
"241018","268-UM","2019/07/06 19:59:44","新北市三重區正義北路244巷37號","121.495055","25.0680516666667","6500200","三重區"
"241032","269-UM","2019/07/06 19:59:27","新北市三重區朝陽街25號","121.483606666667","25.0565616666667","6500200","三重區"
"241013","270-UM","2019/07/06 19:59:33","新北市三重區三和路三段125巷36號","121.493813333333","25.0737416666667","6500200","三重區"
"241023","271-UM","2019/07/06 19:59:40","新北市三重區頂崁街166號","121.477641666667","25.0658133333333","6500200","三重區"
"241007","398-BY","2019/07/06 19:59:29","新北市三重區溪尾街162號","121.488675","25.0801633333333","6500200","三重區"
"241035","KEA-2210","2019/07/06 19:59:40","新北市三重區正義北路19號","121.497531666667","25.0633533333333","6500200","三重區"
"241004","475-VK","2019/07/06 19:59:39","新北市三重區五華街74號","121.493446666667","25.0820133333333","6500200","三重區"
"241020","478-VK","2019/07/06 19:59:30","新北市三重區忠孝路一段101號","121.489486666667","25.0721416666667","6500200","三重區"
"241026","480-VK","2019/07/06 19:59:24","新北市三重區重新路一段85號","121.501173333333","25.0634","6500200","三重區"
"241014","543-UM","2019/07/06 19:59:29","新北市三重區三和路二段93號","121.499565","25.0683883333333","6500200","三重區"
"241001","547-UM","2019/07/06 19:59:23","新北市三重區福隆路12號","121.490263333333","25.0774583333333","6500200","三重區"
"241019","KEA-2593","2019/07/06 19:59:24","新北市三重區重陽路四段20號","121.491001666667","25.06916","6500200","三重區"
"241006","AAD-863","2019/07/06 19:59:27","新北市三重區力行路二段122號","121.482056666667","25.0749966666667","6500200","三重區"
"241022","KED-0820","2019/07/06 19:59:34","新北市三重區新北大道一段11號","121.488588333333","25.0606233333333","6500200","三重區"
"241025","887-TS","2019/07/06 19:59:33","新北市三重區頂崁街210巷16號","121.476378333333","25.0676516666667","6500200","三重區"
"241012","941-UM","2019/07/06 19:59:31","新北市三重區仁厚街14號","121.499331666667","25.076205","6500200","三重區"
"241033","AAC-255","2019/07/06 19:59:37","新北市三重區中興北街32號","121.469715","25.04879","6500200","三重區"
"235066","003-UY","2019/07/06 19:59:27","新北市中和區光華街28號","121.504613333333","25.0041733333333","6500300","中和區"
"235056","096-UM","2019/07/06 19:59:34","新北市中和區中山路二段483號","121.482858333333","25.0049316666667","6500300","中和區"
"235039","097-UM","2019/07/06 19:59:31","新北市中和區景平路278巷16弄24號","121.514436666667","24.9937366666667","6500300","中和區"
"235065","098-UM","2019/07/06 19:59:27","新北市中和區莊敬路2號","121.499471666667","25.00419","6500300","中和區"
"235040","150-BY","2019/07/06 19:59:29","新北市中和區景安路79巷36號","121.507273333333","24.99631","6500300","中和區"
"235058","151-BY","2019/07/06 19:59:30","新北市中和區員山路150巷2弄53號","121.481973333333","24.9973833333333","6500300","中和區"
"235055","183-VK","2019/07/06 19:59:40","新北市中和區民生街8號","121.471291666667","25.0059933333333","6500300","中和區"
"235038","185-VK","2019/07/06 19:59:27","新北市中和區自強路52號","121.52009","24.99478","6500300","中和區"
"235067","255-BX","2019/07/06 19:59:39","新北市中和區中正路928號","121.48325","25.0079766666667","6500300","中和區"
"235044","293-VK","2019/07/06 19:59:41","新北市中和區復興路75號","121.503571666667","24.99023","6500300","中和區"
"247014","KEA-2869","2019/07/06 19:59:38","新北市蘆洲區得勝街145號","121.471745","25.0831416666667","6501400","蘆洲區"
"247008","KED-0682","2019/07/06 19:59:39","新北市蘆洲區信義路103號","121.478076666667","25.0800366666667","6501400","蘆洲區"
"235050","4979-A6","2019/07/06 19:59:32","新北市中和區景平路241巷64弄12號","121.507583333333","24.992505","6500300","中和區"
"235070","558-UM","2019/07/06 19:59:24","新北市中和區中正路368號","121.492886666667","24.99417","6500300","中和區"
"235047","732-UM","2019/07/06 19:59:41","新北市中和區和平街134號","121.506448333333","24.9917016666667","6500300","中和區"
"235046","733-UM","2019/07/06 19:59:23","新北市中和區興南路一段105巷20弄16號","121.510373333333","24.9854883333333","6500300","中和區"
"235026","800-TS","2019/07/06 19:59:36","新北市中和區員山路36巷16-3號","121.48522","24.9911983333333","6500300","中和區"
"235052","805-TS","2019/07/06 19:59:38","新北市中和區忠孝街39-7號","121.511848333333","24.9840616666667","6500300","中和區"
"235048","896-TW","2019/07/06 19:59:36","新北市中和區景新街424號","121.512928333333","24.9888183333333","6500300","中和區"
"235051","157-BY","2019/07/06 19:59:27","新北市中和區復興路299號","121.501516666667","24.99017","6500300","中和區"
"235037","AAC-213","2019/07/06 19:59:24","新北市中和區自強路52號","121.520096666667","24.99482","6500300","中和區"
"235059","AAC-215","2019/07/06 19:59:31","新北市中和區圓通路305巷5弄30號","121.494298333333","24.9903016666667","6500300","中和區"
"220068","015-TV","2019/07/06 19:59:20","新北市板橋區中山路二段505巷9號","121.482531666667","25.0214316666667","6500100","板橋區"
"220065","072-UY","2019/07/06 19:59:25","新北市板橋區民族路229號","121.46974","25.007255","6500100","板橋區"
"220086","073-UY","2019/07/06 19:59:27","新北市板橋區中正路127號","121.456586666667","25.0153366666667","6500100","板橋區"
"220106","075-UY","2019/07/06 19:59:22","新北市板橋區懷德街76巷6號","121.477701666667","25.0317766666667","6500100","板橋區"
"220069","AAD-861","2019/07/06 19:59:40","新北市板橋區大明街25巷4弄16-3號","121.457475","25.00228","6500100","板橋區"
"220098","120-SR","2019/07/06 19:59:24","新北市板橋區四維路269巷92號","121.459518333333","25.0266783333333","6500100","板橋區"
"247004","893-R6","2019/07/06 19:59:23","新北市蘆洲區長安街311號","121.45699","25.0853816666667","6501400","蘆洲區"
"247018","546-UM","2019/07/06 19:59:27","新北市蘆洲區民族路290巷13號","121.478516666667","25.08988","6501400","蘆洲區"
"247024","337-TH","2019/07/06 19:59:43","新北市蘆洲區光明路106巷17號","121.463823333333","25.0874916666667","6501400","蘆洲區"
"247002","336-TH","2019/07/06 19:59:35","新北市蘆洲區長安街276-1號","121.457566666667","25.087025","6501400","蘆洲區"
"247022","057-VK","2019/07/06 19:59:25","新北市蘆洲區中正路176號","121.467216666667","25.087715","6501400","蘆洲區"
"247012","056-VK","2019/07/06 19:59:29","新北市蘆洲區民族路226號","121.479563333333","25.08804","6501400","蘆洲區"
"247016","053-VK","2019/07/06 19:59:28","新北市蘆洲區光華路31號","121.469118333333","25.0831533333333","6501400","蘆洲區"
"247020","007-UY","2019/07/06 19:59:32","新北市蘆洲區民義街53號","121.472821666667","25.0897966666667","6501400","蘆洲區"
"247006","002-UY","2019/07/06 19:59:41","新北市蘆洲區九芎街109號","121.465696666667","25.07964","6501400","蘆洲區"
"226004","312-R5","2019/07/06 19:59:34","新北市平溪區十分里十分街143-1號","121.777166666667","25.0436916666667","6502400","平溪區"
"228003","097-TW","2019/07/06 19:59:42","新北市貢寮區仁理村仁和路188號","121.923458333333","25.052535","6502600","貢寮區"
"224010","AGQ-8101","2019/07/06 19:59:28","新北市瑞芳區輕便路300-1號","121.843415","25.1087883333333","6501200","瑞芳區"
"227001","642-TC","2019/07/06 19:59:35","新北市雙溪區新基里新基南街25號","121.866251666667","25.0381366666667","6502500","雙溪區"
"227002","400-TW","2019/07/06 19:59:39","新北市雙溪區雙溪里大同街12號","121.864786666667","25.0349233333333","6502500","雙溪區"
"222001","KEA-2212","2019/07/06 19:59:11","新北市深坑區北深路三段164號","121.602256666667","25.0033166666667","6501800","深坑區"
"208002","KEA-2872","2019/07/06 19:59:41","新北市金山區環金路19號","121.64082","25.2176116666667","6502700","金山區"
"208003","665-BX","2019/07/06 19:59:40","新北市金山區永興里濆水路29號","121.626035","25.2694633333333","6502700","金山區"
"251009","008-UM","2019/07/06 19:59:40","新北市淡水區英專路21巷13號","121.444995","25.1697383333333","6501000","淡水區"
"251004","009-UM","2019/07/06 19:59:28","新北市淡水區民權路177巷15號","121.460921666667","25.1351933333333","6501000","淡水區"
"251005","010-UM","2019/07/06 19:59:42","新北市淡水區學府路136巷1號","121.450831666667","25.172955","6501000","淡水區"
"251015","KEA-2871","2019/07/06 19:59:40","新北市淡水區山子頂22-1號","121.492553333333","25.189725","6501000","淡水區"
"251016","179-VK","2019/07/06 19:59:39","新北市淡水區興仁路2號","121.450691666667","25.2146633333333","6501000","淡水區"
"251013","180-VK","2019/07/06 19:59:42","新北市淡水區下圭柔山63-7號","121.451891666667","25.2061583333333","6501000","淡水區"
"251008","181-VK","2019/07/06 19:59:34","新北市淡水區淡海路63巷16弄2號","121.422561666667","25.1807583333333","6501000","淡水區"
"251012","441-VK","2019/07/06 19:59:41","新北市淡水區下圭柔山99-3號","121.438008333333","25.21087","6501000","淡水區"
"251001","559-UM","2019/07/06 19:59:35","新北市淡水區淡金路二段108-1號","121.447666666667","25.1844666666667","6501000","淡水區"
"251006","561-UM","2019/07/06 19:59:37","新北市淡水區水碓街29號","121.443731666667","25.17727","6501000","淡水區"
"251014","577-R6","2019/07/06 19:59:42","新北市淡水區石頭厝2-1號","121.458131666667","25.2357016666667","6501000","淡水區"
"251011","650-BX","2019/07/06 19:59:28","新北市淡水區淡金路二段15號","121.447035","25.1893733333333","6501000","淡水區"
"251002","672-BX","2019/07/06 19:59:36","新北市淡水區新市一路一段6號","121.429011666667","25.187385","6501000","淡水區"
"207003","550-UM","2019/07/06 19:59:34","新北市萬里區磺潭里公館崙5號","121.641891666667","25.2142333333333","6502800","萬里區"
"207004","225-TW","2019/07/06 19:59:33","新北市萬里區北基里忠二街35號","121.685651666667","25.175745","6502800","萬里區"
"252002","178-VK","2019/07/06 19:59:41","新北市三芝區忠孝街116-3號","121.505463333333","25.2575416666667","6502100","三芝區"
"208001","170-UY","2019/07/06 19:59:29","新北市金山區重和里茅埔頭10號","121.603691666667","25.2161316666667","6502700","金山區"
"237009","210-TH","2019/07/06 19:59:38","新北市三峽區民族街49號","121.369641666667","24.9299416666667","6500900","三峽區"
"237012","275-BY","2019/07/06 19:59:36","新北市三峽區光明路2號","121.373053333333","24.9312733333333","6500900","三峽區"
"237008","302-VK","2019/07/06 19:59:40","新北市三峽區中正路一段174巷2號","121.372235","24.928895","6500900","三峽區"
"237014","433-BY","2019/07/06 19:59:29","新北市三峽區添福1-1號","121.37076","24.908735","6500900","三峽區"
"237006","5529-G3","2019/07/06 19:59:24","新北市三峽區中正路二段168號","121.365981666667","24.91572","6500900","三峽區"
"237015","649-BX","2019/07/06 19:59:38","新北市三峽區介壽路二段138巷1弄16號","121.396158333333","24.9337683333333","6500900","三峽區"
"237004","756-BX","2019/07/06 19:59:25","新北市三峽區添福29-2號","121.373085","24.9036083333333","6500900","三峽區"
"237005","AKY-6261","2019/07/06 19:59:36","新北市三峽區民生街1巷27-1號","121.379538333333","24.93405","6500900","三峽區"
"236042","KED-0685","2019/07/06 19:59:26","新北市土城區學府路一段120巷7號","121.455018333333","24.9879966666667","6501300","土城區"
"220089","KED-0812","2019/07/06 19:59:40","新北市板橋區四維路146號","121.465076666667","25.025535","6500100","板橋區"
"236030","253-BX","2019/07/06 19:59:25","新北市土城區中央路一段250巷2號","121.444188333333","24.9847216666667","6501300","土城區"
"236026","269-VK","2019/07/06 19:59:37","新北市土城區中央路二段98號","121.442303333333","24.978435","6501300","土城區"
"236014","270-VK","2019/07/06 19:59:42","新北市土城區廣福街123號","121.456271666667","24.9929583333333","6501300","土城區"
"236038","271-VK","2019/07/06 19:59:36","新北市土城區國際路52號","121.466438333333","24.9783916666667","6501300","土城區"
"247010","KED-0683","2019/07/06 19:59:26","新北市三重區集賢路188號","121.483805","25.08792","6501400","蘆洲區"
"236070","KEA-2877","2019/07/06 19:59:42","新北市土城區忠義路77號","121.442983333333","24.96509","6501300","土城區"
"252001","KED-0821","2019/07/06 19:59:37","新北市三芝區公正街66號","121.499783333333","25.257475","6502100","三芝區"
"236021","401-BY","2019/07/06 19:59:38","新北市土城區延吉街26號","121.472065","24.9874183333333","6501300","土城區"
"236059","912-UM","2019/07/06 19:59:34","新北市土城區中央路一段275號","121.444598333333","24.98478","6501300","土城區"
"236049","913-UM","2019/07/06 19:59:24","新北市土城區金城路三段139巷1號","121.468063333333","24.9882916666667","6501300","土城區"
"236063","915-UM","2019/07/06 19:59:32","新北市土城區延和路91號","121.467128333333","24.9899633333333","6501300","土城區"
"236055","AAC-216","2019/07/06 19:59:34","新北市土城區學府路一段94號","121.456255","24.9880066666667","6501300","土城區"
"242039","AAC-296","2019/07/06 19:59:28","新北市新莊區民安路299巷19號","121.428936666667","25.0230033333333","6500500","新莊區"
"242061","986-R7","2019/07/06 19:59:27","新北市新莊區瓊林路瓊英巷8弄7號","121.443156666667","25.02807","6500500","新莊區"
"242002","751-BX","2019/07/06 19:59:26","新北市新莊區中正路170號","121.450866666667","25.0359333333333","6500500","新莊區"
"242029","615-BX","2019/07/06 19:59:40","新北市新莊區中榮街152巷18號","121.445931666667","25.0534266666667","6500500","新莊區"
"242058","612-BX","2019/07/06 19:59:44","新北市新莊區八德街81號","121.424636666667","25.021815","6500500","新莊區"
"242051","497-BY","2019/07/06 19:59:34","新北市新莊區西盛街139號","121.428273333333","25.0184516666667","6500500","新莊區"
"242056","441-UM","2019/07/06 19:59:40","新北市新莊區中正路347巷19號","121.447271666667","25.0343616666667","6500500","新莊區"
"242004","440-UM","2019/07/06 19:59:32","新北市新莊區頭前路82號","121.466233333333","25.0524233333333","6500500","新莊區"
"242011","413-TV","2019/07/06 19:59:21","新北市新莊區中港路531巷68號","121.450558333333","25.0515733333333","6500500","新莊區"
"242048","400-BY","2019/07/06 19:59:29","新北市新莊區民安路181巷2弄12號","121.426373333333","25.02257","6500500","新莊區"
"242025","362-BY","2019/07/06 19:59:32","新北市新莊區五工二路86巷24號","121.460435","25.066935","6500500","新莊區"
"242023","353-BY","2019/07/06 19:59:31","新北市新莊區化成路402號","121.465948333333","25.050625","6500500","新莊區"
"242013","132-UY","2019/07/06 19:59:36","新北市新莊區中泰街38巷10號","121.450771666667","25.0473033333333","6500500","新莊區"
"242036","135-UY","2019/07/06 19:59:33","新北市新莊區建安街41巷3號","121.429106666667","25.0253783333333","6500500","新莊區"
"242053","172-VK","2019/07/06 19:59:30","新北市新莊區西盛街418號","121.427201666667","25.01221","6500500","新莊區"
"242015","173-VK","2019/07/06 19:59:26","新北市新莊區復興路一段47巷11號","121.446745","25.0427416666667","6500500","新莊區"
"242021","175-VK","2019/07/06 19:59:35","新北市新莊區建中街32巷22號","121.4486","25.0386033333333","6500500","新莊區"
"242019","KED-0687","2019/07/06 19:59:42","新北市新莊區民生街15巷9號","121.455266666667","25.0425983333333","6500500","新莊區"
"242031","346-TH","2019/07/06 19:59:37","新北市新莊區忠孝街68號","121.443933333333","25.03631","6500500","新莊區"
"242034","348-TH","2019/07/06 19:59:38","新北市新莊區建中街78號","121.447353333333","25.0368816666667","6500500","新莊區"
"242007","349-TH","2019/07/06 19:59:22","新北市新莊區思源路585號","121.459803333333","25.0594433333333","6500500","新莊區"
"242017","351-TH","2019/07/06 19:59:29","新北市新莊區中安街1號","121.45283","25.0452633333333","6500500","新莊區"
"238023","601-UM","2019/07/06 19:59:36","新北市樹林區中正路163號","121.424106666667","25.0021466666667","6500700","樹林區"
"238017","283-BY","2019/07/06 19:59:35","新北市樹林區保安街二段45巷36號","121.414465","25.0001466666667","6500700","樹林區"
"221008","489-VK","2019/07/06 19:59:37","新北市汐止區康寧街143號","121.62149","25.0666466666667","6501100","汐止區"
"221015","131-UY","2019/07/06 19:59:39","新北市汐止區橋東街9號","121.666653333333","25.0759183333333","6501100","汐止區"
"221010","269-BY","2019/07/06 19:59:29","新北市汐止區八連路一段7號","121.648726666667","25.08022","6501100","汐止區"
"221012","278-VK","2019/07/06 19:59:29","新北市汐止區保長路273巷1號","121.6811","25.0740533333333","6501100","汐止區"
"221023","279-VK","2019/07/06 19:59:28","新北市汐止區民族三街45號","121.629671666667","25.0700016666667","6501100","汐止區"
"221027","281-BY","2019/07/06 19:59:22","新北市汐止區中正路97號","121.660995","25.069435","6501100","汐止區"
"221033","297-VK","2019/07/06 19:59:31","新北市汐止區東勢街190巷1號","121.63382","25.0418066666667","6501100","汐止區"
"221029","298-VK","2019/07/06 19:59:43","新北市汐止區樟樹一路137巷26號","121.640931666667","25.0659816666667","6501100","汐止區"
"221021","299-VK","2019/07/06 19:59:31","新北市汐止區水源路一段186號","121.654966666667","25.06175","6501100","汐止區"
"221031","353-TW","2019/07/06 19:59:23","新北市汐止區福德二路53號","121.634001666667","25.0669933333333","6501100","汐止區"
"221025","623-UM","2019/07/06 19:59:40","新北市汐止區仁愛路77巷3號","121.661006666667","25.0634116666667","6501100","汐止區"
"221038","646-BX","2019/07/06 19:59:29","新北市汐止區忠孝東路480號","121.666298333333","25.073815","6501100","汐止區"
"220080","200-UY","2019/07/06 19:59:34","新北市板橋區大觀路二段69巷12號","121.447023333333","25.002195","6500100","板橋區"
"220082","610-BX","2019/07/06 19:59:25","新北市板橋區存德街9號","121.429996666667","24.9919483333333","6500100","板橋區"
"220101","245-BX","2019/07/06 19:59:33","新北市板橋區雙十路二段47巷2弄9號","121.475776666667","25.0264533333333","6500100","板橋區"
"220079","256-TC","2019/07/06 19:59:35","新北市板橋區建國街3-1號","121.457136666667","25.0170216666667","6500100","板橋區"
"224002","257-TC","2019/07/06 19:59:22","新北市瑞芳區員山子路3-1號","121.819006666667","25.1046566666667","6501200","瑞芳區"
"220091","267-BY","2019/07/06 19:59:28","新北市板橋區民治街133巷15號","121.47772","25.03034","6500100","板橋區"
"220056","276-BY","2019/07/06 19:59:39","新北市板橋區四川路二段99巷4弄2號","121.452898333333","24.9941483333333","6500100","板橋區"
"220072","277-BY","2019/07/06 19:59:27","新北市板橋區篤行路二段77巷12弄2號","121.432298333333","24.9917633333333","6500100","板橋區"
"220094","283-UM","2019/07/06 19:59:34","新北市板橋區文化路一段371號","121.466878333333","25.02151","6500100","板橋區"
"220071","283-VK","2019/07/06 19:59:28","新北市板橋區五權街32巷35號","121.463723333333","24.9924816666667","6500100","板橋區"
"220053","285-VK","2019/07/06 19:59:27","新北市板橋區懷仁街33號","121.476515","25.019495","6500100","板橋區"
"220083","286-VK","2019/07/06 19:59:40","新北市板橋區僑中二街8巷32號","121.445723333333","25.0114383333333","6500100","板橋區"
"220081","287-VK","2019/07/06 19:59:27","新北市板橋區大觀路一段26號","121.449998333333","25.00866","6500100","板橋區"
"220090","288-VK","2019/07/06 19:59:38","新北市板橋區新海路72巷7號","121.462178333333","25.0220733333333","6500100","板橋區"
"220061","295-UM","2019/07/06 19:59:40","新北市板橋區中山路一段156號","121.464958333333","25.01148","6500100","板橋區"
"220084","296-UM","2019/07/06 19:59:38","新北市板橋區溪崑二街103巷20號","121.427226666667","24.9886016666667","6500100","板橋區"
"220075","303-R5","2019/07/06 19:59:25","新北市板橋區金華街3號","121.455556666667","25.0200916666667","6500100","板橋區"
"220062","305-R5","2019/07/06 19:59:34","新北市板橋區中山路二段361號","121.479703333333","25.0190083333333","6500100","板橋區"
"220092","307-R5","2019/07/06 19:59:43","新北市板橋區文化路一段45巷11號","121.46034","25.014035","6500100","板橋區"
"220088","491-VK","2019/07/06 19:59:26","新北市板橋區民治街59號","121.479523333333","25.03324","6500100","板橋區"
"220035","560-BX","2019/07/06 19:59:35","新北市板橋區金華街101號","121.458631666667","25.0209733333333","6500100","板橋區"
"220103","561-BX","2019/07/06 19:59:28","新北市板橋區漢生西路52號","121.463095","25.01867","6500100","板橋區"
"220063","609-BX","2019/07/06 19:59:35","新北市板橋區中山路二段111號","121.474553333333","25.0161466666667","6500100","板橋區"
"220057","686-BX","2019/07/06 19:59:27","新北市板橋區四川路二段245巷36號","121.451525","24.992705","6500100","板橋區"
"220077","687-BX","2019/07/06 19:59:26","新北市板橋區僑中二街8巷1號","121.447133333333","25.011065","6500100","板橋區"
"220093","689-BX","2019/07/06 19:59:36","新北市板橋區長江路一段158號","121.46121","25.0303033333333","6500100","板橋區"
"220054","741-BX","2019/07/06 19:59:41","新北市板橋區實踐路93巷28號","121.465208333333","25.0052483333333","6500100","板橋區"
"220102","KEA-2699","2019/07/06 19:59:26","新北市板橋區文化路一段370號","121.469848333333","25.0235516666667","6500100","板橋區"
"220055","827-TW","2019/07/06 19:59:33","新北市板橋區國慶路149巷38弄3號","121.461231666667","24.998095","6500100","板橋區"
"220067","829-TW","2019/07/06 19:59:31","新北市板橋區漢生東路193巷87-3號","121.472926666667","25.011955","6500100","板橋區"
"220074","895-R6","2019/07/06 19:59:41","新北市板橋區明德街2-3號","121.45966","25.0099866666667","6500100","板橋區"
"220073","985-R7","2019/07/06 19:59:33","新北市板橋區大仁街105號","121.452781666667","25.0157033333333","6500100","板橋區"
"220097","AAC-210","2019/07/06 19:59:26","新北市板橋區光正街9巷2弄2號","121.462766666667","25.0169066666667","6500100","板橋區"
"220064","AAC-253","2019/07/06 19:59:39","新北市板橋區區運路61號","121.466608333333","25.0105633333333","6500100","板橋區"
"235068","KEA-2873","2019/07/06 19:59:39","新北市中和區景平路736巷5弄3號","121.497355","25.003415","6500300","中和區"
