"lineid","car","time","location","longitude","latitude","cityid","cityname"
"231051","107-UY","2019/07/06 21:19:41","新北市新店區中正路700巷322-10號","121.534065","24.9936083333333","6500600","新店區"
"231065","110-UY","2019/07/06 21:19:39","新北市新店區安祥路69巷89弄45號","121.482895","24.961865","6500600","新店區"
"231050","AAD-862","2019/07/06 21:19:40","新北市新店區中正路187-1號","121.540565","24.97218","6500600","新店區"
"231063","641-BX","2019/07/06 21:19:29","新北市新店區吉祥街15巷1號","121.497778333333","24.94562","6500600","新店區"
"241011","013-R5","2019/07/06 21:19:29","新北市三重區龍濱路114號","121.502115","25.0701666666667","6500200","三重區"
"241028","022-UY","2019/07/06 21:19:25","新北市三重區同安街110號","121.494391666667","25.0562816666667","6500200","三重區"
"241008","059-VK","2019/07/06 21:19:37","新北市三重區自強路一段153號","121.493813333333","25.066885","6500200","三重區"
"241031","061-VK","2019/07/06 21:19:42","新北市三重區五谷王南街46巷37號","121.475746666667","25.0455033333333","6500200","三重區"
"241015","062-VK","2019/07/06 21:19:35","新北市三重區龍濱路19號","121.503025","25.0676966666667","6500200","三重區"
"241017","063-VK","2019/07/06 21:19:25","新北市三重區中正北路25巷2號","121.493241666667","25.0626816666667","6500200","三重區"
"241024","065-VK","2019/07/06 21:19:32","新北市三重區中正北路115巷6號","121.484036666667","25.06772","6500200","三重區"
"241002","066-VK","2019/07/06 21:19:28","新北市三重區自強路五段64號","121.493875","25.0816166666667","6500200","三重區"
"241003","091-VK","2019/07/06 21:19:33","新北市三重區仁義街319號","121.495301666667","25.0842483333333","6500200","三重區"
"241030","742-BX","2019/07/06 21:19:29","新北市三重區光復路二段87巷10-9號","121.473226666667","25.0583016666667","6500200","三重區"
"241005","262-UM","2019/07/06 21:19:35","新北市三重區三信路182號","121.488036666667","25.0860816666667","6500200","三重區"
"241016","266-UM","2019/07/06 21:19:39","新北市三重區自強路一段101號","121.495695","25.066285","6500200","三重區"
"241009","267-UM","2019/07/06 21:19:29","新北市五股區中興路三段3-6號","121.4498","25.0788416666667","6500200","三重區"
"241018","268-UM","2019/07/06 21:19:43","新北市三重區忠孝路三段84巷47號","121.481338333333","25.0643183333333","6500200","三重區"
"241032","269-UM","2019/07/06 21:19:27","新北市五股區五工二路136號","121.454835","25.0725166666667","6500200","三重區"
"241013","270-UM","2019/07/06 21:19:32","新北市三重區仁愛街66號","121.495838333333","25.0731283333333","6500200","三重區"
"241023","271-UM","2019/07/06 21:19:40","新北市三重區中正北路176巷27號","121.482585","25.06597","6500200","三重區"
"241007","398-BY","2019/07/06 21:19:29","新北市三重區正義北路346號","121.494223333333","25.0709916666667","6500200","三重區"
"241004","475-VK","2019/07/06 21:19:39","新北市三重區碧華街273號","121.489706666667","25.0833116666667","6500200","三重區"
"241026","480-VK","2019/07/06 21:19:24","新北市三重區大同南路210號","121.496695","25.0563933333333","6500200","三重區"
"241014","543-UM","2019/07/06 21:19:29","新北市三重區萬全街9號","121.499295","25.0697016666667","6500200","三重區"
"241019","KEA-2593","2019/07/06 21:19:23","新北市三重區重陽路三段86號","121.488746666667","25.0661116666667","6500200","三重區"
"241006","AAD-863","2019/07/06 21:19:27","新北市新莊區化成路579巷2號","121.464138333333","25.0664666666667","6500200","三重區"
"241025","887-TS","2019/07/06 21:19:33","新北市三重區中正北路208巷10弄4號","121.482356666667","25.0669016666667","6500200","三重區"
"241033","AAC-255","2019/07/06 21:19:37","新北市三重區光復路二段102巷23號","121.470355","25.0581066666667","6500200","三重區"
"235055","183-VK","2019/07/06 21:19:40","新北市中和區員山路36巷13號","121.484355","24.9906883333333","6500300","中和區"
"235067","255-BX","2019/07/06 21:11:58","新北市中和區員山路36巷16號","121.484501666667","24.9912033333333","6500300","中和區"
"247014","KEA-2869","2019/07/06 21:19:38","新北市蘆洲區中正路168號","121.468635","25.0859783333333","6501400","蘆洲區"
"247008","KED-0682","2019/07/06 21:19:39","新北市蘆洲區信義路73巷15號","121.475946666667","25.080735","6501400","蘆洲區"
"247004","893-R6","2019/07/06 21:19:42","新北市蘆洲區環堤大道88號","121.455373333333","25.0848016666667","6501400","蘆洲區"
"247002","336-TH","2019/07/06 21:19:35","新北市蘆洲區永樂街57號","121.456723333333","25.0885333333333","6501400","蘆洲區"
"247012","056-VK","2019/07/06 21:19:29","新北市蘆洲區中興街101號","121.482265","25.0885383333333","6501400","蘆洲區"
"247006","002-UY","2019/07/06 21:19:24","新北市蘆洲區中華街3號","121.463995","25.0817933333333","6501400","蘆洲區"
"251009","008-UM","2019/07/06 21:19:27","新北市淡水區民族路112巷1號","121.462646666667","25.135175","6501000","淡水區"
"251004","009-UM","2019/07/06 21:19:24","新北市淡水區民族路33號","121.462206666667","25.1358033333333","6501000","淡水區"
"251005","010-UM","2019/07/06 21:19:42","新北市淡水區水源街一段122巷37號","121.447106666667","25.1705216666667","6501000","淡水區"
"251015","KEA-2871","2019/07/06 21:19:40","新北市淡水區淡金路四段518號","121.451858333333","25.2261533333333","6501000","淡水區"
"251016","179-VK","2019/07/06 21:19:39","新北市淡水區前洲子28號","121.441283333333","25.2190766666667","6501000","淡水區"
"251013","180-VK","2019/07/06 21:19:42","新北市淡水區行忠路330號","121.460681666667","25.1998716666667","6501000","淡水區"
"251008","181-VK","2019/07/06 21:19:34","新北市淡水區水源街二段216號","121.459695","25.17654","6501000","淡水區"
"251010","413-VK","2019/07/06 21:19:33","新北市淡水區中正路一段156巷12號","121.421801666667","25.18085","6501000","淡水區"
"251012","441-VK","2019/07/06 21:19:40","新北市淡水區淡金路五段35巷46號","121.452491666667","25.234725","6501000","淡水區"
"251001","559-UM","2019/07/06 21:19:35","新北市淡水區濱海路一段306巷60弄38號","121.442045","25.1914933333333","6501000","淡水區"
"251014","577-R6","2019/07/06 21:19:41","新北市淡水區六塊厝2-1號","121.450165","25.240525","6501000","淡水區"
"251011","650-BX","2019/07/06 21:19:28","新北市淡水區新民街120巷29號","121.4388","25.17884","6501000","淡水區"
"251002","672-BX","2019/07/06 21:19:36","新北市淡水區學府路172巷21號","121.448311666667","25.1748516666667","6501000","淡水區"
"251003","766-UM","2019/07/06 21:19:28","新北市淡水區崁頂18號","121.439265","25.185285","6501000","淡水區"
"242025","362-BY","2019/07/06 21:19:31","新北市八里區下罟子9-8號","121.382788333333","25.1405783333333","6500500","新莊區"
"242007","349-TH","2019/07/06 21:19:42","新北市林口區太平里180號","121.366821666667","25.13383","6500500","新莊區"
