"lineid","car","time","location","longitude","latitude","cityid","cityname"
"231009","515-UM","2019/08/27 10:19:28","新北市新店區松林路16巷41號","121.545878333333","24.907065","6500600","新店區"
"227004","282-VK","2019/08/27 10:19:32","新北市雙溪區長源里盤山坑4號","121.783871666667","25.002675","6502500","雙溪區"
"227006","030-BX","2019/08/27 10:17:53","新北市雙溪區泰平里烏山路12號","121.793345","24.9486083333333","6502500","雙溪區"
"252007","AAC-283","2019/08/27 10:19:35","新北市三芝區新庄里番社后18號","121.497065","25.27431","6502100","三芝區"
"237014","760-BX","2019/08/27 10:19:39","新北市三峽區中山路459巷135號","121.348831666667","24.93315","6500900","三峽區"
