"lineid","car","time","location","longitude","latitude","cityid","cityname"
"234044","148-BY","2019/08/27 13:19:32","新北市永和區得和路324號","121.523123333333","24.9995216666667","6500400","永和區"
"234078","298-R6","2019/08/27 13:19:33","新北市永和區福和路7巷7號","121.525405","25.0078","6500400","永和區"
"234036","336-UY","2019/08/27 13:19:29","新北市永和區民樂街70號","121.52736","24.9983716666667","6500400","永和區"
"234062","337-UY","2019/08/27 13:19:34","新北市永和區永元路17巷23號","121.521493333333","25.0012683333333","6500400","永和區"
"234084","338-UY","2019/08/27 13:19:29","新北市永和區永貞路45號","121.52002","25.00453","6500400","永和區"
"234068","552-UM","2019/08/27 13:19:30","新北市永和區中正路696-1號","121.516655","25.009855","6500400","永和區"
"234015","745-BX","2019/08/27 13:19:30","新北市永和區環河西路一段95巷5號","121.512013333333","25.0176533333333","6500400","永和區"
"234028","746-BX","2019/08/27 13:19:37","新北市永和區厚德街82號","121.5238","24.9989","6500400","永和區"
"234052","KEA-2590","2019/08/27 13:19:46","新北市永和區中興街20號","121.516071666667","25.0118216666667","6500400","永和區"
"234005","KED-0605","2019/08/27 13:19:44","新北市中和區中山路二段23號","121.504883333333","25.00531","6500400","永和區"
"234012","KEA-2591","2019/08/27 13:19:28","新北市永和區信義路14-1號","121.514381666667","25.012035","6500400","永和區"
"234060","AAD-866","2019/08/27 13:19:40","新北市永和區秀朗路一段175號","121.517055","25.0037216666667","6500400","永和區"
"234040","862-TW","2019/08/27 13:19:26","新北市永和區保平路151巷2弄2號","121.509913333333","25.005575","6500400","永和區"
"234048","863-TW","2019/08/27 13:19:32","新北市永和區信義路105號","121.512316666667","25.01452","6500400","永和區"
"234025","9371-KE","2019/08/27 13:19:36","","121.51499","25.0088916666667","6500400","永和區"
"234010","9373-KE","2019/08/27 13:19:29","新北市永和區仁愛路88號","121.512566666667","25.01339","6500400","永和區"
"248017","KED-0813","2019/08/27 13:19:38","新北市五股區御史路130-3號","121.434138333333","25.098835","6501500","五股區"
"234022","9380-KE","2019/08/27 13:19:38","新北市永和區竹林路99號","121.5198","25.0120633333333","6500400","永和區"
"234076","969-R7","2019/08/27 13:19:44","新北市永和區民有街23巷9號","121.517028333333","24.9965416666667","6500400","永和區"
"234072","AAC-211","2019/08/27 13:19:27","新北市永和區竹林路30-1號","121.517115","25.01463","6500400","永和區"
"234066","AAC-212","2019/08/27 13:19:36","新北市永和區保平路50巷22弄2號","121.510635","25.007965","6500400","永和區"
"234001","AAC-295","2019/08/27 13:19:43","","121.512331666667","25.0101316666667","6500400","永和區"
"244002","248-BX","2019/08/27 13:19:46","新北市林口區頂福20-16號","121.356741666667","25.0928383333333","6501700","林口區"
"231030","002-UM","2019/08/27 13:19:42","新北市新店區安華路28-1號","121.519665","24.9608133333333","6500600","新店區"
"231024","0291-UT","2019/08/27 13:19:40","新北市新店區安康路一段75-1號","121.530135","24.9611283333333","6500600","新店區"
"231005","046-UY","2019/08/27 13:19:33","新北市新店區安華路28-1號","121.519248333333","24.9605766666667","6500600","新店區"
"231029","106-UY","2019/08/27 13:19:32","新北市新店區安華路28-1號","121.519645","24.96075","6500600","新店區"
"231018","107-UY","2019/08/27 13:19:31","新北市新店區力行路15號","121.537011666667","24.9658133333333","6500600","新店區"
"231013","108-UY","2019/08/27 13:19:39","新北市新店區安康路一段238號","121.521986666667","24.9637716666667","6500600","新店區"
"231036","110-UY","2019/08/27 13:19:43","新北市新店區安康路三段450號","121.48449","24.9513183333333","6500600","新店區"
"231032","256-BX","2019/08/27 13:19:26","新北市新店區安忠路57巷15號","121.512715","24.9571716666667","6500600","新店區"
"231023","260-TV","2019/08/27 13:19:36","新北市新店區安一路一段1-1號","121.51899","24.9614","6500600","新店區"
"231003","268-BY","2019/08/27 13:19:42","新北市新店區安康路一段355號","121.519973333333","24.9635633333333","6500600","新店區"
"231035","278-BY","2019/08/27 13:19:34","新北市新店區安華路28-1號","121.519795","24.9610583333333","6500600","新店區"
"231015","AAD-862","2019/08/27 13:19:27","新北市新店區安華路8號","121.51988","24.9625183333333","6500600","新店區"
"231006","355-BY","2019/08/27 13:19:35","新北市新店區安華路28-1號","121.519036666667","24.96094","6500600","新店區"
"231038","3712-VJ","2019/08/27 13:19:40","新北市新店區安華路1-1號","121.519016666667","24.9605683333333","6500600","新店區"
"231027","3713-VJ","2019/08/27 13:19:31","新北市新店區安華路28-1號","121.519531666667","24.9607316666667","6500600","新店區"
"231025","4715-K9","2019/08/27 13:19:33","新北市新店區中央五街13號","121.52967","24.974305","6500600","新店區"
"231020","515-UM","2019/08/27 13:19:46","新北市新店區安康路一段355-10號","121.520705","24.96385","6500600","新店區"
"231001","617-UM","2019/08/27 13:19:34","新北市新店區安華路28-1號","121.519433333333","24.9608933333333","6500600","新店區"
"231047","KED-0819","2019/08/27 13:19:27","新北市新店區安一路一段1-1號","121.519788333333","24.961185","6500600","新店區"
"231010","719-UM","2019/08/27 13:19:34","新北市新店區安康路一段33-1號","121.532211666667","24.9605233333333","6500600","新店區"
"231026","720-UM","2019/08/27 13:19:39","新北市新店區安一路一段1-1號","121.519046666667","24.9613083333333","6500600","新店區"
"231028","897-TW","2019/08/27 13:19:40","新北市新店區安華路28-1號","121.519598333333","24.9606983333333","6500600","新店區"
"231004","899-TW","2019/08/27 13:19:40","新北市新店區安一路一段1-1號","121.518826666667","24.9611166666667","6500600","新店區"
"231037","AKT-0513","2019/08/27 13:19:38","新北市新店區安華路1-1號","121.519405","24.9604933333333","6500600","新店區"
"235030","003-UY","2019/08/27 13:19:35","新北市中和區中山路二段120號","121.502673333333","25.003785","6500300","中和區"
"235028","005-UY","2019/08/27 13:19:31","新北市中和區安邦街83號","121.496873333333","24.996695","6500300","中和區"
"235027","006-UY","2019/08/27 13:19:38","新北市中和區中正路585號","121.485948333333","24.9945266666667","6500300","中和區"
"235020","096-UM","2019/08/27 13:19:32","新北市中和區新生街284號","121.483695","24.9967","6500300","中和區"
"235003","097-UM","2019/08/27 13:19:27","新北市中和區安平路38號","121.509938333333","24.9949933333333","6500300","中和區"
"235029","098-UM","2019/08/27 13:19:28","新北市中和區莊敬路49巷20弄20號","121.502616666667","25.0057533333333","6500300","中和區"
"235004","150-BY","2019/08/27 13:19:26","新北市中和區景平路404號","121.508943333333","24.9931183333333","6500300","中和區"
"235022","151-BY","2019/08/27 13:19:30","新北市中和區圓通路391-7號","121.48967","24.9890666666667","6500300","中和區"
"235019","183-VK","2019/08/27 13:19:34","","121.47018","24.9960733333333","6500300","中和區"
"235002","185-VK","2019/08/27 13:19:43","新北市中和區大智街111號","121.523423333333","24.99257","6500300","中和區"
"235013","186-VK","2019/08/27 13:19:43","新北市中和區中正路637巷52弄1號","121.485446666667","24.9934866666667","6500300","中和區"
"235031","255-BX","2019/08/27 13:19:30","新北市中和區員山路148巷45號","121.482698333333","24.99717","6500300","中和區"
"235036","301-VK","2019/08/27 13:19:45","新北市中和區連城路265巷10弄2號","121.491613333333","24.9954933333333","6500300","中和區"
"235006","KEA-2878","2019/08/27 13:19:32","新北市中和區景平路240巷1弄6號","121.515116666667","24.9930433333333","6500300","中和區"
"235014","4979-A6","2019/08/27 13:19:43","新北市中和區捷運路61巷9號","121.509018333333","24.9893316666667","6500300","中和區"
"235033","4980-A6","2019/08/27 13:19:26","新北市中和區圓通路295-6號","121.49491","24.9915483333333","6500300","中和區"
"235034","558-UM","2019/08/27 13:19:34","新北市中和區景平路471號","121.500445","24.9971433333333","6500300","中和區"
"235009","565-BX","2019/08/27 13:19:29","新北市中和區復興路19號","121.505731666667","24.9896966666667","6500300","中和區"
"235024","KED-0823","2019/08/27 13:19:37","新北市中和區員山路325-2號","121.48125","25.0007716666667","6500300","中和區"
"235018","640-BX","2019/08/27 13:19:41","新北市中和區民享街91-9號","121.474528333333","25.0008866666667","6500300","中和區"
"235011","732-UM","2019/08/27 13:19:32","新北市中和區中正路752號","121.485341666667","24.99858","6500300","中和區"
"235010","733-UM","2019/08/27 13:19:35","新北市中和區員山路36巷13號","121.484116666667","24.9910816666667","6500300","中和區"
"235035","783-BX","2019/08/27 13:19:36","新北市中和區中板路21號","121.48388","25.01169","6500300","中和區"
"235026","800-TS","2019/08/27 13:19:27","新北市中和區中山路二段312巷45弄23號","121.495028333333","25.0048733333333","6500300","中和區"
"235021","801-TS","2019/08/27 13:19:34","新北市中和區民享街97巷14號","121.47526","24.9996533333333","6500300","中和區"
"235005","802-TS","2019/08/27 13:19:42","新北市中和區景安路70號","121.505826666667","24.99665","6500300","中和區"
"235016","805-TS","2019/08/27 13:19:36","新北市中和區興南路二段96號","121.505173333333","24.9842233333333","6500300","中和區"
"235017","900-TW","2019/08/27 13:19:30","新北市中和區員山路36巷16-2號","121.485241666667","24.991465","6500300","中和區"
"235015","157-BY","2019/08/27 13:19:35","新北市中和區華新街230號","121.506063333333","24.9817016666667","6500300","中和區"
"235001","AAC-213","2019/08/27 13:19:31","新北市中和區景德街93號","121.515875","24.9914366666667","6500300","中和區"
"220104","015-TV","2019/08/27 13:19:25","新北市板橋區華東街1-10號","121.448256666667","24.9949933333333","6500100","板橋區"
"220013","072-UY","2019/08/27 13:19:29","新北市板橋區華東街1-9號","121.44819","24.9949416666667","6500100","板橋區"
"220034","073-UY","2019/08/27 13:19:37","新北市板橋區華東街1-10號","121.44826","24.9950566666667","6500100","板橋區"
"247011","056-VK","2019/08/27 13:19:29","新北市五股區中興路三段2巷10號","121.449365","25.08107","6501400","蘆洲區"
"235007","251-BX","2019/08/27 13:19:42","新北市中和區景平路381號","121.50383","24.9935283333333","6500300","中和區"
"228004","212-TW","2019/08/27 13:19:38","新北市貢寮區吉林里內寮街23號","121.901741666667","24.9841516666667","6502600","貢寮區"
"228005","828-UM","2019/08/27 13:19:28","新北市貢寮區美豐里丹裡街54號","121.906251666667","25.0594516666667","6502600","貢寮區"
"207002","749-BX","2019/08/27 13:19:44","新北市萬里區崁腳里崁腳路166號","121.645156666667","25.1558616666667","6502800","萬里區"
"207001","662-BX","2019/08/27 13:19:13","新北市萬里區龜吼里玉田路53號","121.680956666667","25.1936483333333","6502800","萬里區"
"252005","AAC-283","2019/08/27 13:19:40","新北市三芝區八賢里八連溪66號","121.517761666667","25.2313133333333","6502100","三芝區"
"242002","751-BX","2019/08/27 13:19:37","新北市新莊區新泰路357巷3弄57號","121.442336666667","25.0395216666667","6500500","新莊區"
"221029","298-VK","2019/08/27 13:19:38","新北市汐止區南陽街103號","121.623731666667","25.0617416666667","6501100","汐止區"
"220050","280-UM","2019/08/27 13:17:32","新北市板橋區民生路二段161巷1號","121.470008333333","25.0201","6500100","板橋區"
"220028","568-UM","2019/08/27 13:19:40","新北市板橋區華東街1-9號","121.448148333333","24.9949333333333","6500100","板橋區"
"220025","687-BX","2019/08/27 13:19:37","新北市板橋區華東街1-10號","121.4484","24.9948216666667","6500100","板橋區"
"220021","985-R7","2019/08/27 13:19:39","新北市板橋區華東街1-10號","121.448266666667","24.9949616666667","6500100","板橋區"
"235032","KEA-2873","2019/08/27 13:19:41","新北市中和區員山路36巷16-3號","121.485031666667","24.9913","6500300","中和區"
"235025","KEA-2875","2019/08/27 13:19:26","新北市中和區民享街97巷14號","121.47531","24.999625","6500300","中和區"
