"lineid","car","time","location","longitude","latitude","cityid","cityname"
"234044","148-BY","2019/08/27 13:59:32","新北市永和區成功路一段32號","121.527028333333","25.004665","6500400","永和區"
"234078","298-R6","2019/08/27 13:59:33","新北市永和區林森路112巷12弄34號","121.52282","25.00465","6500400","永和區"
"234036","336-UY","2019/08/27 13:59:27","新北市永和區成功路二段145號","121.526636666667","24.9977416666667","6500400","永和區"
"234062","337-UY","2019/08/27 13:59:29","新北市永和區中正路412巷20弄9號","121.518611666667","25.0018","6500400","永和區"
"234084","338-UY","2019/08/27 13:59:29","新北市永和區福和路152號","121.521695","25.0079716666667","6500400","永和區"
"234068","552-UM","2019/08/27 13:59:25","新北市永和區國光路51號","121.519026666667","25.0082766666667","6500400","永和區"
"234015","745-BX","2019/08/27 13:59:30","新北市永和區文化路8號","121.515541666667","25.0150866666667","6500400","永和區"
"234028","746-BX","2019/08/27 13:59:37","新北市永和區民生路47巷33號","121.525123333333","24.997825","6500400","永和區"
"234052","KEA-2590","2019/08/27 13:59:26","新北市永和區環河東路一段122號","121.520543333333","25.0154266666667","6500400","永和區"
"234005","KED-0605","2019/08/27 13:59:43","新北市中和區中和路306-1號","121.508838333333","25.0000966666667","6500400","永和區"
"234012","KEA-2591","2019/08/27 13:59:28","新北市永和區保生路55號","121.50474","25.010525","6500400","永和區"
"234060","AAD-866","2019/08/27 13:59:40","新北市永和區中正路151巷14號","121.515516666667","24.9988533333333","6500400","永和區"
"234040","862-TW","2019/08/27 13:59:26","新北市永和區中和路421巷5弄29號","121.508281666667","25.0005","6500400","永和區"
"234048","863-TW","2019/08/27 13:59:32","新北市永和區保安路264號","121.505926666667","25.0123366666667","6500400","永和區"
"234025","9371-KE","2019/08/27 13:59:36","","121.514228333333","25.00582","6500400","永和區"
"234010","9373-KE","2019/08/27 13:59:29","新北市永和區環河西路二段245號","121.500095","25.0092416666667","6500400","永和區"
"248017","KED-0813","2019/08/27 13:59:37","新北市五股區民義路一段224號","121.429441666667","25.0907216666667","6501500","五股區"
"234022","9380-KE","2019/08/27 13:59:38","新北市永和區永和路二段242號","121.515908333333","25.0146466666667","6500400","永和區"
"234076","969-R7","2019/08/27 13:59:44","新北市永和區民族街45號","121.518598333333","24.9984866666667","6500400","永和區"
"234072","AAC-211","2019/08/27 13:59:28","新北市永和區豫溪街161-1號","121.521513333333","25.0104566666667","6500400","永和區"
"234066","AAC-212","2019/08/27 13:59:35","新北市永和區永貞路358號","121.510161666667","25.006535","6500400","永和區"
"234001","AAC-295","2019/08/27 13:59:43","","121.515423333333","25.0072133333333","6500400","永和區"
"244002","248-BX","2019/08/27 13:59:26","新北市林口區南勢里34-8號","121.352388333333","25.0702666666667","6501700","林口區"
"231030","002-UM","2019/08/27 13:59:42","新北市新店區安康路一段302-3號","121.517703333333","24.964135","6500600","新店區"
"231024","0291-UT","2019/08/27 13:59:40","新北市新店區新生街13巷18號","121.539128333333","24.9661233333333","6500600","新店區"
"231005","046-UY","2019/08/27 13:59:35","新北市新店區中興路三段212號","121.54374","24.9824166666667","6500600","新店區"
"231029","106-UY","2019/08/27 13:59:32","新北市新店區安康路二段22號","121.515986666667","24.9637466666667","6500600","新店區"
"231018","107-UY","2019/08/27 13:59:31","新北市新店區中央路192號","121.530906666667","24.9746733333333","6500600","新店區"
"231013","108-UY","2019/08/27 13:59:39","新北市新店區明德路60號","121.541598333333","24.9792816666667","6500600","新店區"
"231036","110-UY","2019/08/27 13:59:43","新北市新店區安祥路109巷3弄64號","121.477686666667","24.9611283333333","6500600","新店區"
"231032","256-BX","2019/08/27 13:59:26","新北市新店區莒光路44巷21弄11-3號","121.518425","24.9521883333333","6500600","新店區"
"231023","260-TV","2019/08/27 13:59:36","新北市新店區文中路40號","121.539715","24.9565533333333","6500600","新店區"
"231003","268-BY","2019/08/27 13:59:42","新北市新店區北宜路一段3號","121.538506666667","24.9585966666667","6500600","新店區"
"231035","278-BY","2019/08/27 13:59:34","新北市新店區安和路一段52巷2號","121.517615","24.966075","6500600","新店區"
"231015","AAD-862","2019/08/27 13:59:27","新北市新店區北宜路二段118號","121.556565","24.9539216666667","6500600","新店區"
"231006","355-BY","2019/08/27 13:59:35","新北市新店區北宜路二段64號","121.549548333333","24.9514666666667","6500600","新店區"
"231038","3712-VJ","2019/08/27 13:59:40","新北市新店區安華路30巷1號","121.519608333333","24.9593033333333","6500600","新店區"
"231027","3713-VJ","2019/08/27 13:59:31","新北市新店區中興路一段34號","121.538835","24.95865","6500600","新店區"
"231025","4715-K9","2019/08/27 13:59:33","新北市新店區中正路352號","121.535841666667","24.9755383333333","6500600","新店區"
"231020","515-UM","2019/08/27 13:59:46","新北市新店區自強路36號","121.546086666667","24.9262916666667","6500600","新店區"
"231034","616-UM","2019/08/27 13:59:40","新北市新店區達觀路41號","121.502865","24.9382383333333","6500600","新店區"
"231001","617-UM","2019/08/27 13:59:34","新北市新店區三民路24號","121.537138333333","24.9709933333333","6500600","新店區"
"231002","618-UM","2019/08/27 13:59:43","新北市新店區中正路616號","121.534033333333","24.98868","6500600","新店區"
"231012","KED-0819","2019/08/27 13:59:43","新北市新店區中興路二段67巷4號","121.546421666667","24.970985","6500600","新店區"
"231026","720-UM","2019/08/27 13:59:38","新北市新店區三民路159巷19弄46號","121.53224","24.9732183333333","6500600","新店區"
"231028","897-TW","2019/08/27 13:59:41","新北市新店區安和路三段7號","121.518045","24.9805783333333","6500600","新店區"
"231004","899-TW","2019/08/27 13:59:42","新北市新店區北新路二段152巷2號","121.543025","24.975225","6500600","新店區"
"231037","AKT-0513","2019/08/27 13:59:38","新北市新店區安康路三段355巷33號","121.48497","24.94975","6500600","新店區"
"235030","003-UY","2019/08/27 13:59:34","新北市中和區光華街22號","121.504446666667","25.004165","6500300","中和區"
"235028","005-UY","2019/08/27 13:59:31","新北市中和區泰和街1號","121.49994","25.0009766666667","6500300","中和區"
"235027","006-UY","2019/08/27 13:59:38","新北市中和區中正路592號","121.485671666667","24.9948983333333","6500300","中和區"
"235020","096-UM","2019/08/27 13:59:32","新北市中和區員山路514巷16號","121.479588333333","25.0095183333333","6500300","中和區"
"235003","097-UM","2019/08/27 13:59:27","新北市中和區秀朗路三段179號","121.524445","24.9907583333333","6500300","中和區"
"235029","098-UM","2019/08/27 13:59:28","新北市中和區中山路二段136巷40號","121.501135","25.0044866666667","6500300","中和區"
"235004","150-BY","2019/08/27 13:59:25","新北市中和區保健路46巷24弄1號","121.508543333333","24.99553","6500300","中和區"
"235022","151-BY","2019/08/27 13:59:10","新北市中和區連城路607號","121.478256666667","24.9933666666667","6500300","中和區"
"235019","183-VK","2019/08/27 13:59:34","","121.468185","25.0032966666667","6500300","中和區"
"235002","185-VK","2019/08/27 13:59:43","新北市中和區大勇街60巷37號","121.5191","24.99473","6500300","中和區"
"235013","186-VK","2019/08/27 13:59:43","新北市中和區景新街175號","121.506733333333","24.9955583333333","6500300","中和區"
"235031","255-BX","2019/08/27 13:59:30","新北市中和區中正路691號","121.485235","24.9981083333333","6500300","中和區"
"235008","293-VK","2019/08/27 13:59:41","新北市中和區中興街178號","121.499771666667","24.99103","6500300","中和區"
"235036","301-VK","2019/08/27 13:59:45","新北市中和區中山路二段123號","121.502683333333","25.003515","6500300","中和區"
"235006","KEA-2878","2019/08/27 13:59:46","新北市中和區秀朗路三段128巷1弄2號","121.524608333333","24.9924233333333","6500300","中和區"
"247013","KEA-2869","2019/08/27 13:59:35","新北市蘆洲區保和街87號","121.46898","25.086045","6501400","蘆洲區"
"247007","KED-0682","2019/08/27 13:59:39","新北市蘆洲區永安北路二段12巷1號","121.481231666667","25.0806933333333","6501400","蘆洲區"
"235014","4979-A6","2019/08/27 13:59:43","新北市中和區華新街50巷7號","121.507665","24.9839283333333","6500300","中和區"
"235033","4980-A6","2019/08/27 13:59:46","新北市中和區中和路130號","121.503685","24.9996583333333","6500300","中和區"
"235034","558-UM","2019/08/27 13:59:34","新北市中和區中和路253號","121.504938333333","24.99978","6500300","中和區"
"235009","565-BX","2019/08/27 13:59:29","新北市中和區景新街467巷33號","121.514761666667","24.9888383333333","6500300","中和區"
"235024","KED-0823","2019/08/27 13:59:37","新北市中和區民享街88巷2號","121.474551666667","25.0007216666667","6500300","中和區"
"235018","640-BX","2019/08/27 13:59:35","新北市中和區國光街107巷2弄30號","121.469558333333","24.9992633333333","6500300","中和區"
"235011","732-UM","2019/08/27 13:59:32","新北市中和區興南路二段133號","121.50524","24.9842183333333","6500300","中和區"
"235010","733-UM","2019/08/27 13:59:35","新北市中和區忠孝街1巷65號","121.508243333333","24.9846966666667","6500300","中和區"
"235035","783-BX","2019/08/27 13:59:34","新北市中和區立德街98巷14號","121.487441666667","25.0085833333333","6500300","中和區"
"235026","800-TS","2019/08/27 13:59:27","新北市中和區中山路二段380巷8號","121.49088","25.0045766666667","6500300","中和區"
"235021","801-TS","2019/08/27 13:59:34","新北市中和區民利街50號","121.479288333333","24.9987833333333","6500300","中和區"
"235005","802-TS","2019/08/27 13:59:42","新北市中和區中安街58號","121.512771666667","25.0022016666667","6500300","中和區"
"235016","805-TS","2019/08/27 13:59:36","新北市中和區興南路二段131-15號","121.504235","24.9801783333333","6500300","中和區"
"235012","896-TW","2019/08/27 13:59:47","新北市中和區華新街66號","121.508175","24.9837866666667","6500300","中和區"
"235017","900-TW","2019/08/27 13:59:30","新北市中和區和平路228-3號","121.464265","24.996415","6500300","中和區"
"235015","157-BY","2019/08/27 13:59:35","新北市中和區忠孝街103號","121.512006666667","24.9862616666667","6500300","中和區"
"235001","AAC-213","2019/08/27 13:59:31","新北市中和區秀朗路三段58-1號","121.526006666667","24.9951266666667","6500300","中和區"
"235023","AAC-215","2019/08/27 13:59:33","新北市中和區圓通路369巷14弄8號","121.490453333333","24.9878116666667","6500300","中和區"
"220104","015-TV","2019/08/27 13:59:45","新北市板橋區中正路341巷37號","121.454048333333","25.0198233333333","6500100","板橋區"
"220013","072-UY","2019/08/27 13:59:38","新北市板橋區漢生東路324號","121.471775","25.0079316666667","6500100","板橋區"
"220034","073-UY","2019/08/27 13:59:37","新北市板橋區大智街20號","121.45575","25.014845","6500100","板橋區"
"220105","075-UY","2019/08/27 13:59:40","新北市板橋區文化路二段263巷12號","121.470966666667","25.029355","6500100","板橋區"
"220017","AAD-861","2019/08/27 13:59:30","新北市板橋區華興街74號","121.457275","25.0050666666667","6500100","板橋區"
"220016","120-SR","2019/08/27 13:59:39","新北市板橋區中山路二段465巷36號","121.481278333333","25.0213733333333","6500100","板橋區"
"247003","893-R6","2019/08/27 13:59:45","新北市蘆洲區長安街100號","121.461598333333","25.0809033333333","6501400","蘆洲區"
"247017","546-UM","2019/08/27 13:59:41","新北市蘆洲區民族路327巷77號","121.475378333333","25.0896083333333","6501400","蘆洲區"
"247001","336-TH","2019/08/27 13:59:30","新北市蘆洲區永平街32巷62弄2號","121.460016666667","25.0928716666667","6501400","蘆洲區"
"247021","057-VK","2019/08/27 13:59:39","新北市蘆洲區中正路263巷2號","121.467258333333","25.0876216666667","6501400","蘆洲區"
"247011","056-VK","2019/08/27 13:59:29","新北市蘆洲區中興街105號","121.482261666667","25.0886366666667","6501400","蘆洲區"
"247015","053-VK","2019/08/27 13:59:31","新北市蘆洲區光華路42號","121.468861666667","25.0830816666667","6501400","蘆洲區"
"247005","002-UY","2019/08/27 13:59:28","新北市蘆洲區永安南路二段14號","121.467496666667","25.0769083333333","6501400","蘆洲區"
"235007","251-BX","2019/08/27 13:59:42","新北市中和區景平路2號","121.524703333333","24.9903633333333","6500300","中和區"
"228004","212-TW","2019/08/27 13:59:38","新北市貢寮區龍崗里嵩陽街35-5號","121.90713","25.0175566666667","6502600","貢寮區"
"228005","828-UM","2019/08/27 13:59:28","新北市貢寮區美豐里雞母嶺街52-1號","121.888508333333","25.0684466666667","6502600","貢寮區"
"207002","749-BX","2019/08/27 13:59:24","新北市萬里區溪底里溪底路8號","121.62272","25.1483516666667","6502800","萬里區"
"207001","662-BX","2019/08/27 13:59:34","新北市萬里區磺潭里公館崙52-3號","121.628718333333","25.206495","6502800","萬里區"
"252005","AAC-283","2019/08/27 13:59:40","新北市三芝區橫山里橫山56-6號","121.535271666667","25.2494616666667","6502100","三芝區"
"236040","KED-0685","2019/08/27 13:59:41","新北市土城區城林路6巷80號","121.438585","24.9797216666667","6501300","土城區"
"236074","166-UM","2019/08/27 13:59:34","新北市土城區永寧路37號","121.430065","24.96201","6501300","土城區"
"236024","269-VK","2019/08/27 13:59:27","新北市土城區承天路18號","121.439365","24.963735","6501300","土城區"
"236013","270-VK","2019/08/27 13:59:32","新北市土城區中央路二段280號","121.440836666667","24.97404","6501300","土城區"
"236032","271-VK","2019/08/27 13:59:25","新北市土城區城林路6巷80號","121.4385","24.979775","6501300","土城區"
"247009","KED-0683","2019/08/27 13:59:38","新北市蘆洲區集賢路224巷22號","121.481781666667","25.0872416666667","6501400","蘆洲區"
"236065","KEA-2877","2019/08/27 13:59:43","新北市土城區和平路42號","121.445005","24.9707783333333","6501300","土城區"
"236017","401-BY","2019/08/27 13:59:43","新北市土城區城林路6巷80號","121.43838","24.9798366666667","6501300","土城區"
"236057","912-UM","2019/08/27 13:59:44","新北市土城區中央路三段260號","121.427176666667","24.9640383333333","6501300","土城區"
"236045","913-UM","2019/08/27 13:59:29","新北市土城區城林路6巷80號","121.438475","24.9797533333333","6501300","土城區"
"236060","915-UM","2019/08/27 13:59:28","新北市土城區城林路6巷80號","121.438618333333","24.979805","6501300","土城區"
"236054","AAC-216","2019/08/27 13:59:34","新北市土城區城林路6巷80號","121.438463333333","24.9797383333333","6501300","土城區"
"242002","751-BX","2019/08/27 13:59:34","新北市新莊區自強街59巷11號","121.45418","25.0470833333333","6500500","新莊區"
"221029","298-VK","2019/08/27 13:59:38","新北市汐止區福德二路124號","121.631241666667","25.065595","6501100","汐止區"
"220027","145-BY","2019/08/27 13:59:28","新北市板橋區大仁街57-1號","121.454413333333","25.016425","6500100","板橋區"
"220030","610-BX","2019/08/27 13:59:42","新北市板橋區溪崑一街126號","121.429173333333","24.9882833333333","6500100","板橋區"
"220004","276-BY","2019/08/27 13:59:37","新北市板橋區信義路152號","121.459025","24.99177","6500100","板橋區"
"220020","277-BY","2019/08/27 13:59:42","新北市板橋區大觀路三段50巷63號","121.431723333333","24.9960616666667","6500100","板橋區"
"220050","280-UM","2019/08/27 13:59:32","新北市板橋區莊敬路220巷2-1號","121.472515","25.0210866666667","6500100","板橋區"
"220019","283-VK","2019/08/27 13:59:30","新北市板橋區重慶路245巷69號","121.465608333333","25.0010966666667","6500100","板橋區"
"220043","285-UM","2019/08/27 13:59:41","新北市板橋區光武街151號","121.465581666667","25.0294533333333","6500100","板橋區"
"220001","285-VK","2019/08/27 13:59:28","新北市板橋區懷仁街10巷4號","121.475738333333","25.0199366666667","6500100","板橋區"
"220031","286-VK","2019/08/27 13:59:37","新北市板橋區大觀路一段38巷156弄10號","121.442446666667","25.0048383333333","6500100","板橋區"
"220029","287-VK","2019/08/27 13:59:41","新北市板橋區光華街19巷6號","121.453716666667","25.0121216666667","6500100","板橋區"
"220039","288-VK","2019/08/27 13:59:42","新北市板橋區裕民街6號","121.4624","25.0291966666667","6500100","板橋區"
"220009","293-UM","2019/08/27 13:59:43","新北市板橋區中山路二段224號","121.47818","25.0179116666667","6500100","板橋區"
"220010","295-UM","2019/08/27 13:59:32","新北市中和區中板路60號","121.482216666667","25.0122833333333","6500100","板橋區"
"220032","296-UM","2019/08/27 13:59:42","新北市板橋區篤行路一段16號","121.431305","24.9955033333333","6500100","板橋區"
"220023","303-R5","2019/08/27 13:59:41","新北市板橋區館前西路269號","121.453776666667","25.0087133333333","6500100","板橋區"
"220041","307-R5","2019/08/27 13:59:42","新北市板橋區文化路二段225巷60弄64號","121.469136666667","25.0299133333333","6500100","板橋區"
"220047","317-R6","2019/08/27 13:59:33","新北市板橋區民生路二段226巷39號","121.471413333333","25.02236","6500100","板橋區"
"220038","487-VK","2019/08/27 13:59:39","新北市板橋區文化路二段500號","121.475643333333","25.0334633333333","6500100","板橋區"
"220037","491-VK","2019/08/27 13:59:30","新北市板橋區莒光路165巷46號","121.474708333333","25.0251583333333","6500100","板橋區"
"220052","561-BX","2019/08/27 13:59:44","新北市板橋區介壽街29號","121.468375","25.0199566666667","6500100","板橋區"
"220028","568-UM","2019/08/27 13:59:40","新北市板橋區大觀路二段108號","121.444195","24.9994066666667","6500100","板橋區"
"220011","609-BX","2019/08/27 13:59:37","新北市板橋區三民路二段33號","121.479486666667","25.0176833333333","6500100","板橋區"
"220040","637-BX","2019/08/27 13:59:41","新北市板橋區大同街26巷8號","121.47804","25.02702","6500100","板橋區"
"220005","686-BX","2019/08/27 13:59:28","新北市板橋區國慶路212號","121.463778333333","24.9971966666667","6500100","板橋區"
"220025","687-BX","2019/08/27 13:59:37","新北市板橋區大觀路二段156巷71號","121.441056666667","25.0004216666667","6500100","板橋區"
"220042","689-BX","2019/08/27 13:59:32","新北市板橋區民生路三段205號","121.46541","25.028","6500100","板橋區"
"220002","741-BX","2019/08/27 13:59:31","新北市板橋區重慶路139巷12號","121.462956666667","25.0045883333333","6500100","板橋區"
"220051","KEA-2699","2019/08/27 13:59:40","新北市板橋區田單街2巷32-3號","121.482176666667","25.02788","6500100","板橋區"
"220003","827-TW","2019/08/27 13:59:40","新北市板橋區中山路一段130號","121.4634","25.010815","6500100","板橋區"
"220014","831-TW","2019/08/27 13:59:35","新北市板橋區三民路二段正隆巷30號","121.477306666667","25.0134683333333","6500100","板橋區"
"220022","895-R6","2019/08/27 13:59:34","新北市板橋區館前西路127號","121.456565","25.00749","6500100","板橋區"
"220021","985-R7","2019/08/27 13:59:39","新北市板橋區西門街2號","121.455895","25.0115366666667","6500100","板橋區"
"220046","AAC-210","2019/08/27 13:59:38","新北市板橋區幸福路60巷81號","121.459685","25.0218283333333","6500100","板橋區"
"220012","AAC-253","2019/08/27 13:59:44","新北市板橋區板新路2號","121.475001666667","25.01287","6500100","板橋區"
"235032","KEA-2873","2019/08/27 13:59:41","新北市中和區圓通路158巷4號","121.497691666667","24.996145","6500300","中和區"
"235025","KEA-2875","2019/08/27 13:59:44","新北市中和區員山路143巷38號","121.479243333333","24.9956166666667","6500300","中和區"
