"lineid","car","time","location","longitude","latitude","cityid","cityname"
"249005","172-UM","2019/08/27 16:59:27","新北市八里區渡船頭3-19號","121.433861666667","25.1517133333333","6502300","八里區"
"249001","173-UM","2019/08/27 16:59:35","新北市八里區中山路三段106號","121.391035","25.1421833333333","6502300","八里區"
"249004","303-UY","2019/08/27 16:59:36","新北市八里區忠孝路353號","121.416433333333","25.1612133333333","6502300","八里區"
"249002","305-UY","2019/08/27 16:56:41","新北市八里區牛寮埔28號","121.432261666667","25.1444033333333","6502300","八里區"
"249003","593-UM","2019/08/27 16:59:33","新北市八里區中山路二段283號","121.401568333333","25.14866","6502300","八里區"
"244007","080-UY","2019/08/27 16:59:30","新北市林口區中湖8鄰50號","121.376533333333","25.091135","6501700","林口區"
"244009","656-BX","2019/08/27 16:59:36","新北市林口區粉寮1號","121.39729","25.079855","6501700","林口區"
"244025","837-TS","2019/08/27 16:59:47","新北市林口區粉寮路二段221號","121.404203333333","25.090625","6501700","林口區"
"244021","838-TS","2019/08/27 16:59:44","新北市林口區粉寮32號","121.403303333333","25.0866433333333","6501700","林口區"
"231046","719-UM","2019/08/27 16:59:34","新北市新店區灣潭路29-5號","121.53958","24.9387483333333","6500600","新店區"
"241011","013-R5","2019/08/27 16:59:45","新北市三重區仁愛街55巷62號","121.49767","25.0725","6500200","三重區"
"241028","022-UY","2019/08/27 16:59:40","新北市三重區中正南路50號","121.493946666667","25.059945","6500200","三重區"
"241008","059-VK","2019/08/27 16:59:35","新北市三重區永福街122-2號","121.479115","25.0750766666667","6500200","三重區"
"241029","060-VK","2019/08/27 16:59:25","新北市三重區中正南路181號","121.493735","25.0552783333333","6500200","三重區"
"241031","061-VK","2019/08/27 16:59:36","新北市三重區新北大道一段3號","121.490548333333","25.060405","6500200","三重區"
"241015","062-VK","2019/08/27 16:59:45","新北市三重區三和路二段1-4號","121.50157","25.06667","6500200","三重區"
"241024","065-VK","2019/08/27 16:59:35","新北市三重區大勇街82巷15弄30號","121.481075","25.071985","6500200","三重區"
"241002","090-VK","2019/08/27 16:59:32","新北市三重區仁義街225巷40號","121.497676666667","25.0829733333333","6500200","三重區"
"241003","091-VK","2019/08/27 16:59:32","新北市三重區五華街141巷58號","121.493536666667","25.0868016666667","6500200","三重區"
"241004","742-BX","2019/08/27 16:59:45","新北市三重區五華街98巷23號","121.491531666667","25.0818983333333","6500200","三重區"
"241006","262-UM","2019/08/27 16:59:43","新北市三重區車路頭街131巷8號","121.484631666667","25.0757333333333","6500200","三重區"
"241016","266-UM","2019/08/27 16:59:32","新北市三重區大同北路131號","121.493251666667","25.06403","6500200","三重區"
"241009","267-UM","2019/08/27 16:59:41","新北市三重區三和路四段215巷33-2號","121.482965","25.0799733333333","6500200","三重區"
"241018","268-UM","2019/08/27 16:59:39","新北市三重區民生東街42巷4號","121.493226666667","25.0693766666667","6500200","三重區"
"241032","269-UM","2019/08/27 16:59:29","新北市三重區中山路40巷1-1號","121.485996666667","25.061185","6500200","三重區"
"241013","270-UM","2019/08/27 16:59:37","新北市三重區仁孝街62號","121.497281666667","25.0744516666667","6500200","三重區"
"241025","271-UM","2019/08/27 16:59:28","新北市三重區中正北路357號","121.472795","25.0716633333333","6500200","三重區"
"241007","398-BY","2019/08/27 16:59:28","新北市三重區三和路四段145巷213號","121.48874","25.0795383333333","6500200","三重區"
"241030","KED-0822","2019/08/27 16:59:45","新北市三重區昌隆街72號","121.490965","25.050645","6500200","三重區"
"241020","478-VK","2019/08/27 16:59:42","新北市三重區國道路一段7號","121.486196666667","25.0734133333333","6500200","三重區"
"241026","480-VK","2019/08/27 16:59:32","新北市三重區光興街43號","121.499428333333","25.0602616666667","6500200","三重區"
"241014","543-UM","2019/08/27 16:59:41","新北市三重區三和路二段173巷145號","121.501085","25.0707233333333","6500200","三重區"
"241023","545-UM","2019/08/27 16:59:31","新北市三重區忠孝路三段84巷1號","121.480253333333","25.06455","6500200","三重區"
"241001","547-UM","2019/08/27 16:59:41","新北市三重區仁愛街245巷36號","121.494315","25.0785483333333","6500200","三重區"
"241019","KEA-2593","2019/08/27 16:59:28","新北市三重區自強路二段74巷19號","121.487956666667","25.069925","6500200","三重區"
"241005","AAD-863","2019/08/27 16:59:43","新北市三重區仁華街14號","121.483353333333","25.0814733333333","6500200","三重區"
"241017","743-BX","2019/08/27 16:59:39","新北市三重區國隆路29號","121.492581666667","25.0643683333333","6500200","三重區"
"241022","KED-0820","2019/08/27 16:59:30","新北市三重區三民街155巷2號","121.48389","25.0644216666667","6500200","三重區"
"241012","941-UM","2019/08/27 16:59:43","新北市三重區仁興街10號","121.499713333333","25.0743633333333","6500200","三重區"
"241033","AAC-255","2019/08/27 16:59:42","新北市三重區中興北街271號","121.469261666667","25.060635","6500200","三重區"
"247014","KEA-2869","2019/08/27 16:59:44","新北市蘆洲區中山二路8號","121.475438333333","25.08183","6501400","蘆洲區"
"247008","KED-0682","2019/08/27 16:59:28","新北市蘆洲區中山一路197巷28號","121.475013333333","25.07986","6501400","蘆洲區"
"235062","800-TS","2019/08/27 16:43:32","新北市中和區員山路36巷16-3號","121.485111666667","24.99133","6500300","中和區"
"247004","893-R6","2019/08/27 16:59:33","新北市蘆洲區長安街108巷1號","121.461131666667","25.0816366666667","6501400","蘆洲區"
"247018","546-UM","2019/08/27 16:59:41","新北市蘆洲區民族路227巷18號","121.476995","25.0892166666667","6501400","蘆洲區"
"247022","057-VK","2019/08/27 16:59:25","新北市蘆洲區三民路128巷140號","121.46852","25.0922883333333","6501400","蘆洲區"
"247012","056-VK","2019/08/27 16:59:28","新北市蘆洲區復興路154號","121.477315","25.0880533333333","6501400","蘆洲區"
"247016","053-VK","2019/08/27 16:59:48","新北市蘆洲區中正路69號","121.47037","25.0826816666667","6501400","蘆洲區"
"247020","007-UY","2019/08/27 16:59:34","新北市蘆洲區民族路422巷48弄13號","121.474276666667","25.093545","6501400","蘆洲區"
"247006","002-UY","2019/08/27 16:59:31","新北市蘆洲區長安街99巷8號","121.461303333333","25.08048","6501400","蘆洲區"
"247024","001-UY","2019/08/27 16:59:39","新北市蘆洲區長興路198號","121.460911666667","25.08683","6501400","蘆洲區"
"228002","663-BX","2019/08/27 16:59:48","新北市貢寮區貢寮里朝陽街86號","121.908913333333","25.022095","6502600","貢寮區"
"228003","828-UM","2019/08/27 16:59:43","新北市貢寮區福隆里興隆街21-1號","121.943355","25.0164716666667","6502600","貢寮區"
"224006","676-BX","2019/08/27 16:59:26","新北市瑞芳區大寮路356號","121.784578333333","25.10298","6501200","瑞芳區"
"224007","285-BY","2019/08/27 16:59:33","新北市瑞芳區粗坑口路66號","121.761305","25.0989533333333","6501200","瑞芳區"
"224009","275-VK","2019/08/27 16:59:42","新北市瑞芳區明燈路一段1號","121.82654","25.109365","6501200","瑞芳區"
"224008","273-VK","2019/08/27 16:59:36","新北市瑞芳區明燈路一段261號","121.81717","25.1083433333333","6501200","瑞芳區"
"224005","271-BY","2019/08/27 16:59:43","","121.901991666667","25.1210633333333","6501200","瑞芳區"
"227002","642-TC","2019/08/27 16:59:40","新北市雙溪區上林里內平林82-1號","121.828873333333","25.0280666666667","6502500","雙溪區"
"227001","400-TW","2019/08/27 16:59:37","新北市雙溪區三貂里十三層41號","121.85512","25.0809433333333","6502500","雙溪區"
"251009","008-UM","2019/08/27 16:59:32","新北市淡水區中正路二段31號","121.419471666667","25.1816416666667","6501000","淡水區"
"251004","009-UM","2019/08/27 16:59:31","新北市淡水區中山路9號","121.444241666667","25.1697566666667","6501000","淡水區"
"251015","KEA-2871","2019/08/27 16:59:25","新北市淡水區忠愛街6號","121.460743333333","25.1715833333333","6501000","淡水區"
"251016","179-VK","2019/08/27 16:59:37","新北市淡水區瓦坑7號","121.477785","25.1814716666667","6501000","淡水區"
"251013","180-VK","2019/08/27 16:59:39","新北市淡水區泉洲厝32號","121.489243333333","25.192605","6501000","淡水區"
"251008","181-VK","2019/08/27 16:59:44","新北市淡水區樹梅坑9號","121.472808333333","25.1427","6501000","淡水區"
"251007","182-VK","2019/08/27 16:59:32","新北市淡水區文化路65號","121.438008333333","25.172895","6501000","淡水區"
"251012","441-VK","2019/08/27 16:59:40","新北市淡水區中正路二段31號","121.419455","25.181595","6501000","淡水區"
"251005","443-VK","2019/08/27 16:59:37","新北市淡水區文化路61號","121.438356666667","25.1728783333333","6501000","淡水區"
"251006","561-UM","2019/08/27 16:59:42","新北市淡水區中正路一段112號","121.423683333333","25.1780533333333","6501000","淡水區"
"251014","577-R6","2019/08/27 16:59:46","新北市淡水區淡金路四段472巷22號","121.452851666667","25.2240533333333","6501000","淡水區"
"251011","650-BX","2019/08/27 16:59:32","新北市淡水區淡金路42-1號","121.456333333333","25.161215","6501000","淡水區"
"252002","178-VK","2019/08/27 16:59:29","新北市三芝區忠孝街122-1號","121.505938333333","25.2576033333333","6502100","三芝區"
"233002","762-BX","2019/08/27 16:59:31","","121.5488","24.8605883333333","6502900","烏來區"
"252001","KED-0821","2019/08/27 16:59:44","新北市三芝區淡金路二段89號","121.503875","25.2607866666667","6502100","三芝區"
"242032","AAC-296","2019/08/27 16:59:33","新北市新莊區新泰路357巷3弄57號","121.442176666667","25.0394633333333","6500500","新莊區"
"242061","986-R7","2019/08/27 16:59:41","新北市新莊區新泰路255巷83號","121.4425","25.03925","6500500","新莊區"
"242002","751-BX","2019/08/27 16:59:44","新北市新莊區新泰路255巷83號","121.442223333333","25.0389316666667","6500500","新莊區"
"242029","615-BX","2019/08/27 16:59:34","新北市新莊區三和路18-25號","121.441735","25.0393383333333","6500500","新莊區"
"242027","613-BX","2019/08/27 16:59:43","新北市新莊區新泰路255巷83號","121.44212","25.039075","6500500","新莊區"
"242058","612-BX","2019/08/27 16:59:33","新北市新莊區新泰路357巷3弄57號","121.442143333333","25.0391216666667","6500500","新莊區"
"242011","413-TV","2019/08/27 16:59:46","新北市新莊區新泰路357巷3弄57號","121.441753333333","25.0394716666667","6500500","新莊區"
"242025","362-BY","2019/08/27 16:59:29","新北市新莊區新泰路255巷83號","121.441976666667","25.0389166666667","6500500","新莊區"
"242021","175-VK","2019/08/27 16:59:42","新北市新莊區三和路12-21號","121.441978333333","25.0385583333333","6500500","新莊區"
"242019","346-TH","2019/08/27 16:59:42","新北市新莊區三和路12-21號","121.44229","25.03825","6500500","新莊區"
"242017","351-TH","2019/08/27 16:59:41","新北市新莊區新泰路357巷3弄57號","121.441701666667","25.0395616666667","6500500","新莊區"
"238017","283-BY","2019/08/27 16:59:31","新北市樹林區中山路三段125-11號","121.398603333333","24.9737216666667","6500700","樹林區"
"239007","AAC-297","2019/08/27 16:59:29","新北市鶯歌區二甲路13-16號","121.345166666667","24.9352783333333","6500800","鶯歌區"
"239006","891-R6","2019/08/27 16:59:10","新北市鶯歌區二甲路13-16號","121.345181666667","24.9352416666667","6500800","鶯歌區"
"239008","527-UM","2019/08/27 16:59:39","新北市鶯歌區二甲路13-16號","121.345088333333","24.9352133333333","6500800","鶯歌區"
"239001","417-VK","2019/08/27 16:59:36","新北市鶯歌區環河路177-3號","121.346003333333","24.9353083333333","6500800","鶯歌區"
"233001","KEA-2870","2019/08/27 16:59:36","","121.547241666667","24.866525","6502900","烏來區"
"242009","280-VK","2019/08/27 16:59:28","新北市新莊區三和路12-21號","121.442001666667","25.0381566666667","6500500","新莊區"
