"lineid","car","time","location","longitude","latitude","cityid","cityname"
"249005","172-UM","2019/08/27 17:19:27","新北市五股區中直路70號","121.416615","25.1241066666667","6502300","八里區"
"249001","173-UM","2019/08/27 17:19:35","新北市八里區中華路二段165巷3號","121.407653333333","25.15089","6502300","八里區"
"249004","303-UY","2019/08/27 17:19:36","新北市八里區民有街24號","121.41591","25.1567583333333","6502300","八里區"
"249002","305-UY","2019/08/27 17:19:41","新北市八里區龍米路二段117巷30弄2號","121.444633333333","25.1426666666667","6502300","八里區"
"249003","593-UM","2019/08/27 17:19:33","新北市八里區中山路二段439號","121.396693333333","25.14581","6502300","八里區"
"244007","080-UY","2019/08/27 17:19:30","新北市林口區湖子10-2號","121.387976666667","25.0902","6501700","林口區"
"244019","402-UM","2019/08/27 17:19:28","新北市林口區公園路227-3號","121.374686666667","25.075025","6501700","林口區"
"244013","KEA-2802","2019/08/27 17:19:37","新北市林口區粉寮69號","121.404765","25.0908033333333","6501700","林口區"
"244023","483-VK","2019/08/27 17:19:34","新北市林口區隆林街63號","121.387101666667","25.0754183333333","6501700","林口區"
"244009","656-BX","2019/08/27 17:19:37","新北市林口區中北一街17巷17號","121.385116666667","25.0873166666667","6501700","林口區"
"244011","701-TV","2019/08/27 17:19:37","新北市林口區仁愛路一段285巷116號","121.395486666667","25.075865","6501700","林口區"
"244025","837-TS","2019/08/27 17:19:27","新北市林口區仁愛二路63號","121.368478333333","25.075395","6501700","林口區"
"244021","838-TS","2019/08/27 17:19:44","新北市林口區粉寮路一段183號","121.400011666667","25.0823316666667","6501700","林口區"
"243012","AAD-798","2019/08/27 17:19:38","新北市泰山區黎明路25號","121.42188","25.0606583333333","6501600","泰山區"
"231046","719-UM","2019/08/27 17:13:54","新北市新店區直潭路85號","121.531616666667","24.9419416666667","6500600","新店區"
"241011","013-R5","2019/08/27 17:19:45","新北市三重區河邊北街110巷19號","121.503395","25.0707933333333","6500200","三重區"
"241028","022-UY","2019/08/27 17:19:40","新北市三重區仁化街107號","121.494401666667","25.0580633333333","6500200","三重區"
"241008","059-VK","2019/08/27 17:19:36","新北市三重區永福街72巷25號","121.479921666667","25.0764533333333","6500200","三重區"
"241015","062-VK","2019/08/27 17:19:45","新北市三重區福德北路82-1號","121.501646666667","25.0662666666667","6500200","三重區"
"241024","065-VK","2019/08/27 17:19:35","新北市三重區中正北路193巷21弄38號","121.478353333333","25.070945","6500200","三重區"
"241002","090-VK","2019/08/27 17:19:32","新北市三重區五華街141巷58號","121.493565","25.0868266666667","6500200","三重區"
"241003","091-VK","2019/08/27 17:19:32","新北市三重區富福街38號","121.490878333333","25.0838516666667","6500200","三重區"
"241006","262-UM","2019/08/27 17:19:43","新北市三重區國道路一段43號","121.48285","25.072755","6500200","三重區"
"241016","266-UM","2019/08/27 17:19:32","新北市三重區大同北路97-3號","121.49432","25.0636266666667","6500200","三重區"
"241018","268-UM","2019/08/27 17:19:39","新北市三重區安慶街226-2號","121.492555","25.0681466666667","6500200","三重區"
"241032","269-UM","2019/08/27 17:19:30","新北市三重區新北大道一段133巷5號","121.482773333333","25.0608916666667","6500200","三重區"
"241013","270-UM","2019/08/27 17:19:36","新北市三重區仁愛街84號","121.495443333333","25.0735716666667","6500200","三重區"
"241025","271-UM","2019/08/27 17:19:28","新北市三重區中正北路378號","121.476761666667","25.0697133333333","6500200","三重區"
"241007","398-BY","2019/08/27 17:19:28","新北市三重區慈愛街10號","121.484653333333","25.0785283333333","6500200","三重區"
"241030","KED-0822","2019/08/27 17:19:45","新北市三重區集美街117號","121.490031666667","25.0529066666667","6500200","三重區"
"241020","478-VK","2019/08/27 17:19:42","新北市三重區忠孝路一段113號","121.489013333333","25.0720816666667","6500200","三重區"
"241026","480-VK","2019/08/27 17:19:32","新北市三重區福裕街36-4號","121.49886","25.0615316666667","6500200","三重區"
"241014","543-UM","2019/08/27 17:19:41","新北市三重區三和路二段83號","121.500071666667","25.0684483333333","6500200","三重區"
"241023","545-UM","2019/08/27 17:19:31","新北市三重區忠孝路三段50巷56號","121.482426666667","25.0651083333333","6500200","三重區"
"241001","547-UM","2019/08/27 17:19:41","新北市三重區仁愛街475號","121.489146666667","25.082335","6500200","三重區"
"241019","KEA-2593","2019/08/27 17:19:28","新北市三重區自強路二段50巷18號","121.488458333333","25.0694783333333","6500200","三重區"
"241005","AAD-863","2019/08/27 17:19:43","新北市三重區碧華街79號","121.48517","25.0814983333333","6500200","三重區"
"241017","743-BX","2019/08/27 17:19:46","新北市三重區中正北路25巷29號","121.493978333333","25.06293","6500200","三重區"
"241022","KED-0820","2019/08/27 17:19:38","新北市三重區重陽路二段34巷19號","121.486411666667","25.0634283333333","6500200","三重區"
"241012","941-UM","2019/08/27 17:19:43","新北市三重區仁福街72號","121.498251666667","25.0748816666667","6500200","三重區"
"241033","AAC-255","2019/08/27 17:19:42","新北市三重區中興北街195號","121.469086666667","25.0572633333333","6500200","三重區"
"247014","KEA-2869","2019/08/27 17:19:44","新北市蘆洲區光華路11號","121.469828333333","25.08339","6501400","蘆洲區"
"247008","KED-0682","2019/08/27 17:19:28","新北市蘆洲區永安北路一段72巷8號","121.476888333333","25.0771666666667","6501400","蘆洲區"
"247004","893-R6","2019/08/27 17:19:33","新北市蘆洲區中原路60號","121.458888333333","25.0822583333333","6501400","蘆洲區"
"247018","546-UM","2019/08/27 17:19:41","新北市蘆洲區民權路76號","121.474795","25.0874466666667","6501400","蘆洲區"
"247002","336-TH","2019/08/27 17:19:35","新北市蘆洲區永樂街38巷33弄46號","121.456861666667","25.0897866666667","6501400","蘆洲區"
"247022","057-VK","2019/08/27 17:19:25","新北市蘆洲區水湳街97號","121.470135","25.0903233333333","6501400","蘆洲區"
"247012","056-VK","2019/08/27 17:19:28","新北市蘆洲區信義路319巷10弄3號","121.477526666667","25.0864033333333","6501400","蘆洲區"
"247016","053-VK","2019/08/27 17:19:28","新北市蘆洲區正和街96巷47號","121.467301666667","25.0816633333333","6501400","蘆洲區"
"247020","007-UY","2019/08/27 17:19:34","新北市蘆洲區仁愛街35巷14弄2號","121.471428333333","25.0927633333333","6501400","蘆洲區"
"247006","002-UY","2019/08/27 17:19:31","新北市蘆洲區長安街73巷3號","121.462405","25.0797483333333","6501400","蘆洲區"
"247024","001-UY","2019/08/27 17:19:39","新北市蘆洲區光明路1號","121.460113333333","25.0865483333333","6501400","蘆洲區"
"228001","212-TW","2019/08/27 17:19:41","新北市貢寮區仁理村仁和路1號","121.924165","25.0478466666667","6502600","貢寮區"
"228002","663-BX","2019/08/27 17:19:28","新北市貢寮區雙玉里下雙溪街26號","121.924458333333","25.0108833333333","6502600","貢寮區"
"228003","828-UM","2019/08/27 17:19:43","新北市貢寮區福隆里興隆街24-1號","121.94447","25.01669","6502600","貢寮區"
"224010","AGQ-8101","2019/08/27 17:19:40","新北市瑞芳區逢甲路17號","121.809443333333","25.1083783333333","6501200","瑞芳區"
"224006","676-BX","2019/08/27 17:19:46","新北市瑞芳區傑魚坑路309號","121.786301666667","25.1045416666667","6501200","瑞芳區"
"224009","275-VK","2019/08/27 17:19:42","新北市瑞芳區汽車路101-2號","121.84116","25.1087066666667","6501200","瑞芳區"
"224008","273-VK","2019/08/27 17:19:36","新北市瑞芳區侯硐路152-1號","121.826456666667","25.0841133333333","6501200","瑞芳區"
"224005","271-BY","2019/08/27 17:19:43","新北市瑞芳區南雅路3號","121.889185","25.1199783333333","6501200","瑞芳區"
"227002","642-TC","2019/08/27 17:19:40","新北市雙溪區雙溪里太平路2號","121.863771666667","25.0349933333333","6502500","雙溪區"
"251009","008-UM","2019/08/27 17:19:32","新北市淡水區三民街20號","121.439025","25.17181","6501000","淡水區"
"251004","009-UM","2019/08/27 17:11:14","新北市淡水區中正東路二段88巷15號","121.459041666667","25.1505033333333","6501000","淡水區"
"251010","012-UM","2019/08/27 17:19:31","新北市淡水區中正路一段22巷100號","121.426895","25.1860266666667","6501000","淡水區"
"251015","KEA-2871","2019/08/27 17:19:46","新北市淡水區樹林口20-6號","121.478823333333","25.16886","6501000","淡水區"
"251016","179-VK","2019/08/27 17:19:37","新北市淡水區鄒厝崙7號","121.47039","25.1883216666667","6501000","淡水區"
"251013","180-VK","2019/08/27 17:19:43","新北市淡水區破瓦厝子3-3號","121.472353333333","25.197205","6501000","淡水區"
"251008","181-VK","2019/08/27 17:19:44","新北市淡水區大同路263號","121.466808333333","25.1420933333333","6501000","淡水區"
"251007","182-VK","2019/08/27 17:19:32","新北市淡水區民生路60號","121.462138333333","25.13798","6501000","淡水區"
"251012","441-VK","2019/08/27 17:19:42","新北市淡水區中山北路一段156號","121.444143333333","25.177995","6501000","淡水區"
"251005","443-VK","2019/08/27 17:19:37","新北市淡水區鄧公路19號","121.451425","25.1700233333333","6501000","淡水區"
"251006","561-UM","2019/08/27 17:19:42","新北市淡水區中山路190號","121.44158","25.17459","6501000","淡水區"
"251014","577-R6","2019/08/27 17:19:06","新北市淡水區番子田132號","121.464293333333","25.2271066666667","6501000","淡水區"
"251011","650-BX","2019/08/27 17:19:32","新北市淡水區坪頂路70巷1號","121.459896666667","25.163075","6501000","淡水區"
"251002","672-BX","2019/08/27 17:19:45","新北市淡水區中正路二段31號","121.41939","25.18167","6501000","淡水區"
"251003","673-BX","2019/08/27 17:19:33","新北市淡水區中正路二段31號","121.419245","25.18228","6501000","淡水區"
"252002","178-VK","2019/08/27 17:19:29","新北市三芝區忠孝街1-15號","121.505593333333","25.2539366666667","6502100","三芝區"
"233002","762-BX","2019/08/27 17:19:31","","121.548151666667","24.8634966666667","6502900","烏來區"
"247010","KED-0683","2019/08/27 17:19:39","新北市蘆洲區中山一路120巷7弄26號","121.477246666667","25.0820733333333","6501400","蘆洲區"
"252001","KED-0821","2019/08/27 17:19:44","新北市三芝區長安街119號","121.498046666667","25.2596783333333","6502100","三芝區"
"242032","AAC-296","2019/08/27 17:19:33","新北市新莊區新泰路417-2號","121.443191666667","25.044725","6500500","新莊區"
"242061","986-R7","2019/08/27 17:19:41","新北市新莊區三和路10號","121.441973333333","25.0359116666667","6500500","新莊區"
"242002","751-BX","2019/08/27 17:19:44","新北市新莊區瓊林路50-12號","121.445986666667","25.0288466666667","6500500","新莊區"
"242029","615-BX","2019/08/27 17:19:34","新北市新莊區幸福路608號","121.45186","25.0492166666667","6500500","新莊區"
"242027","613-BX","2019/08/27 17:19:43","新北市新莊區復興路二段18號","121.45411","25.0439633333333","6500500","新莊區"
"242058","612-BX","2019/08/27 17:19:33","新北市新莊區新泰路357巷3弄57號","121.442245","25.0392583333333","6500500","新莊區"
"242046","566-BX","2019/08/27 17:19:42","新北市新莊區新泰路357巷3弄43號","121.441923333333","25.0402483333333","6500500","新莊區"
"242051","497-BY","2019/08/27 17:19:42","新北市新莊區瓊林南路12-5號","121.436213333333","25.018645","6500500","新莊區"
"242039","442-UM","2019/08/27 17:19:28","新北市新莊區民安路281-1號","121.428765","25.0221516666667","6500500","新莊區"
"242005","440-UM","2019/08/27 17:19:34","新北市新莊區中平路82巷16號","121.445493333333","25.04474","6500500","新莊區"
"242042","415-TV","2019/08/27 17:19:35","新北市新莊區新樹路52-25號","121.437156666667","25.0270133333333","6500500","新莊區"
"242011","413-TV","2019/08/27 17:19:45","新北市新莊區中港路352號","121.451971666667","25.0468316666667","6500500","新莊區"
"242048","400-BY","2019/08/27 17:19:34","新北市新莊區中正路481號","121.441416666667","25.0337516666667","6500500","新莊區"
"242025","362-BY","2019/08/27 17:19:29","新北市新莊區中平路82巷12號","121.445321666667","25.04475","6500500","新莊區"
"242023","353-BY","2019/08/27 17:19:28","新北市新莊區中平路82巷1號","121.444955","25.0449483333333","6500500","新莊區"
"242013","132-UY","2019/08/27 17:19:31","新北市新莊區新泰路502巷16號","121.44291","25.0464316666667","6500500","新莊區"
"242037","135-UY","2019/08/27 17:19:33","新北市新莊區新樹路207號","121.43595","25.0241033333333","6500500","新莊區"
"242054","172-VK","2019/08/27 17:19:42","新北市新莊區中正路473-1號","121.441975","25.0331766666667","6500500","新莊區"
"242015","173-VK","2019/08/27 17:19:46","新北市新莊區三和路12-21號","121.442043333333","25.038685","6500500","新莊區"
"242021","175-VK","2019/08/27 17:19:42","新北市新莊區中港路303號","121.45284","25.0445766666667","6500500","新莊區"
"242056","176-VK","2019/08/27 17:19:33","新北市新莊區新泰路357巷3弄5號","121.442068333333","25.04109","6500500","新莊區"
"242019","346-TH","2019/08/27 17:19:42","新北市新莊區新泰路206號","121.446865","25.0385966666667","6500500","新莊區"
"242044","347-TH","2019/08/27 17:19:26","新北市新莊區中正路560號","121.428996666667","25.031","6500500","新莊區"
"242034","348-TH","2019/08/27 17:19:35","新北市新莊區中正路473-1號","121.441943333333","25.03307","6500500","新莊區"
"242007","349-TH","2019/08/27 17:19:42","新北市新莊區新泰路502巷32號","121.443408333333","25.0464316666667","6500500","新莊區"
"242017","351-TH","2019/08/27 17:19:41","新北市新莊區新泰路502巷55號","121.444398333333","25.0464583333333","6500500","新莊區"
"238023","601-UM","2019/08/27 17:19:40","新北市樹林區中正路212號","121.421081666667","25.0053233333333","6500700","樹林區"
"238019","599-UM","2019/08/27 17:19:39","新北市樹林區太平路277號","121.418553333333","24.972555","6500700","樹林區"
"238024","5061-A6","2019/08/27 17:19:28","新北市樹林區保安街一段48巷24號","121.426485","24.99512","6500700","樹林區"
"238018","KEA-2217","2019/08/27 17:19:36","新北市樹林區樹中街59號","121.421176666667","24.9853783333333","6500700","樹林區"
"238022","KEA-2213","2019/08/27 17:19:34","新北市樹林區信義街66號","121.424663333333","24.9827316666667","6500700","樹林區"
"238021","KEA-2539","2019/08/27 17:19:45","新北市樹林區西圳街一段61-1號","121.400613333333","24.9625433333333","6500700","樹林區"
"238017","283-BY","2019/08/27 17:19:31","新北市樹林區光武街30巷6號","121.416971666667","25.0053583333333","6500700","樹林區"
"238020","268-VK","2019/08/27 17:19:30","新北市樹林區千歲街101號","121.428518333333","25.00086","6500700","樹林區"
"238026","172-UY","2019/08/27 17:19:47","新北市樹林區東順街87號","121.409276666667","24.9762416666667","6500700","樹林區"
"238016","169-UY","2019/08/27 17:19:39","新北市樹林區八德街1號","121.41755","24.98499","6500700","樹林區"
"239007","AAC-297","2019/08/27 17:19:30","新北市鶯歌區光復街46號","121.351306666667","24.9558366666667","6500800","鶯歌區"
"239006","891-R6","2019/08/27 17:19:30","新北市鶯歌區德昌二街127號","121.332928333333","24.9557966666667","6500800","鶯歌區"
"239008","527-UM","2019/08/27 17:19:39","新北市鶯歌區西湖街45巷1號","121.340205","24.9586133333333","6500800","鶯歌區"
"239005","526-UM","2019/08/27 17:19:45","新北市鶯歌區福德四街4號","121.329796666667","24.968025","6500800","鶯歌區"
"239001","417-VK","2019/08/27 17:19:36","新北市鶯歌區尖山路242號","121.34278","24.9465983333333","6500800","鶯歌區"
"239003","360-BY","2019/08/27 17:19:43","新北市鶯歌區德昌二街47號","121.333311666667","24.9585783333333","6500800","鶯歌區"
"239002","359-BY","2019/08/27 17:19:36","新北市鶯歌區建國路278號","121.346626666667","24.95335","6500800","鶯歌區"
"239004","193-VK","2019/08/27 17:19:40","新北市鶯歌區文化路224號","121.352771666667","24.9487833333333","6500800","鶯歌區"
"221033","647-BX","2019/08/27 17:07:02","新北市汐止區康寧街901號","121.651643333333","25.0749416666667","6501100","汐止區"
"233001","KEA-2870","2019/08/27 17:19:39","","121.551365","24.8575483333333","6502900","烏來區"
"242009","280-VK","2019/08/27 17:19:28","新北市新莊區中原路656號","121.44356","25.0544316666667","6500500","新莊區"
