"lineid","car","time","location","longitude","latitude","cityid","cityname"
"231042","268-BY","2019/08/27 21:29:36","新北市新店區薏仁坑路自強巷6號","121.496441666667","24.9583516666667","6500600","新店區"
"231063","616-UM","2019/08/27 21:29:33","新北市新店區玫瑰路4-2號","121.494086666667","24.9511733333333","6500600","新店區"
"241029","060-VK","2019/08/27 21:29:27","新北市五股區成泰路三段544-1號","121.454585","25.10351","6500200","三重區"
"241024","065-VK","2019/08/27 21:29:34","新北市三重區中正北路145巷14號","121.484146666667","25.0677916666667","6500200","三重區"
"241003","091-VK","2019/08/27 21:29:39","新北市三重區仁義街238號","121.494356666667","25.0855116666667","6500200","三重區"
"241016","266-UM","2019/08/27 21:29:32","新北市三重區正義北路113號","121.4969","25.0657766666667","6500200","三重區"
"241007","398-BY","2019/08/27 21:29:27","新北市三重區信義西街140號","121.495418333333","25.0641066666667","6500200","三重區"
"241005","AAD-863","2019/08/27 21:29:42","新北市三重區碧華街50號","121.483495","25.0812833333333","6500200","三重區"
"241017","743-BX","2019/08/27 21:29:39","新北市三重區新北大道一段7號","121.48956","25.0613016666667","6500200","三重區"
"251009","008-UM","2019/08/27 21:29:32","新北市淡水區民族路31巷90號","121.463443333333","25.136915","6501000","淡水區"
"251004","009-UM","2019/08/27 21:29:42","新北市淡水區民族路2號","121.460308333333","25.13691","6501000","淡水區"
"251001","011-UM","2019/08/27 21:29:27","新北市淡水區濱海路一段392號","121.437888333333","25.1899383333333","6501000","淡水區"
"251010","012-UM","2019/08/27 21:29:31","新北市淡水區沙崙路25巷21號","121.420531666667","25.1825183333333","6501000","淡水區"
"251016","179-VK","2019/08/27 21:29:37","新北市淡水區牛埔子7號","121.448533333333","25.2183566666667","6501000","淡水區"
"251013","180-VK","2019/08/27 21:29:39","新北市淡水區埤島58-2號","121.458955","25.1950733333333","6501000","淡水區"
"251008","181-VK","2019/08/27 21:29:43","新北市淡水區水源街二段124號","121.453096666667","25.1747066666667","6501000","淡水區"
"251012","441-VK","2019/08/27 21:29:40","新北市淡水區石頭埔6號","121.453071666667","25.2340866666667","6501000","淡水區"
"251005","443-VK","2019/08/27 21:29:41","新北市淡水區水源街一段48號","121.443946666667","25.172205","6501000","淡水區"
"251006","561-UM","2019/08/27 21:29:33","新北市淡水區公明街81號","121.443966666667","25.1683666666667","6501000","淡水區"
"251014","577-R6","2019/08/27 21:29:46","新北市淡水區六塊厝2-1號","121.45018","25.2404916666667","6501000","淡水區"
"251011","650-BX","2019/08/27 21:29:34","新北市淡水區新民街164號","121.437083333333","25.1783433333333","6501000","淡水區"
"251002","672-BX","2019/08/27 21:29:25","新北市淡水區學府路172巷21號","121.448353333333","25.1748633333333","6501000","淡水區"
"251003","673-BX","2019/08/27 21:29:44","新北市淡水區新春街82號","121.438591666667","25.1821133333333","6501000","淡水區"
