"lineid","car","time","location","longitude","latitude","cityid","cityname"
"251009","008-UM","2019/08/27 21:59:32","新北市淡水區中正東路二段143巷2弄1號","121.460728333333","25.1472983333333","6501000","淡水區"
"251004","009-UM","2019/08/27 21:59:42","新北市淡水區自強路201巷61號","121.461713333333","25.1274316666667","6501000","淡水區"
"251010","012-UM","2019/08/27 21:59:31","新北市淡水區中正路二段211號","121.426198333333","25.1891283333333","6501000","淡水區"
"251008","181-VK","2019/08/27 21:59:43","新北市淡水區學府路104號","121.449855","25.1717933333333","6501000","淡水區"
"251007","182-VK","2019/08/27 21:59:32","新北市淡水區北新路184巷13號","121.449931666667","25.1782316666667","6501000","淡水區"
"251005","443-VK","2019/08/27 21:59:36","新北市淡水區鄧公路30巷2弄16號","121.452905","25.1691616666667","6501000","淡水區"
"251006","561-UM","2019/08/27 21:46:44","新北市淡水區中正路11巷3號","121.437865","25.170745","6501000","淡水區"
"251011","650-BX","2019/08/27 21:59:34","新北市淡水區水碓街3號","121.442936666667","25.1769166666667","6501000","淡水區"
"251003","673-BX","2019/08/27 21:59:33","新北市淡水區新春街83號","121.438878333333","25.1824116666667","6501000","淡水區"
