"lineid","car","time","location","longitude","latitude","cityid","cityname"
"234044","148-BY","2019/10/05 13:09:24","新北市永和區永元路18巷25號","121.523666666667","25.0001716666667","6500400","永和區"
"234078","298-R6","2019/10/05 13:09:18","新北市永和區永貞路39巷13號","121.522363333333","25.0063066666667","6500400","永和區"
"234036","336-UY","2019/10/05 13:09:16","新北市永和區民樂街69巷2號","121.527381666667","24.99762","6500400","永和區"
"234062","337-UY","2019/10/05 13:09:21","新北市永和區秀朗路二段48號","121.521621666667","25.0021866666667","6500400","永和區"
"234084","338-UY","2019/10/05 13:09:21","新北市永和區永貞路47-1號","121.519605","25.0045566666667","6500400","永和區"
"234068","552-UM","2019/10/05 13:09:30","新北市永和區豫溪街137巷1弄23號","121.518481666667","25.01037","6500400","永和區"
"234015","745-BX","2019/10/05 13:09:25","新北市永和區文化路90巷15弄1號","121.513771666667","25.0158666666667","6500400","永和區"
"234028","746-BX","2019/10/05 13:09:24","新北市永和區民生路21號","121.522845","24.9988633333333","6500400","永和區"
"234052","KEA-2590","2019/10/05 13:09:26","新北市永和區竹林路72巷8號","121.518753333333","25.01284","6500400","永和區"
"234005","KED-0605","2019/10/05 13:09:20","新北市永和區中山路一段207號","121.508835","25.0085816666667","6500400","永和區"
"234012","KEA-2591","2019/10/05 13:09:25","新北市永和區保福路二段48號","121.510991666667","25.0121583333333","6500400","永和區"
"234060","AAD-866","2019/10/05 13:09:24","新北市永和區安樂路340號","121.514421666667","25.0061333333333","6500400","永和區"
"234040","862-TW","2019/10/05 13:09:24","新北市永和區永貞路330號","121.51131","25.0055316666667","6500400","永和區"
"234048","863-TW","2019/10/05 13:09:12","新北市永和區文化路135巷32弄1號","121.510941666667","25.0141083333333","6500400","永和區"
"234025","9371-KE","2019/10/05 13:09:09","新北市永和區秀朗路一段10巷19號","121.513458333333","25.00612","6500400","永和區"
"234010","9373-KE","2019/10/05 13:09:14","新北市永和區仁愛路85號","121.513196666667","25.0130166666667","6500400","永和區"
"248017","KED-0813","2019/10/05 13:09:20","新北市五股區新五路二段258號","121.44089","25.0822133333333","6501500","五股區"
"234022","9380-KE","2019/10/05 13:09:16","新北市永和區中興街10巷29號","121.516451666667","25.0110116666667","6500400","永和區"
"234076","969-R7","2019/10/05 13:09:14","新北市永和區民光街5號","121.515316666667","24.99632","6500400","永和區"
"234072","AAC-211","2019/10/05 13:09:24","新北市永和區竹林路187號","121.520575","25.0095433333333","6500400","永和區"
"234066","AAC-212","2019/10/05 13:09:25","新北市永和區保平路23號","121.51269","25.0073166666667","6500400","永和區"
"234001","AAC-295","2019/10/05 13:09:15","新北市永和區中山路一段9號","121.513928333333","25.010445","6500400","永和區"
"231030","002-UM","2019/10/05 13:09:14","新北市新店區安華路28-1號","121.51971","24.9610383333333","6500600","新店區"
"231027","0293-UT","2019/10/05 13:09:28","新北市新店區安華路28-1號","121.51944","24.960725","6500600","新店區"
"231005","046-UY","2019/10/05 13:09:08","新北市新店區安一路一段1-1號","121.519626666667","24.9611483333333","6500600","新店區"
"231029","106-UY","2019/10/05 13:09:10","新北市新店區安華路28-1號","121.519786666667","24.96082","6500600","新店區"
"231036","110-UY","2019/10/05 13:09:17","新北市新店區安一路一段1-1號","121.519215","24.961125","6500600","新店區"
"231033","256-BX","2019/10/05 13:09:10","新北市新店區安一路一段1-1號","121.519801666667","24.9611633333333","6500600","新店區"
"231023","260-TV","2019/10/05 13:09:11","新北市新店區安華路28-1號","121.519045","24.96092","6500600","新店區"
"231003","268-BY","2019/10/05 13:09:20","新北市新店區安一路一段1-1號","121.519631666667","24.9614016666667","6500600","新店區"
"231035","278-BY","2019/10/05 13:09:22","新北市新店區安一路一段1-1號","121.51981","24.9611683333333","6500600","新店區"
"231017","AAD-862","2019/10/05 13:09:14","新北市新店區安一路一段1-1號","121.519581666667","24.961265","6500600","新店區"
"231006","355-BY","2019/10/05 13:09:11","新北市新店區安一路一段1-1號","121.519673333333","24.9615566666667","6500600","新店區"
"231025","4715-K9","2019/10/05 13:09:22","新北市新店區安華路28-1號","121.51968","24.9608983333333","6500600","新店區"
"231020","515-UM","2019/10/05 13:09:27","新北市新店區安一路一段1-1號","121.51923","24.9610916666667","6500600","新店區"
"231034","641-BX","2019/10/05 13:09:22","新北市新店區安華路28-1號","121.519505","24.9607116666667","6500600","新店區"
"231010","719-UM","2019/10/05 13:09:25","新北市新店區安一路一段1-1號","121.519368333333","24.96116","6500600","新店區"
"231026","720-UM","2019/10/05 13:09:28","新北市新店區安一路一段1-1號","121.519195","24.9612716666667","6500600","新店區"
"231028","897-TW","2019/10/05 13:09:08","新北市新店區安華路28-1號","121.519445","24.9608683333333","6500600","新店區"
"231037","AKT-0513","2019/10/05 13:09:23","新北市新店區安華路28-1號","121.51948","24.9606566666667","6500600","新店區"
"235030","003-UY","2019/10/05 13:09:19","新北市中和區中山路二段123號","121.502646666667","25.0035583333333","6500300","中和區"
"235027","006-UY","2019/10/05 13:09:27","新北市中和區員山路36巷16-3號","121.484875","24.9913066666667","6500300","中和區"
"235003","097-UM","2019/10/05 13:09:23","新北市中和區錦和路350-1號","121.490491666667","24.9936","6500300","中和區"
"235029","098-UM","2019/10/05 13:09:21","新北市中和區福祥路135號","121.498198333333","25.00749","6500300","中和區"
"235004","150-BY","2019/10/05 13:09:26","新北市中和區中正路275號","121.495556666667","24.9937883333333","6500300","中和區"
"235002","185-VK","2019/10/05 13:09:25","新北市中和區景平路114號","121.519626666667","24.9918433333333","6500300","中和區"
"235031","255-BX","2019/10/05 13:09:19","新北市中和區民樂路81號","121.48463","25.0012583333333","6500300","中和區"
"235036","301-VK","2019/10/05 13:09:23","新北市中和區連城路224號","121.491031666667","24.9964133333333","6500300","中和區"
"235007","352-BY","2019/10/05 13:09:17","新北市中和區景平路381號","121.503945","24.9933883333333","6500300","中和區"
"235006","KEA-2878","2019/10/05 13:09:09","新北市中和區中正路19號","121.502958333333","24.9931983333333","6500300","中和區"
"235014","4979-A6","2019/10/05 13:09:13","新北市中和區中正路507號","121.488428333333","24.99357","6500300","中和區"
"235033","4980-A6","2019/10/05 13:09:25","新北市中和區中和路281-1號","121.506046666667","24.9996433333333","6500300","中和區"
"235022","551-UM","2019/10/05 13:09:09","新北市中和區圓通路367巷65號","121.493201666667","24.9825133333333","6500300","中和區"
"235034","558-UM","2019/10/05 13:09:26","新北市中和區圓通路176-1號","121.497143333333","24.9946133333333","6500300","中和區"
"235009","565-BX","2019/10/05 13:08:39","新北市中和區中正路192號","121.497441666667","24.99381","6500300","中和區"
"235024","KED-0823","2019/10/05 13:09:13","新北市中和區員山路107號","121.480813333333","24.9945516666667","6500300","中和區"
"235035","783-BX","2019/10/05 13:09:26","新北市中和區板南路520巷2號","121.483808333333","25.008855","6500300","中和區"
"235021","801-TS","2019/10/05 13:09:10","新北市中和區員山路203號","121.481225","24.99748","6500300","中和區"
"235005","802-TS","2019/10/05 13:09:09","新北市中和區中正路395號","121.48935","24.9940583333333","6500300","中和區"
"235016","805-TS","2019/10/05 13:09:11","新北市中和區南山路307號","121.504778333333","24.9915816666667","6500300","中和區"
"235017","900-TW","2019/10/05 13:09:28","新北市中和區員山路36巷16-2號","121.48522","24.9916866666667","6500300","中和區"
"235028","911-UM","2019/10/05 13:09:23","新北市中和區中正路218-2號","121.496375","24.9940583333333","6500300","中和區"
"235015","157-BY","2019/10/05 13:09:14","新北市中和區南山路170號","121.504908333333","24.99138","6500300","中和區"
"235001","AAC-213","2019/10/05 13:09:13","新北市中和區景德街89巷1號","121.516293333333","24.9913683333333","6500300","中和區"
"235023","AAC-215","2019/10/05 13:09:20","新北市中和區員山路36巷16-3號","121.484925","24.9912933333333","6500300","中和區"
"220017","AAD-861","2019/10/05 13:09:23","新北市板橋區華東街1-10號","121.448285","24.9951433333333","6500100","板橋區"
"228005","097-TW","2019/10/05 13:09:12","新北市貢寮區仁理村研海街45號","121.926533333333","25.0405733333333","6502600","貢寮區"
"228004","212-TW","2019/10/05 13:09:29","新北市貢寮區吉林里內寮街71號","121.89139","24.9728716666667","6502600","貢寮區"
"253003","6232-TK","2019/10/05 13:09:21","新北市石門區石崩山27-2號","121.564501666667","25.2799483333333","6502200","石門區"
"253004","6251-TK","2019/10/05 13:09:24","新北市石門區阿里荖5號","121.610376666667","25.278335","6502200","石門區"
"253002","637-UY","2019/10/05 13:09:12","新北市石門區老崩山33號","121.557658333333","25.2768366666667","6502200","石門區"
"253001","KEC-0718","2019/10/05 13:09:20","新北市石門區楓林1號","121.536683333333","25.2981633333333","6502200","石門區"
"207002","749-BX","2019/10/05 13:09:26","新北市萬里區崁腳里崁腳路166號","121.644995","25.15579","6502800","萬里區"
"207001","662-BX","2019/10/05 13:09:27","新北市萬里區萬里里瑪鋉路85-2號","121.688756666667","25.1769583333333","6502800","萬里區"
"252005","AAC-283","2019/10/05 13:09:15","新北市三芝區八賢里八連溪6號","121.510183333333","25.2442983333333","6502100","三芝區"
"237012","275-BY","2019/10/05 13:09:11","新北市三峽區中園街11號","121.368478333333","24.9272783333333","6500900","三峽區"
"220021","985-R7","2019/10/05 12:45:41","新北市板橋區華東街1-9號","121.448238333333","24.9949366666667","6500100","板橋區"
"235032","KEA-2873","2019/10/05 13:09:17","新北市中和區員山路36巷16-3號","121.485008333333","24.991325","6500300","中和區"
"235025","KEA-2875","2019/10/05 13:09:15","新北市中和區民德路198號","121.46834","24.998715","6500300","中和區"
"235026","KEA-2876","2019/10/05 13:09:12","新北市中和區景平路999巷2號","121.495386666667","25.0059916666667","6500300","中和區"
