"lineid","car","time","location","longitude","latitude","cityid","cityname"
"234044","148-BY","2019/10/05 13:39:23","新北市永和區永亨路143號","121.525338333333","25.0040516666667","6500400","永和區"
"234078","298-R6","2019/10/05 13:39:18","新北市永和區林森路44巷15號","121.52569","25.0058666666667","6500400","永和區"
"234036","336-UY","2019/10/05 13:39:28","新北市永和區民樂街31巷8弄1號","121.528118333333","25.0011316666667","6500400","永和區"
"234062","337-UY","2019/10/05 13:39:22","新北市永和區秀朗路一段192巷6弄18號","121.519265","25.002115","6500400","永和區"
"234084","338-UY","2019/10/05 13:39:28","新北市永和區永亨路127號","121.52459","25.004035","6500400","永和區"
"234068","552-UM","2019/10/05 13:39:09","新北市永和區永和路二段241-2號","121.51552","25.0147866666667","6500400","永和區"
"234015","745-BX","2019/10/05 13:39:29","新北市永和區忠孝街26巷27弄1號","121.515223333333","25.0169616666667","6500400","永和區"
"234028","746-BX","2019/10/05 13:39:24","新北市永和區民生路47巷15號","121.523581666667","24.997795","6500400","永和區"
"234052","KEA-2590","2019/10/05 13:39:26","新北市永和區竹林路39巷21號","121.518925","25.014805","6500400","永和區"
"234005","KED-0605","2019/10/05 13:39:20","新北市永和區中山路一段62號","121.512865","25.0108216666667","6500400","永和區"
"234012","KEA-2591","2019/10/05 13:39:28","新北市永和區仁愛路198號","121.509486666667","25.01246","6500400","永和區"
"234060","AAD-866","2019/10/05 13:39:24","新北市永和區中正路430號","121.517523333333","25.0023933333333","6500400","永和區"
"234040","862-TW","2019/10/05 13:39:14","新北市永和區中和路385號","121.508603333333","25.0000533333333","6500400","永和區"
"234048","863-TW","2019/10/05 13:39:12","新北市永和區環河西路一段105號","121.511088333333","25.0175666666667","6500400","永和區"
"234025","9371-KE","2019/10/05 13:39:09","新北市永和區永平路173號","121.510528333333","25.0091116666667","6500400","永和區"
"234010","9373-KE","2019/10/05 13:39:14","新北市永和區保福路二段14-1號","121.510901666667","25.0113233333333","6500400","永和區"
"248017","KED-0813","2019/10/05 13:39:20","新北市五股區民義路二段52-25號","121.40983","25.1049316666667","6501500","五股區"
"234022","9380-KE","2019/10/05 13:39:16","新北市永和區中正路702巷20弄1號","121.51648","25.01059","6500400","永和區"
"234076","969-R7","2019/10/05 13:39:14","新北市永和區民權路3號","121.520211666667","24.9985533333333","6500400","永和區"
"234072","AAC-211","2019/10/05 13:39:29","新北市永和區竹林路213巷19號","121.522076666667","25.0089816666667","6500400","永和區"
"234066","AAC-212","2019/10/05 13:39:16","新北市永和區中山路一段191巷15弄2-1號","121.509813333333","25.0079366666667","6500400","永和區"
"234001","AAC-295","2019/10/05 13:39:15","新北市永和區永和路一段122號","121.5138","25.00767","6500400","永和區"
"244005","248-BX","2019/10/05 13:39:24","新北市林口區文化北路一段245-1號","121.357901666667","25.0710216666667","6501700","林口區"
"231030","002-UM","2019/10/05 13:39:14","新北市新店區安康路一段351-1號","121.519455","24.9639533333333","6500600","新店區"
"231027","0293-UT","2019/10/05 13:39:28","新北市新店區國校路68號","121.538626666667","24.95315","6500600","新店區"
"231005","046-UY","2019/10/05 13:39:28","新北市新店區中興路三段6號","121.547456666667","24.9775633333333","6500600","新店區"
"231029","106-UY","2019/10/05 13:39:10","新北市新店區安康路二段330號","121.504248333333","24.957895","6500600","新店區"
"231018","107-UY","2019/10/05 13:39:13","新北市新店區百忍街8號","121.534995","24.97556","6500600","新店區"
"231013","108-UY","2019/10/05 13:39:16","新北市新店區中正路454-5號","121.534475","24.979065","6500600","新店區"
"231036","110-UY","2019/10/05 13:38:57","新北市新店區安祥路190巷15號","121.477895","24.9561683333333","6500600","新店區"
"231033","256-BX","2019/10/05 13:39:14","新北市新店區莒光路85巷1號","121.523323333333","24.9563466666667","6500600","新店區"
"231023","260-TV","2019/10/05 13:39:11","新北市新店區新店路170號","121.537155","24.9557683333333","6500600","新店區"
"231003","268-BY","2019/10/05 13:39:20","新北市新店區中正路15號","121.545475","24.9694366666667","6500600","新店區"
"231035","278-BY","2019/10/05 13:39:22","新北市新店區安忠路102巷2號","121.510803333333","24.956485","6500600","新店區"
"231017","AAD-862","2019/10/05 13:39:14","新北市新店區竹林路2巷27弄2號","121.550123333333","24.9507233333333","6500600","新店區"
"231006","355-BY","2019/10/05 13:39:11","新北市新店區北宜路一段83號","121.538623333333","24.9559583333333","6500600","新店區"
"231038","3712-VJ","2019/10/05 13:39:17","新北市新店區安華路30巷1號","121.519575","24.9592466666667","6500600","新店區"
"231024","4716-K9","2019/10/05 13:39:13","新北市新店區華興街38巷4號","121.53726","24.969265","6500600","新店區"
"231025","4715-K9","2019/10/05 13:39:22","新北市新店區中央五街37號","121.528611666667","24.9750216666667","6500600","新店區"
"231020","515-UM","2019/10/05 13:39:27","新北市新店區新烏路一段130號","121.54442","24.933645","6500600","新店區"
"231002","619-UM","2019/10/05 13:39:17","新北市新店區中央三街127號","121.524065","24.9768283333333","6500600","新店區"
"231034","641-BX","2019/10/05 13:39:22","新北市新店區車子路134號","121.505266666667","24.94947","6500600","新店區"
"231012","KED-0819","2019/10/05 13:39:12","新北市新店區德正街25巷2號","121.544351666667","24.971595","6500600","新店區"
"231010","719-UM","2019/10/05 13:39:25","新北市新店區中正路295號","121.537048333333","24.9743883333333","6500600","新店區"
"231026","720-UM","2019/10/05 13:39:28","新北市新店區北宜路一段170號","121.540638333333","24.9530183333333","6500600","新店區"
"231028","897-TW","2019/10/05 13:39:28","新北市新店區安和路一段23號","121.51707","24.9650166666667","6500600","新店區"
"231001","898-TW","2019/10/05 13:39:26","新北市新店區中央路81號","121.532181666667","24.9767383333333","6500600","新店區"
"231004","899-TW","2019/10/05 13:39:20","新北市新店區北新路一段140號","121.542518333333","24.9704566666667","6500600","新店區"
"231037","AKT-0513","2019/10/05 13:39:26","新北市新店區安康路二段402號","121.496873333333","24.9553483333333","6500600","新店區"
"235030","003-UY","2019/10/05 13:39:19","新北市中和區廣福路2號","121.506196666667","25.00324","6500300","中和區"
"235027","006-UY","2019/10/05 13:39:27","新北市中和區連城路258-6號","121.486928333333","24.9964666666667","6500300","中和區"
"235020","096-UM","2019/10/05 13:39:07","新北市中和區員山路466巷19號","121.480693333333","25.0068066666667","6500300","中和區"
"235003","097-UM","2019/10/05 13:39:23","新北市永和區民享街22號","121.51542","24.994745","6500300","中和區"
"235029","098-UM","2019/10/05 13:39:21","新北市中和區莊敬路33巷21號","121.50051","25.007155","6500300","中和區"
"235004","150-BY","2019/10/05 13:39:26","新北市中和區安平路59號","121.509533333333","24.99514","6500300","中和區"
"235019","183-VK","2019/10/05 13:39:12","新北市中和區民生街85巷2弄2-2號","121.468951666667","25.0045716666667","6500300","中和區"
"235002","185-VK","2019/10/05 13:39:25","新北市中和區立人街14巷65號","121.518625","24.9956233333333","6500300","中和區"
"235031","255-BX","2019/10/05 13:39:19","新北市中和區新生街266號","121.483426666667","24.9973233333333","6500300","中和區"
"235008","293-VK","2019/10/05 13:39:22","新北市中和區復興路274巷12號","121.502736666667","24.9908333333333","6500300","中和區"
"235036","301-VK","2019/10/05 13:39:23","新北市中和區中山路二段142號","121.502018333333","25.003015","6500300","中和區"
"235007","352-BY","2019/10/05 13:39:17","新北市中和區景平路67號","121.51997","24.9912016666667","6500300","中和區"
"235006","KEA-2878","2019/10/05 13:39:29","新北市中和區成功路72號","121.52582","24.99195","6500300","中和區"
"235014","4979-A6","2019/10/05 13:39:13","新北市中和區景新街496巷30弄35號","121.512501666667","24.9855433333333","6500300","中和區"
"235033","4980-A6","2019/10/05 13:39:25","新北市中和區連城路67號","121.497648333333","25.001275","6500300","中和區"
"235022","551-UM","2019/10/05 13:39:09","新北市中和區員山路127-3號","121.48104","24.99572","6500300","中和區"
"235034","558-UM","2019/10/05 13:39:26","新北市中和區圓通路14號","121.50157","24.9981283333333","6500300","中和區"
"235009","565-BX","2019/10/05 13:39:19","新北市中和區南山路214號","121.50614","24.9902716666667","6500300","中和區"
"235024","KED-0823","2019/10/05 13:39:13","新北市中和區中山路三段204號","121.47167","25.006515","6500300","中和區"
"235018","640-BX","2019/10/05 13:39:26","新北市中和區民享街35巷7號","121.47464","25.00415","6500300","中和區"
"235011","732-UM","2019/10/05 13:39:24","新北市中和區興南路二段32巷3號","121.507185","24.9855616666667","6500300","中和區"
"235035","783-BX","2019/10/05 13:39:26","新北市中和區立德街28號","121.48955","25.00693","6500300","中和區"
"235021","801-TS","2019/10/05 13:39:21","新北市中和區民安街12號","121.480626666667","25.0008933333333","6500300","中和區"
"235005","802-TS","2019/10/05 13:39:09","新北市中和區中安街76號","121.512181666667","25.0020133333333","6500300","中和區"
"235016","805-TS","2019/10/05 13:39:11","新北市中和區興南路三段52巷1-2號","121.493455","24.976205","6500300","中和區"
"235012","896-TW","2019/10/05 13:39:26","新北市中和區中正路83號","121.500621666667","24.9935016666667","6500300","中和區"
"235017","900-TW","2019/10/05 13:39:28","新北市中和區華福街67號","121.466965","24.9966216666667","6500300","中和區"
"235028","911-UM","2019/10/05 13:39:23","新北市中和區泰和街34號","121.499426666667","25.0002566666667","6500300","中和區"
"235015","157-BY","2019/10/05 13:39:14","新北市中和區華新街143巷106弄39號","121.506965","24.978265","6500300","中和區"
"235001","AAC-213","2019/10/05 13:39:13","新北市中和區秀朗路三段128巷13號","121.524503333333","24.993285","6500300","中和區"
"235023","AAC-215","2019/10/05 13:39:20","新北市中和區錦和路350-1號","121.49055","24.993585","6500300","中和區"
"220013","072-UY","2019/10/05 13:39:22","新北市板橋區成都街101號","121.463455","25.0053916666667","6500100","板橋區"
"220034","073-UY","2019/10/05 13:39:21","新北市板橋區南雅南路二段120-12號","121.452125","24.9994716666667","6500100","板橋區"
"220105","075-UY","2019/10/05 13:39:22","新北市板橋區民生路二段210-1號","121.469516666667","25.02133","6500100","板橋區"
"220017","AAD-861","2019/10/05 13:39:23","新北市板橋區大華街13號","121.459165","25.0061783333333","6500100","板橋區"
"247013","056-VK","2019/10/05 13:39:28","新北市五股區凌雲路一段22巷11號","121.452916666667","25.100835","6501400","蘆洲區"
"247001","001-UY","2019/10/05 13:39:30","新北市五股區中興路三段163號","121.449203333333","25.0808533333333","6501400","蘆洲區"
"235013","251-BX","2019/10/05 13:39:11","新北市中和區景安路120巷22號","121.504485","24.9948983333333","6500300","中和區"
"228005","097-TW","2019/10/05 13:39:13","新北市貢寮區美豐里文秀坑8號","121.902568333333","25.0504083333333","6502600","貢寮區"
"228004","212-TW","2019/10/05 13:39:09","新北市貢寮區龍崗里嵩陽街41號","121.906158333333","25.0124066666667","6502600","貢寮區"
"253003","6232-TK","2019/10/05 13:39:11","新北市石門區內石門21-1號","121.571541666667","25.2735633333333","6502200","石門區"
"253004","6251-TK","2019/10/05 13:39:04","新北市石門區阿里荖47-2號","121.605426666667","25.278835","6502200","石門區"
"253002","637-UY","2019/10/05 13:39:12","新北市石門區九芎林51號","121.566011666667","25.2503683333333","6502200","石門區"
"253001","KEC-0718","2019/10/05 13:39:19","新北市石門區下員坑16-1號","121.50896","25.279575","6502200","石門區"
"207002","749-BX","2019/10/05 13:39:25","新北市萬里區崁腳里崁腳路166號","121.644983333333","25.1558583333333","6502800","萬里區"
"207001","662-BX","2019/10/05 13:39:08","新北市萬里區大鵬里萬里加投46-1號","121.641878333333","25.211115","6502800","萬里區"
"252005","AAC-283","2019/10/05 13:39:15","新北市三芝區圓山里石曹子坑38-1號","121.533051666667","25.2287683333333","6502100","三芝區"
"236040","KED-0685","2019/10/05 13:39:24","新北市土城區城林路6巷80號","121.438483333333","24.9798166666667","6501300","土城區"
"236029","253-BX","2019/10/05 13:39:09","新北市土城區城林路6巷80號","121.438441666667","24.97983","6501300","土城區"
"236013","270-VK","2019/10/05 13:39:27","新北市土城區城林路6巷80號","121.438465","24.9796333333333","6501300","土城區"
"236032","271-VK","2019/10/05 13:39:12","新北市土城區城林路6巷80號","121.438488333333","24.97978","6501300","土城區"
"247011","KED-0683","2019/10/05 13:39:14","新北市五股區中興路三段163號","121.449106666667","25.0809166666667","6501400","蘆洲區"
"236057","912-UM","2019/10/05 13:39:23","新北市土城區城林路6巷80號","121.438426666667","24.97977","6501300","土城區"
"220027","145-BY","2019/10/05 13:39:18","新北市板橋區大觀路一段51號","121.447816666667","25.0073066666667","6500100","板橋區"
"220028","200-UY","2019/10/05 13:39:29","新北市板橋區大觀路二段435-10號","121.445291666667","24.9947416666667","6500100","板橋區"
"220030","610-BX","2019/10/05 13:39:23","新北市板橋區大觀路二段443-2號","121.439348333333","24.9952166666667","6500100","板橋區"
"220004","276-BY","2019/10/05 13:39:25","新北市板橋區南雅南路一段3巷25-10號","121.45677","25.0057366666667","6500100","板橋區"
"220050","280-UM","2019/10/05 13:39:14","新北市板橋區民生路二段161巷1號","121.470081666667","25.01998","6500100","板橋區"
"220019","283-VK","2019/10/05 13:39:14","新北市土城區四川路10號","121.455623333333","24.9960716666667","6500100","板橋區"
"220043","285-UM","2019/10/05 13:39:12","新北市板橋區民生路二段161巷1號","121.470263333333","25.0199516666667","6500100","板橋區"
"220031","286-VK","2019/10/05 13:39:26","新北市板橋區大觀路二段153巷39弄1號","121.447003333333","25.0004266666667","6500100","板橋區"
"220029","287-VK","2019/10/05 13:39:12","新北市板橋區大觀路二段153巷44弄5號","121.446525","24.9994516666667","6500100","板橋區"
"220009","293-UM","2019/10/05 13:39:30","新北市板橋區民生路二段161巷3號","121.470148333333","25.0198083333333","6500100","板橋區"
"220032","296-UM","2019/10/05 13:39:18","新北市板橋區大觀路二段150巷1號","121.44168","24.9989416666667","6500100","板橋區"
"220001","299-UM","2019/10/05 13:39:08","新北市板橋區民生路二段161巷1號","121.470001666667","25.0198416666667","6500100","板橋區"
"220023","303-R5","2019/10/05 13:39:13","新北市板橋區大觀路二段11-12號","121.448708333333","24.9962166666667","6500100","板橋區"
"220041","307-R5","2019/10/05 13:39:11","新北市板橋區民生路二段89-4號","121.47133","25.018485","6500100","板橋區"
"220020","461-BY","2019/10/05 13:39:29","新北市板橋區大觀路三段62巷2號","121.433225","24.9951883333333","6500100","板橋區"
"220038","487-VK","2019/10/05 13:39:14","新北市板橋區民生路二段161巷1號","121.470076666667","25.0200566666667","6500100","板橋區"
"220037","491-VK","2019/10/05 13:39:26","新北市板橋區民生路二段89-6號","121.470605","25.01935","6500100","板橋區"
"220104","560-BX","2019/10/05 13:39:16","新北市板橋區南雅西路二段145巷6號","121.451621666667","25.0118916666667","6500100","板橋區"
"220052","561-BX","2019/10/05 13:39:10","新北市板橋區民生路二段89-4號","121.471556666667","25.0182116666667","6500100","板橋區"
"220011","609-BX","2019/10/05 13:39:22","新北市板橋區民生路二段120號","121.470306666667","25.01992","6500100","板橋區"
"220005","686-BX","2019/10/05 13:39:29","新北市板橋區南雅南路一段3巷25-12號","121.456766666667","25.0056183333333","6500100","板橋區"
"220025","687-BX","2019/10/05 13:39:29","新北市板橋區大觀路三段263號","121.42921","24.9922216666667","6500100","板橋區"
"220042","689-BX","2019/10/05 13:39:25","新北市板橋區民生路二段161巷1號","121.470025","25.0202133333333","6500100","板橋區"
"220002","741-BX","2019/10/05 13:39:20","新北市板橋區華東街11號","121.451008333333","24.998015","6500100","板橋區"
"220051","KEA-2699","2019/10/05 13:39:27","新北市板橋區民生路二段171號","121.469956666667","25.0202166666667","6500100","板橋區"
"220003","827-TW","2019/10/05 13:39:14","新北市板橋區忠孝路19號","121.460316666667","25.002045","6500100","板橋區"
"220022","895-R6","2019/10/05 13:39:27","新北市板橋區南雅南路一段6號","121.456056666667","25.00669","6500100","板橋區"
"220021","985-R7","2019/10/05 13:39:26","新北市板橋區南雅南路二段15號","121.454143333333","24.9995066666667","6500100","板橋區"
"220046","AAC-210","2019/10/05 13:39:27","新北市板橋區民生路二段161巷9號","121.47029","25.0196466666667","6500100","板橋區"
"220012","AAC-253","2019/10/05 13:39:21","新北市板橋區民生路二段36-1號","121.472076666667","25.01683","6500100","板橋區"
"235032","KEA-2873","2019/10/05 13:39:17","新北市中和區圓通路265巷29號","121.496163333333","24.99251","6500300","中和區"
"235025","KEA-2875","2019/10/05 13:39:15","新北市中和區民享街49巷3號","121.47444","25.0029133333333","6500300","中和區"
"235026","KEA-2876","2019/10/05 13:39:12","新北市中和區中山路二段340巷26號","121.493505","25.0034733333333","6500300","中和區"
