"lineid","car","time","location","longitude","latitude","cityid","cityname"
"234046","148-BY","2019/10/05 18:39:24","新北市永和區永元路68號","121.522561666667","25.00158","6500400","永和區"
"234081","298-R6","2019/10/05 18:39:17","新北市永和區林森路77號","121.523956666667","25.0038733333333","6500400","永和區"
"234038","336-UY","2019/10/05 18:39:12","新北市永和區福和路1號","121.526593333333","25.010155","6500400","永和區"
"234086","338-UY","2019/10/05 18:39:15","新北市永和區中正路3-1號","121.513998333333","24.9954833333333","6500400","永和區"
"234017","745-BX","2019/10/05 18:39:28","新北市永和區環河東路二段92號","121.524423333333","25.0106133333333","6500400","永和區"
"234030","746-BX","2019/10/05 18:39:13","新北市永和區得和路382-1號","121.524806666667","24.9993116666667","6500400","永和區"
"234007","KED-0605","2019/10/05 18:39:21","新北市永和區文化路174號","121.511655","25.015665","6500400","永和區"
"234013","KEA-2591","2019/10/05 18:39:11","新北市永和區環河東路二段62號","121.52372","25.0111916666667","6500400","永和區"
"234042","862-TW","2019/10/05 18:39:34","新北市永和區環河東路二段92號","121.524515","25.0105533333333","6500400","永和區"
"234026","9371-KE","2019/10/05 18:39:16","新北市永和區永貞路441號","121.506833333333","25.0099866666667","6500400","永和區"
"234011","9373-KE","2019/10/05 18:39:28","新北市永和區文化路9巷22弄26號","121.514681666667","25.01467","6500400","永和區"
"249005","172-UM","2019/10/05 18:39:15","新北市八里區中華路三段27號","121.396433333333","25.1431383333333","6502300","八里區"
"249001","173-UM","2019/10/05 18:39:24","新北市八里區龍米路一段360號","121.451505","25.131365","6502300","八里區"
"249004","303-UY","2019/10/05 18:39:26","新北市八里區中山路一段29-1號","121.421573333333","25.1591566666667","6502300","八里區"
"249002","305-UY","2019/10/05 18:39:19","新北市八里區龍形一街12巷8號","121.44986","25.1307516666667","6502300","八里區"
"249003","593-UM","2019/10/05 18:21:51","新北市八里區博物館路10-1號","121.415101666667","25.163985","6502300","八里區"
"248016","026-BX","2019/10/05 18:39:16","新北市五股區凌雲路一段149巷24號","121.448846666667","25.1016683333333","6501500","五股區"
"248008","KED-0815","2019/10/05 18:39:18","新北市五股區中興路一段140巷10號","121.465078333333","25.0744716666667","6501500","五股區"
"248020","KED-0813","2019/10/05 18:39:28","新北市五股區孝義路98號","121.446028333333","25.1194433333333","6501500","五股區"
"248012","247-BX","2019/10/05 18:39:09","新北市五股區御史路43巷2號","121.442236666667","25.0929366666667","6501500","五股區"
"248014","261-SL","2019/10/05 18:39:20","新北市五股區成泰路二段186號","121.438613333333","25.08468","6501500","五股區"
"248004","677-BX","2019/10/05 18:39:26","新北市五股區民義路一段206號","121.430326666667","25.0891083333333","6501500","五股區"
"248002","678-BX","2019/10/05 18:39:26","新北市五股區西雲路218號","121.448121666667","25.096065","6501500","五股區"
"248010","682-TV","2019/10/05 18:39:19","新北市五股區自強路94號","121.432765","25.0723116666667","6501500","五股區"
"234023","9380-KE","2019/10/05 18:39:13","新北市永和區福和路76巷5弄1號","121.522735","25.0083333333333","6500400","永和區"
"234077","969-R7","2019/10/05 18:39:24","新北市永和區中正路332號","121.517648333333","24.9998016666667","6500400","永和區"
"234003","AAC-295","2019/10/05 18:39:16","新北市永和區豫溪街191巷9號","121.523778333333","25.01044","6500400","永和區"
"232011","375-UM","2019/10/05 18:39:10","新北市坪林區坪雙路一段41號","121.711718333333","24.9424566666667","6502000","坪林區"
"244007","080-UY","2019/10/05 18:39:09","新北市林口區後湖60-1號","121.384571666667","25.1083566666667","6501700","林口區"
"244013","KEA-2802","2019/10/05 18:39:17","新北市林口區文化一路一段120號","121.374536666667","25.0717133333333","6501700","林口區"
"244023","483-VK","2019/10/05 18:39:12","新北市林口區四維路251號","121.381498333333","25.074825","6501700","林口區"
"244017","485-VK","2019/10/05 18:39:23","新北市林口區文化二路一段156號","121.368415","25.0714583333333","6501700","林口區"
"244009","656-BX","2019/10/05 18:39:19","新北市林口區竹林路326巷70號","121.392603333333","25.0821433333333","6501700","林口區"
"244011","701-TV","2019/10/05 18:39:26","新北市林口區仁愛路一段282號","121.393153333333","25.0760733333333","6501700","林口區"
"244025","837-TS","2019/10/05 18:39:29","新北市林口區南勢四街325號","121.356625","25.074855","6501700","林口區"
"244021","838-TS","2019/10/05 18:39:27","新北市林口區工六路42號","121.39894","25.0783133333333","6501700","林口區"
"243010","297-R6","2019/10/05 18:39:19","新北市泰山區辭修路48號","121.428413333333","25.057195","6501600","泰山區"
"243014","KEA-2801","2019/10/05 18:39:17","新北市泰山區犁頭窠3-1號","121.42222","25.0604533333333","6501600","泰山區"
"243016","421-VK","2019/10/05 18:39:18","新北市泰山區黎明路6-1號","121.4211","25.0616566666667","6501600","泰山區"
"243015","680-BX","2019/10/05 18:39:11","新北市泰山區黎明路21號","121.420875","25.0627383333333","6501600","泰山區"
"222003","436-BY","2019/10/05 18:39:21","新北市深坑區翠谷街21巷3號","121.626743333333","25.0083","6501800","深坑區"
"222002","659-BX","2019/10/05 18:39:29","新北市深坑區文山路一段62巷3號","121.622886666667","25.0009016666667","6501800","深坑區"
"231058","0293-UT","2019/10/05 18:39:18","新北市新店區國校路68號","121.538565","24.9531766666667","6500600","新店區"
"231044","046-UY","2019/10/05 18:39:15","新北市新店區安康路一段75-1號","121.530091666667","24.961135","6500600","新店區"
"231060","106-UY","2019/10/05 18:39:11","新北市新店區安華路28-1號","121.519623333333","24.960805","6500600","新店區"
"231051","107-UY","2019/10/05 18:39:27","新北市新店區中央路218號","121.529776666667","24.9730266666667","6500600","新店區"
"231049","108-UY","2019/10/05 18:39:29","新北市新店區安華路28-1號","121.519513333333","24.960985","6500600","新店區"
"231062","256-BX","2019/10/05 18:39:20","新北市新店區安一路一段1-1號","121.519665","24.9610866666667","6500600","新店區"
"231042","268-BY","2019/10/05 18:39:20","新北市新店區安一路一段1-1號","121.519705","24.9614283333333","6500600","新店區"
"231064","278-BY","2019/10/05 18:39:10","新北市新店區安一路一段1-1號","121.519763333333","24.961205","6500600","新店區"
"231050","AAD-862","2019/10/05 18:39:19","新北市新店區安一路一段1-1號","121.519926666667","24.9612783333333","6500600","新店區"
"231045","355-BY","2019/10/05 18:39:11","新北市新店區安華路28-1號","121.519261666667","24.9609083333333","6500600","新店區"
"231055","4716-K9","2019/10/05 18:39:25","新北市新店區中央路187號","121.537183333333","24.96885","6500600","新店區"
"231056","4715-K9","2019/10/05 18:39:21","新北市新店區建國路194號","121.537806666667","24.9804233333333","6500600","新店區"
"231052","515-UM","2019/10/05 18:39:23","新北市新店區永興路9號","121.544391666667","24.9394333333333","6500600","新店區"
"231041","619-UM","2019/10/05 18:39:25","新北市新店區安華路28-1號","121.519521666667","24.96063","6500600","新店區"
"231063","641-BX","2019/10/05 18:39:13","新北市新店區安華路28-1號","121.519613333333","24.9606783333333","6500600","新店區"
"231046","719-UM","2019/10/05 18:39:22","新北市新店區直潭二街1號","121.535408333333","24.9431533333333","6500600","新店區"
"231057","720-UM","2019/10/05 18:39:29","新北市新店區北宜路一段300號","121.547161666667","24.95227","6500600","新店區"
"231059","897-TW","2019/10/05 18:39:19","新北市新店區安華路28-1號","121.519531666667","24.9607883333333","6500600","新店區"
"231040","898-TW","2019/10/05 18:39:24","新北市新店區安一路一段1-1號","121.51952","24.96103","6500600","新店區"
"231043","899-TW","2019/10/05 18:39:11","新北市新店區安華路28-1號","121.519263333333","24.9608533333333","6500600","新店區"
"231066","AKT-0513","2019/10/05 18:39:29","新北市新店區安華路1-1號","121.519381666667","24.960535","6500600","新店區"
"235066","003-UY","2019/10/05 18:39:16","新北市中和區水源路36巷1弄1號","121.505331666667","25.003515","6500300","中和區"
"235063","006-UY","2019/10/05 18:39:17","新北市中和區連城路391號","121.486458333333","24.9962266666667","6500300","中和區"
"235056","096-UM","2019/10/05 18:39:18","新北市中和區員山路611巷5弄3號","121.478025","25.0112566666667","6500300","中和區"
"235039","097-UM","2019/10/05 18:39:26","新北市中和區宜安路16號","121.513251666667","24.9956566666667","6500300","中和區"
"235065","098-UM","2019/10/05 18:39:20","新北市中和區莊敬路49巷27號","121.501481666667","25.00615","6500300","中和區"
"235004","150-BY","2019/10/05 18:39:24","新北市中和區安平路52-1號","121.510281666667","24.9957416666667","6500300","中和區"
"235058","151-BY","2019/10/05 18:39:19","新北市中和區員山路143巷10號","121.480508333333","24.9961216666667","6500300","中和區"
"235055","183-VK","2019/10/05 18:39:30","新北市中和區民生街33號","121.470363333333","25.0054616666667","6500300","中和區"
"235038","185-VK","2019/10/05 18:39:24","新北市中和區景平路116號","121.519518333333","24.9918133333333","6500300","中和區"
"235067","255-BX","2019/10/05 18:39:23","新北市中和區中正路853號","121.484591666667","25.00303","6500300","中和區"
"235044","293-VK","2019/10/05 18:39:16","新北市中和區復興路280巷9號","121.502251666667","24.9911116666667","6500300","中和區"
"235072","301-VK","2019/10/05 18:39:25","新北市中和區中山路二段181號","121.50104","25.0027316666667","6500300","中和區"
"235043","352-BY","2019/10/05 18:39:16","新北市中和區景平路71-7號","121.518256666667","24.9916066666667","6500300","中和區"
"235042","KEA-2878","2019/10/05 18:39:26","新北市中和區成功路131號","121.526395","24.990725","6500300","中和區"
"235050","4979-A6","2019/10/05 18:39:27","新北市中和區景新街496巷32弄28號","121.512551666667","24.9854333333333","6500300","中和區"
"235069","4980-A6","2019/10/05 18:39:14","新北市中和區連城路67-1號","121.497606666667","25.0011666666667","6500300","中和區"
"235070","558-UM","2019/10/05 18:39:25","新北市中和區圓通路2號","121.501968333333","24.9981666666667","6500300","中和區"
"235045","565-BX","2019/10/05 18:39:19","新北市中和區南山路208巷1弄11號","121.506528333333","24.9899433333333","6500300","中和區"
"235060","KED-0823","2019/10/05 18:39:23","新北市中和區中山路三段147號","121.473795","25.006185","6500300","中和區"
"235054","640-BX","2019/10/05 18:39:13","新北市中和區民享街68巷16號","121.473268333333","25.0018683333333","6500300","中和區"
"235047","732-UM","2019/10/05 18:39:23","新北市中和區興南路一段164號","121.50803","24.98661","6500300","中和區"
"235057","801-TS","2019/10/05 18:39:09","新北市中和區民安街25巷13號","121.480598333333","25.0001733333333","6500300","中和區"
"235041","802-TS","2019/10/05 18:39:28","新北市中和區中安街178巷13弄3號","121.510328333333","24.9986333333333","6500300","中和區"
"235052","805-TS","2019/10/05 18:39:15","新北市中和區興南路三段83號","121.49156","24.97385","6500300","中和區"
"235048","896-TW","2019/10/05 18:39:16","新北市中和區南山路162號","121.504695","24.9916233333333","6500300","中和區"
"235053","900-TW","2019/10/05 18:39:12","新北市中和區華福街6號","121.465518333333","24.9967983333333","6500300","中和區"
"235064","911-UM","2019/10/05 18:39:20","新北市中和區連勝街2號","121.499095","24.998585","6500300","中和區"
"235051","157-BY","2019/10/05 18:39:19","新北市中和區華新街143巷56號","121.505898333333","24.979645","6500300","中和區"
"235037","AAC-213","2019/10/05 18:39:21","新北市中和區秀朗路三段171號","121.524555","24.9915833333333","6500300","中和區"
"235059","AAC-215","2019/10/05 18:39:11","新北市中和區錦和路354巷15號","121.489758333333","24.99155","6500300","中和區"
"220065","072-UY","2019/10/05 18:39:21","新北市板橋區實踐路75號","121.46389","25.0062716666667","6500100","板橋區"
"220086","073-UY","2019/10/05 18:39:14","新北市板橋區南雅南路二段120-11號","121.452026666667","24.9993033333333","6500100","板橋區"
"220069","AAD-861","2019/10/05 18:39:16","新北市板橋區大華街20號","121.45885","25.0061866666667","6500100","板橋區"
"226004","312-R5","2019/10/05 18:39:11","新北市平溪區石底里公園街18-3號","121.734041666667","25.025335","6502400","平溪區"
"235049","251-BX","2019/10/05 18:39:23","新北市中和區明義街34號","121.503913333333","24.9951466666667","6500300","中和區"
"228003","097-TW","2019/10/05 18:39:27","新北市貢寮區和美里龍洞街40-1號","121.915461666667","25.1116516666667","6502600","貢寮區"
"228001","212-TW","2019/10/05 18:39:24","新北市貢寮區仁理村研海街12-1號","121.923775","25.0516583333333","6502600","貢寮區"
"228002","663-BX","2019/10/05 18:39:21","新北市貢寮區福隆里東興街6-11號","121.950786666667","25.0210733333333","6502600","貢寮區"
"224006","676-BX","2019/10/05 18:39:26","新北市瑞芳區明燈路三段55號","121.806028333333","25.1081433333333","6501200","瑞芳區"
"224007","285-BY","2019/10/05 18:39:20","新北市瑞芳區大埔路108-9號","121.762583333333","25.1017683333333","6501200","瑞芳區"
"224009","275-VK","2019/10/05 18:39:27","新北市瑞芳區祈堂路53-1號","121.859621666667","25.11046","6501200","瑞芳區"
"224008","273-VK","2019/10/05 18:39:24","新北市瑞芳區瑞芳街43號","121.806426666667","25.1095016666667","6501200","瑞芳區"
"224005","271-BY","2019/10/05 18:39:14","新北市瑞芳區建基路一段44-6號","121.819086666667","25.1216816666667","6501200","瑞芳區"
"227002","642-TC","2019/10/05 18:39:16","新北市雙溪區魚行里坤溪3-5號","121.876196666667","25.0208483333333","6502500","雙溪區"
"227001","400-TW","2019/10/05 18:39:12","新北市雙溪區牡丹里下坑11號","121.850963333333","25.0561866666667","6502500","雙溪區"
"253005","032-BX","2019/10/05 18:39:15","新北市石門區中山路64號","121.567271666667","25.290915","6502200","石門區"
"253006","295-VK","2019/10/05 18:39:16","新北市石門區崁子腳28-1號","121.539141666667","25.28972","6502200","石門區"
"222001","KEA-2212","2019/10/05 18:39:15","新北市深坑區北深路一段80號","121.63644","25.010685","6501800","深坑區"
"208002","KEA-2872","2019/10/05 18:39:18","新北市金山區仁愛路15-7號","121.638386666667","25.2187916666667","6502700","金山區"
"208003","665-BX","2019/10/05 18:39:28","新北市金山區中山路358號","121.63318","25.2255533333333","6502700","金山區"
"251004","009-UM","2019/10/05 18:39:13","新北市淡水區大同路2號","121.461551666667","25.1408033333333","6501000","淡水區"
"251001","011-UM","2019/10/05 18:39:13","新北市淡水區自強路166號","121.465596666667","25.1341166666667","6501000","淡水區"
"251015","KEA-2871","2019/10/05 18:39:29","新北市淡水區興福寮66巷347號","121.483768333333","25.162105","6501000","淡水區"
"251016","179-VK","2019/10/05 18:39:20","新北市淡水區下圭柔山84-1號","121.440488333333","25.2049983333333","6501000","淡水區"
"251008","181-VK","2019/10/05 18:39:14","新北市淡水區北投子79號","121.460643333333","25.1783983333333","6501000","淡水區"
"251013","182-VK","2019/10/05 18:39:15","新北市三芝區興華里田心子34-2號","121.485196666667","25.2054","6501000","淡水區"
"251010","413-VK","2019/10/05 18:39:12","新北市淡水區沙崙路124號","121.423333333333","25.182895","6501000","淡水區"
"251012","443-VK","2019/10/05 18:39:17","新北市淡水區北新路121號","121.448981666667","25.1787016666667","6501000","淡水區"
"251006","561-UM","2019/10/05 18:39:22","新北市淡水區濱海路一段53號","121.443903333333","25.1889216666667","6501000","淡水區"
"251014","577-R6","2019/10/05 18:39:13","新北市淡水區崙頂12-8號","121.49556","25.2172366666667","6501000","淡水區"
"251011","650-BX","2019/10/05 18:39:26","新北市淡水區中正東路一段117號","121.454901666667","25.1595016666667","6501000","淡水區"
"251002","672-BX","2019/10/05 18:39:18","新北市淡水區中正東路一段3巷14弄1號","121.4509","25.1641716666667","6501000","淡水區"
"251003","766-UM","2019/10/05 18:39:18","新北市淡水區北新路69巷26號","121.446633333333","25.1801233333333","6501000","淡水區"
"207003","550-UM","2019/10/05 18:39:13","新北市萬里區野柳里港東路88-2號","121.68803","25.20382","6502800","萬里區"
"207004","291-VK","2019/10/05 18:39:15","新北市萬里區萬里里獅頭路12-4號","121.692753333333","25.1793783333333","6502800","萬里區"
"252002","178-VK","2019/10/05 18:39:17","新北市三芝區民生街64巷10號","121.503655","25.25514","6502100","三芝區"
"252003","249-BX","2019/10/05 18:39:12","新北市三芝區後厝里土地公坑54-17號","121.465943333333","25.2496066666667","6502100","三芝區"
"208001","170-UY","2019/10/05 18:39:29","新北市金山區文化三路42-2號","121.635281666667","25.22492","6502700","金山區"
"237004","KEA-2597","2019/10/05 18:39:27","新北市三峽區插角1-1號","121.396206666667","24.8738","6500900","三峽區"
"237007","153-BY","2019/10/05 18:39:09","新北市三峽區中正路三段31號","121.349041666667","24.90298","6500900","三峽區"
"237009","210-TH","2019/10/05 18:39:25","新北市三峽區弘園街77號","121.365916666667","24.92671","6500900","三峽區"
"237013","252-BX","2019/10/05 18:39:25","新北市三峽區光明路69巷25號","121.376655","24.92923","6500900","三峽區"
"237012","275-BY","2019/10/05 18:39:13","新北市三峽區三樹路340號","121.38394","24.94333","6500900","三峽區"
"237008","302-VK","2019/10/05 18:39:21","新北市三峽區白雞35-6號","121.377393333333","24.9118383333333","6500900","三峽區"
"237014","433-BY","2019/10/05 18:39:24","新北市三峽區復興路465-1號","121.361441666667","24.9385916666667","6500900","三峽區"
"237006","5529-G3","2019/10/05 18:39:18","新北市三峽區溪東路371巷4弄27號","121.412973333333","24.9295083333333","6500900","三峽區"
"237011","KEA-2596","2019/10/05 18:39:18","新北市三峽區成福路57號","121.418253333333","24.9289983333333","6500900","三峽區"
"237015","649-BX","2019/10/05 18:39:27","新北市三峽區竹崙路21-2號","121.429148333333","24.9226016666667","6500900","三峽區"
"237010","706-TV","2019/10/05 18:39:17","新北市三峽區復興路487號","121.361288333333","24.9384283333333","6500900","三峽區"
"237005","AKY-6261","2019/10/05 18:39:30","新北市三峽區復興路19號","121.373996666667","24.9363083333333","6500900","三峽區"
"236042","KED-0685","2019/10/05 18:39:19","新北市土城區裕民路55巷17號","121.449318333333","24.98875","6501300","土城區"
"236079","166-UM","2019/10/05 18:39:20","新北市土城區頂埔街67號","121.417535","24.9594333333333","6501300","土城區"
"236030","253-BX","2019/10/05 18:39:17","新北市土城區福仁街60巷1號","121.439456666667","24.9746316666667","6501300","土城區"
"236026","269-VK","2019/10/05 18:39:15","新北市土城區忠義路55巷15號","121.44123","24.9686466666667","6501300","土城區"
"236014","270-VK","2019/10/05 18:39:14","新北市土城區清水路207巷25號","121.459681666667","24.9826416666667","6501300","土城區"
"236038","271-VK","2019/10/05 18:39:15","新北市土城區明德路一段291巷11弄19號","121.461058333333","24.9760833333333","6501300","土城區"
"236070","KEA-2877","2019/10/05 18:39:26","新北市土城區永豐路226號","121.467188333333","24.9817016666667","6501300","土城區"
"252001","KED-0821","2019/10/05 18:39:25","新北市三芝區中興街二段260號","121.501835","25.25294","6502100","三芝區"
"236021","401-BY","2019/10/05 18:39:23","新北市土城區延吉街331號","121.465355","24.9840766666667","6501300","土城區"
"236059","912-UM","2019/10/05 18:39:17","新北市土城區中央路三段282號","121.426561666667","24.963525","6501300","土城區"
"236049","913-UM","2019/10/05 18:39:30","新北市土城區明德路一段101號","121.465636666667","24.98279","6501300","土城區"
"236063","915-UM","2019/10/05 18:39:19","新北市土城區延壽路20號","121.471341666667","24.9907583333333","6501300","土城區"
"236055","AAC-216","2019/10/05 18:39:25","新北市土城區裕民路2號","121.446631666667","24.989225","6501300","土城區"
"242042","AAC-296","2019/10/05 18:39:26","新北市新莊區天祥街92巷14號","121.415563333333","25.02996","6500500","新莊區"
"242061","986-R7","2019/10/05 18:39:24","新北市新莊區富國路176巷7號","121.4241","25.023985","6500500","新莊區"
"242058","612-BX","2019/10/05 18:39:09","新北市新莊區中正路891-46號","121.413693333333","25.0227883333333","6500500","新莊區"
"242002","566-BX","2019/10/05 18:39:30","新北市新莊區瓊林路59-66號","121.441423333333","25.022775","6500500","新莊區"
"242044","415-TV","2019/10/05 18:39:27","新北市新莊區中山路三段619號","121.413051666667","25.0250916666667","6500500","新莊區"
"242009","349-TH","2019/10/05 18:39:20","新北市新莊區新莊路152巷28號","121.454895","25.0366533333333","6500500","新莊區"
"238023","601-UM","2019/10/05 18:39:20","新北市樹林區三福街114號","121.406381666667","25.0164216666667","6500700","樹林區"
"238024","5061-A6","2019/10/05 18:39:27","新北市樹林區中山路二段70號","121.415573333333","24.984115","6500700","樹林區"
"238018","KEA-2217","2019/10/05 18:39:17","新北市樹林區樹新路85號","121.427798333333","24.9953683333333","6500700","樹林區"
"238017","283-BY","2019/10/05 18:39:11","新北市樹林區光興街50號","121.409848333333","25.0027633333333","6500700","樹林區"
"238014","282-BY","2019/10/05 18:39:14","新北市樹林區大安路111巷25號","121.423113333333","24.9975566666667","6500700","樹林區"
"238020","268-VK","2019/10/05 18:39:22","新北市樹林區俊安街28號","121.419728333333","25.0138133333333","6500700","樹林區"
"238026","172-UY","2019/10/05 18:39:14","新北市樹林區育德街78-1號","121.387491666667","24.968125","6500700","樹林區"
"239007","AAC-297","2019/10/05 18:39:17","新北市鶯歌區中正一路478號","121.365721666667","24.9566616666667","6500800","鶯歌區"
"239006","891-R6","2019/10/05 18:39:29","新北市鶯歌區鶯桃路296巷46-3號","121.335803333333","24.9613233333333","6500800","鶯歌區"
"239008","527-UM","2019/10/05 18:39:11","新北市鶯歌區朝陽街1號","121.336428333333","24.9767633333333","6500800","鶯歌區"
"239005","526-UM","2019/10/05 18:39:08","新北市鶯歌區鶯桃路670號","121.328903333333","24.9695016666667","6500800","鶯歌區"
"239001","417-VK","2019/10/05 18:39:24","新北市鶯歌區國中街104號","121.340331666667","24.9404266666667","6500800","鶯歌區"
"239003","360-BY","2019/10/05 18:39:29","新北市鶯歌區鶯桃路524-1號","121.331595","24.966685","6500800","鶯歌區"
"239002","359-BY","2019/10/05 18:39:24","新北市鶯歌區中山路113號","121.350106666667","24.9569383333333","6500800","鶯歌區"
"239004","193-VK","2019/10/05 18:39:17","新北市鶯歌區尖山路卓厝巷1號","121.341985","24.9457266666667","6500800","鶯歌區"
"221036","130-UY","2019/10/05 18:39:25","新北市汐止區長興街一段13號","121.66949","25.0787183333333","6501100","汐止區"
"221015","131-UY","2019/10/05 18:39:12","新北市汐止區長江街365號","121.667825","25.0826283333333","6501100","汐止區"
"244019","KED-0667","2019/10/05 18:39:28","新北市林口區麗園二街39巷22號","121.381456666667","25.0698533333333","6501700","林口區"
"221010","269-BY","2019/10/05 18:39:10","新北市汐止區瑞松街32號","121.645613333333","25.1057516666667","6501100","汐止區"
"221012","278-VK","2019/10/05 18:39:23","新北市汐止區保長路51巷11號","121.673743333333","25.0789433333333","6501100","汐止區"
"221023","279-VK","2019/10/05 18:39:31","新北市汐止區康寧街543號","121.63425","25.069115","6501100","汐止區"
"221032","280-BY","2019/10/05 18:39:23","新北市汐止區福山街58巷16號","121.617965","25.04604","6501100","汐止區"
"221029","298-VK","2019/10/05 18:38:50","新北市汐止區樟樹一路138號","121.64224","25.0648983333333","6501100","汐止區"
"221021","299-VK","2019/10/05 18:39:24","新北市汐止區新台五路一段160號","121.654255","25.0624533333333","6501100","汐止區"
"221031","353-TW","2019/10/05 18:39:16","新北市汐止區光復街7巷34號","121.641411666667","25.0601666666667","6501100","汐止區"
"221035","622-UM","2019/10/05 18:39:11","新北市汐止區大同路二段113號","121.650126666667","25.0636216666667","6501100","汐止區"
"221025","623-UM","2019/10/05 18:39:22","新北市汐止區仁愛路121巷9號","121.66267","25.0642883333333","6501100","汐止區"
"221033","647-BX","2019/10/05 18:39:15","新北市汐止區宜興街1號","121.620818333333","25.041185","6501100","汐止區"
"221002","707-TV","2019/10/05 18:39:23","新北市汐止區大同路一段295號","121.637061666667","25.0587066666667","6501100","汐止區"
"221018","753-BX","2019/10/05 18:36:41","新北市汐止區茄苳路223號","121.670941666667","25.0687016666667","6501100","汐止區"
"220079","145-BY","2019/10/05 18:39:23","新北市板橋區館前西路164號","121.452538333333","25.0086066666667","6500100","板橋區"
"220080","200-UY","2019/10/05 18:39:21","新北市板橋區大觀路二段435-10號","121.44602","24.9944116666667","6500100","板橋區"
"224002","257-TC","2019/10/05 18:39:20","新北市瑞芳區三爪子坑路1號","121.815823333333","25.10807","6501200","瑞芳區"
"220056","276-BY","2019/10/05 18:39:22","新北市板橋區四川路一段55號","121.459603333333","25.0062616666667","6500100","板橋區"
"220101","280-UM","2019/10/05 18:39:21","新北市板橋區民生路二段161巷5號","121.470113333333","25.0196783333333","6500100","板橋區"
"220071","283-VK","2019/10/05 18:39:07","新北市板橋區四川路二段134號","121.450288333333","24.99345","6500100","板橋區"
"220094","285-UM","2019/10/05 18:39:24","新北市板橋區民生路二段161巷1號","121.470186666667","25.019875","6500100","板橋區"
"220083","286-VK","2019/10/05 18:39:27","新北市板橋區板城路421號","121.448205","24.9960516666667","6500100","板橋區"
"220081","287-VK","2019/10/05 18:39:17","新北市板橋區華東街1-10號","121.44825","24.9950216666667","6500100","板橋區"
"220090","288-VK","2019/10/05 18:39:12","新北市板橋區民生路二段89-6號","121.47069","25.0193266666667","6500100","板橋區"
"220084","296-UM","2019/10/05 18:39:27","新北市板橋區大觀路二段108號","121.444086666667","24.9994633333333","6500100","板橋區"
"220053","299-UM","2019/10/05 18:39:21","新北市板橋區民生路二段120號","121.470316666667","25.0198883333333","6500100","板橋區"
"220075","303-R5","2019/10/05 18:39:12","新北市板橋區板城路421號","121.448025","24.9956233333333","6500100","板橋區"
"220062","305-R5","2019/10/05 18:39:17","新北市板橋區民生路二段161巷9號","121.470271666667","25.0195766666667","6500100","板橋區"
"220092","307-R5","2019/10/05 18:39:17","新北市板橋區介壽街119號","121.470531666667","25.0187183333333","6500100","板橋區"
"220098","317-R6","2019/10/05 18:39:21","新北市板橋區民生路二段161巷3號","121.470245","25.0198466666667","6500100","板橋區"
"220072","461-BY","2019/10/05 18:39:18","新北市板橋區大觀路三段50巷49號","121.432228333333","24.9957283333333","6500100","板橋區"
"220089","487-VK","2019/10/05 18:39:12","新北市板橋區民生路二段148號","121.471335","25.019855","6500100","板橋區"
"220088","491-VK","2019/10/05 18:39:14","新北市板橋區民生路二段161巷1號","121.469903333333","25.0201283333333","6500100","板橋區"
"220035","560-BX","2019/10/05 18:39:25","新北市板橋區南雅西路二段145巷10號","121.451578333333","25.0119166666667","6500100","板橋區"
"220103","561-BX","2019/10/05 18:39:25","新北市板橋區民生路二段89-4號","121.471355","25.01801","6500100","板橋區"
"220055","630-UY","2019/10/05 18:39:18","新北市板橋區四川路二段14號","121.456103333333","24.996295","6500100","板橋區"
"220057","686-BX","2019/10/05 18:39:25","新北市板橋區館前西路4-1號","121.459181666667","25.0070983333333","6500100","板橋區"
"220077","687-BX","2019/10/05 18:39:15","新北市板橋區板城路421號","121.448281666667","24.99582","6500100","板橋區"
"220054","741-BX","2019/10/05 18:39:26","新北市板橋區南雅南路二段116號","121.452505","25.000575","6500100","板橋區"
"220102","KEA-2699","2019/10/05 18:39:29","新北市板橋區縣民大道三段135號","121.4777","25.02335","6500100","板橋區"
"220074","895-R6","2019/10/05 18:39:13","新北市板橋區南雅南路二段140號","121.45192","24.9962733333333","6500100","板橋區"
"220073","985-R7","2019/10/05 18:39:23","新北市板橋區四川路二段23-2號","121.454386666667","24.9956333333333","6500100","板橋區"
"220097","AAC-210","2019/10/05 18:39:20","新北市板橋區民生路二段120號","121.470343333333","25.0195966666667","6500100","板橋區"
"220064","AAC-253","2019/10/05 18:39:15","新北市板橋區縣民大道二段86號","121.466251666667","25.0149283333333","6500100","板橋區"
"235068","KEA-2873","2019/10/05 18:39:10","新北市中和區中正路211巷13弄10號","121.497238333333","24.9933183333333","6500300","中和區"
"235061","KEA-2875","2019/10/05 18:39:27","新北市中和區民享街52號","121.474046666667","25.0024783333333","6500300","中和區"
"235062","KEA-2876","2019/10/05 18:39:01","新北市中和區中山路二段352號","121.492676666667","25.002795","6500300","中和區"
