"lineid","car","time","location","longitude","latitude","cityid","cityname"
"234046","148-BY","2019/10/05 19:29:24","新北市永和區秀朗路二段247號","121.526303333333","24.9996016666667","6500400","永和區"
"234081","298-R6","2019/10/05 19:29:17","新北市永和區林森路4號","121.526718333333","25.00577","6500400","永和區"
"234038","336-UY","2019/10/05 19:29:23","新北市永和區成功路二段47巷11號","121.527393333333","25.0002716666667","6500400","永和區"
"234064","337-UY","2019/10/05 19:29:26","新北市永和區秀朗路二段24巷25弄9號","121.52077","25.0018283333333","6500400","永和區"
"234086","338-UY","2019/10/05 19:29:15","新北市永和區林森路41巷1號","121.525146666667","25.0045566666667","6500400","永和區"
"234070","552-UM","2019/10/05 19:29:25","新北市永和區警光街5-1號","121.519778333333","25.00948","6500400","永和區"
"234017","745-BX","2019/10/05 19:29:28","新北市永和區環河西路一段77號","121.513156666667","25.0180766666667","6500400","永和區"
"234030","746-BX","2019/10/05 19:29:25","新北市永和區民權路1巷36號","121.522018333333","24.9981366666667","6500400","永和區"
"234054","KEA-2590","2019/10/05 19:29:19","新北市永和區復興街19巷2號","121.516148333333","25.0130933333333","6500400","永和區"
"234007","KED-0605","2019/10/05 19:29:21","新北市永和區永和路一段141號","121.51414","25.008865","6500400","永和區"
"234013","KEA-2591","2019/10/05 19:29:21","新北市永和區中山路一段184巷9弄17號","121.508441666667","25.0090333333333","6500400","永和區"
"234061","AAD-866","2019/10/05 19:29:18","新北市永和區中正路506號","121.51731","25.00451","6500400","永和區"
"234042","862-TW","2019/10/05 19:29:34","新北市永和區水源街39巷12號","121.51052","25.00372","6500400","永和區"
"234050","863-TW","2019/10/05 19:29:10","新北市永和區仁愛路128號","121.511366666667","25.0130266666667","6500400","永和區"
"234026","9371-KE","2019/10/05 19:29:16","新北市永和區安樂路100巷5號","121.514188333333","24.99937","6500400","永和區"
"249003","593-UM","2019/10/05 19:29:22","新北市八里區中山路二段480號","121.398688333333","25.14708","6502300","八里區"
"248008","KED-0815","2019/10/05 19:29:18","新北市五股區中興路一段97號","121.466615","25.0729333333333","6501500","五股區"
"248020","KED-0813","2019/10/05 19:29:08","新北市五股區凌雲路三段88號","121.42861","25.1186133333333","6501500","五股區"
"248012","247-BX","2019/10/05 19:29:29","新北市五股區成泰路二段91巷9號","121.437533333333","25.0841316666667","6501500","五股區"
"248014","261-SL","2019/10/05 19:29:27","新北市五股區五福路23巷9號","121.433538333333","25.0886783333333","6501500","五股區"
"248004","677-BX","2019/10/05 19:29:26","新北市五股區五福路2號","121.434021666667","25.0875866666667","6501500","五股區"
"248002","678-BX","2019/10/05 19:29:26","新北市五股區凌雲路一段158巷6號","121.447766666667","25.1029683333333","6501500","五股區"
"234023","9380-KE","2019/10/05 19:29:13","新北市永和區竹林路91巷43弄2號","121.52134","25.0128383333333","6500400","永和區"
"234077","969-R7","2019/10/05 19:29:28","新北市永和區民族街43巷14號","121.519198333333","24.9983433333333","6500400","永和區"
"234074","AAC-211","2019/10/05 19:29:22","新北市永和區竹林路39巷35號","121.520535","25.0157016666667","6500400","永和區"
"234067","AAC-212","2019/10/05 19:29:17","新北市永和區保平路174巷4號","121.510686666667","25.0068816666667","6500400","永和區"
"234003","AAC-295","2019/10/05 19:29:16","新北市永和區福和路385號","121.514198333333","25.007705","6500400","永和區"
"244023","483-VK","2019/10/05 19:29:12","新北市林口區文化三路一段555巷2-99號","121.369953333333","25.0759","6501700","林口區"
"244021","838-TS","2019/10/05 19:29:27","新北市八里區長道坑19-8號","121.397173333333","25.1105766666667","6501700","林口區"
"243012","AAD-798","2019/10/05 19:29:11","新北市泰山區仁義路222號","121.432963333333","25.0535283333333","6501600","泰山區"
"243010","297-R6","2019/10/05 19:22:19","新北市泰山區明志路一段519號","121.430303333333","25.053945","6501600","泰山區"
"243014","KEA-2801","2019/10/05 19:29:17","新北市泰山區中港西路452號","121.433338333333","25.0534083333333","6501600","泰山區"
"243016","421-VK","2019/10/05 19:29:17","新北市泰山區明志路三段233號","121.423645","25.03788","6501600","泰山區"
"243009","KEA-2215","2019/10/05 19:29:29","新北市泰山區明志路一段19巷14號","121.434418333333","25.0655933333333","6501600","泰山區"
"243011","KEA-2216","2019/10/05 19:29:14","新北市泰山區貴子路72號","121.42695","25.04138","6501600","泰山區"
"243013","646-TV","2019/10/05 19:29:15","新北市泰山區明志路三段145巷5弄19號","121.4257","25.04059","6501600","泰山區"
"243015","680-BX","2019/10/05 19:29:11","新北市泰山區明志路二段73號","121.428966666667","25.052385","6501600","泰山區"
"222003","436-BY","2019/10/05 19:29:21","新北市深坑區深南路88巷1號","121.620966666667","25.0117","6501800","深坑區"
"222002","659-BX","2019/10/05 19:29:09","新北市深坑區北深路一段210號","121.632613333333","25.0109083333333","6501800","深坑區"
"231061","002-UM","2019/10/05 19:29:13","新北市新店區安康路一段302-3號","121.517585","24.9640533333333","6500600","新店區"
"231058","0293-UT","2019/10/05 19:29:17","新北市新店區北新路一段96巷27號","121.542786666667","24.9694483333333","6500600","新店區"
"231044","046-UY","2019/10/05 19:29:14","新北市新店區中興路三段135號","121.54456","24.9796966666667","6500600","新店區"
"231060","106-UY","2019/10/05 19:29:11","新北市新店區安和路一段5號","121.516831666667","24.9639183333333","6500600","新店區"
"231051","107-UY","2019/10/05 19:29:27","新北市新店區中央五街22號","121.52928","24.974445","6500600","新店區"
"231049","108-UY","2019/10/05 19:29:29","新北市新店區北新路3段65巷34弄29-1號","121.539976666667","24.981965","6500600","新店區"
"231065","110-UY","2019/10/05 19:29:15","新北市新店區安祥路109巷3弄38號","121.476571666667","24.96045","6500600","新店區"
"231062","256-BX","2019/10/05 19:29:20","新北市新店區莒光路42號","121.523796666667","24.957275","6500600","新店區"
"231054","260-TV","2019/10/05 19:29:26","新北市新店區文中路40號","121.53967","24.9565583333333","6500600","新店區"
"231042","268-BY","2019/10/05 19:29:25","新北市新店區中興路一段136號","121.542021666667","24.963325","6500600","新店區"
"231064","278-BY","2019/10/05 19:29:09","新北市新店區安和路一段52巷2-1號","121.517646666667","24.9663183333333","6500600","新店區"
"231050","AAD-862","2019/10/05 19:29:19","新北市新店區竹林路94號","121.553895","24.9502283333333","6500600","新店區"
"231045","355-BY","2019/10/05 19:29:31","新北市新店區北宜路二段181號","121.55257","24.9532133333333","6500600","新店區"
"231056","4715-K9","2019/10/05 19:29:21","新北市新店區薏仁坑路2-1號","121.500456666667","24.9578866666667","6500600","新店區"
"231052","515-UM","2019/10/05 19:29:23","新北市新店區新烏路二段302號","121.548766666667","24.9127183333333","6500600","新店區"
"231041","619-UM","2019/10/05 19:29:25","新北市新店區中正路566號","121.533853333333","24.987535","6500600","新店區"
"231063","641-BX","2019/10/05 19:29:13","新北市新店區達觀路16號","121.502995","24.9414116666667","6500600","新店區"
"231048","KED-0819","2019/10/05 19:29:09","新北市新店區五峰路71號","121.546361666667","24.968125","6500600","新店區"
"231046","719-UM","2019/10/05 19:29:22","新北市新店區北新路一段46號","121.541061666667","24.96616","6500600","新店區"
"231057","720-UM","2019/10/05 19:29:29","新北市新店區花園一路二段15號","121.550806666667","24.9333866666667","6500600","新店區"
"231059","897-TW","2019/10/05 19:29:19","新北市新店區安和路三段29號","121.517898333333","24.98125","6500600","新店區"
"231040","898-TW","2019/10/05 19:29:27","新北市新店區三民路43號","121.537175","24.9708983333333","6500600","新店區"
"231043","899-TW","2019/10/05 19:29:11","新北市新店區北新路二段187號","121.54271","24.977695","6500600","新店區"
"231066","AKT-0513","2019/10/05 19:29:29","新北市新店區安康路三段359巷12弄1號","121.484565","24.9497783333333","6500600","新店區"
"241028","022-UY","2019/10/05 19:29:16","新北市三重區中寮街30號","121.492596666667","25.0589783333333","6500200","三重區"
"241008","059-VK","2019/10/05 19:29:20","新北市三重區永福街135巷31號","121.477548333333","25.0771516666667","6500200","三重區"
"241002","060-VK","2019/10/05 19:29:20","新北市三重區仁義街91號","121.49982","25.0794133333333","6500200","三重區"
"241031","061-VK","2019/10/05 19:29:10","新北市三重區重新路四段184巷40號","121.488188333333","25.0551933333333","6500200","三重區"
"241017","063-VK","2019/10/05 19:29:25","新北市三重區中正北路25巷8號","121.49341","25.0628933333333","6500200","三重區"
"241007","066-VK","2019/10/05 19:29:29","新北市三重區溪尾街126巷4號","121.489113333333","25.0793033333333","6500200","三重區"
"241009","267-UM","2019/10/05 19:29:16","新北市三重區溪尾街242巷67號","121.486095","25.081465","6500200","三重區"
"241032","269-UM","2019/10/05 19:29:10","新北市三重區三陽路25號","121.485571666667","25.0588033333333","6500200","三重區"
"241013","270-UM","2019/10/05 19:29:20","新北市三重區仁愛街125巷2號","121.496395","25.075305","6500200","三重區"
"241025","271-UM","2019/10/05 19:29:17","新北市三重區頂崁街210巷28弄20號","121.475733333333","25.067165","6500200","三重區"
"241030","KED-0822","2019/10/05 19:29:10","新北市三重區環河南路254巷25號","121.490023333333","25.051205","6500200","三重區"
"241035","462-BY","2019/10/05 19:29:14","新北市三重區信義西街1巷1號","121.498001666667","25.06489","6500200","三重區"
"241020","478-VK","2019/10/05 19:29:14","新北市三重區三和路四段20巷22-1號","121.490278333333","25.0737866666667","6500200","三重區"
"241026","480-VK","2019/10/05 19:29:12","新北市三重區文化南路47巷4號","121.49977","25.06123","6500200","三重區"
"241023","545-UM","2019/10/05 19:29:14","新北市三重區頂崁街99號","121.477963333333","25.0638416666667","6500200","三重區"
"241022","KED-0820","2019/10/05 19:29:26","新北市三重區重陽路二段52巷83弄1號","121.484326666667","25.0655333333333","6500200","三重區"
"241006","887-TS","2019/10/05 19:29:15","新北市三重區三和路四段95-7號","121.487783333333","25.0759716666667","6500200","三重區"
"241029","942-UM","2019/10/05 19:29:16","新北市三重區泉州街84巷20號","121.495898333333","25.0543816666667","6500200","三重區"
"235066","003-UY","2019/10/05 19:29:16","新北市中和區景新街32號","121.503366666667","24.99934","6500300","中和區"
"235063","006-UY","2019/10/05 19:29:20","新北市中和區連城路203巷10弄2號","121.49503","24.9974216666667","6500300","中和區"
"235056","096-UM","2019/10/05 19:29:18","新北市中和區員山路581巷2弄1號","121.477983333333","25.0094366666667","6500300","中和區"
"235039","097-UM","2019/10/05 19:29:25","新北市中和區秀峰街127巷2號","121.519606666667","24.9909983333333","6500300","中和區"
"235065","098-UM","2019/10/05 19:29:20","新北市中和區中山路二段2巷13弄6號","121.50347","25.00654","6500300","中和區"
"235004","150-BY","2019/10/05 19:29:24","新北市中和區保健路46巷24弄1號","121.50853","24.9955633333333","6500300","中和區"
"235058","151-BY","2019/10/05 19:29:19","新北市中和區連城路525號","121.481668333333","24.99517","6500300","中和區"
"235055","183-VK","2019/10/05 19:29:10","新北市中和區中山路三段147號","121.473701666667","25.00595","6500300","中和區"
"235038","185-VK","2019/10/05 19:29:24","新北市中和區大仁街10巷27弄4號","121.519198333333","24.9927266666667","6500300","中和區"
"235067","255-BX","2019/10/05 19:29:23","新北市中和區新生街220巷13號","121.482911666667","24.9984883333333","6500300","中和區"
"235044","293-VK","2019/10/05 19:29:16","新北市中和區捷運路155號","121.506496666667","24.9911566666667","6500300","中和區"
"235072","301-VK","2019/10/05 19:29:30","新北市中和區連城路265巷8弄2號","121.491546666667","24.99566","6500300","中和區"
"235043","352-BY","2019/10/05 19:29:16","新北市中和區安和路31號","121.510181666667","24.9944316666667","6500300","中和區"
"235042","KEA-2878","2019/10/05 19:29:19","新北市中和區中和路262巷24弄1號","121.509801666667","24.999275","6500300","中和區"
"235069","4980-A6","2019/10/05 19:29:14","新北市中和區福美路301巷44號","121.497625","25.00344","6500300","中和區"
"235070","558-UM","2019/10/05 19:29:25","新北市中和區連勝街11號","121.498833333333","24.998355","6500300","中和區"
"235045","565-BX","2019/10/05 19:29:19","新北市中和區景新街467巷11號","121.513741666667","24.9882216666667","6500300","中和區"
"235060","KED-0823","2019/10/05 19:29:28","新北市中和區員山路294巷21號","121.482313333333","25.002625","6500300","中和區"
"235054","640-BX","2019/10/05 19:29:13","新北市中和區民德路189巷1號","121.468638333333","24.9992233333333","6500300","中和區"
"235047","732-UM","2019/10/05 19:29:23","新北市中和區景平路241巷64弄8號","121.507686666667","24.9925266666667","6500300","中和區"
"235071","783-BX","2019/10/05 19:29:30","新北市中和區連城路469巷21弄22號","121.484126666667","24.9950816666667","6500300","中和區"
"235057","801-TS","2019/10/05 19:29:09","新北市中和區員山路150-2號","121.481283333333","24.9973383333333","6500300","中和區"
"235041","802-TS","2019/10/05 19:29:28","新北市中和區中和路390號","121.511041666667","25.0025666666667","6500300","中和區"
"235052","805-TS","2019/10/05 19:29:15","新北市中和區華新街143巷71弄45號","121.507638333333","24.9793366666667","6500300","中和區"
"235048","896-TW","2019/10/05 19:29:16","新北市中和區忠孝街1巷2-1號","121.50908","24.9830533333333","6500300","中和區"
"235053","900-TW","2019/10/05 19:29:12","新北市中和區華順街1號","121.467966666667","24.9987866666667","6500300","中和區"
"235064","911-UM","2019/10/05 19:29:20","新北市中和區南山路40號","121.501968333333","24.9976166666667","6500300","中和區"
"235051","157-BY","2019/10/05 19:29:19","新北市中和區景新街99號","121.505391666667","24.998035","6500300","中和區"
"235037","AAC-213","2019/10/05 19:29:21","新北市中和區秀朗路三段50巷2-1號","121.525711666667","24.9954966666667","6500300","中和區"
"235059","AAC-215","2019/10/05 19:29:11","新北市中和區圓通路252巷2-6號","121.493396666667","24.9914783333333","6500300","中和區"
"220065","072-UY","2019/10/05 19:29:22","新北市板橋區國泰街75巷29-1號","121.467946666667","25.005525","6500100","板橋區"
"220086","073-UY","2019/10/05 19:29:22","新北市板橋區中正路216巷23號","121.456706666667","25.018745","6500100","板橋區"
"220106","075-UY","2019/10/05 19:29:30","新北市板橋區雙十路三段5號","121.471905","25.0301683333333","6500100","板橋區"
"220069","AAD-861","2019/10/05 19:29:16","新北市板橋區貴興路106巷2號","121.455496666667","25.00269","6500100","板橋區"
"247004","336-TH","2019/10/05 19:29:22","新北市蘆洲區長安街148號","121.460031666667","25.0823316666667","6501400","蘆洲區"
"226004","312-R5","2019/10/05 19:29:23","新北市平溪區十分里十分街193號","121.778296666667","25.0439483333333","6502400","平溪區"
"235049","251-BX","2019/10/05 19:29:23","新北市中和區景新街273巷27號","121.510428333333","24.99399","6500300","中和區"
"228003","097-TW","2019/10/05 19:29:12","新北市貢寮區和美里和美街19-2號","121.912815","25.0825916666667","6502600","貢寮區"
"228001","212-TW","2019/10/05 19:29:29","新北市貢寮區真理里大澳街31號","121.925045","25.056285","6502600","貢寮區"
"224008","273-VK","2019/10/05 19:29:24","新北市瑞芳區一坑路183號","121.801703333333","25.1080216666667","6501200","瑞芳區"
"227002","642-TC","2019/10/05 19:29:16","新北市雙溪區雙溪里光復街22號","121.8652","25.0354366666667","6502500","雙溪區"
"227001","400-TW","2019/10/05 19:29:12","新北市雙溪區新基里新基北街43號","121.868201666667","25.0397","6502500","雙溪區"
"222001","KEA-2212","2019/10/05 19:29:26","新北市深坑區北深路二段134號","121.61576","25.0029966666667","6501800","深坑區"
"208002","KEA-2872","2019/10/05 19:29:19","新北市金山區中山路311號","121.635768333333","25.2236766666667","6502700","金山區"
"208003","665-BX","2019/10/05 19:29:26","新北市金山區仁愛路37-13號","121.635745","25.2202883333333","6502700","金山區"
"251009","008-UM","2019/10/05 19:29:18","新北市淡水區中山路135號","121.441031666667","25.1716133333333","6501000","淡水區"
"251005","010-UM","2019/10/05 19:29:26","新北市淡水區水源街一段47巷36號","121.444108333333","25.1733533333333","6501000","淡水區"
"251001","011-UM","2019/10/05 19:29:13","新北市淡水區民權路139-1號","121.460025","25.1364983333333","6501000","淡水區"
"251015","KEA-2871","2019/10/05 19:29:29","新北市淡水區山子頂24-1號","121.491365","25.187195","6501000","淡水區"
"251016","179-VK","2019/10/05 19:29:20","新北市淡水區淡金路三段350巷18號","121.450753333333","25.2083","6501000","淡水區"
"251008","181-VK","2019/10/05 19:29:18","新北市淡水區中正路一段21號","121.426366666667","25.1762666666667","6501000","淡水區"
"251013","182-VK","2019/10/05 19:29:15","新北市淡水區安子內18號","121.471826666667","25.2186783333333","6501000","淡水區"
"251010","413-VK","2019/10/05 19:29:10","新北市淡水區中正路二段395號","121.425901666667","25.19086","6501000","淡水區"
"251007","442-VK","2019/10/05 19:29:25","新北市淡水區中正東路二段143巷8弄1號","121.46164","25.1477566666667","6501000","淡水區"
"251006","561-UM","2019/10/05 19:29:22","新北市淡水區大義街51號","121.441428333333","25.17807","6501000","淡水區"
"251014","577-R6","2019/10/05 19:29:13","新北市淡水區小中寮19-7號","121.484741666667","25.2296133333333","6501000","淡水區"
"251002","672-BX","2019/10/05 19:29:18","新北市淡水區新民街一段117號","121.427958333333","25.1878516666667","6501000","淡水區"
"251003","766-UM","2019/10/05 19:29:18","新北市淡水區濱海路一段53號","121.443853333333","25.1891516666667","6501000","淡水區"
"207003","550-UM","2019/10/05 19:29:13","新北市萬里區大鵬里萬里加投101號","121.64623","25.2131266666667","6502800","萬里區"
"207004","291-VK","2019/10/05 19:29:30","新北市萬里區萬里里瑪鋉路85-2號","121.688685","25.1771983333333","6502800","萬里區"
"252002","178-VK","2019/10/05 19:29:16","新北市三芝區淡金路二段18-1號","121.50269","25.2595383333333","6502100","三芝區"
"208001","170-UY","2019/10/05 19:29:24","新北市金山區南勢54號","121.628546666667","25.2207866666667","6502700","金山區"
"237004","KEA-2597","2019/10/05 19:29:26","新北市三峽區有木206號","121.439091666667","24.85145","6500900","三峽區"
"237007","153-BY","2019/10/05 19:29:09","新北市三峽區二鬮路136巷18弄21號","121.358776666667","24.9084833333333","6500900","三峽區"
"237009","210-TH","2019/10/05 19:29:25","新北市三峽區民權街49號","121.369685","24.9334","6500900","三峽區"
"237013","252-BX","2019/10/05 19:29:25","新北市三峽區介壽路一段316-2號","121.380856666667","24.930195","6500900","三峽區"
"237012","275-BY","2019/10/05 19:29:13","新北市三峽區三樹路98巷175號","121.384528333333","24.9399466666667","6500900","三峽區"
"237008","302-VK","2019/10/05 19:29:21","新北市三峽區永安街142號","121.374056666667","24.9287216666667","6500900","三峽區"
"237014","433-BY","2019/10/05 19:29:24","新北市三峽區中山路63巷8號","121.366898333333","24.9343066666667","6500900","三峽區"
"237006","5529-G3","2019/10/05 19:29:18","新北市三峽區中正路一段336巷15弄2號","121.369975","24.92495","6500900","三峽區"
"237011","KEA-2596","2019/10/05 19:29:18","新北市三峽區介壽路一段418號","121.384161666667","24.931205","6500900","三峽區"
"237015","649-BX","2019/10/05 19:29:27","新北市三峽區安坑7號","121.439805","24.92654","6500900","三峽區"
"237010","706-TV","2019/10/05 19:29:24","新北市三峽區民生街68號","121.374646666667","24.93596","6500900","三峽區"
"237005","AKY-6261","2019/10/05 19:29:30","新北市三峽區復興路367巷3號","121.363688333333","24.9379916666667","6500900","三峽區"
"236079","166-UM","2019/10/05 19:29:20","新北市土城區中州路12巷8號","121.414995","24.95738","6501300","土城區"
"236026","269-VK","2019/10/05 19:29:15","新北市土城區中央路二段61巷26號","121.443295","24.97865","6501300","土城區"
"236070","KEA-2877","2019/10/05 19:29:26","新北市土城區學府路一段159號","121.453156666667","24.9858866666667","6501300","土城區"
"252001","KED-0821","2019/10/05 19:29:25","新北市三芝區長勤街42號","121.500615","25.2556083333333","6502100","三芝區"
"236021","401-BY","2019/10/05 19:29:23","新北市土城區峰廷街3號","121.469026666667","24.9873016666667","6501300","土城區"
"236055","AAC-216","2019/10/05 19:29:25","新北市土城區學府路一段276號","121.450203333333","24.9832966666667","6501300","土城區"
"242002","566-BX","2019/10/05 19:29:30","新北市樹林區中正路163號","121.424021666667","25.0021883333333","6500500","新莊區"
"238015","755-BX","2019/10/05 19:29:27","新北市樹林區復興路285號","121.41889","24.9891216666667","6500700","樹林區"
"238023","601-UM","2019/10/05 19:29:20","新北市樹林區中正路859-1號","121.408936666667","25.0179383333333","6500700","樹林區"
"238019","599-UM","2019/10/05 19:29:16","新北市樹林區東榮街50號","121.417178333333","24.9831866666667","6500700","樹林區"
"238024","5061-A6","2019/10/05 19:29:27","新北市樹林區福德街17號","121.401006666667","24.97608","6500700","樹林區"
"238018","KEA-2217","2019/10/05 19:29:17","新北市樹林區中華路173號","121.420858333333","24.9819466666667","6500700","樹林區"
"238022","KEA-2213","2019/10/05 19:29:14","新北市樹林區八德街117號","121.420576666667","24.9805383333333","6500700","樹林區"
"238021","KEA-2539","2019/10/05 19:29:28","新北市樹林區大雅路7號","121.380633333333","24.9444183333333","6500700","樹林區"
"238025","303-VK","2019/10/05 19:29:27","新北市樹林區中山路一段308號","121.420135","24.98633","6500700","樹林區"
"238017","283-BY","2019/10/05 19:29:11","新北市樹林區光興街157巷8號","121.40764","25.004085","6500700","樹林區"
"238014","282-BY","2019/10/05 19:29:14","新北市樹林區千歲街6巷19號","121.425785","24.99512","6500700","樹林區"
"238020","268-VK","2019/10/05 19:29:22","新北市樹林區俊英街121巷53號","121.42361","25.0094383333333","6500700","樹林區"
"238026","172-UY","2019/10/05 19:29:14","新北市樹林區佳園路三段93號","121.38764","24.9523533333333","6500700","樹林區"
"238016","169-UY","2019/10/05 19:29:31","新北市樹林區復興路464巷19號","121.412895","24.9833816666667","6500700","樹林區"
"239007","AAC-297","2019/10/05 19:29:17","新北市鶯歌區西湖街53巷18號","121.340446666667","24.9598816666667","6500800","鶯歌區"
"239006","891-R6","2019/10/05 19:29:29","新北市鶯歌區鶯桃路67巷26號","121.340863333333","24.95211","6500800","鶯歌區"
"239008","527-UM","2019/10/05 19:29:31","新北市鶯歌區大湖路530巷2-1號","121.337475","24.97293","6500800","鶯歌區"
"239005","526-UM","2019/10/05 19:29:28","新北市鶯歌區東湖路19-1號","121.358198333333","24.97384","6500800","鶯歌區"
"239001","417-VK","2019/10/05 19:29:24","新北市鶯歌區永明街23號","121.338645","24.95562","6500800","鶯歌區"
"239003","360-BY","2019/10/05 19:29:29","新北市鶯歌區重慶街23號","121.351663333333","24.952635","6500800","鶯歌區"
"239002","359-BY","2019/10/05 19:29:24","新北市鶯歌區鶯桃路182巷96弄13號","121.340611666667","24.95793","6500800","鶯歌區"
"239004","193-VK","2019/10/05 19:29:17","新北市鶯歌區二甲路2號","121.334815","24.9345883333333","6500800","鶯歌區"
"221008","489-VK","2019/10/05 19:29:30","新北市汐止區康寧街235號","121.62406","25.066745","6501100","汐止區"
"221027","281-BY","2019/10/05 19:29:26","新北市汐止區忠孝東路9號","121.658278333333","25.0659216666667","6501100","汐止區"
"221021","299-VK","2019/10/05 19:29:24","新北市汐止區大同路二段273號","121.6523","25.0675","6501100","汐止區"
"221025","623-UM","2019/10/05 19:29:22","新北市汐止區忠孝東路201號","121.65927","25.0659583333333","6501100","汐止區"
"221002","707-TV","2019/10/05 19:29:22","新北市汐止區大同路一段337巷7號","121.638133333333","25.0597483333333","6501100","汐止區"
"220079","145-BY","2019/10/05 19:29:23","新北市板橋區公館街31號","121.461403333333","25.01555","6500100","板橋區"
"220080","200-UY","2019/10/05 19:29:21","新北市板橋區大觀路二段3巷83號","121.450013333333","25.003385","6500100","板橋區"
"220082","610-BX","2019/10/05 19:29:19","新北市板橋區金門街291號","121.43042","24.9868383333333","6500100","板橋區"
"220091","267-BY","2019/10/05 19:29:27","新北市板橋區文聖街149巷18號","121.479355","25.02832","6500100","板橋區"
"220056","276-BY","2019/10/05 19:29:28","新北市板橋區信義路117號","121.457685","24.9933683333333","6500100","板橋區"
"220101","280-UM","2019/10/05 19:29:21","新北市板橋區莒光路196巷33號","121.472685","25.02242","6500100","板橋區"
"220071","283-VK","2019/10/05 19:29:27","新北市板橋區仁愛路73巷12號","121.461013333333","25.0003833333333","6500100","板橋區"
"220094","285-UM","2019/10/05 19:29:24","新北市板橋區銘傳街37號","121.468635","25.0310683333333","6500100","板橋區"
"220083","286-VK","2019/10/05 19:29:26","新北市板橋區龍興街95巷1號","121.443991666667","25.002295","6500100","板橋區"
"220081","287-VK","2019/10/05 19:29:31","新北市板橋區南雅西路一段7巷11號","121.454106666667","25.0042716666667","6500100","板橋區"
"220090","288-VK","2019/10/05 19:29:11","新北市板橋區長江路一段48巷4弄1-3號","121.45912","25.0285416666667","6500100","板橋區"
"220061","293-UM","2019/10/05 19:29:19","新北市板橋區中山路二段70號","121.474371666667","25.0160116666667","6500100","板橋區"
"220084","296-UM","2019/10/05 19:29:27","新北市板橋區篤行路三段玉平巷18號","121.428901666667","24.9873083333333","6500100","板橋區"
"220053","299-UM","2019/10/05 19:29:25","新北市板橋區懷仁街77巷20號","121.477613333333","25.0189316666667","6500100","板橋區"
"220075","303-R5","2019/10/05 19:29:12","新北市板橋區中正路275巷93號","121.45077","25.0180733333333","6500100","板橋區"
"220062","305-R5","2019/10/05 19:29:17","新北市板橋區三民路二段165號","121.479141666667","25.0146016666667","6500100","板橋區"
"220092","307-R5","2019/10/05 19:29:17","新北市板橋區陽明街164巷15號","121.464023333333","25.0244783333333","6500100","板橋區"
"220098","317-R6","2019/10/05 19:29:24","新北市板橋區四維路266巷2弄20號","121.463921666667","25.0281066666667","6500100","板橋區"
"220072","461-BY","2019/10/05 19:29:20","新北市板橋區篤行路二段141巷17號","121.430423333333","24.987825","6500100","板橋區"
"220089","487-VK","2019/10/05 19:29:12","新北市板橋區龍泉街95-4號","121.456983333333","25.0246316666667","6500100","板橋區"
"220088","491-VK","2019/10/05 19:29:20","新北市板橋區文化路二段560號","121.476386666667","25.034325","6500100","板橋區"
"220035","560-BX","2019/10/05 19:29:25","新北市板橋區中正路433巷27號","121.45325","25.02363","6500100","板橋區"
"220103","561-BX","2019/10/05 19:29:29","新北市板橋區陽明街29巷1弄20號","121.464285","25.0219566666667","6500100","板橋區"
"220063","609-BX","2019/10/05 19:29:10","新北市板橋區萬安街92號","121.48385","25.024035","6500100","板橋區"
"220055","630-UY","2019/10/05 19:29:17","新北市板橋區重慶路278巷5號","121.462653333333","24.999655","6500100","板橋區"
"220057","686-BX","2019/10/05 19:29:25","新北市板橋區和平路安樂巷25號","121.46167","24.993665","6500100","板橋區"
"220077","687-BX","2019/10/05 19:29:15","新北市板橋區大觀路一段28巷40號","121.449875","25.0097066666667","6500100","板橋區"
"220093","689-BX","2019/10/05 19:29:18","新北市板橋區新海路436號","121.458008333333","25.0277016666667","6500100","板橋區"
"220054","741-BX","2019/10/05 19:29:26","新北市板橋區重慶路155巷11號","121.46277","25.0039933333333","6500100","板橋區"
"220102","KEA-2699","2019/10/05 19:29:17","新北市板橋區雙十路二段130巷2弄76號","121.47563","25.0291566666667","6500100","板橋區"
"220068","830-TW","2019/10/05 19:29:15","新北市板橋區翠華街6巷68號","121.481761666667","25.0250483333333","6500100","板橋區"
"220067","831-TW","2019/10/05 19:29:20","新北市板橋區漢生東路313巷39號","121.472858333333","25.00861","6500100","板橋區"
"220074","895-R6","2019/10/05 19:29:13","新北市板橋區北門街5號","121.457645","25.010515","6500100","板橋區"
"220073","985-R7","2019/10/05 19:29:23","新北市板橋區中正路346號","121.454203333333","25.023425","6500100","板橋區"
"220097","AAC-210","2019/10/05 19:29:20","新北市板橋區文化路一段285巷2弄28號","121.464068333333","25.019615","6500100","板橋區"
"220064","AAC-253","2019/10/05 19:29:15","新北市板橋區中山路一段52號","121.461325","25.0095533333333","6500100","板橋區"
"235068","KEA-2873","2019/10/05 19:29:10","新北市中和區景平路493巷1號","121.4999","24.997685","6500300","中和區"
"235061","KEA-2875","2019/10/05 19:29:27","新北市中和區民利街9巷2弄2號","121.480633333333","24.99875","6500300","中和區"
