"lineid","car","time","location","longitude","latitude","cityid","cityname"
"249002","305-UY","2019/10/05 21:29:19","新北市八里區博物館路10-1號","121.415228333333","25.16401","6502300","八里區"
"231051","107-UY","2019/10/05 21:29:27","新北市新店區薏仁坑路自強巷1號","121.497058333333","24.9580133333333","6500600","新店區"
"231063","641-BX","2019/10/05 21:29:13","新北市新店區如意街52號","121.49366","24.947135","6500600","新店區"
"231059","897-TW","2019/10/05 21:29:19","新北市新店區薏仁坑路自強巷1號","121.497441666667","24.9577366666667","6500600","新店區"
"241002","060-VK","2019/10/05 21:29:20","新北市蘆洲區中正路520巷9號","121.462346666667","25.0994616666667","6500200","三重區"
"241017","063-VK","2019/10/05 21:29:25","新北市三重區中正北路25巷25弄1號","121.493165","25.0626266666667","6500200","三重區"
"241024","065-VK","2019/10/05 21:29:24","新北市三重區中正北路145巷14號","121.484121666667","25.0677716666667","6500200","三重區"
"241007","066-VK","2019/10/05 21:29:09","新北市三重區信義西街118號","121.495793333333","25.0642916666667","6500200","三重區"
"241003","091-VK","2019/10/05 21:29:20","新北市三重區五華街71巷115號","121.495185","25.08442","6500200","三重區"
"241016","266-UM","2019/10/05 21:29:18","新北市三重區信義西街110號","121.495905","25.064285","6500200","三重區"
"241032","269-UM","2019/10/05 21:29:29","新北市八里區下罟子17號","121.380238333333","25.14337","6500200","三重區"
"241005","AAD-863","2019/10/05 21:29:31","新北市三重區碧華街1號","121.48351","25.0809816666667","6500200","三重區"
"241006","887-TS","2019/10/05 21:29:15","新北市三重區三民街188號","121.48175","25.065915","6500200","三重區"
"241033","AAC-255","2019/10/05 21:29:30","新北市五股區成泰路一段98巷77號","121.451475","25.0763466666667","6500200","三重區"
"235018","640-BX","2019/10/05 21:04:59","新北市中和區員山路36巷16-2號","121.48525","24.9916016666667","6500300","中和區"
"247006","893-R6","2019/10/05 21:29:10","新北市五股區新五路二段372巷20號","121.447995","25.0849016666667","6501400","蘆洲區"
"247008","002-UY","2019/10/05 21:29:19","新北市五股區中興路二段182巷15弄13號","121.457251666667","25.0813683333333","6501400","蘆洲區"
"247002","001-UY","2019/10/05 21:29:27","新北市五股區凌雲路三段24巷21-6號","121.434801666667","25.1073483333333","6501400","蘆洲區"
"251009","008-UM","2019/10/05 21:29:27","新北市淡水區民族路33巷2-7號","121.464045","25.137115","6501000","淡水區"
"251004","009-UM","2019/10/05 21:29:19","新北市淡水區民族路2號","121.460371666667","25.1369783333333","6501000","淡水區"
"251005","010-UM","2019/10/05 21:29:26","新北市淡水區水源街一段69號","121.444431666667","25.172295","6501000","淡水區"
"251001","011-UM","2019/10/05 21:29:13","新北市淡水區新市二路三段18號","121.43292","25.193695","6501000","淡水區"
"251016","179-VK","2019/10/05 21:29:13","新北市淡水區前洲子11號","121.441133333333","25.2193116666667","6501000","淡水區"
"251008","181-VK","2019/10/05 21:29:14","新北市淡水區水源街二段160-8號","121.454813333333","25.1751966666667","6501000","淡水區"
"251013","182-VK","2019/10/05 21:29:15","新北市淡水區埤島60-1號","121.459316666667","25.19536","6501000","淡水區"
"251010","413-VK","2019/10/05 21:29:30","新北市淡水區沙崙路25巷21號","121.420556666667","25.1825133333333","6501000","淡水區"
"251012","443-VK","2019/10/05 21:29:17","新北市淡水區淡金路五段35巷46號","121.452501666667","25.2347416666667","6501000","淡水區"
"251006","561-UM","2019/10/05 21:29:22","新北市淡水區公明街55號","121.443515","25.168705","6501000","淡水區"
"251014","577-R6","2019/10/05 21:29:13","新北市淡水區六塊厝2-1號","121.450158333333","25.2404716666667","6501000","淡水區"
"251011","650-BX","2019/10/05 21:29:19","新北市淡水區新民街154號","121.43732","25.1782433333333","6501000","淡水區"
"251002","672-BX","2019/10/05 21:29:18","新北市淡水區學府路172巷21號","121.448331666667","25.1749266666667","6501000","淡水區"
"251003","766-UM","2019/10/05 21:29:18","新北市淡水區新春街65巷13號","121.437845","25.18243","6501000","淡水區"
