"lineid","car","time","location","longitude","latitude","cityid","cityname"
"241002","060-VK","2019/10/05 22:29:20","新北市五股區中興路二段182巷3號","121.455686666667","25.0780233333333","6500200","三重區"
"251004","009-UM","2019/10/05 22:29:19","新北市淡水區民族路33號","121.462335","25.1358283333333","6501000","淡水區"
"251008","181-VK","2019/10/05 22:29:13","新北市淡水區學府路104號","121.449868333333","25.17178","6501000","淡水區"
"251010","413-VK","2019/10/05 22:29:25","新北市淡水區沙崙路214號","121.42509","25.1842","6501000","淡水區"
"251007","442-VK","2019/10/05 22:29:25","新北市淡水區北新路180號","121.449476666667","25.1786533333333","6501000","淡水區"
"251011","650-BX","2019/10/05 22:29:19","新北市淡水區水碓街7號","121.443176666667","25.17709","6501000","淡水區"
