"lineid","car","time","location","longitude","latitude","cityid","cityname"
"234044","148-BY","2019/08/24 12:39:39","新北市永和區永元路68號","121.522578333333","25.0016233333333","6500400","永和區"
"234078","298-R6","2019/08/24 12:39:40","新北市永和區林森路83號","121.523891666667","25.00378","6500400","永和區"
"234036","336-UY","2019/08/24 12:39:25","新北市永和區福和路1號","121.526545","25.0102483333333","6500400","永和區"
"234062","337-UY","2019/08/24 12:39:43","新北市永和區福和路1號","121.526555","25.0101816666667","6500400","永和區"
"234084","338-UY","2019/08/24 12:39:40","新北市永和區中正路352號","121.517825","25.0005166666667","6500400","永和區"
"234068","552-UM","2019/08/24 12:39:35","新北市永和區福和路1號","121.525353333333","25.0094466666667","6500400","永和區"
"234015","745-BX","2019/08/24 12:39:37","新北市永和區豫溪街217巷27號","121.524673333333","25.0103566666667","6500400","永和區"
"234028","746-BX","2019/08/24 12:39:32","新北市永和區成功路一段49號","121.527025","25.0040033333333","6500400","永和區"
"234005","KED-0605","2019/08/24 12:39:27","新北市永和區福和路1號","121.52571","25.0094633333333","6500400","永和區"
"234012","KEA-2591","2019/08/24 12:36:35","新北市永和區豫溪街217巷29號","121.524623333333","25.0104933333333","6500400","永和區"
"234060","AAD-866","2019/08/24 12:39:35","新北市永和區福和路1號","121.525865","25.0095366666667","6500400","永和區"
"234040","862-TW","2019/08/24 12:39:30","新北市永和區福和路175號","121.519943333333","25.0075983333333","6500400","永和區"
"234025","9371-KE","2019/08/24 12:39:25","新北市永和區福和路1號","121.526423333333","25.0098916666667","6500400","永和區"
"234010","9373-KE","2019/08/24 12:39:33","新北市永和區保福路二段163巷14號","121.50878","25.014645","6500400","永和區"
"234022","9380-KE","2019/08/24 12:39:38","新北市永和區福和路1號","121.526315","25.00964","6500400","永和區"
"234076","969-R7","2019/08/24 12:39:42","新北市永和區中正路356號","121.517678333333","25.000625","6500400","永和區"
"234066","AAC-212","2019/08/24 12:39:27","新北市永和區福和路139號","121.520985","25.0075583333333","6500400","永和區"
"234001","AAC-295","2019/08/24 12:39:23","新北市永和區福和路1號","121.526056666667","25.0090433333333","6500400","永和區"
"231003","268-BY","2019/08/24 12:39:25","新北市新店區安一路一段1-1號","121.519768333333","24.9614133333333","6500600","新店區"
"231010","719-UM","2019/08/24 12:39:30","新北市新店區安一路一段1-1號","121.519546666667","24.961245","6500600","新店區"
"231026","720-UM","2019/08/24 12:39:28","新北市新店區安一路一段1-1號","121.519231666667","24.9612216666667","6500600","新店區"
"220013","072-UY","2019/08/24 12:39:43","新北市板橋區華東街1-10號","121.448681666667","24.994945","6500100","板橋區"
"228005","097-TW","2019/08/24 12:39:29","新北市貢寮區福連里蓬萊街15號","121.994318333333","25.00191","6502600","貢寮區"
"228004","212-TW","2019/08/24 12:39:26","新北市貢寮區吉林里枋腳街6-2號","121.88771","25.00611","6502600","貢寮區"
"207002","749-BX","2019/08/24 12:37:18","新北市萬里區雙興里太和路8號","121.657968333333","25.17439","6502800","萬里區"
"207001","662-BX","2019/08/24 12:39:32","新北市萬里區萬里里獅頭路15-1號","121.697948333333","25.1802133333333","6502800","萬里區"
"237014","760-BX","2019/08/24 12:39:29","新北市三峽區中山路459巷135號","121.348635","24.9329716666667","6500900","三峽區"
"235025","KEA-2875","2019/08/24 12:27:55","新北市中和區和城路一段271巷1號","121.485501666667","24.99168","6500300","中和區"
