"lineid","car","time","location","longitude","latitude","cityid","cityname"
"234044","148-BY","2019/08/24 13:09:39","新北市永和區永元路18巷23號","121.52345","25.000225","6500400","永和區"
"234078","298-R6","2019/08/24 13:09:40","新北市永和區永亨路83號","121.521828333333","25.005695","6500400","永和區"
"234036","336-UY","2019/08/24 13:09:34","新北市永和區民樂街71巷2號","121.52737","24.9973533333333","6500400","永和區"
"234062","337-UY","2019/08/24 13:09:43","新北市永和區秀朗路二段67號","121.52208","25.0019766666667","6500400","永和區"
"234084","338-UY","2019/08/24 13:09:40","新北市永和區永貞路47-1號","121.519675","25.0045183333333","6500400","永和區"
"234068","552-UM","2019/08/24 13:09:39","新北市永和區豫溪街95巷7號","121.518251666667","25.0104566666667","6500400","永和區"
"234015","745-BX","2019/08/24 13:09:37","新北市永和區文化路90巷3弄2號","121.513838333333","25.0156733333333","6500400","永和區"
"234028","746-BX","2019/08/24 13:09:31","新北市永和區民生路23號","121.522898333333","24.99883","6500400","永和區"
"234052","KEA-2590","2019/08/24 13:09:31","新北市永和區中興街133巷6號","121.518713333333","25.0126433333333","6500400","永和區"
"234005","KED-0605","2019/08/24 13:09:27","新北市永和區中山路一段193號","121.509263333333","25.0089683333333","6500400","永和區"
"234012","KEA-2591","2019/08/24 13:09:35","新北市永和區保福路二段40號","121.511016666667","25.0120083333333","6500400","永和區"
"234060","AAD-866","2019/08/24 13:09:35","新北市永和區安樂路340號","121.514423333333","25.0061333333333","6500400","永和區"
"234040","862-TW","2019/08/24 13:09:30","新北市永和區永貞路334號","121.511271666667","25.00556","6500400","永和區"
"234048","863-TW","2019/08/24 13:09:25","新北市永和區文化路135巷32弄1號","121.510935","25.0140166666667","6500400","永和區"
"234025","9371-KE","2019/08/24 13:09:25","新北市永和區秀朗路一段10巷19號","121.513441666667","25.00617","6500400","永和區"
"234010","9373-KE","2019/08/24 13:09:33","新北市永和區仁愛路70號","121.513086666667","25.0134233333333","6500400","永和區"
"248017","KED-0813","2019/08/24 13:09:39","新北市五股區芳洲路49號","121.441745","25.0837333333333","6501500","五股區"
"234022","9380-KE","2019/08/24 13:09:46","新北市永和區中興街10巷11號","121.515576666667","25.0112233333333","6500400","永和區"
"234076","969-R7","2019/08/24 13:09:42","新北市永和區民光街4號","121.515331666667","24.9962766666667","6500400","永和區"
"234072","AAC-211","2019/08/24 13:09:36","新北市永和區竹林路133號","121.520163333333","25.010955","6500400","永和區"
"234066","AAC-212","2019/08/24 13:09:30","新北市永和區永和路一段93號","121.513346666667","25.0076083333333","6500400","永和區"
"234001","AAC-295","2019/08/24 13:09:43","新北市永和區和平街2號","121.514213333333","25.0099783333333","6500400","永和區"
"231030","002-UM","2019/08/24 13:09:32","新北市新店區安華路28-1號","121.519766666667","24.9608683333333","6500600","新店區"
"231024","0291-UT","2019/08/24 13:09:26","新北市新店區安華路28-1號","121.519541666667","24.960685","6500600","新店區"
"231005","046-UY","2019/08/24 13:09:28","新北市新店區安華路28-1號","121.519216666667","24.9606633333333","6500600","新店區"
"231029","106-UY","2019/08/24 13:09:39","新北市新店區安華路28-1號","121.519928333333","24.96071","6500600","新店區"
"231018","107-UY","2019/08/24 13:09:41","新北市新店區安康路一段355號","121.519805","24.9629616666667","6500600","新店區"
"231036","110-UY","2019/08/24 13:09:41","新北市新店區安康路二段393號","121.494281666667","24.953945","6500600","新店區"
"231033","256-BX","2019/08/24 13:09:39","新北市新店區安一路一段1-1號","121.519711666667","24.9611916666667","6500600","新店區"
"231023","260-TV","2019/08/24 13:09:34","新北市新店區安一路一段1-1號","121.51908","24.9612683333333","6500600","新店區"
"231003","268-BY","2019/08/24 13:09:25","新北市新店區安康路一段3-1號","121.534483333333","24.9607066666667","6500600","新店區"
"231035","278-BY","2019/08/24 13:09:36","新北市新店區安一路一段1-1號","121.519805","24.9610983333333","6500600","新店區"
"231017","AAD-862","2019/08/24 13:09:27","新北市新店區安一路一段1-1號","121.519806666667","24.96111","6500600","新店區"
"231006","355-BY","2019/08/24 13:09:34","新北市新店區安一路一段1-1號","121.519133333333","24.9610033333333","6500600","新店區"
"231027","3713-VJ","2019/08/24 13:09:42","新北市新店區安華路28-1號","121.519105","24.9606416666667","6500600","新店區"
"231025","4715-K9","2019/08/24 13:09:43","新北市新店區安華路1-1號","121.519326666667","24.9603433333333","6500600","新店區"
"231020","513-UM","2019/08/24 13:09:44","新北市新店區安華路28-1號","121.519728333333","24.9610183333333","6500600","新店區"
"231034","616-UM","2019/08/24 13:09:32","新北市新店區安華路28-1號","121.519376666667","24.960615","6500600","新店區"
"231002","619-UM","2019/08/24 13:09:42","新北市新店區安華路28-1號","121.5195","24.96059","6500600","新店區"
"231012","KED-0819","2019/08/24 13:09:37","新北市新店區安一路一段1-1號","121.519773333333","24.9611666666667","6500600","新店區"
"231010","719-UM","2019/08/24 13:09:30","新北市新店區安一路一段1-1號","121.519443333333","24.9610683333333","6500600","新店區"
"231026","720-UM","2019/08/24 13:09:28","新北市新店區安一路一段1-1號","121.51918","24.9611","6500600","新店區"
"231001","898-TW","2019/08/24 13:09:38","新北市新店區安華路28-1號","121.51938","24.9609483333333","6500600","新店區"
"231037","AKT-0513","2019/08/24 13:09:32","新北市新店區安華路1-1號","121.519538333333","24.9603416666667","6500600","新店區"
"235028","005-UY","2019/08/24 13:09:40","新北市中和區中正路166-1號","121.498331666667","24.9938366666667","6500300","中和區"
"235027","006-UY","2019/08/24 13:09:32","新北市中和區員山路36巷16-3號","121.485026666667","24.9912733333333","6500300","中和區"
"235003","097-UM","2019/08/24 13:09:29","新北市中和區錦和路350-1號","121.490418333333","24.993565","6500300","中和區"
"235029","098-UM","2019/08/24 13:09:34","新北市中和區中山路二段201號","121.499695","25.0026816666667","6500300","中和區"
"235004","150-BY","2019/08/24 13:09:41","新北市中和區和城路一段271巷1號","121.485388333333","24.9920016666667","6500300","中和區"
"235022","151-BY","2019/08/24 13:09:25","新北市中和區圓通路367巷62-8號","121.492993333333","24.9831366666667","6500300","中和區"
"235019","183-VK","2019/08/24 13:09:32","新北市中和區中正路637巷52弄1號","121.485393333333","24.9936183333333","6500300","中和區"
"235002","185-VK","2019/08/24 13:09:39","新北市中和區大仁街20巷2號","121.517755","24.9931483333333","6500300","中和區"
"235031","255-BX","2019/08/24 13:09:27","新北市中和區新生街177巷2號","121.483978333333","25.0006883333333","6500300","中和區"
"235007","352-BY","2019/08/24 13:09:30","新北市中和區中正路2-1號","121.503165","24.9937283333333","6500300","中和區"
"235006","KEA-2878","2019/08/24 13:09:41","新北市中和區景平路159巷46號","121.512781666667","24.99143","6500300","中和區"
"235034","558-UM","2019/08/24 13:09:39","新北市中和區圓通路189號","121.49729","24.9945516666667","6500300","中和區"
"235009","565-BX","2019/08/24 13:09:28","新北市中和區復興路260號","121.503601666667","24.9904116666667","6500300","中和區"
"235024","KED-0823","2019/08/24 13:09:29","新北市中和區員山路226巷3弄16號","121.482026666667","25.0011183333333","6500300","中和區"
"235035","783-BX","2019/08/24 13:09:41","新北市中和區立德街200巷36號","121.485486666667","25.0100133333333","6500300","中和區"
"235073","800-TS","2019/08/24 13:09:42","新北市中和區景平路999巷2號","121.495401666667","25.0060116666667","6500300","中和區"
"235021","801-TS","2019/08/24 13:09:38","新北市中和區員山路109號","121.480816666667","24.9946316666667","6500300","中和區"
"235016","805-TS","2019/08/24 13:09:37","新北市中和區南山路240-9號","121.507263333333","24.98948","6500300","中和區"
"235017","900-TW","2019/08/24 13:09:40","新北市中和區員山路36巷16-2號","121.48527","24.9914783333333","6500300","中和區"
"235015","157-BY","2019/08/24 13:09:29","新北市中和區捷運路102號","121.505636666667","24.9914166666667","6500300","中和區"
"235001","AAC-213","2019/08/24 13:09:36","新北市中和區景德街67號","121.516976666667","24.9914366666667","6500300","中和區"
"220013","072-UY","2019/08/24 13:09:23","新北市板橋區華東街1-10號","121.448741666667","24.9948966666667","6500100","板橋區"
"247011","056-VK","2019/08/24 13:09:35","新北市五股區中興路三段2巷10號","121.448928333333","25.0811866666667","6501400","蘆洲區"
"235005","251-BX","2019/08/24 13:09:35","新北市中和區錦和路350-1號","121.49053","24.9936066666667","6500300","中和區"
"228005","097-TW","2019/08/24 13:09:29","新北市貢寮區仁理村尖山腳街20號","121.924678333333","25.0471333333333","6502600","貢寮區"
"228004","212-TW","2019/08/24 13:09:26","新北市貢寮區吉林里內寮街71號","121.891466666667","24.97309","6502600","貢寮區"
"253003","4710-YM","2019/08/24 13:07:50","新北市石門區中山路30-1號","121.566626666667","25.287545","6502200","石門區"
"253004","6251-TK","2019/08/24 13:09:43","新北市石門區阿里荖4-7號","121.612561666667","25.27911","6502200","石門區"
"253002","637-UY","2019/08/24 13:09:01","新北市石門區老崩山34-1號","121.556811666667","25.2764666666667","6502200","石門區"
"253001","KEC-0718","2019/08/24 13:09:36","新北市石門區楓林6-1號","121.537745","25.29615","6502200","石門區"
"207002","749-BX","2019/08/24 13:09:38","新北市萬里區溪底里香員林路15-2號","121.633633333333","25.16329","6502800","萬里區"
"252005","073-UM","2019/08/24 13:09:27","新北市三芝區八賢里八連溪17-2號","121.51079","25.2423816666667","6502100","三芝區"
"207001","662-BX","2019/08/24 13:09:32","新北市萬里區萬里里瑪鋉路85-2號","121.688705","25.1769316666667","6502800","萬里區"
"237014","760-BX","2019/08/24 13:09:29","新北市三峽區光明路69巷25號","121.376683333333","24.9292583333333","6500900","三峽區"
"221029","298-VK","2019/08/24 13:09:41","新北市汐止區中興路183巷1-3號","121.628933333333","25.0666416666667","6501100","汐止區"
"235032","KEA-2873","2019/08/24 13:09:40","新北市中和區員山路36巷16-3號","121.485006666667","24.9913","6500300","中和區"
"235025","KEA-2875","2019/08/24 13:09:44","新北市中和區國光街215巷22號","121.467068333333","25.0004766666667","6500300","中和區"
