"lineid","car","time","location","longitude","latitude","cityid","cityname"
"234078","298-R6","2019/08/24 14:19:40","新北市永和區國中路132巷4號","121.523706666667","25.0071066666667","6500400","永和區"
"234036","336-UY","2019/08/24 14:19:45","新北市永和區成功路一段93巷11號","121.527538333333","25.0027116666667","6500400","永和區"
"234062","337-UY","2019/08/24 14:19:43","新北市永和區得和路120號","121.518601666667","25.0001433333333","6500400","永和區"
"234084","338-UY","2019/08/24 14:19:40","新北市永和區中正路651號","121.515108333333","25.0102033333333","6500400","永和區"
"234068","552-UM","2019/08/24 14:19:35","新北市永和區福和路263巷13號","121.517991666667","25.00662","6500400","永和區"
"234015","745-BX","2019/08/24 14:19:37","新北市永和區仁愛路97號","121.512765","25.013175","6500400","永和區"
"234028","746-BX","2019/08/24 14:19:31","新北市永和區民權路51號","121.519943333333","24.9970083333333","6500400","永和區"
"234052","KEA-2590","2019/08/24 14:19:41","新北市永和區光復街31-1號","121.516625","25.0179416666667","6500400","永和區"
"234005","KED-0605","2019/08/24 14:19:27","新北市永和區中山路一段193號","121.509168333333","25.0088433333333","6500400","永和區"
"234012","KEA-2591","2019/08/24 14:19:35","新北市永和區保生路26號","121.506321666667","25.007585","6500400","永和區"
"234060","AAD-866","2019/08/24 14:19:35","新北市永和區安樂路164號","121.514708333333","25.0007916666667","6500400","永和區"
"234040","862-TW","2019/08/24 14:19:29","新北市中和區中安街168號","121.510893333333","24.9999016666667","6500400","永和區"
"234048","863-TW","2019/08/24 14:19:24","新北市永和區新生路22號","121.508851666667","25.0164466666667","6500400","永和區"
"234025","9371-KE","2019/08/24 14:19:25","新北市永和區安樂路144巷31號","121.515343333333","24.9997383333333","6500400","永和區"
"248017","KED-0813","2019/08/24 14:19:19","新北市五股區壟路16-1號","121.414616666667","25.0853583333333","6501500","五股區"
"234076","969-R7","2019/08/24 14:19:22","新北市永和區民族街81巷60號","121.52016","24.99659","6500400","永和區"
"234072","AAC-211","2019/08/24 14:19:36","新北市永和區竹林路119巷40號","121.522865","25.0116083333333","6500400","永和區"
"234066","AAC-212","2019/08/24 14:19:22","新北市永和區保平路292巷4號","121.507935","25.0047933333333","6500400","永和區"
"234001","AAC-295","2019/08/24 14:19:43","新北市永和區自強街32巷10號","121.516046666667","25.0078466666667","6500400","永和區"
"231030","002-UM","2019/08/24 14:19:32","新北市新店區安民街65巷11號","121.515356666667","24.9665216666667","6500600","新店區"
"231024","0291-UT","2019/08/24 14:19:26","新北市新店區薏仁坑路自強巷6號","121.496678333333","24.958485","6500600","新店區"
"231005","046-UY","2019/08/24 14:19:28","新北市新店區中興路三段137號","121.544581666667","24.97979","6500600","新店區"
"231029","106-UY","2019/08/24 14:19:39","新北市新店區安康路二段208-1號","121.510075","24.959565","6500600","新店區"
"231018","107-UY","2019/08/24 14:19:40","新北市新店區中央四街25號","121.528991666667","24.974425","6500600","新店區"
"231013","108-UY","2019/08/24 14:19:33","新北市新店區建國路128巷3號","121.539021666667","24.9793633333333","6500600","新店區"
"231036","110-UY","2019/08/24 14:19:41","新北市新店區安祥路109巷151弄3號","121.478181666667","24.9585933333333","6500600","新店區"
"231033","256-BX","2019/08/24 14:19:39","新北市新店區太平路6號","121.53458","24.9579283333333","6500600","新店區"
"231023","260-TV","2019/08/24 14:19:34","新北市新店區光明街35號","121.53858","24.9597033333333","6500600","新店區"
"231003","268-BY","2019/08/24 14:19:45","新北市新店區中興路一段202號","121.543586666667","24.965305","6500600","新店區"
"231035","278-BY","2019/08/24 14:19:36","新北市新店區光華街5巷1號","121.517818333333","24.968735","6500600","新店區"
"231017","AAD-862","2019/08/24 14:19:27","新北市新店區北宜路二段382號","121.564398333333","24.9529933333333","6500600","新店區"
"231006","355-BY","2019/08/24 14:19:34","新北市新店區北宜路二段419-1號","121.560421666667","24.9546016666667","6500600","新店區"
"231038","3712-VJ","2019/08/24 14:19:31","新北市新店區溪洲路8巷38號","121.53337","24.962075","6500600","新店區"
"231027","3713-VJ","2019/08/24 14:19:23","新北市新店區光明街286巷8號","121.54068","24.9635233333333","6500600","新店區"
"231020","513-UM","2019/08/24 14:19:25","新北市新店區屈尺路190號","121.54505","24.923575","6500600","新店區"
"231034","616-UM","2019/08/24 14:19:32","新北市新店區車子路11號","121.503053333333","24.95208","6500600","新店區"
"231002","619-UM","2019/08/24 14:19:42","新北市新店區中央路155號","121.52986","24.9727066666667","6500600","新店區"
"231012","KED-0819","2019/08/24 14:19:29","新北市新店區五峰路59-9號","121.54796","24.9699416666667","6500600","新店區"
"231028","897-TW","2019/08/24 14:19:42","新北市新店區安和路二段163號","121.518905","24.974285","6500600","新店區"
"231001","898-TW","2019/08/24 14:19:38","新北市新店區北新路一段283號","121.541281666667","24.9668316666667","6500600","新店區"
"231004","899-TW","2019/08/24 14:19:40","新北市新店區博愛街1號","121.540476666667","24.9725183333333","6500600","新店區"
"231037","AKT-0513","2019/08/24 14:19:32","新北市新店區安康路二段269號","121.504576666667","24.95715","6500600","新店區"
"235028","005-UY","2019/08/24 14:19:40","新北市中和區南山路127巷8弄1號","121.502933333333","24.9972183333333","6500300","中和區"
"235027","006-UY","2019/08/24 14:19:31","新北市中和區連城路231號","121.493921666667","24.9974816666667","6500300","中和區"
"235020","096-UM","2019/08/24 14:19:34","新北市中和區中山路三段106號","121.476913333333","25.0062466666667","6500300","中和區"
"235003","097-UM","2019/08/24 14:19:28","新北市中和區秀峰街127巷4號","121.519291666667","24.991025","6500300","中和區"
"235029","098-UM","2019/08/24 14:19:34","新北市中和區永和路8巷6號","121.500201666667","25.003095","6500300","中和區"
"235004","150-BY","2019/08/24 14:19:41","新北市中和區宜安路47巷2號","121.511771666667","24.9964333333333","6500300","中和區"
"235022","151-BY","2019/08/24 14:19:45","新北市中和區員山路124巷5號","121.481641666667","24.9959816666667","6500300","中和區"
"235019","183-VK","2019/08/24 14:19:42","新北市中和區德光路29號","121.47076","25.004155","6500300","中和區"
"235002","185-VK","2019/08/24 14:19:39","新北市中和區大仁街10巷67號","121.520333333333","24.9926716666667","6500300","中和區"
"235013","186-VK","2019/08/24 14:19:38","新北市中和區景新街230巷3號","121.508165","24.9941166666667","6500300","中和區"
"235031","255-BX","2019/08/24 14:19:33","新北市中和區新生街186巷5弄23號","121.482958333333","24.9989333333333","6500300","中和區"
"235008","293-VK","2019/08/24 14:19:31","新北市中和區復興路306號","121.501275","24.9903983333333","6500300","中和區"
"235036","301-VK","2019/08/24 14:19:38","新北市中和區中和路74號","121.500818333333","25.0001866666667","6500300","中和區"
"235007","352-BY","2019/08/24 14:19:30","新北市中和區景平路290號","121.513158333333","24.9927983333333","6500300","中和區"
"235006","KEA-2878","2019/08/24 14:19:41","新北市永和區中正路121號","121.515803333333","24.9976766666667","6500300","中和區"
"247013","KEA-2869","2019/08/24 14:19:39","新北市蘆洲區中山一路200號","121.473535","25.0807833333333","6501400","蘆洲區"
"235014","4979-A6","2019/08/24 14:19:26","新北市中和區景安路208巷4號","121.50369","24.9910733333333","6500300","中和區"
"235033","4980-A6","2019/08/24 14:19:40","新北市中和區永和路39巷14號","121.497541666667","25.004935","6500300","中和區"
"235034","558-UM","2019/08/24 14:19:47","新北市中和區景平路630巷1號","121.500336666667","24.9981216666667","6500300","中和區"
"235009","565-BX","2019/08/24 14:19:28","新北市中和區景新街568-1號","121.514736666667","24.986575","6500300","中和區"
"235024","KED-0823","2019/08/24 14:19:29","新北市中和區員山路266巷31號","121.482513333333","25.0019783333333","6500300","中和區"
"235018","640-BX","2019/08/24 14:19:41","新北市中和區莒光路63號","121.472315","25.003725","6500300","中和區"
"235011","732-UM","2019/08/24 14:19:26","新北市中和區景平路239巷53弄7號","121.509015","24.9917733333333","6500300","中和區"
"235010","733-UM","2019/08/24 14:19:27","新北市中和區忠孝街2巷19弄2號","121.510841666667","24.9814183333333","6500300","中和區"
"235035","783-BX","2019/08/24 14:19:41","新北市中和區建三路7號","121.486125","25.003605","6500300","中和區"
"235073","800-TS","2019/08/24 14:19:31","新北市中和區中山路二段321-1號","121.493561666667","25.0020216666667","6500300","中和區"
"235021","801-TS","2019/08/24 14:19:38","新北市中和區員山路296號","121.481335","25.00259","6500300","中和區"
"235016","805-TS","2019/08/24 14:19:37","新北市中和區華新街143巷46號","121.506308333333","24.9800116666667","6500300","中和區"
"235012","896-TW","2019/08/24 14:19:31","新北市中和區華新街2-6號","121.507485","24.9851666666667","6500300","中和區"
"235017","900-TW","2019/08/24 14:19:40","新北市中和區華順街32號","121.46682","24.998665","6500300","中和區"
"235030","911-UM","2019/08/24 14:19:28","新北市中和區中和路102號","121.502743333333","24.9996966666667","6500300","中和區"
"235015","157-BY","2019/08/24 14:19:30","新北市中和區景平路239巷33弄9號","121.50954","24.99177","6500300","中和區"
"235001","AAC-213","2019/08/24 14:19:36","新北市中和區秀朗路三段10巷14弄2號","121.52532","24.9964933333333","6500300","中和區"
"235023","AAC-215","2019/08/24 14:19:42","新北市中和區圓通路252巷5弄42號","121.492211666667","24.9917483333333","6500300","中和區"
"220013","072-UY","2019/08/24 14:19:23","新北市板橋區民族路170巷2-2號","121.467466666667","25.00783","6500100","板橋區"
"220034","073-UY","2019/08/24 14:19:38","新北市板橋區中正路216巷100號","121.458803333333","25.0191216666667","6500100","板橋區"
"220105","075-UY","2019/08/24 14:19:25","新北市板橋區長江路三段70號","121.473973333333","25.0340566666667","6500100","板橋區"
"220017","AAD-861","2019/08/24 14:19:31","新北市板橋區大明街20巷33號","121.45838","25.0036166666667","6500100","板橋區"
"220016","120-SR","2019/08/24 14:19:30","新北市板橋區翠華街6巷123號","121.481806666667","25.0246183333333","6500100","板橋區"
"247003","893-R6","2019/08/24 14:19:37","新北市蘆洲區長安街194巷5號","121.459191666667","25.0841316666667","6501400","蘆洲區"
"247017","546-UM","2019/08/24 14:19:44","新北市蘆洲區民權路73號","121.473458333333","25.0884766666667","6501400","蘆洲區"
"247001","500-BY","2019/08/24 14:19:30","新北市蘆洲區永樂街108號","121.455738333333","25.0888883333333","6501400","蘆洲區"
"247007","341-TH","2019/08/24 14:19:24","新北市蘆洲區中山一路197巷6弄22號","121.474096666667","25.0803083333333","6501400","蘆洲區"
"247021","057-VK","2019/08/24 14:19:32","新北市蘆洲區中正路476巷8號","121.462701666667","25.095595","6501400","蘆洲區"
"247011","056-VK","2019/08/24 14:19:35","新北市蘆洲區民權路5號","121.476525","25.08571","6501400","蘆洲區"
"247015","053-VK","2019/08/24 14:19:32","新北市蘆洲區中正路185巷31弄20號","121.466665","25.08372","6501400","蘆洲區"
"247019","007-UY","2019/08/24 14:19:29","新北市蘆洲區仁愛街35巷12號","121.471518333333","25.0926683333333","6501400","蘆洲區"
"247005","002-UY","2019/08/24 14:19:28","新北市蘆洲區長安街25號","121.463906666667","25.07907","6501400","蘆洲區"
"247023","001-UY","2019/08/24 14:19:38","新北市蘆洲區三民路501號","121.463508333333","25.091425","6501400","蘆洲區"
"235005","251-BX","2019/08/24 14:19:35","新北市中和區景安路49號","121.507335","24.9983683333333","6500300","中和區"
"228005","097-TW","2019/08/24 14:19:29","新北市貢寮區美豐里土地公嶺55號","121.894603333333","25.06507","6502600","貢寮區"
"228004","212-TW","2019/08/24 14:19:25","新北市貢寮區雙玉里田寮洋街26號","121.92636","25.0137283333333","6502600","貢寮區"
"253003","4710-YM","2019/08/24 14:19:30","新北市石門區尖子鹿31-1號","121.578933333333","25.26679","6502200","石門區"
"253004","6251-TK","2019/08/24 14:19:23","新北市石門區內阿里磅1號","121.591963333333","25.2543516666667","6502200","石門區"
"253002","637-UY","2019/08/24 14:19:41","新北市石門區大溪墘3-2號","121.551696666667","25.2798783333333","6502200","石門區"
"253001","KEC-0718","2019/08/24 14:19:36","新北市石門區八甲13-1號","121.522845","25.2804566666667","6502200","石門區"
"207002","749-BX","2019/08/24 14:19:38","新北市萬里區溪底里瑞泉路7號","121.60425","25.1389266666667","6502800","萬里區"
"252005","073-UM","2019/08/24 14:19:27","新北市三芝區橫山里橫山31-1號","121.544116666667","25.2580983333333","6502100","三芝區"
"207001","662-BX","2019/08/24 14:19:32","新北市萬里區磺潭里清水18號","121.63787","25.197695","6502800","萬里區"
"236040","KED-0685","2019/08/24 14:19:32","新北市土城區樂利街3巷5號","121.448346666667","24.9861783333333","6501300","土城區"
"236074","166-UM","2019/08/24 14:19:28","新北市土城區中央路三段281巷15弄1號","121.426263333333","24.9626916666667","6501300","土城區"
"236029","253-BX","2019/08/24 14:19:41","新北市土城區順風路45號","121.440308333333","24.9770583333333","6501300","土城區"
"236024","269-VK","2019/08/24 14:19:41","新北市土城區承天路43巷4號","121.43918","24.9640516666667","6501300","土城區"
"236013","270-VK","2019/08/24 14:19:31","新北市土城區青雲路39巷7號","121.460308333333","24.9874216666667","6501300","土城區"
"236032","271-VK","2019/08/24 14:19:33","新北市土城區青雲路483巷9-1號","121.459501666667","24.9739483333333","6501300","土城區"
"247009","KED-0683","2019/08/24 14:19:28","新北市蘆洲區三民路26巷29號","121.476911666667","25.0829216666667","6501400","蘆洲區"
"236068","KEA-2877","2019/08/24 14:19:41","新北市土城區明德路一段86號","121.464863333333","24.9798483333333","6501300","土城區"
"236017","401-BY","2019/08/24 14:19:38","新北市土城區永豐路202巷14號","121.466488333333","24.9834966666667","6501300","土城區"
"236057","912-UM","2019/08/24 14:19:27","新北市土城區中央路四段466號","121.409991666667","24.9506033333333","6501300","土城區"
"236045","913-UM","2019/08/24 14:19:43","新北市土城區明德路一段361-3號","121.456091666667","24.97783","6501300","土城區"
"236060","915-UM","2019/08/24 14:19:34","新北市土城區金城路三段202號","121.469251666667","24.9884183333333","6501300","土城區"
"236054","AAC-216","2019/08/24 14:19:45","新北市土城區中華路二段114號","121.437948333333","24.9740166666667","6501300","土城區"
"221029","298-VK","2019/08/24 14:19:21","新北市汐止區福德一路86巷60號","121.63637","25.0685933333333","6501100","汐止區"
"220027","145-BY","2019/08/24 14:19:41","新北市板橋區民權路202巷7弄42號","121.45843","25.0150933333333","6500100","板橋區"
"220030","610-BX","2019/08/24 14:19:38","新北市板橋區溪崑二街134號","121.425891666667","24.987765","6500100","板橋區"
"220040","267-BY","2019/08/24 14:19:41","新北市板橋區縣民大道三段247巷9號","121.48172","25.026295","6500100","板橋區"
"220004","276-BY","2019/08/24 14:19:43","新北市板橋區信義路279巷21號","121.464308333333","24.9902633333333","6500100","板橋區"
"220020","277-BY","2019/08/24 14:19:40","新北市板橋區金門街337巷10弄1號","121.430045","24.9849683333333","6500100","板橋區"
"220050","280-UM","2019/08/24 14:19:33","新北市板橋區縣民大道三段127巷1號","121.477313333333","25.0230733333333","6500100","板橋區"
"220019","283-VK","2019/08/24 14:19:38","新北市板橋區大豐街125號","121.460935","25.0010883333333","6500100","板橋區"
"220043","285-UM","2019/08/24 14:19:33","新北市板橋區松江街118號","121.469188333333","25.030255","6500100","板橋區"
"220001","285-VK","2019/08/24 14:19:32","新北市板橋區縣民大道三段270巷12號","121.478308333333","25.022945","6500100","板橋區"
"220031","286-VK","2019/08/24 14:19:27","新北市板橋區大觀路二段174巷188號","121.442331666667","25.0037533333333","6500100","板橋區"
"220029","287-VK","2019/08/24 14:19:44","新北市板橋區南雅西路一段7巷1號","121.454283333333","25.0043383333333","6500100","板橋區"
"220039","288-VK","2019/08/24 14:19:40","新北市板橋區長江路一段127號","121.460335","25.0300516666667","6500100","板橋區"
"220009","293-UM","2019/08/24 14:19:31","新北市板橋區漢生東路155號","121.468576666667","25.01369","6500100","板橋區"
"220032","296-UM","2019/08/24 14:19:33","新北市板橋區滿平街110巷20號","121.42783","24.9880683333333","6500100","板橋區"
"220034","297-UM","2019/08/24 14:19:42","新北市板橋區大觀路二段443-2號","121.440603333333","24.99508","6500100","板橋區"
"220014","299-UM","2019/08/24 14:19:28","新北市板橋區長安街138巷5弄62號","121.473998333333","25.0096216666667","6500100","板橋區"
"220023","303-R5","2019/08/24 14:19:40","新北市板橋區南雅南路一段1巷19號","121.45712","25.0068516666667","6500100","板橋區"
"220010","305-R5","2019/08/24 14:19:32","新北市板橋區三民路二段153巷4號","121.47963","25.0148533333333","6500100","板橋區"
"220041","307-R5","2019/08/24 14:19:30","新北市板橋區文化路二段59號","121.469173333333","25.0252066666667","6500100","板橋區"
"220047","317-R6","2019/08/24 14:19:25","新北市板橋區自由路51巷12號","121.464923333333","25.0234616666667","6500100","板橋區"
"220038","487-VK","2019/08/24 14:19:30","新北市板橋區英士路54號","121.461","25.02469","6500100","板橋區"
"220037","491-VK","2019/08/24 14:19:42","新北市板橋區縣民大道三段153號","121.478378333333","25.0239733333333","6500100","板橋區"
"220052","561-BX","2019/08/24 14:19:36","新北市板橋區陽明街23巷8弄21號","121.465395","25.020765","6500100","板橋區"
"220028","568-UM","2019/08/24 14:19:33","新北市板橋區大觀路二段19巷89號","121.44948","25.002845","6500100","板橋區"
"220011","609-BX","2019/08/24 14:19:30","新北市板橋區三民路二段140號","121.479136666667","25.0158716666667","6500100","板橋區"
"220104","630-UY","2019/08/24 14:19:25","新北市板橋區中正路360巷50號","121.456298333333","25.0227933333333","6500100","板橋區"
"220005","686-BX","2019/08/24 14:19:27","新北市中和區華順街123號","121.465275","24.9965283333333","6500100","板橋區"
"220025","687-BX","2019/08/24 14:19:33","新北市板橋區大觀路二段181號","121.44495","25.00012","6500100","板橋區"
"220042","689-BX","2019/08/24 14:19:37","新北市板橋區雨農路50號","121.461058333333","25.0241583333333","6500100","板橋區"
"220002","741-BX","2019/08/24 14:17:59","新北市板橋區校前街52號","121.461465","25.0032866666667","6500100","板橋區"
"220051","KEA-2699","2019/08/24 14:19:45","新北市板橋區松柏街22巷10號","121.474688333333","25.029465","6500100","板橋區"
"220003","827-TW","2019/08/24 14:19:29","新北市板橋區民族路57號","121.464626666667","25.0088016666667","6500100","板橋區"
"220022","895-R6","2019/08/24 14:19:35","新北市板橋區民權路101巷2號","121.458808333333","25.0133533333333","6500100","板橋區"
"220021","985-R7","2019/08/24 14:19:28","新北市板橋區中正路214號","121.455931666667","25.0183116666667","6500100","板橋區"
"220046","AAC-210","2019/08/24 14:19:37","新北市板橋區幸福路32巷3號","121.461543333333","25.0205783333333","6500100","板橋區"
"220012","AAC-253","2019/08/24 14:19:42","新北市板橋區館前西路4-1號","121.45909","25.00713","6500100","板橋區"
"235032","KEA-2873","2019/08/24 14:19:39","新北市中和區枋寮街25號","121.501941666667","25.0004066666667","6500300","中和區"
"235025","KEA-2875","2019/08/24 14:19:27","新北市中和區民安街25巷25號","121.480616666667","24.9997183333333","6500300","中和區"
