"lineid","car","time","location","longitude","latitude","cityid","cityname"
"234025","9371-KE","2019/08/24 14:59:31","新北市永和區水源街21巷14弄1號","121.511585","25.00383","6500400","永和區"
"248017","KED-0813","2019/08/24 14:59:39","新北市五股區登林路114-1號","121.423143333333","25.0709216666667","6501500","五股區"
"231030","002-UM","2019/08/24 14:59:32","新北市新店區安興路56號","121.516468333333","24.9749783333333","6500600","新店區"
"231024","0291-UT","2019/08/24 14:59:26","新北市新店區新生街5巷16號","121.539678333333","24.9656883333333","6500600","新店區"
"231005","046-UY","2019/08/24 14:59:28","新北市新店區復興路1巷1號","121.540443333333","24.9866316666667","6500600","新店區"
"231029","106-UY","2019/08/24 14:59:39","新北市新店區錦秀路11巷12號","121.480888333333","24.9441883333333","6500600","新店區"
"231018","107-UY","2019/08/24 14:59:40","新北市新店區中央六街10號","121.530043333333","24.974515","6500600","新店區"
"231013","108-UY","2019/08/24 14:59:33","新北市新店區北新路一段99號","121.539076666667","24.9620083333333","6500600","新店區"
"231036","110-UY","2019/08/24 14:59:41","新北市新店區安祥路102巷15號","121.484528333333","24.964465","6500600","新店區"
"231039","187-VK","2019/08/24 14:59:44","新北市新店區寶中路45-3號","121.54523","24.9788883333333","6500600","新店區"
"231033","256-BX","2019/08/24 14:59:39","新北市新店區安泰路18-1號","121.485521666667","24.9486633333333","6500600","新店區"
"231023","260-TV","2019/08/24 14:59:34","新北市新店區檳榔路109號","121.544418333333","24.961525","6500600","新店區"
"231003","268-BY","2019/08/24 14:59:45","新北市新店區中興路二段100巷2號","121.547456666667","24.9714633333333","6500600","新店區"
"231035","278-BY","2019/08/24 14:59:36","新北市新店區安業街1-1號","121.516666666667","24.9787566666667","6500600","新店區"
"231017","AAD-862","2019/08/24 14:59:27","新北市新店區北宜路三段106號","121.57975","24.95043","6500600","新店區"
"231006","355-BY","2019/08/24 14:59:34","新北市新店區五峰路145巷7號","121.546223333333","24.9648866666667","6500600","新店區"
"231038","3712-VJ","2019/08/24 14:59:31","新北市新店區安華路28-1號","121.519608333333","24.9609133333333","6500600","新店區"
"231025","4715-K9","2019/08/24 14:59:43","新北市新店區二十張路33巷11號","121.538823333333","24.9811766666667","6500600","新店區"
"231020","513-UM","2019/08/24 14:59:25","新北市新店區梅崗一路9號","121.556485","24.9296783333333","6500600","新店區"
"231034","616-UM","2019/08/24 14:59:32","新北市新店區玫瑰路4-1號","121.4936","24.9514133333333","6500600","新店區"
"231002","619-UM","2019/08/24 14:59:42","新北市新店區民權路129-1號","121.535385","24.9828083333333","6500600","新店區"
"231012","KED-0819","2019/08/24 14:59:37","新北市新店區寶橋路132號","121.547328333333","24.97595","6500600","新店區"
"231026","720-UM","2019/08/24 14:59:26","新北市新店區北新路一段150號","121.5425","24.9706583333333","6500600","新店區"
"231028","897-TW","2019/08/24 14:59:42","新北市新店區安康路二段268號","121.508486666667","24.958735","6500600","新店區"
"231001","898-TW","2019/08/24 14:59:38","新北市新店區中正路272號","121.539006666667","24.9737016666667","6500600","新店區"
"231004","899-TW","2019/08/24 14:59:40","新北市新店區民族路12號","121.541536666667","24.978845","6500600","新店區"
"231037","AKT-0513","2019/08/24 14:59:32","新北市新店區安興路69號","121.51593","24.9752133333333","6500600","新店區"
"235020","096-UM","2019/08/24 14:59:42","新北市中和區中山路三段170巷2弄1號","121.472896666667","25.00668","6500300","中和區"
"235003","097-UM","2019/08/24 14:59:28","新北市中和區宜安路52巷24號","121.512698333333","24.997515","6500300","中和區"
"235029","098-UM","2019/08/24 14:59:34","新北市中和區福美路310號","121.496821666667","25.0048033333333","6500300","中和區"
"235004","150-BY","2019/08/24 14:59:41","新北市中和區保健路10巷12號","121.507583333333","24.9969316666667","6500300","中和區"
"235019","183-VK","2019/08/24 14:59:31","新北市新店區安樂街33號","121.521996666667","24.9719733333333","6500300","中和區"
"235036","301-VK","2019/08/24 14:59:38","新北市中和區連城路96號","121.496473333333","25.0000533333333","6500300","中和區"
"235007","352-BY","2019/08/24 14:59:30","新北市中和區興南路二段159巷7號","121.505256666667","24.9831183333333","6500300","中和區"
"235006","KEA-2878","2019/08/24 14:59:41","新北市新店區溪園路249號","121.523293333333","24.9819483333333","6500300","中和區"
"235014","4979-A6","2019/08/24 14:59:26","新北市中和區景平路153號","121.51348","24.9918916666667","6500300","中和區"
"235034","558-UM","2019/08/24 14:59:26","新北市中和區中正路368號","121.493165","24.9943266666667","6500300","中和區"
"235010","733-UM","2019/08/24 14:59:27","新北市中和區興南路一段105巷20弄4號","121.510273333333","24.9857066666667","6500300","中和區"
"235012","896-TW","2019/08/24 14:59:31","新北市中和區信義街115號","121.51209","24.9868883333333","6500300","中和區"
"235030","911-UM","2019/08/24 14:59:28","新北市中和區中山路二段57號","121.504248333333","25.004855","6500300","中和區"
"235015","157-BY","2019/08/24 14:59:29","新北市中和區復興路16號","121.505625","24.9899466666667","6500300","中和區"
"235001","AAC-213","2019/08/24 14:59:36","新北市中和區景平路166號","121.517011666667","24.9922783333333","6500300","中和區"
"235023","AAC-215","2019/08/24 14:59:42","新北市中和區圓通路335巷3弄5號","121.49256","24.990205","6500300","中和區"
"220013","072-UY","2019/08/24 14:59:43","新北市板橋區民族路229號","121.469778333333","25.007135","6500100","板橋區"
"220034","073-UY","2019/08/24 14:59:38","新北市板橋區中正路1巷4號","121.455671666667","25.01187","6500100","板橋區"
"220105","075-UY","2019/08/24 14:59:25","新北市板橋區懷德街76巷10號","121.477536666667","25.0316983333333","6500100","板橋區"
"220017","AAD-861","2019/08/24 14:59:42","新北市板橋區貴興路49號","121.457378333333","25.0032766666667","6500100","板橋區"
"220016","120-SR","2019/08/24 14:59:29","新北市板橋區中山路二段419號","121.480906666667","25.0198016666667","6500100","板橋區"
"228004","212-TW","2019/08/24 14:59:45","新北市貢寮區雙玉里田寮洋街25-4號","121.930403333333","25.0177783333333","6502600","貢寮區"
"253004","6251-TK","2019/08/24 14:59:43","新北市石門區茂林社區86-1號","121.592766666667","25.269425","6502200","石門區"
"253002","637-UY","2019/08/24 14:59:41","新北市石門區楓林40-2號","121.541061666667","25.2842283333333","6502200","石門區"
"207002","749-BX","2019/08/24 14:59:43","新北市萬里區崁腳里崁腳路55號","121.64956","25.160295","6502800","萬里區"
"252005","073-UM","2019/08/24 14:59:27","新北市三芝區埔坪里埔頭坑150號","121.51053","25.2496383333333","6502100","三芝區"
"207001","662-BX","2019/08/24 14:59:32","新北市萬里區雙興里二坪路1-1號","121.651235","25.17693","6502800","萬里區"
"236040","KED-0685","2019/08/24 14:59:32","新北市土城區裕民路214巷18弄2號","121.452646666667","24.98383","6501300","土城區"
"236074","166-UM","2019/08/24 14:59:28","新北市土城區中州路3巷43號","121.413305","24.9563616666667","6501300","土城區"
"236029","253-BX","2019/08/24 14:59:41","新北市土城區慶利街16號","121.439705","24.9736733333333","6501300","土城區"
"236024","269-VK","2019/08/24 14:59:41","新北市土城區中正路74巷3弄1號","121.44476","24.9749033333333","6501300","土城區"
"236013","270-VK","2019/08/24 14:59:31","新北市土城區永豐路13巷3號","121.46166","24.988845","6501300","土城區"
"236032","271-VK","2019/08/24 14:59:33","新北市土城區仁愛路10-1號","121.460103333333","24.9809","6501300","土城區"
"236068","KEA-2877","2019/08/24 14:59:41","新北市土城區裕生路79號","121.446971666667","24.9843983333333","6501300","土城區"
"236017","401-BY","2019/08/24 14:59:38","新北市土城區延吉街217巷3弄1號","121.468673333333","24.98488","6501300","土城區"
"236057","912-UM","2019/08/24 14:59:27","新北市土城區金城路二段234號","121.456601666667","24.9829766666667","6501300","土城區"
"236045","913-UM","2019/08/24 14:59:30","新北市土城區明德路一段365-1號","121.453648333333","24.9791016666667","6501300","土城區"
"236060","915-UM","2019/08/24 14:59:34","新北市土城區延和路43號","121.466078333333","24.9893666666667","6501300","土城區"
"236054","AAC-216","2019/08/24 14:59:45","新北市土城區學成路12號","121.453335","24.9866783333333","6501300","土城區"
"220027","145-BY","2019/08/24 14:59:44","新北市板橋區建國街15號","121.457763333333","25.016935","6500100","板橋區"
"220030","610-BX","2019/08/24 14:59:39","新北市板橋區溪崑一街46號","121.42968","24.9905366666667","6500100","板橋區"
"220040","267-BY","2019/08/24 14:59:41","新北市板橋區文聖街149巷23弄1號","121.479451666667","25.0285216666667","6500100","板橋區"
"220004","276-BY","2019/08/24 14:59:23","新北市板橋區四川路二段99巷3號","121.452745","24.9944933333333","6500100","板橋區"
"220020","277-BY","2019/08/24 14:59:40","新北市板橋區金門街182-3號","121.432741666667","24.9909166666667","6500100","板橋區"
"220050","280-UM","2019/08/24 14:59:33","新北市板橋區大同街26巷12弄23號","121.478458333333","25.0256583333333","6500100","板橋區"
"220019","283-VK","2019/08/24 14:59:42","新北市板橋區五權街30巷24弄16號","121.463873333333","24.9937366666667","6500100","板橋區"
"220043","285-UM","2019/08/24 14:59:33","新北市板橋區文化路一段126號","121.465033333333","25.0186316666667","6500100","板橋區"
"220001","285-VK","2019/08/24 14:59:42","新北市板橋區永豐街46號","121.474483333333","25.01955","6500100","板橋區"
"220031","286-VK","2019/08/24 14:59:46","新北市板橋區僑中二街38號","121.445305","25.0106883333333","6500100","板橋區"
"220029","287-VK","2019/08/24 14:59:39","新北市板橋區僑中一街124巷20弄21號","121.447078333333","25.01395","6500100","板橋區"
"220009","293-UM","2019/08/24 14:59:31","新北市板橋區四川路一段214號","121.459373333333","25.0020283333333","6500100","板橋區"
"220014","299-UM","2019/08/24 14:59:36","新北市板橋區中山路一段184-1號","121.46926","25.0126216666667","6500100","板橋區"
"220023","303-R5","2019/08/24 14:59:46","新北市板橋區大勇街2號","121.455743333333","25.0177316666667","6500100","板橋區"
"220010","305-R5","2019/08/24 14:59:32","新北市板橋區中山路二段312號","121.479928333333","25.0190283333333","6500100","板橋區"
"220041","307-R5","2019/08/24 14:59:30","新北市板橋區漢生西路77-3號","121.462821666667","25.0191083333333","6500100","板橋區"
"220047","317-R6","2019/08/24 14:59:25","新北市板橋區裕民街134號","121.45857","25.02721","6500100","板橋區"
"220038","487-VK","2019/08/24 14:59:30","新北市板橋區四維路253號","121.463445","25.0277433333333","6500100","板橋區"
"220037","491-VK","2019/08/24 14:59:44","新北市板橋區仁化街186號","121.47877","25.033985","6500100","板橋區"
"220052","561-BX","2019/08/24 14:59:36","新北市板橋區漢生東路33巷37號","121.466033333333","25.0176983333333","6500100","板橋區"
"220028","568-UM","2019/08/24 14:59:30","新北市板橋區大觀路二段163巷1號","121.445718333333","25.000485","6500100","板橋區"
"220011","609-BX","2019/08/24 14:59:30","新北市板橋區縣民大道三段270巷1號","121.478515","25.023655","6500100","板橋區"
"220104","630-UY","2019/08/24 14:59:25","新北市板橋區新生街29巷4弄1號","121.456606666667","25.0218183333333","6500100","板橋區"
"220005","686-BX","2019/08/24 14:59:27","新北市板橋區四川路二段245巷71號","121.452815","24.9918133333333","6500100","板橋區"
"220025","687-BX","2019/08/24 14:59:33","新北市板橋區僑中二街106巷2號","121.44587","25.007655","6500100","板橋區"
"220042","689-BX","2019/08/24 14:59:37","新北市板橋區長江路二段288號","121.470646666667","25.033105","6500100","板橋區"
"220002","741-BX","2019/08/24 14:59:39","新北市板橋區忠孝路201巷74號","121.464813333333","25.0043666666667","6500100","板橋區"
"220051","KEA-2699","2019/08/24 14:59:45","新北市板橋區莒光路40巷18號","121.469991666667","25.0236","6500100","板橋區"
"220003","827-TW","2019/08/24 14:59:39","新北市板橋區仁愛路49巷2-3號","121.46009","24.99952","6500100","板橋區"
"220022","895-R6","2019/08/24 14:59:35","新北市板橋區民權路65號","121.46149","25.01118","6500100","板橋區"
"220021","985-R7","2019/08/24 14:59:28","新北市板橋區南雅西路二段16號","121.453055","25.00932","6500100","板橋區"
"220046","AAC-210","2019/08/24 14:59:39","新北市板橋區民權路202巷18弄9號","121.461253333333","25.016415","6500100","板橋區"
"220012","AAC-253","2019/08/24 14:59:42","新北市板橋區民族路288號","121.470281666667","25.0068383333333","6500100","板橋區"
"235032","KEA-2873","2019/08/24 14:59:39","新北市中和區福美路230號","121.499226666667","25.0053483333333","6500300","中和區"
