"lineid","car","time","location","longitude","latitude","cityid","cityname"
"249005","172-UM","2019/08/24 17:19:26","新北市八里區荖阡坑路50-1號","121.411403333333","25.1217483333333","6502300","八里區"
"249001","173-UM","2019/08/24 17:19:27","新北市八里區中華路二段165巷3號","121.407668333333","25.1508466666667","6502300","八里區"
"249004","303-UY","2019/08/24 17:19:24","新北市八里區賢三街98號","121.417003333333","25.1578283333333","6502300","八里區"
"249002","305-UY","2019/08/24 17:19:44","新北市八里區龍米路二段117巷20號","121.44507","25.1428616666667","6502300","八里區"
"249003","593-UM","2019/08/24 17:19:43","新北市八里區中山路二段439號","121.396713333333","25.1458166666667","6502300","八里區"
"244007","080-UY","2019/08/24 17:19:26","新北市林口區湖子6號","121.390676666667","25.0924316666667","6501700","林口區"
"244019","402-UM","2019/08/24 17:19:30","新北市林口區公園路148號","121.371543333333","25.0719016666667","6501700","林口區"
"244013","KEA-2802","2019/08/24 17:19:42","新北市林口區粉寮69號","121.404765","25.09081","6501700","林口區"
"244023","483-VK","2019/08/24 17:19:34","新北市林口區隆林街42號","121.387775","25.07542","6501700","林口區"
"244009","656-BX","2019/08/24 17:19:43","新北市林口區中北一街76號","121.385768333333","25.088595","6501700","林口區"
"244011","701-TV","2019/08/24 17:19:32","新北市林口區仁愛路一段285巷116號","121.395181666667","25.0758383333333","6501700","林口區"
"244025","837-TS","2019/08/24 17:19:37","新北市林口區民族路181號","121.367286666667","25.0766583333333","6501700","林口區"
"244021","838-TS","2019/08/24 17:16:22","新北市林口區粉寮路二段358-1號","121.404763333333","25.0981333333333","6501700","林口區"
"231046","719-UM","2019/08/24 17:13:39","新北市新店區直潭六街64號","121.532226666667","24.94001","6500600","新店區"
"241011","013-R5","2019/08/24 17:19:40","新北市三重區龍濱路249號","121.501551666667","25.07248","6500200","三重區"
"241028","022-UY","2019/08/24 17:19:33","新北市三重區仁化街107號","121.494348333333","25.058","6500200","三重區"
"241008","059-VK","2019/08/24 17:19:34","新北市三重區永福街72巷37-6號","121.480735","25.0761516666667","6500200","三重區"
"241015","062-VK","2019/08/24 17:19:41","新北市三重區福德北路82號","121.501806666667","25.0662883333333","6500200","三重區"
"241017","063-VK","2019/08/24 17:19:30","新北市三重區大同北路91號","121.494715","25.0636266666667","6500200","三重區"
"241024","065-VK","2019/08/24 17:19:30","新北市三重區中正北路193巷1號","121.477313333333","25.06979","6500200","三重區"
"241002","090-VK","2019/08/24 17:19:28","新北市三重區自強路五段25號","121.49323","25.080945","6500200","三重區"
"241003","091-VK","2019/08/24 17:19:38","新北市三重區富福街40號","121.490971666667","25.0838933333333","6500200","三重區"
"241007","742-BX","2019/08/24 17:19:24","新北市三重區三和路四段191巷63號","121.484205","25.07962","6500200","三重區"
"241006","262-UM","2019/08/24 17:19:36","新北市三重區中正北路317巷38號","121.4762","25.073485","6500200","三重區"
"241016","266-UM","2019/08/24 17:19:35","新北市三重區大同北路54巷1號","121.4942","25.0634683333333","6500200","三重區"
"241009","267-UM","2019/08/24 17:19:38","新北市三重區三和路四段147號","121.484191666667","25.0783283333333","6500200","三重區"
"241018","268-UM","2019/08/24 17:19:36","新北市三重區大智街116號","121.493096666667","25.0669983333333","6500200","三重區"
"241032","269-UM","2019/08/24 17:19:29","新北市三重區中華路2巷27號","121.482403333333","25.0604616666667","6500200","三重區"
"241013","270-UM","2019/08/24 17:19:44","新北市三重區三和路三段107巷25號","121.495173333333","25.0731066666667","6500200","三重區"
"241025","271-UM","2019/08/24 17:19:35","新北市三重區中正北路378號","121.476828333333","25.0697266666667","6500200","三重區"
"241030","KED-0822","2019/08/24 17:19:28","新北市三重區成功路73巷40號","121.4898","25.0525466666667","6500200","三重區"
"241020","478-VK","2019/08/24 17:19:45","新北市三重區忠孝路一段121號","121.488833333333","25.0720916666667","6500200","三重區"
"241014","543-UM","2019/08/24 17:19:35","新北市三重區三和路二段83號","121.500086666667","25.06845","6500200","三重區"
"241023","545-UM","2019/08/24 17:19:39","新北市三重區忠孝路三段50巷54號","121.482336666667","25.0650516666667","6500200","三重區"
"241001","547-UM","2019/08/24 17:19:39","新北市三重區仁愛街387號","121.49132","25.0806516666667","6500200","三重區"
"241019","KEA-2593","2019/08/24 17:19:27","新北市三重區自強路二段74巷23-1號","121.487896666667","25.0698233333333","6500200","三重區"
"241005","AAD-863","2019/08/24 17:19:28","新北市三重區仁華街10號","121.483321666667","25.0814083333333","6500200","三重區"
"241026","743-BX","2019/08/24 17:19:47","新北市三重區正義南路20號","121.498106666667","25.0614516666667","6500200","三重區"
"241022","KED-0820","2019/08/24 17:19:29","新北市三重區重陽路二段34巷25號","121.486261666667","25.06348","6500200","三重區"
"241012","941-UM","2019/08/24 17:19:45","新北市三重區仁昌街95號","121.499716666667","25.0750433333333","6500200","三重區"
"241033","AAC-255","2019/08/24 17:19:31","新北市三重區中興北街136巷25號","121.468025","25.0559516666667","6500200","三重區"
"235064","005-UY","2019/08/24 17:19:36","新北市中和區員山路36巷16-3號","121.485051666667","24.9913983333333","6500300","中和區"
"235062","800-TS","2019/08/24 17:19:36","新北市中和區員山路36巷16-3號","121.484968333333","24.9914116666667","6500300","中和區"
"247004","893-R6","2019/08/24 17:19:31","新北市蘆洲區永安南路二段280號","121.457955","25.0810233333333","6501400","蘆洲區"
"247018","546-UM","2019/08/24 17:19:43","新北市蘆洲區民權路96巷1弄1號","121.474301666667","25.0881983333333","6501400","蘆洲區"
"247002","500-BY","2019/08/24 17:19:36","新北市蘆洲區永樂街38巷33弄12號","121.457543333333","25.0896366666667","6501400","蘆洲區"
"247008","341-TH","2019/08/24 17:19:36","新北市蘆洲區永安北路一段72巷22號","121.476611666667","25.07708","6501400","蘆洲區"
"247022","057-VK","2019/08/24 17:19:41","新北市蘆洲區三民路130號","121.47094","25.0874866666667","6501400","蘆洲區"
"247012","056-VK","2019/08/24 17:19:46","新北市蘆洲區信義路319巷12號","121.477661666667","25.0862183333333","6501400","蘆洲區"
"247016","053-VK","2019/08/24 17:19:26","新北市蘆洲區正和街96巷37號","121.467436666667","25.0814916666667","6501400","蘆洲區"
"247020","007-UY","2019/08/24 17:19:30","新北市蘆洲區民族路434-1號","121.473271666667","25.092055","6501400","蘆洲區"
"247006","002-UY","2019/08/24 17:19:37","新北市蘆洲區長安街78號","121.462273333333","25.0802766666667","6501400","蘆洲區"
"247024","001-UY","2019/08/24 17:19:32","新北市蘆洲區光榮路2號","121.460261666667","25.086245","6501400","蘆洲區"
"228003","097-TW","2019/08/24 17:19:44","新北市貢寮區福隆里興隆街24號","121.944585","25.0166983333333","6502600","貢寮區"
"228001","212-TW","2019/08/24 17:19:32","新北市貢寮區仁理村尖山腳街18-3號","121.925475","25.048365","6502600","貢寮區"
"228002","663-BX","2019/08/24 17:19:45","新北市貢寮區雙玉里田寮洋街42號","121.925596666667","25.0123083333333","6502600","貢寮區"
"224006","676-BX","2019/08/24 17:19:27","新北市瑞芳區大寮路2-2號","121.785628333333","25.1020933333333","6501200","瑞芳區"
"224009","275-VK","2019/08/24 17:19:28","新北市瑞芳區汽車路123號","121.839135","25.11021","6501200","瑞芳區"
"224008","273-VK","2019/08/24 17:19:24","新北市瑞芳區侯硐路152-1號","121.826526666667","25.0841516666667","6501200","瑞芳區"
"224005","271-BY","2019/08/24 17:18:50","新北市瑞芳區南雅路91號","121.885163333333","25.1227333333333","6501200","瑞芳區"
"227002","642-TC","2019/08/24 17:19:30","新北市雙溪區雙溪里太平路2號","121.86341","25.0348733333333","6502500","雙溪區"
"251009","008-UM","2019/08/24 17:19:39","新北市淡水區三民街19號","121.439006666667","25.1718266666667","6501000","淡水區"
"251004","009-UM","2019/08/24 17:11:22","新北市淡水區中正東路二段88巷15號","121.459045","25.1505083333333","6501000","淡水區"
"251005","010-UM","2019/08/24 17:19:25","新北市淡水區鄧公路19號","121.451366666667","25.170035","6501000","淡水區"
"251010","012-UM","2019/08/24 17:19:40","新北市淡水區沙崙路331號","121.427481666667","25.187435","6501000","淡水區"
"251015","KEA-2871","2019/08/24 17:19:39","新北市淡水區樹林口20-1號","121.478855","25.1700133333333","6501000","淡水區"
"251016","179-VK","2019/08/24 17:19:39","新北市淡水區鄒厝崙12-1號","121.46554","25.19008","6501000","淡水區"
"251013","180-VK","2019/08/24 17:19:43","新北市淡水區破瓦厝子3-3號","121.4724","25.1970316666667","6501000","淡水區"
"251008","181-VK","2019/08/24 17:19:13","新北市淡水區大同路269號","121.466998333333","25.1422333333333","6501000","淡水區"
"251007","182-VK","2019/08/24 17:19:34","新北市淡水區民生路47-4號","121.462086666667","25.13798","6501000","淡水區"
"251012","441-VK","2019/08/24 17:19:30","新北市淡水區中山北路一段156號","121.444181666667","25.1779083333333","6501000","淡水區"
"251006","561-UM","2019/08/24 17:19:31","新北市淡水區中山路190號","121.441585","25.1745883333333","6501000","淡水區"
"251014","577-R6","2019/08/24 17:19:35","新北市淡水區公埔子5-1號","121.464685","25.226775","6501000","淡水區"
"251011","650-BX","2019/08/24 17:19:33","新北市淡水區坪頂路70巷1號","121.45996","25.1631433333333","6501000","淡水區"
"251003","766-UM","2019/08/24 17:19:36","新北市淡水區中正路二段31號","121.419623333333","25.1821916666667","6501000","淡水區"
"207003","550-UM","2019/08/24 17:19:23","新北市萬里區萬里里獅頭路23號","121.693421666667","25.1782683333333","6502800","萬里區"
"252002","178-VK","2019/08/24 17:19:40","新北市三芝區忠孝街1-15號","121.505576666667","25.2539383333333","6502100","三芝區"
"233002","762-BX","2019/08/24 17:19:33","新北市烏來區環山路108巷13號","121.548156666667","24.8626616666667","6502900","烏來區"
"247010","KED-0683","2019/08/24 17:19:30","新北市蘆洲區中山一路120巷10號","121.477531666667","25.0817683333333","6501400","蘆洲區"
"252001","KED-0821","2019/08/24 17:19:34","新北市三芝區長安街119號","121.498006666667","25.2596516666667","6502100","三芝區"
"242039","AAC-296","2019/08/24 17:19:30","新北市新莊區新樹路223號","121.435428333333","25.0231683333333","6500500","新莊區"
"242061","986-R7","2019/08/24 17:19:35","新北市新莊區中環路一段287號","121.442018333333","25.0319666666667","6500500","新莊區"
"242002","751-BX","2019/08/24 17:19:33","新北市新莊區新莊路771巷10號","121.44199","25.0318833333333","6500500","新莊區"
"242029","615-BX","2019/08/24 17:19:43","新北市新莊區幸福路639號","121.451673333333","25.0492066666667","6500500","新莊區"
"242027","613-BX","2019/08/24 17:19:36","新北市新莊區中港路312號","121.452458333333","25.0452533333333","6500500","新莊區"
"242058","612-BX","2019/08/24 17:19:40","新北市新莊區新泰路255巷83號","121.442151666667","25.039115","6500500","新莊區"
"242051","497-BY","2019/08/24 17:19:39","新北市新莊區瓊林南路12-3號","121.436206666667","25.0188416666667","6500500","新莊區"
"242056","442-UM","2019/08/24 17:19:34","新北市新莊區新莊路658號","121.442461666667","25.032855","6500500","新莊區"
"242004","440-UM","2019/08/24 17:19:32","新北市新莊區中平路82巷2號","121.444923333333","25.044785","6500500","新莊區"
"242042","415-TV","2019/08/24 17:19:28","新北市新莊區新樹路52-26號","121.437065","25.026875","6500500","新莊區"
"242011","413-TV","2019/08/24 17:19:39","新北市新莊區中港路352號","121.451843333333","25.046765","6500500","新莊區"
"242048","400-BY","2019/08/24 17:19:34","新北市新莊區中正路695號","121.42582","25.0298683333333","6500500","新莊區"
"242025","362-BY","2019/08/24 17:19:27","新北市新莊區復興路一段125號","121.449713333333","25.0430483333333","6500500","新莊區"
"242023","353-BY","2019/08/24 17:19:28","新北市新莊區中平路82巷6號","121.445046666667","25.0447333333333","6500500","新莊區"
"242013","132-UY","2019/08/24 17:19:40","新北市新莊區中和街110號","121.447698333333","25.04703","6500500","新莊區"
"242036","135-UY","2019/08/24 17:19:36","新北市新莊區新樹路223號","121.435311666667","25.02294","6500500","新莊區"
"242053","172-VK","2019/08/24 17:19:30","新北市新莊區新莊路771巷10號","121.442138333333","25.031905","6500500","新莊區"
"242015","173-VK","2019/08/24 17:19:33","新北市新莊區三和路12-21號","121.441995","25.0386633333333","6500500","新莊區"
"242021","175-VK","2019/08/24 17:19:25","新北市新莊區中平路82巷6號","121.445093333333","25.0447966666667","6500500","新莊區"
"242019","346-TH","2019/08/24 17:19:26","新北市新莊區新泰路267號","121.445731666667","25.04015","6500500","新莊區"
"242034","347-TH","2019/08/24 17:19:26","新北市新莊區瓊林路56號","121.445638333333","25.0287416666667","6500500","新莊區"
"242031","348-TH","2019/08/24 17:19:28","新北市新莊區新泰路462號","121.443283333333","25.0448916666667","6500500","新莊區"
"242007","349-TH","2019/08/24 17:19:32","新北市新莊區新泰路502巷46號","121.444021666667","25.04641","6500500","新莊區"
"242017","351-TH","2019/08/24 17:19:34","新北市新莊區中平路84號","121.444893333333","25.0449016666667","6500500","新莊區"
"238023","601-UM","2019/08/24 17:19:40","新北市樹林區中正路815號","121.40938","25.01706","6500700","樹林區"
"238019","599-UM","2019/08/24 17:19:32","新北市樹林區八德街263-1號","121.419156666667","24.97389","6500700","樹林區"
"238024","5061-A6","2019/08/24 17:19:37","新北市樹林區保安街一段48巷19號","121.426373333333","24.9949133333333","6500700","樹林區"
"238018","KEA-2217","2019/08/24 17:19:39","新北市樹林區樹中街38號","121.421173333333","24.985335","6500700","樹林區"
"238022","KEA-2213","2019/08/24 17:19:42","新北市樹林區信義街63號","121.42453","24.9829883333333","6500700","樹林區"
"238021","KEA-2539","2019/08/24 17:19:39","新北市樹林區西圳街一段61-1號","121.400606666667","24.9625583333333","6500700","樹林區"
"238017","283-BY","2019/08/24 17:19:41","新北市樹林區光武街32-1號","121.416556666667","25.0061166666667","6500700","樹林區"
"238020","268-VK","2019/08/24 17:19:25","新北市樹林區千歲街101號","121.428503333333","25.0008766666667","6500700","樹林區"
"238026","172-UY","2019/08/24 17:19:41","新北市樹林區東順街79巷4號","121.409863333333","24.97628","6500700","樹林區"
"238016","169-UY","2019/08/24 17:19:37","新北市樹林區中山路一段296號","121.420351666667","24.9864866666667","6500700","樹林區"
"239007","AAC-297","2019/08/24 17:19:31","新北市鶯歌區光復街27號","121.351446666667","24.9555966666667","6500800","鶯歌區"
"239006","891-R6","2019/08/24 17:19:38","新北市鶯歌區鶯桃路301號","121.33358","24.960685","6500800","鶯歌區"
"239008","527-UM","2019/08/24 17:19:34","新北市鶯歌區西湖街45巷1號","121.340313333333","24.9584483333333","6500800","鶯歌區"
"239005","526-UM","2019/08/24 17:19:34","新北市鶯歌區鶯桃路561號","121.330193333333","24.96827","6500800","鶯歌區"
"239001","417-VK","2019/08/24 17:19:36","新北市鶯歌區尖山路188號","121.344291666667","24.9473316666667","6500800","鶯歌區"
"239003","360-BY","2019/08/24 17:19:24","新北市鶯歌區德昌街84號","121.332596666667","24.9600983333333","6500800","鶯歌區"
"239002","359-BY","2019/08/24 17:19:44","新北市鶯歌區建國路208號","121.349158333333","24.953555","6500800","鶯歌區"
"239004","193-VK","2019/08/24 17:19:26","新北市鶯歌區文化路417-4號","121.352838333333","24.9488666666667","6500800","鶯歌區"
"233001","KEA-2870","2019/08/24 17:19:28","新北市烏來區環山路181-1號","121.549066666667","24.853775","6502900","烏來區"
"242044","281-VK","2019/08/24 17:19:25","新北市新莊區中正路725號","121.422928333333","25.028955","6500500","新莊區"
"242009","280-VK","2019/08/24 17:19:34","新北市泰山區泰林路一段4號","121.44251","25.04832","6500500","新莊區"
"235061","KEA-2875","2019/08/24 17:18:40","新北市中和區員山路36巷16-2號","121.485343333333","24.9916683333333","6500300","中和區"
