"lineid","car","time","location","longitude","latitude","cityid","cityname"
"249005","172-UM","2019/08/24 17:29:46","新北市八里區荖阡坑路28-1號","121.40393","25.12969","6502300","八里區"
"249001","173-UM","2019/08/24 17:29:27","新北市八里區大崁腳41-2號","121.425908333333","25.1593566666667","6502300","八里區"
"249004","303-UY","2019/08/24 17:29:44","新北市八里區埤頭一街152號","121.414271666667","25.158065","6502300","八里區"
"249002","305-UY","2019/08/24 17:29:26","新北市八里區烏山頭1-10號","121.447415","25.1402616666667","6502300","八里區"
"249003","593-UM","2019/08/24 17:29:43","新北市八里區中山路二段315號","121.400593333333","25.1477766666667","6502300","八里區"
"232010","375-UM","2019/08/24 17:29:29","新北市坪林區北宜路八段558號","121.718018333333","24.90923","6502000","坪林區"
"244007","080-UY","2019/08/24 17:29:46","新北市林口區文化一路二段305號","121.385788333333","25.085885","6501700","林口區"
"244019","402-UM","2019/08/24 17:29:30","新北市林口區文化一路一段83巷14弄48號","121.37227","25.07179","6501700","林口區"
"244013","KEA-2802","2019/08/24 17:29:42","新北市林口區中山路256-1號","121.385385","25.0796016666667","6501700","林口區"
"244023","483-VK","2019/08/24 17:29:34","新北市林口區東明一街35巷2號","121.392106666667","25.0720116666667","6501700","林口區"
"244009","656-BX","2019/08/24 17:29:43","新北市林口區中北三街202號","121.382686666667","25.0819116666667","6501700","林口區"
"244011","701-TV","2019/08/24 17:29:32","新北市林口區佳林路211號","121.384225","25.0770716666667","6501700","林口區"
"244025","837-TS","2019/08/24 17:29:37","新北市林口區文化二路一段241巷26號","121.366431666667","25.0715533333333","6501700","林口區"
"244021","838-TS","2019/08/24 17:29:41","新北市林口區醒吾新村13號","121.396258333333","25.0791733333333","6501700","林口區"
"231046","719-UM","2019/08/24 17:13:39","新北市新店區直潭六街64號","121.532226666667","24.94001","6500600","新店區"
"241011","013-R5","2019/08/24 17:29:40","新北市三重區河邊北街124巷11號","121.50334","25.0713933333333","6500200","三重區"
"241015","062-VK","2019/08/24 17:29:41","新北市三重區長元街65巷16弄15號","121.503531666667","25.0662033333333","6500200","三重區"
"241017","063-VK","2019/08/24 17:29:30","新北市三重區中正北路25巷7號","121.492678333333","25.062055","6500200","三重區"
"241024","065-VK","2019/08/24 17:29:30","新北市三重區國道路一段58巷20號","121.481283333333","25.0720383333333","6500200","三重區"
"241003","091-VK","2019/08/24 17:29:38","新北市三重區集賢路87-1號","121.493908333333","25.0870533333333","6500200","三重區"
"241007","742-BX","2019/08/24 17:29:44","新北市三重區溪尾街126巷31號","121.488591666667","25.0792783333333","6500200","三重區"
"241016","266-UM","2019/08/24 17:29:35","新北市三重區大同北路54巷2號","121.494091666667","25.063595","6500200","三重區"
"241009","267-UM","2019/08/24 17:29:38","新北市三重區力行路二段136巷23弄35號","121.481335","25.0763866666667","6500200","三重區"
"241013","270-UM","2019/08/24 17:29:24","新北市三重區仁愛街124號","121.494903333333","25.074935","6500200","三重區"
"241030","KED-0822","2019/08/24 17:29:28","新北市三重區中正南路269號","121.493255","25.0522366666667","6500200","三重區"
"241020","478-VK","2019/08/24 17:29:25","新北市三重區忠孝路三段84巷1號","121.480353333333","25.0648183333333","6500200","三重區"
"241014","543-UM","2019/08/24 17:29:34","新北市三重區安和路17號","121.501468333333","25.06844","6500200","三重區"
"241023","545-UM","2019/08/24 17:29:39","新北市三重區忠孝路三段50巷41弄12號","121.482318333333","25.0644133333333","6500200","三重區"
"241019","KEA-2593","2019/08/24 17:29:46","新北市三重區六張街156號","121.489526666667","25.068865","6500200","三重區"
"241012","941-UM","2019/08/24 17:29:25","新北市三重區仁興街41號","121.499158333333","25.0757666666667","6500200","三重區"
"241033","AAC-255","2019/08/24 17:29:31","新北市三重區興德路133號","121.470226666667","25.0528933333333","6500200","三重區"
"235064","005-UY","2019/08/24 17:25:33","新北市中和區員山路36巷16-3號","121.485046666667","24.991395","6500300","中和區"
"235062","800-TS","2019/08/24 17:28:36","新北市中和區員山路36巷16-3號","121.485156666667","24.9913766666667","6500300","中和區"
"247004","893-R6","2019/08/24 17:29:44","新北市蘆洲區長安街233巷6號","121.459065","25.0828316666667","6501400","蘆洲區"
"247018","546-UM","2019/08/24 17:29:43","新北市蘆洲區民義街9巷2號","121.471381666667","25.088605","6501400","蘆洲區"
"247002","500-BY","2019/08/24 17:29:36","新北市蘆洲區永樂街38巷57弄10號","121.457835","25.090435","6501400","蘆洲區"
"247008","341-TH","2019/08/24 17:29:36","新北市蘆洲區民生街87號","121.473871666667","25.0780433333333","6501400","蘆洲區"
"247022","057-VK","2019/08/24 17:29:41","新北市蘆洲區三民路297號","121.466258333333","25.0905683333333","6501400","蘆洲區"
"247012","056-VK","2019/08/24 17:29:26","新北市蘆洲區民族路36號","121.476528333333","25.0843016666667","6501400","蘆洲區"
"247016","053-VK","2019/08/24 17:29:26","新北市蘆洲區光華路22巷57號","121.46797","25.0851583333333","6501400","蘆洲區"
"247020","007-UY","2019/08/24 17:29:30","新北市蘆洲區水湳街108號","121.469551666667","25.0931233333333","6501400","蘆洲區"
"247006","002-UY","2019/08/24 17:29:37","新北市蘆洲區長安街46巷21號","121.463936666667","25.0803166666667","6501400","蘆洲區"
"247024","001-UY","2019/08/24 17:29:35","新北市蘆洲區長興路296-8號","121.460583333333","25.0902583333333","6501400","蘆洲區"
"228003","097-TW","2019/08/24 17:29:32","新北市貢寮區仁理村尖山腳街2號","121.925171666667","25.0465","6502600","貢寮區"
"228001","212-TW","2019/08/24 17:29:32","新北市貢寮區仁理村仁愛路46號","121.925251666667","25.0532683333333","6502600","貢寮區"
"228002","663-BX","2019/08/24 17:29:45","新北市貢寮區福隆里興隆街36號","121.941068333333","25.0173033333333","6502600","貢寮區"
"224010","AGQ-8101","2019/08/24 17:29:36","新北市瑞芳區逢甲路113-1號","121.807593333333","25.109335","6501200","瑞芳區"
"224006","676-BX","2019/08/24 17:29:27","新北市瑞芳區靜安路四段101號","121.793243333333","25.1094716666667","6501200","瑞芳區"
"224009","275-VK","2019/08/24 17:29:28","新北市瑞芳區汽車路9-3號","121.845545","25.10982","6501200","瑞芳區"
"224008","273-VK","2019/08/24 17:29:24","新北市瑞芳區侯硐路204號","121.83042","25.0882","6501200","瑞芳區"
"224005","271-BY","2019/08/24 17:29:31","新北市瑞芳區海濱路8-6號","121.830781666667","25.1256066666667","6501200","瑞芳區"
"227002","642-TC","2019/08/24 17:21:44","新北市雙溪區共和里東榮街52號","121.866301666667","25.0336933333333","6502500","雙溪區"
"227001","400-TW","2019/08/24 17:29:44","新北市雙溪區三貂里政光路3-1號","121.850775","25.0633233333333","6502500","雙溪區"
"251009","008-UM","2019/08/24 17:29:39","新北市淡水區新生街30巷1號","121.438925","25.1731116666667","6501000","淡水區"
"251004","009-UM","2019/08/24 17:11:22","新北市淡水區中正東路二段88巷15號","121.459045","25.1505083333333","6501000","淡水區"
"251005","010-UM","2019/08/24 17:29:45","新北市淡水區鄧公路31巷1號","121.451318333333","25.1707883333333","6501000","淡水區"
"251010","012-UM","2019/08/24 17:29:32","新北市淡水區中正路二段211號","121.426188333333","25.1891433333333","6501000","淡水區"
"251015","KEA-2871","2019/08/24 17:29:39","新北市淡水區三空泉21號","121.468783333333","25.1672066666667","6501000","淡水區"
"251016","179-VK","2019/08/24 17:29:39","新北市淡水區埤島74號","121.454703333333","25.1934533333333","6501000","淡水區"
"251013","180-VK","2019/08/24 17:29:43","新北市淡水區大竹圍5號","121.466573333333","25.1952316666667","6501000","淡水區"
"251008","181-VK","2019/08/24 17:29:33","新北市淡水區大同路100巷5號","121.462565","25.1396583333333","6501000","淡水區"
"251007","182-VK","2019/08/24 17:29:34","新北市淡水區民生路47-4號","121.462096666667","25.13801","6501000","淡水區"
"251012","441-VK","2019/08/24 17:29:30","新北市淡水區北新路111號","121.448093333333","25.1783533333333","6501000","淡水區"
"251006","561-UM","2019/08/24 17:29:34","新北市淡水區大仁街19號","121.4424","25.17515","6501000","淡水區"
"251014","577-R6","2019/08/24 17:29:35","新北市淡水區公埔子10號","121.47475","25.2272733333333","6501000","淡水區"
"251011","650-BX","2019/08/24 17:29:33","新北市淡水區三空泉8-1號","121.475945","25.1612783333333","6501000","淡水區"
"251002","672-BX","2019/08/24 17:29:43","新北市淡水區中正路一段130-7號","121.422068333333","25.1790683333333","6501000","淡水區"
"251003","766-UM","2019/08/24 17:29:36","新北市淡水區中山路159-10號","121.441005","25.17345","6501000","淡水區"
"207003","550-UM","2019/08/24 17:29:43","新北市萬里區龜吼里美崙路96號","121.684776666667","25.1851983333333","6502800","萬里區"
"207004","291-VK","2019/08/24 17:29:36","新北市萬里區萬里里成功新村44號","121.687635","25.1746416666667","6502800","萬里區"
"252002","178-VK","2019/08/24 17:29:40","新北市三芝區忠孝街1-15號","121.505563333333","25.253925","6502100","三芝區"
"233002","762-BX","2019/08/24 17:29:33","新北市烏來區環山路125-1號","121.549135","24.8603466666667","6502900","烏來區"
"247010","KED-0683","2019/08/24 17:29:30","新北市蘆洲區鷺江街35號","121.478593333333","25.08218","6501400","蘆洲區"
"252001","KED-0821","2019/08/24 17:29:34","新北市三芝區長安街119號","121.498005","25.2596533333333","6502100","三芝區"
"242039","AAC-296","2019/08/24 17:29:30","新北市新莊區民安路284號","121.42784","25.021575","6500500","新莊區"
"242061","986-R7","2019/08/24 17:29:35","新北市新莊區瓊林路178號","121.440478333333","25.02229","6500500","新莊區"
"242002","751-BX","2019/08/24 17:29:33","新北市新莊區新莊路154號","121.455228333333","25.035465","6500500","新莊區"
"242029","615-BX","2019/08/24 17:29:43","新北市新莊區復興路二段176號","121.458776666667","25.0443866666667","6500500","新莊區"
"242027","613-BX","2019/08/24 17:29:36","新北市新莊區思源路32號","121.46023","25.0409583333333","6500500","新莊區"
"242058","612-BX","2019/08/24 17:29:39","新北市新莊區中正路400號","121.441923333333","25.0342","6500500","新莊區"
"242051","497-BY","2019/08/24 17:29:43","新北市新莊區新樹路453號","121.43273","25.013395","6500500","新莊區"
"242056","442-UM","2019/08/24 17:29:34","新北市新莊區新泰路22號","121.449606666667","25.033775","6500500","新莊區"
"242004","440-UM","2019/08/24 17:29:32","新北市新莊區中港路280號","121.453095","25.0441416666667","6500500","新莊區"
"242042","415-TV","2019/08/24 17:29:36","新北市新莊區新樹路113巷21號","121.439336666667","25.026395","6500500","新莊區"
"242011","413-TV","2019/08/24 17:29:39","新北市新莊區中港路445號","121.452566666667","25.0483483333333","6500500","新莊區"
"242048","400-BY","2019/08/24 17:29:34","新北市新莊區龍安路249巷1號","121.41913","25.020865","6500500","新莊區"
"242025","362-BY","2019/08/24 17:29:27","新北市新莊區中港路281號","121.45321","25.043815","6500500","新莊區"
"242023","353-BY","2019/08/24 17:29:28","新北市新莊區公園路152號","121.453181666667","25.0401316666667","6500500","新莊區"
"242013","132-UY","2019/08/24 17:29:40","新北市新莊區中誠街14號","121.452028333333","25.048215","6500500","新莊區"
"242036","135-UY","2019/08/24 17:29:36","新北市新莊區後港一路218號","121.434101666667","25.0283433333333","6500500","新莊區"
"242053","172-VK","2019/08/24 17:29:30","新北市新莊區瓊林南路305巷25號","121.435636666667","25.005095","6500500","新莊區"
"242015","173-VK","2019/08/24 17:29:33","新北市新莊區新泰路152號","121.447681666667","25.0373183333333","6500500","新莊區"
"242021","175-VK","2019/08/24 17:29:25","新北市新莊區中港路10號","121.454996666667","25.03694","6500500","新莊區"
"242019","346-TH","2019/08/24 17:29:26","新北市新莊區中正路96號","121.455171666667","25.0367533333333","6500500","新莊區"
"242034","347-TH","2019/08/24 17:29:26","新北市新莊區瓊林路38-1號","121.4486","25.0307083333333","6500500","新莊區"
"242031","348-TH","2019/08/24 17:29:28","新北市新莊區新泰路460巷1號","121.44344","25.04497","6500500","新莊區"
"242007","349-TH","2019/08/24 17:29:32","新北市新莊區自強街28號","121.454743333333","25.0461433333333","6500500","新莊區"
"242017","351-TH","2019/08/24 17:29:34","新北市新莊區中華路一段103號","121.452788333333","25.0438833333333","6500500","新莊區"
"238015","755-BX","2019/08/24 17:29:27","新北市樹林區復興路1號","121.422943333333","24.99498","6500700","樹林區"
"238023","601-UM","2019/08/24 17:29:40","新北市樹林區三福街114號","121.406436666667","25.0162233333333","6500700","樹林區"
"238019","599-UM","2019/08/24 17:29:40","新北市樹林區八德街247號","121.421598333333","24.97859","6500700","樹林區"
"238024","5061-A6","2019/08/24 17:29:36","新北市樹林區中華路6-3號","121.424685","24.98399","6500700","樹林區"
"238018","KEA-2217","2019/08/24 17:29:45","新北市樹林區鎮前街165號","121.422323333333","24.9872766666667","6500700","樹林區"
"238022","KEA-2213","2019/08/24 17:29:30","新北市樹林區信義街20號","121.422978333333","24.98205","6500700","樹林區"
"238021","KEA-2539","2019/08/24 17:29:32","新北市樹林區佳園路二段41號","121.391836666667","24.962685","6500700","樹林區"
"238025","303-VK","2019/08/24 17:29:32","新北市樹林區保安街一段298號","121.419053333333","24.9973266666667","6500700","樹林區"
"238017","283-BY","2019/08/24 17:29:41","新北市樹林區中正路244號","121.417905","25.0071583333333","6500700","樹林區"
"238020","268-VK","2019/08/24 17:29:45","新北市樹林區千歲街111-1號","121.429251666667","25.00165","6500700","樹林區"
"238026","172-UY","2019/08/24 17:29:32","新北市樹林區中山路二段219號","121.40264","24.9762983333333","6500700","樹林區"
"238016","169-UY","2019/08/24 17:29:37","新北市樹林區長壽街28巷4弄7號","121.423483333333","24.9943433333333","6500700","樹林區"
"239007","AAC-297","2019/08/24 17:29:31","新北市鶯歌區中正一路195號","121.353331666667","24.9571133333333","6500800","鶯歌區"
"239006","891-R6","2019/08/24 17:29:38","新北市鶯歌區鳳鳴路105號","121.334336666667","24.9662733333333","6500800","鶯歌區"
"239008","527-UM","2019/08/24 17:29:34","新北市鶯歌區大湖路601號","121.335198333333","24.9743733333333","6500800","鶯歌區"
"239005","526-UM","2019/08/24 17:29:34","新北市鶯歌區鶯桃路二段6號","121.32615","24.97194","6500800","鶯歌區"
"239001","417-VK","2019/08/24 17:29:36","新北市鶯歌區中正三路99號","121.338253333333","24.940965","6500800","鶯歌區"
"239003","360-BY","2019/08/24 17:29:44","新北市鶯歌區鶯桃路272號","121.33536","24.96005","6500800","鶯歌區"
"239002","359-BY","2019/08/24 17:29:24","新北市鶯歌區育英街49號","121.346941666667","24.9536683333333","6500800","鶯歌區"
"239004","193-VK","2019/08/24 17:29:26","新北市鶯歌區文化路322-1號","121.352421666667","24.946275","6500800","鶯歌區"
"233001","KEA-2870","2019/08/24 17:29:28","新北市烏來區溫泉街101號","121.551276666667","24.8542116666667","6502900","烏來區"
"242044","281-VK","2019/08/24 17:29:45","新北市新莊區富國路64號","121.419725","25.0260233333333","6500500","新莊區"
"242009","280-VK","2019/08/24 17:29:34","新北市新莊區中原路228號","121.453188333333","25.0545483333333","6500500","新莊區"
"235061","KEA-2875","2019/08/24 17:18:40","新北市中和區員山路36巷16-2號","121.485343333333","24.9916683333333","6500300","中和區"
