"lineid","car","time","location","longitude","latitude","cityid","cityname"
"234026","9371-KE","2019/08/24 17:39:27","新北市永和區永和路一段202號","121.51425","25.0092533333333","6500400","永和區"
"249005","172-UM","2019/08/24 17:39:26","新北市八里區荖阡坑路34-1號","121.402751666667","25.1297116666667","6502300","八里區"
"249001","173-UM","2019/08/24 17:39:31","新北市八里區龍米路二段157-1號","121.4399","25.153595","6502300","八里區"
"249004","303-UY","2019/08/24 17:39:24","新北市八里區中華路一段81巷15號","121.420478333333","25.1566483333333","6502300","八里區"
"249002","305-UY","2019/08/24 17:39:44","新北市八里區石壁腳19號","121.44171","25.13534","6502300","八里區"
"249003","593-UM","2019/08/24 17:39:43","新北市八里區中山路二段270號","121.405083333333","25.1512383333333","6502300","八里區"
"232011","375-UM","2019/08/24 17:39:29","新北市坪林區水柳腳36號","121.709983333333","24.9352116666667","6502000","坪林區"
"244007","080-UY","2019/08/24 17:39:26","新北市林口區佳林路1號","121.387261666667","25.0825116666667","6501700","林口區"
"244019","402-UM","2019/08/24 17:39:30","新北市林口區忠孝路563-6號","121.373388333333","25.0680333333333","6501700","林口區"
"244013","KEA-2802","2019/08/24 17:39:42","新北市林口區中正路465號","121.384245","25.0776966666667","6501700","林口區"
"244023","483-VK","2019/08/24 17:39:34","新北市林口區東明一街121巷11號","121.390113333333","25.0701883333333","6501700","林口區"
"244009","656-BX","2019/08/24 17:39:43","新北市林口區中北三街61號","121.384738333333","25.0855966666667","6501700","林口區"
"244011","701-TV","2019/08/24 17:39:32","新北市林口區佳林路235號","121.383263333333","25.0763266666667","6501700","林口區"
"244025","837-TS","2019/08/24 17:39:37","新北市林口區文化三路一段225巷20號","121.362015","25.0714583333333","6501700","林口區"
"244021","838-TS","2019/08/24 17:39:42","新北市林口區仁愛路一段211巷8號","121.398256666667","25.0739766666667","6501700","林口區"
"222002","659-BX","2019/08/24 17:39:45","新北市深坑區深南路88巷1號","121.621203333333","25.0112266666667","6501800","深坑區"
"231046","719-UM","2019/08/24 17:13:39","新北市新店區直潭六街64號","121.532226666667","24.94001","6500600","新店區"
"241011","013-R5","2019/08/24 17:39:40","新北市三重區中正南路252巷5號","121.493563333333","25.0519166666667","6500200","三重區"
"241015","062-VK","2019/08/24 17:39:41","新北市三重區長榮路2號","121.499865","25.0683833333333","6500200","三重區"
"241017","063-VK","2019/08/24 17:39:39","新北市三重區大同北路30號","121.495165","25.0624716666667","6500200","三重區"
"241024","065-VK","2019/08/24 17:39:30","新北市三重區車路頭街37巷2號","121.48391","25.0717083333333","6500200","三重區"
"241007","742-BX","2019/08/24 17:35:25","新北市三重區車路頭街135號","121.484071666667","25.0759583333333","6500200","三重區"
"241016","266-UM","2019/08/24 17:39:35","新北市三重區正義北路42號","121.497403333333","25.06365","6500200","三重區"
"241014","543-UM","2019/08/24 17:39:41","新北市三重區龍濱路34號","121.502801666667","25.0682133333333","6500200","三重區"
"241012","941-UM","2019/08/24 17:39:45","新北市三重區龍門路300號","121.502491666667","25.0744333333333","6500200","三重區"
"241033","AAC-255","2019/08/24 17:39:31","新北市三重區光復路一段49號","121.47215","25.048795","6500200","三重區"
"235064","005-UY","2019/08/24 17:39:42","新北市中和區員山路36巷16-3號","121.485113333333","24.9913333333333","6500300","中和區"
"247014","KEA-2869","2019/08/24 17:39:35","新北市蘆洲區中正路35號","121.47107","25.0822033333333","6501400","蘆洲區"
"235062","800-TS","2019/08/24 17:28:36","新北市中和區員山路36巷16-3號","121.485156666667","24.9913766666667","6500300","中和區"
"247004","893-R6","2019/08/24 17:39:31","新北市蘆洲區長安街249巷12號","121.458555","25.0830366666667","6501400","蘆洲區"
"247018","546-UM","2019/08/24 17:39:43","新北市蘆洲區民權路136-2號","121.473128333333","25.0888183333333","6501400","蘆洲區"
"247002","500-BY","2019/08/24 17:39:36","新北市蘆洲區永平街34號","121.458473333333","25.0910283333333","6501400","蘆洲區"
"247008","341-TH","2019/08/24 17:39:36","新北市蘆洲區和平路19巷13號","121.472353333333","25.078585","6501400","蘆洲區"
"247022","057-VK","2019/08/24 17:39:41","新北市蘆洲區民族路578號","121.467013333333","25.0885683333333","6501400","蘆洲區"
"247012","056-VK","2019/08/24 17:39:46","新北市蘆洲區民權路3巷14弄9號","121.475458333333","25.0856566666667","6501400","蘆洲區"
"247016","053-VK","2019/08/24 17:39:28","新北市蘆洲區中正路185巷31弄40號","121.467023333333","25.0831833333333","6501400","蘆洲區"
"247020","007-UY","2019/08/24 17:39:30","新北市蘆洲區民族路434號","121.473405","25.0919516666667","6501400","蘆洲區"
"247006","002-UY","2019/08/24 17:39:37","新北市蘆洲區長安街68巷18號","121.463561666667","25.0807866666667","6501400","蘆洲區"
"247024","001-UY","2019/08/24 17:39:32","新北市蘆洲區長樂路125-1號","121.462121666667","25.0880566666667","6501400","蘆洲區"
"228003","097-TW","2019/08/24 17:39:32","新北市貢寮區仁理村仁和路39號","121.923983333333","25.05396","6502600","貢寮區"
"228001","212-TW","2019/08/24 17:39:32","新北市貢寮區真理里新港街26巷28-6號","121.927685","25.055415","6502600","貢寮區"
"228002","663-BX","2019/08/24 17:39:45","新北市貢寮區福隆里龜壽谷街13號","121.957283333333","25.00533","6502600","貢寮區"
"224010","AGQ-8101","2019/08/24 17:39:36","新北市瑞芳區岳王路54號","121.808513333333","25.1111966666667","6501200","瑞芳區"
"224006","676-BX","2019/08/24 17:39:39","新北市瑞芳區傑魚坑路62號","121.793371666667","25.1105583333333","6501200","瑞芳區"
"224009","275-VK","2019/08/24 17:39:28","新北市瑞芳區金光路376號","121.850735","25.11071","6501200","瑞芳區"
"224008","273-VK","2019/08/24 17:39:24","新北市瑞芳區瑞柑新村51號","121.828838333333","25.10661","6501200","瑞芳區"
"224005","271-BY","2019/08/24 17:39:31","新北市瑞芳區籠山路14號","121.831721666667","25.1241166666667","6501200","瑞芳區"
"227002","642-TC","2019/08/24 17:21:44","新北市雙溪區共和里東榮街52號","121.866301666667","25.0336933333333","6502500","雙溪區"
"227001","400-TW","2019/08/24 17:39:25","新北市雙溪區三貂里政光路3-1號","121.850776666667","25.0633283333333","6502500","雙溪區"
"251009","008-UM","2019/08/24 17:39:39","新北市淡水區中正路177號","121.438606666667","25.171285","6501000","淡水區"
"251004","009-UM","2019/08/24 17:39:36","新北市淡水區中正東路二段88巷37號","121.459251666667","25.1463366666667","6501000","淡水區"
"251005","010-UM","2019/08/24 17:39:25","新北市淡水區鄧公路35巷2號","121.451565","25.1712183333333","6501000","淡水區"
"251010","012-UM","2019/08/24 17:39:32","新北市淡水區淡海路280巷16號","121.419873333333","25.1895433333333","6501000","淡水區"
"251015","KEA-2871","2019/08/24 17:36:59","新北市淡水區樹林口14-3號","121.476905","25.1670233333333","6501000","淡水區"
"251016","179-VK","2019/08/24 17:39:39","新北市淡水區埤島39-15號","121.452735","25.1958966666667","6501000","淡水區"
"251013","180-VK","2019/08/24 17:39:43","新北市淡水區演戲埔腳3-2號","121.473045","25.1928566666667","6501000","淡水區"
"251008","181-VK","2019/08/24 17:39:33","新北市淡水區八勢路30巷19號","121.462871666667","25.1536533333333","6501000","淡水區"
"251007","182-VK","2019/08/24 17:39:34","新北市淡水區民生路124巷30號","121.464176666667","25.13759","6501000","淡水區"
"251012","441-VK","2019/08/24 17:39:30","新北市淡水區北新路200巷8號","121.45172","25.17971","6501000","淡水區"
"251006","561-UM","2019/08/24 17:39:31","新北市淡水區中山北路一段119巷6號","121.442353333333","25.1770483333333","6501000","淡水區"
"251014","577-R6","2019/08/24 17:39:35","新北市淡水區公埔子15-1號","121.479735","25.22711","6501000","淡水區"
"251011","650-BX","2019/08/24 17:39:33","新北市淡水區坪頂路718號","121.482548333333","25.1584933333333","6501000","淡水區"
"251002","672-BX","2019/08/24 17:39:43","新北市淡水區文化路15號","121.439578333333","25.1726316666667","6501000","淡水區"
"251003","766-UM","2019/08/24 17:39:36","新北市淡水區中山北路一段52號","121.441871666667","25.1756916666667","6501000","淡水區"
"207003","550-UM","2019/08/24 17:39:37","新北市萬里區龜吼里漁澳路61-1號","121.687231666667","25.19514","6502800","萬里區"
"207004","291-VK","2019/08/24 17:39:45","新北市萬里區中幅里中福路27-1號","121.679846666667","25.1676433333333","6502800","萬里區"
"252002","178-VK","2019/08/24 17:39:40","新北市三芝區中正路二段15號","121.504456666667","25.2553683333333","6502100","三芝區"
"237013","252-BX","2019/08/24 17:39:42","新北市三峽區愛國路33-8號","121.374583333333","24.9332533333333","6500900","三峽區"
"237010","706-TV","2019/08/24 17:39:27","新北市三峽區中山路281號","121.361946666667","24.9376216666667","6500900","三峽區"
"233002","762-BX","2019/08/24 17:39:32","新北市烏來區西羅岸路22號","121.549136666667","24.867455","6502900","烏來區"
"236079","166-UM","2019/08/24 17:39:24","新北市土城區城林路6巷80號","121.438561666667","24.97998","6501300","土城區"
"236014","270-VK","2019/08/24 17:39:33","新北市土城區城林路6巷80號","121.43846","24.9796083333333","6501300","土城區"
"236038","271-VK","2019/08/24 17:39:32","新北市土城區城林路6巷80號","121.438445","24.979755","6501300","土城區"
"247010","KED-0683","2019/08/24 17:39:39","新北市蘆洲區中山一路70號","121.478983333333","25.0812333333333","6501400","蘆洲區"
"236070","KEA-2877","2019/08/24 17:39:30","新北市土城區城林路6巷80號","121.43831","24.97971","6501300","土城區"
"252001","KED-0821","2019/08/24 17:39:34","新北市三芝區淡金路二段2號","121.502221666667","25.25909","6502100","三芝區"
"236063","915-UM","2019/08/24 17:39:34","新北市土城區城林路6巷80號","121.438536666667","24.9795783333333","6501300","土城區"
"242039","AAC-296","2019/08/24 17:39:30","新北市新莊區民全街16號","121.429105","25.02196","6500500","新莊區"
"242061","986-R7","2019/08/24 17:39:35","新北市新莊區瓊林南路81-3號","121.435063333333","25.0121166666667","6500500","新莊區"
"242002","751-BX","2019/08/24 17:39:33","新北市新莊區新莊路264號","121.451826666667","25.0339366666667","6500500","新莊區"
"242029","615-BX","2019/08/24 17:39:43","新北市新莊區復興路一段145號","121.450285","25.04332","6500500","新莊區"
"242027","613-BX","2019/08/24 17:39:36","新北市新莊區福壽街95號","121.458015","25.0504516666667","6500500","新莊區"
"242058","612-BX","2019/08/24 17:39:39","新北市新莊區中正路606號","121.42665","25.03021","6500500","新莊區"
"242051","497-BY","2019/08/24 17:39:39","新北市新莊區西盛街189號","121.428978333333","25.01714","6500500","新莊區"
"242056","442-UM","2019/08/24 17:39:34","新北市新莊區泰豐街21號","121.448318333333","25.0318183333333","6500500","新莊區"
"242004","440-UM","2019/08/24 17:39:32","新北市新莊區自立街180號","121.45603","25.04535","6500500","新莊區"
"242042","415-TV","2019/08/24 17:39:28","新北市新莊區建國一路2號","121.433608333333","25.0320016666667","6500500","新莊區"
"242011","413-TV","2019/08/24 17:39:39","新北市新莊區中港路597號","121.451408333333","25.052815","6500500","新莊區"
"242048","400-BY","2019/08/24 17:39:34","新北市新莊區萬安街144號","121.420156666667","25.0212283333333","6500500","新莊區"
"242025","362-BY","2019/08/24 17:39:39","新北市新莊區思源路92號","121.460196666667","25.0455683333333","6500500","新莊區"
"242023","353-BY","2019/08/24 17:39:28","新北市新莊區公園路222巷1號","121.456313333333","25.0405766666667","6500500","新莊區"
"242013","132-UY","2019/08/24 17:39:40","新北市新莊區中誠街97號","121.45","25.0477583333333","6500500","新莊區"
"242036","135-UY","2019/08/24 17:39:36","新北市新莊區建福路59巷28號","121.428023333333","25.0275666666667","6500500","新莊區"
"242053","172-VK","2019/08/24 17:39:30","新北市新莊區新樹路699巷9號","121.432575","25.0018816666667","6500500","新莊區"
"242015","173-VK","2019/08/24 17:39:33","新北市新莊區新泰路295號","121.445381666667","25.0409366666667","6500500","新莊區"
"242021","175-VK","2019/08/24 17:39:25","新北市新莊區中華路一段82號","121.452163333333","25.03925","6500500","新莊區"
"242019","346-TH","2019/08/24 17:39:26","新北市新莊區中港路151號","121.45512","25.0408866666667","6500500","新莊區"
"242034","347-TH","2019/08/24 17:39:33","新北市新莊區新莊路494號","121.446465","25.033325","6500500","新莊區"
"242031","348-TH","2019/08/24 17:39:38","新北市新莊區新泰路361巷23號","121.44247","25.043005","6500500","新莊區"
"242007","349-TH","2019/08/24 17:39:32","新北市新莊區福樂街120號","121.457141666667","25.0478283333333","6500500","新莊區"
"242017","351-TH","2019/08/24 17:39:34","新北市新莊區中和街26巷5號","121.448603333333","25.04378","6500500","新莊區"
"238015","755-BX","2019/08/24 17:39:27","新北市樹林區樹德街118號","121.419476666667","24.9927683333333","6500700","樹林區"
"238023","601-UM","2019/08/24 17:39:40","新北市樹林區三福街114號","121.406433333333","25.01634","6500700","樹林區"
"238019","599-UM","2019/08/24 17:39:32","新北市樹林區太平路13號","121.419078333333","24.9836866666667","6500700","樹林區"
"238024","5061-A6","2019/08/24 17:39:36","新北市樹林區八德街648號","121.396643333333","24.9691716666667","6500700","樹林區"
"238018","KEA-2217","2019/08/24 17:39:45","新北市樹林區鎮前街61號","121.424933333333","24.991015","6500700","樹林區"
"238022","KEA-2213","2019/08/24 17:39:30","新北市樹林區和平街2巷20號","121.421156666667","24.980835","6500700","樹林區"
"238021","KEA-2539","2019/08/24 17:39:33","新北市樹林區柑園街一段166號","121.397243333333","24.9567516666667","6500700","樹林區"
"238025","303-VK","2019/08/24 17:39:32","新北市樹林區保安街二段307號","121.412535","25.006655","6500700","樹林區"
"238017","283-BY","2019/08/24 17:39:42","新北市樹林區中正路464號","121.4128","25.0126183333333","6500700","樹林區"
"238020","268-VK","2019/08/24 17:39:25","新北市樹林區俊英街116巷41弄23號","121.428573333333","25.006995","6500700","樹林區"
"238026","172-UY","2019/08/24 17:39:32","新北市樹林區新興街19巷36弄5號","121.40244","24.9733033333333","6500700","樹林區"
"238016","169-UY","2019/08/24 17:39:42","新北市樹林區育英街119-1號","121.420025","24.9893283333333","6500700","樹林區"
"239007","AAC-297","2019/08/24 17:39:31","新北市鶯歌區鶯桃路182巷33號","121.339525","24.9576383333333","6500800","鶯歌區"
"239006","891-R6","2019/08/24 17:39:38","新北市鶯歌區永和街34巷10弄2號","121.333441666667","24.9673083333333","6500800","鶯歌區"
"239008","527-UM","2019/08/24 17:39:34","新北市鶯歌區大湖路732巷45號","121.33343","24.9781116666667","6500800","鶯歌區"
"239005","526-UM","2019/08/24 17:39:14","新北市鶯歌區福隆二街17號","121.325141666667","24.9720233333333","6500800","鶯歌區"
"239001","417-VK","2019/08/24 17:39:36","新北市鶯歌區中正三路215號","121.335326666667","24.9393766666667","6500800","鶯歌區"
"239003","360-BY","2019/08/24 17:39:24","新北市鶯歌區鶯桃路206巷39號","121.337891666667","24.9600116666667","6500800","鶯歌區"
"239002","359-BY","2019/08/24 17:39:24","新北市鶯歌區育英街15號","121.346846666667","24.955225","6500800","鶯歌區"
"239004","193-VK","2019/08/24 17:39:26","新北市鶯歌區三鶯路108號","121.359246666667","24.9438183333333","6500800","鶯歌區"
"221008","489-VK","2019/08/24 17:39:41","新北市汐止區康寧街901號","121.651388333333","25.07511","6501100","汐止區"
"221023","279-VK","2019/08/24 17:39:24","新北市汐止區康寧街901號","121.651621666667","25.0748916666667","6501100","汐止區"
"233001","KEA-2870","2019/08/24 17:39:28","新北市烏來區西羅岸路22號","121.549401666667","24.8673333333333","6502900","烏來區"
"242044","281-VK","2019/08/24 17:39:45","新北市新莊區富國路65巷12號","121.420016666667","25.0265333333333","6500500","新莊區"
"242009","280-VK","2019/08/24 17:39:34","新北市新莊區昌明街14巷5弄1號","121.457245","25.0531983333333","6500500","新莊區"
"235061","KEA-2875","2019/08/24 17:18:40","新北市中和區員山路36巷16-2號","121.485343333333","24.9916683333333","6500300","中和區"
