"lineid","car","time","location","longitude","latitude","cityid","cityname"
"234046","148-BY","2019/08/24 18:49:39","新北市永和區秀朗路二段149號","121.524853333333","25.00164","6500400","永和區"
"234081","298-R6","2019/08/24 18:49:42","新北市永和區國中路109巷3弄1號","121.523893333333","25.0055716666667","6500400","永和區"
"234038","336-UY","2019/08/24 18:49:38","新北市永和區成功路二段37號","121.526848333333","25.00044","6500400","永和區"
"234064","337-UY","2019/08/24 18:49:35","新北市永和區福和路1號","121.525711666667","25.009285","6500400","永和區"
"234086","338-UY","2019/08/24 18:49:28","新北市永和區中正路39-1號","121.514318333333","24.9960066666667","6500400","永和區"
"234017","745-BX","2019/08/24 18:49:28","新北市永和區忠孝街26巷27弄2號","121.515213333333","25.017135","6500400","永和區"
"234030","746-BX","2019/08/24 18:49:31","新北市永和區得和路326號","121.523285","24.9995816666667","6500400","永和區"
"234054","KEA-2590","2019/08/24 18:49:29","新北市永和區豫溪街193號","121.522851666667","25.010305","6500400","永和區"
"234007","KED-0605","2019/08/24 18:49:30","新北市永和區文化路95-1號","121.5132","25.0152216666667","6500400","永和區"
"234013","KEA-2591","2019/08/24 18:49:21","新北市永和區保福路二段133巷26-1號","121.508985","25.0135416666667","6500400","永和區"
"234061","AAD-866","2019/08/24 18:49:29","新北市永和區福和路313號","121.516185","25.0071466666667","6500400","永和區"
"234042","862-TW","2019/08/24 18:49:26","新北市永和區永貞路271號","121.511736666667","25.0047916666667","6500400","永和區"
"234050","863-TW","2019/08/24 18:49:27","新北市永和區福和路1號","121.526345","25.00996","6500400","永和區"
"234011","9373-KE","2019/08/24 18:49:32","新北市永和區文化路90巷48號","121.512901666667","25.0166833333333","6500400","永和區"
"249005","172-UM","2019/08/24 18:49:26","新北市八里區長道坑16-2號","121.395273333333","25.116995","6502300","八里區"
"249001","173-UM","2019/08/24 18:49:27","新北市八里區龍米路二段121-3號","121.447123333333","25.1433983333333","6502300","八里區"
"248016","026-BX","2019/08/24 18:49:42","新北市五股區成泰路三段543巷60號","121.449473333333","25.1030583333333","6501500","五股區"
"248006","077-UY","2019/08/24 18:49:30","新北市五股區中興路一段52號","121.468018333333","25.07268","6501500","五股區"
"248020","KED-0813","2019/08/24 18:49:29","新北市五股區凌雲路三段39-3號","121.431545","25.1177583333333","6501500","五股區"
"248012","247-BX","2019/08/24 18:49:38","新北市五股區成泰路二段147巷5-17號","121.437088333333","25.0883233333333","6501500","五股區"
"248014","261-SL","2019/08/24 18:49:39","新北市五股區民義路一段107巷32號","121.432485","25.08461","6501500","五股區"
"248010","272-BY","2019/08/24 18:49:44","新北市五股區水碓五路81號","121.42995","25.0719483333333","6501500","五股區"
"248004","677-BX","2019/08/24 18:49:29","新北市五股區民義路二段79-1號","121.408756666667","25.1057816666667","6501500","五股區"
"248002","678-BX","2019/08/24 18:49:39","新北市五股區成泰路三段454號","121.451406666667","25.10036","6501500","五股區"
"234023","9380-KE","2019/08/24 18:49:30","新北市永和區竹林路119巷28-3號","121.52185","25.0117766666667","6500400","永和區"
"234077","969-R7","2019/08/24 18:49:28","新北市永和區中正路40號","121.513098333333","24.994295","6500400","永和區"
"234074","AAC-211","2019/08/24 18:49:38","新北市永和區福和路1號","121.526538333333","25.0098983333333","6500400","永和區"
"234067","AAC-212","2019/08/24 18:49:29","新北市永和區中和路625號","121.512986666667","25.0049716666667","6500400","永和區"
"234003","AAC-295","2019/08/24 18:49:40","新北市永和區中正路649號","121.515148333333","25.010105","6500400","永和區"
"232011","375-UM","2019/08/24 18:49:45","新北市坪林區坪林街79號","121.711553333333","24.9371766666667","6502000","坪林區"
"244019","402-UM","2019/08/24 18:49:30","新北市林口區麗園二街1巷9-1號","121.378945","25.07004","6501700","林口區"
"244013","KEA-2802","2019/08/24 18:49:42","新北市林口區麗園二街1巷7-3號","121.378218333333","25.07045","6501700","林口區"
"244023","483-VK","2019/08/24 18:49:34","新北市林口區文化二路二段72號","121.378201666667","25.080555","6501700","林口區"
"244017","485-VK","2019/08/24 18:49:42","新北市林口區文化二路一段120巷5號","121.367901666667","25.0700083333333","6501700","林口區"
"244009","656-BX","2019/08/24 18:49:23","新北市林口區竹林路362巷18號","121.392675","25.08429","6501700","林口區"
"244011","701-TV","2019/08/24 18:49:32","新北市林口區仁愛路一段246號","121.395641666667","25.0756166666667","6501700","林口區"
"244025","837-TS","2019/08/24 18:49:37","新北市林口區南勢一街6號","121.360545","25.0746183333333","6501700","林口區"
"243010","297-R6","2019/08/24 18:49:40","新北市泰山區辭修路48號","121.428525","25.057195","6501600","泰山區"
"243016","421-VK","2019/08/24 18:48:38","新北市泰山區明志路二段135號","121.427696666667","25.0508066666667","6501600","泰山區"
"243011","KEA-2216","2019/08/24 18:49:43","新北市泰山區明志路二段232巷6號","121.426753333333","25.0482533333333","6501600","泰山區"
"243015","680-BX","2019/08/24 18:49:27","新北市泰山區美寧街54號","121.430583333333","25.064535","6501600","泰山區"
"222003","436-BY","2019/08/24 18:49:40","新北市深坑區深南路50號","121.620168333333","25.0088933333333","6501800","深坑區"
"222001","628-TS","2019/08/24 18:49:33","新北市深坑區松柏街20號","121.638506666667","25.010765","6501800","深坑區"
"222002","659-BX","2019/08/24 18:49:45","新北市深坑區文山路一段69號","121.627013333333","25.0018983333333","6501800","深坑區"
"231061","002-UM","2019/08/24 18:49:33","新北市新店區安華路28-1號","121.519788333333","24.9608","6500600","新店區"
"231055","0291-UT","2019/08/24 18:49:42","新北市新店區中華路49-1號","121.539973333333","24.96772","6500600","新店區"
"231044","046-UY","2019/08/24 18:49:33","新北市新店區寶中路49-1號","121.54653","24.9798483333333","6500600","新店區"
"231060","106-UY","2019/08/24 18:49:28","新北市新店區安華路28-1號","121.51953","24.9607816666667","6500600","新店區"
"231051","107-UY","2019/08/24 18:49:37","新北市新店區中央路69號","121.532508333333","24.9768383333333","6500600","新店區"
"231049","108-UY","2019/08/24 18:49:28","新北市新店區力行路15號","121.53709","24.965735","6500600","新店區"
"231065","110-UY","2019/08/24 18:49:32","新北市新店區車子路115-11號","121.506816666667","24.9546416666667","6500600","新店區"
"221035","KEA-2785","2019/08/24 18:49:45","新北市汐止區大同路二段266號","121.654663333333","25.0660766666667","6501100","汐止區"
"231062","256-BX","2019/08/24 18:49:28","新北市新店區安一路一段1-1號","121.519703333333","24.961205","6500600","新店區"
"231054","260-TV","2019/08/24 18:49:46","新北市新店區安一路一段1-1號","121.519233333333","24.9609883333333","6500600","新店區"
"231042","268-BY","2019/08/24 18:49:39","新北市新店區中正路73號","121.543801666667","24.969815","6500600","新店區"
"231064","278-BY","2019/08/24 18:49:41","新北市新店區安一路一段1-1號","121.519706666667","24.9611316666667","6500600","新店區"
"231050","AAD-862","2019/08/24 18:49:40","新北市新店區安康路一段146號","121.526435","24.9628933333333","6500600","新店區"
"231045","355-BY","2019/08/24 18:49:45","新北市新店區安華路28-1號","121.519228333333","24.9607316666667","6500600","新店區"
"231058","3713-VJ","2019/08/24 18:49:35","新北市新店區北宜路一段105巷9號","121.539895","24.9558983333333","6500600","新店區"
"231056","4715-K9","2019/08/24 18:49:32","新北市新店區二十張路33巷32號","121.539561666667","24.98032","6500600","新店區"
"231067","4772-VM","2019/08/24 18:49:42","新北市新店區安華路1-1號","121.519325","24.9605016666667","6500600","新店區"
"231052","513-UM","2019/08/24 18:49:37","新北市新店區新烏路一段105巷3號","121.54637","24.9410733333333","6500600","新店區"
"231063","616-UM","2019/08/24 18:49:40","新北市新店區安華路28-1號","121.519531666667","24.9606366666667","6500600","新店區"
"231041","619-UM","2019/08/24 18:49:33","新北市新店區安華路28-1號","121.519765","24.9608066666667","6500600","新店區"
"231048","KED-0819","2019/08/24 18:49:40","新北市新店區環河路29巷1號","121.536656666667","24.9612233333333","6500600","新店區"
"231046","719-UM","2019/08/24 18:49:39","新北市新店區直潭路71號","121.53239","24.942205","6500600","新店區"
"231057","720-UM","2019/08/24 18:49:30","新北市新店區新烏路一段201號","121.54819","24.9318966666667","6500600","新店區"
"231059","897-TW","2019/08/24 18:49:36","新北市新店區安華路28-1號","121.519631666667","24.960855","6500600","新店區"
"231040","898-TW","2019/08/24 18:49:40","新北市新店區安康路一段323-1號","121.521546666667","24.9637966666667","6500600","新店區"
"231043","899-TW","2019/08/24 18:49:30","新北市新店區安康路一段355號","121.519831666667","24.962755","6500600","新店區"
"231066","AKT-0513","2019/08/24 18:49:34","新北市新店區安華路28-1號","121.519515","24.9605716666667","6500600","新店區"
"241035","462-BY","2019/08/24 18:49:36","新北市三重區重新路四段121號","121.484998333333","25.0520716666667","6500200","三重區"
"235064","005-UY","2019/08/24 18:49:42","新北市中和區泰和街44巷27號","121.498163333333","25.0010583333333","6500300","中和區"
"235063","006-UY","2019/08/24 18:49:37","新北市中和區連城路319巷5弄1-3號","121.489198333333","24.995325","6500300","中和區"
"235056","096-UM","2019/08/24 18:49:34","新北市中和區員山路466巷17弄22號","121.480525","25.0075266666667","6500300","中和區"
"235039","097-UM","2019/08/24 18:49:47","新北市中和區安樂路217巷56號","121.513","24.99771","6500300","中和區"
"235065","098-UM","2019/08/24 18:49:34","新北市中和區中山路二段2巷45弄32號","121.501573333333","25.006815","6500300","中和區"
"235040","150-BY","2019/08/24 18:49:32","新北市中和區安平路18巷14號","121.5099","24.9942","6500300","中和區"
"235058","151-BY","2019/08/24 18:49:34","新北市中和區連城路585號","121.478581666667","24.9939566666667","6500300","中和區"
"235055","183-VK","2019/08/24 18:49:32","新北市中和區德光路72號","121.469261666667","25.00378","6500300","中和區"
"235038","185-VK","2019/08/24 18:49:25","新北市中和區立人街38號","121.518155","24.9941216666667","6500300","中和區"
"235049","186-VK","2019/08/24 18:49:35","新北市中和區景安路177巷36號","121.506986666667","24.9944266666667","6500300","中和區"
"235067","255-BX","2019/08/24 18:49:44","新北市中和區新生街191號","121.48381","25.0002816666667","6500300","中和區"
"235044","293-VK","2019/08/24 18:49:41","新北市中和區中興街133號","121.500035","24.99145","6500300","中和區"
"235072","301-VK","2019/08/24 18:49:42","新北市中和區中山路二段257號","121.497308333333","25.0023533333333","6500300","中和區"
"235043","352-BY","2019/08/24 18:49:13","新北市中和區成功路40號","121.52613","24.992965","6500300","中和區"
"235042","KEA-2878","2019/08/24 18:49:37","新北市中和區秀朗路三段70巷7號","121.525881666667","24.9944683333333","6500300","中和區"
"235050","4979-A6","2019/08/24 18:49:30","新北市中和區忠孝街62巷9弄10號","121.513168333333","24.9839766666667","6500300","中和區"
"235069","4980-A6","2019/08/24 18:49:39","新北市中和區南山路111巷12號","121.502663333333","24.9975516666667","6500300","中和區"
"235070","558-UM","2019/08/24 18:49:39","新北市中和區中和路265號","121.505473333333","24.9998433333333","6500300","中和區"
"235045","565-BX","2019/08/24 18:49:39","新北市中和區景新街370號","121.512076666667","24.9902966666667","6500300","中和區"
"235060","KED-0823","2019/08/24 18:49:40","新北市中和區民治街8巷2號","121.474926666667","25.0051566666667","6500300","中和區"
"235054","640-BX","2019/08/24 18:49:34","新北市中和區中山路三段148號","121.473643333333","25.006295","6500300","中和區"
"235047","732-UM","2019/08/24 18:49:27","新北市中和區興南路二段34巷55弄1號","121.5049","24.9862216666667","6500300","中和區"
"235046","733-UM","2019/08/24 18:49:33","新北市中和區興南路一段89號","121.509915","24.9887983333333","6500300","中和區"
"235062","800-TS","2019/08/24 18:49:45","新北市中和區中山路二段348巷8號","121.492963333333","25.00302","6500300","中和區"
"235057","801-TS","2019/08/24 18:49:45","新北市中和區民利街58巷1號","121.478928333333","24.9989866666667","6500300","中和區"
"235052","805-TS","2019/08/24 18:49:40","新北市中和區興南路二段399巷98弄40號","121.499623333333","24.9771616666667","6500300","中和區"
"235048","896-TW","2019/08/24 18:49:42","新北市中和區華新街66號","121.508138333333","24.9837466666667","6500300","中和區"
"235053","900-TW","2019/08/24 18:49:24","新北市中和區民德路290巷5號","121.467076666667","24.9957016666667","6500300","中和區"
"235066","911-UM","2019/08/24 18:49:37","新北市中和區水源路18巷2弄2號","121.504025","25.0033183333333","6500300","中和區"
"235051","157-BY","2019/08/24 18:49:38","新北市中和區忠孝街35號","121.51067","24.9832616666667","6500300","中和區"
"235037","AAC-213","2019/08/24 18:49:42","新北市中和區秀朗路三段10巷14弄43號","121.524078333333","24.996365","6500300","中和區"
"235059","AAC-215","2019/08/24 18:49:34","新北市中和區圓通路393巷36號","121.490443333333","24.9883116666667","6500300","中和區"
"220065","072-UY","2019/08/24 18:49:41","新北市板橋區館前東路110-1號","121.46334","25.00775","6500100","板橋區"
"220086","073-UY","2019/08/24 18:49:42","新北市板橋區華東街330號","121.452811666667","25.0035733333333","6500100","板橋區"
"220106","075-UY","2019/08/24 18:49:35","新北市板橋區莒光路52-1號","121.470753333333","25.0243333333333","6500100","板橋區"
"220069","AAD-861","2019/08/24 18:49:27","新北市板橋區華興街79號","121.456908333333","25.00509","6500100","板橋區"
"226004","312-R5","2019/08/24 18:49:47","新北市平溪區平溪里三坑路6號","121.737416666667","25.0282833333333","6502400","平溪區"
"235041","251-BX","2019/08/24 18:49:28","新北市中和區宜安路129號","121.509738333333","24.9981633333333","6500300","中和區"
"228003","097-TW","2019/08/24 18:49:32","新北市貢寮區和美里龍洞街60號","121.913438333333","25.1151916666667","6502600","貢寮區"
"228001","212-TW","2019/08/24 18:49:32","新北市貢寮區仁理村保健街71號","121.923705","25.0516333333333","6502600","貢寮區"
"228002","663-BX","2019/08/24 18:49:45","新北市貢寮區福隆里東興街6-11號","121.950708333333","25.0210283333333","6502600","貢寮區"
"224010","AGQ-8101","2019/08/24 18:49:36","新北市瑞芳區基山街31巷19號","121.845753333333","25.1099683333333","6501200","瑞芳區"
"224006","676-BX","2019/08/24 18:49:28","新北市瑞芳區民權街6巷25號","121.80703","25.10675","6501200","瑞芳區"
"224002","639-TC","2019/08/24 18:49:35","新北市瑞芳區傑魚坑路311-1號","121.794441666667","25.1074616666667","6501200","瑞芳區"
"224007","285-BY","2019/08/24 18:49:33","新北市瑞芳區大埔路192-1號","121.761486666667","25.1012183333333","6501200","瑞芳區"
"224009","275-VK","2019/08/24 18:49:28","新北市瑞芳區祈堂路12號","121.858655","25.1139016666667","6501200","瑞芳區"
"224008","273-VK","2019/08/24 18:49:43","新北市瑞芳區逢甲路275號","121.801651666667","25.11193","6501200","瑞芳區"
"224005","271-BY","2019/08/24 18:49:40","新北市瑞芳區海濱路77-2號","121.831098333333","25.1232883333333","6501200","瑞芳區"
"227002","642-TC","2019/08/24 18:49:34","新北市雙溪區共和里中山路59號","121.86824","25.0315133333333","6502500","雙溪區"
"227001","400-TW","2019/08/24 18:49:24","新北市雙溪區牡丹里下坑11號","121.851005","25.056175","6502500","雙溪區"
"253006","032-BX","2019/08/24 18:49:37","新北市石門區下員坑30-7號","121.51938","25.2816716666667","6502200","石門區"
"253005","295-VK","2019/08/24 18:49:39","新北市石門區中山路17號","121.565996666667","25.290275","6502200","石門區"
"208002","KEA-2872","2019/08/24 18:49:37","新北市金山區信義路66號","121.635586666667","25.2189966666667","6502700","金山區"
"208003","665-BX","2019/08/24 18:49:35","新北市金山區中山路336號","121.633643333333","25.2252983333333","6502700","金山區"
"251009","008-UM","2019/08/24 18:49:39","新北市淡水區重建街208號","121.441165","25.1746733333333","6501000","淡水區"
"251010","012-UM","2019/08/24 18:49:32","新北市淡水區沙崙路24號","121.421288333333","25.1812116666667","6501000","淡水區"
"251015","KEA-2871","2019/08/24 18:49:39","新北市淡水區糞箕湖20號","121.48558","25.171055","6501000","淡水區"
"251016","179-VK","2019/08/24 18:49:39","新北市淡水區下圭柔山71-3號","121.446978333333","25.2062233333333","6501000","淡水區"
"251013","180-VK","2019/08/24 18:49:43","新北市淡水區安子內5號","121.483543333333","25.2146166666667","6501000","淡水區"
"251012","441-VK","2019/08/24 18:49:30","新北市淡水區中山北路一段156號","121.444001666667","25.1779133333333","6501000","淡水區"
"251001","559-UM","2019/08/24 18:49:37","新北市淡水區自強路277號","121.462366666667","25.1283516666667","6501000","淡水區"
"251006","561-UM","2019/08/24 18:49:31","新北市淡水區下圭柔山90-2號","121.43219","25.2120316666667","6501000","淡水區"
"251014","577-R6","2019/08/24 18:49:35","新北市淡水區崙頂3號","121.49025","25.2241083333333","6501000","淡水區"
"251011","650-BX","2019/08/24 18:49:33","新北市淡水區學府路32巷87號","121.448191666667","25.167685","6501000","淡水區"
"251002","672-BX","2019/08/24 18:49:43","新北市淡水區學府路79號","121.448561666667","25.170025","6501000","淡水區"
"251003","766-UM","2019/08/24 18:49:35","新北市淡水區中山北路一段212巷34號","121.446265","25.1791633333333","6501000","淡水區"
"207003","550-UM","2019/08/24 18:49:43","新北市萬里區野柳里八斗60-1號","121.67636","25.2006533333333","6502800","萬里區"
"207004","291-VK","2019/08/24 18:49:35","新北市萬里區萬里里獅頭路23號","121.693225","25.17827","6502800","萬里區"
"252002","178-VK","2019/08/24 18:49:40","新北市三芝區中正路一段112號","121.50483","25.25643","6502100","三芝區"
"252003","249-BX","2019/08/24 18:49:42","新北市三芝區後厝里大片頭76號","121.459346666667","25.2460366666667","6502100","三芝區"
"208001","170-UY","2019/08/24 18:49:42","新北市金山區文化三路66巷1號","121.634208333333","25.2256433333333","6502700","金山區"
"237004","KEA-2597","2019/08/24 18:49:40","新北市三峽區有木107-2號","121.433648333333","24.861145","6500900","三峽區"
"237007","153-BY","2019/08/24 18:49:35","新北市三峽區柑樹路2巷52號","121.36185","24.9050533333333","6500900","三峽區"
"237013","252-BX","2019/08/24 18:49:41","新北市三峽區大同路48巷17弄8-1號","121.37666","24.9290266666667","6500900","三峽區"
"237012","275-BY","2019/08/24 18:49:45","新北市三峽區三樹路358號","121.38394","24.9433883333333","6500900","三峽區"
"237008","302-VK","2019/08/24 18:49:33","新北市三峽區中正路一段500號","121.370193333333","24.9205566666667","6500900","三峽區"
"237014","433-BY","2019/08/24 18:49:42","新北市三峽區復興路480巷51-1號","121.360638333333","24.940505","6500900","三峽區"
"237006","5529-G3","2019/08/24 18:49:39","新北市三峽區溪東路211巷20號","121.406628333333","24.9339716666667","6500900","三峽區"
"237011","KEA-2596","2019/08/24 18:49:28","新北市三峽區溪東路93號","121.401503333333","24.93463","6500900","三峽區"
"237015","649-BX","2019/08/24 18:49:42","新北市三峽區建安112-1號","121.458285","24.9222716666667","6500900","三峽區"
"237010","706-TV","2019/08/24 18:49:41","新北市三峽區復興路455號","121.362231666667","24.938525","6500900","三峽區"
"237005","AKY-6261","2019/08/24 18:49:41","新北市三峽區中山路459巷135號","121.34902","24.933325","6500900","三峽區"
"236042","KED-0685","2019/08/24 18:49:42","新北市土城區裕民路114巷22號","121.450278333333","24.9857083333333","6501300","土城區"
"236079","166-UM","2019/08/24 18:49:44","新北市土城區中央路四段67巷50號","121.418053333333","24.9569566666667","6501300","土城區"
"236030","253-BX","2019/08/24 18:49:43","新北市土城區中央路三段61巷7號","121.439425","24.9694666666667","6501300","土城區"
"236026","269-VK","2019/08/24 18:49:38","新北市土城區農豐街12號","121.442453333333","24.9738583333333","6501300","土城區"
"236014","270-VK","2019/08/24 18:49:33","新北市土城區金城路二段354巷10號","121.460908333333","24.9844833333333","6501300","土城區"
"236038","271-VK","2019/08/24 18:49:46","新北市土城區明德路一段195巷2弄17號","121.463463333333","24.97821","6501300","土城區"
"236070","KEA-2877","2019/08/24 18:49:30","新北市土城區延和路21巷9號","121.464068333333","24.9886966666667","6501300","土城區"
"252001","KED-0821","2019/08/24 18:49:34","新北市三芝區中正路三段9號","121.50304","25.2539716666667","6502100","三芝區"
"236021","401-BY","2019/08/24 18:49:34","新北市土城區延吉街253巷3號","121.467728333333","24.9846766666667","6501300","土城區"
"236059","912-UM","2019/08/24 18:49:34","新北市土城區金城路一段112號","121.446135","24.9748083333333","6501300","土城區"
"236049","913-UM","2019/08/24 18:49:32","新北市土城區青雲路11號","121.460365","24.9896","6501300","土城區"
"236063","915-UM","2019/08/24 18:49:34","新北市土城區延壽路13巷4號","121.470955","24.990505","6501300","土城區"
"236055","AAC-216","2019/08/24 18:49:27","新北市土城區裕民路167-1號","121.453026666667","24.9852166666667","6501300","土城區"
"238023","601-UM","2019/08/24 18:49:40","新北市樹林區工興街14巷2號","121.39889","25.013515","6500700","樹林區"
"238019","599-UM","2019/08/24 18:49:32","新北市樹林區中山路二段157號","121.406228333333","24.978915","6500700","樹林區"
"238024","5061-A6","2019/08/24 18:49:36","新北市樹林區太平路247巷6號","121.419098333333","24.97508","6500700","樹林區"
"238022","KEA-2213","2019/08/24 18:49:30","新北市樹林區中華路190-1號","121.411386666667","24.9804933333333","6500700","樹林區"
"238021","KEA-2539","2019/08/24 18:49:40","新北市樹林區西圳街二段57巷1號","121.387448333333","24.9602433333333","6500700","樹林區"
"238025","303-VK","2019/08/24 18:49:32","新北市樹林區中山路三段22號","121.395596666667","24.9730416666667","6500700","樹林區"
"238017","283-BY","2019/08/24 18:49:41","新北市樹林區光興街44號","121.409908333333","25.0027266666667","6500700","樹林區"
"238014","282-BY","2019/08/24 18:49:42","新北市樹林區大安路111巷43號","121.423281666667","24.99747","6500700","樹林區"
"238020","268-VK","2019/08/24 18:49:45","新北市樹林區俊英街282號","121.423758333333","25.0133266666667","6500700","樹林區"
"238026","172-UY","2019/08/24 18:49:32","新北市樹林區育德街78-1號","121.388191666667","24.9680316666667","6500700","樹林區"
"239007","AAC-297","2019/08/24 18:49:31","新北市鶯歌區中正一路建德巷38號","121.364523333333","24.957795","6500800","鶯歌區"
"239006","891-R6","2019/08/24 18:49:38","新北市鶯歌區鶯桃路296巷48號","121.335836666667","24.9612783333333","6500800","鶯歌區"
"239008","527-UM","2019/08/24 18:49:34","新北市鶯歌區朝陽街1號","121.33631","24.9766366666667","6500800","鶯歌區"
"239005","526-UM","2019/08/24 18:49:34","桃園市桃園區興華路23號","121.327026666667","24.9758683333333","6500800","鶯歌區"
"239001","417-VK","2019/08/24 18:49:36","新北市鶯歌區高職南街11號","121.3374","24.939375","6500800","鶯歌區"
"239003","360-BY","2019/08/24 18:49:24","新北市鶯歌區鶯桃路534號","121.331316666667","24.96706","6500800","鶯歌區"
"239002","359-BY","2019/08/24 18:45:46","新北市鶯歌區中正一路235號","121.354208333333","24.9571433333333","6500800","鶯歌區"
"239004","193-VK","2019/08/24 18:49:26","新北市鶯歌區中正三路194巷33號","121.33115","24.9406483333333","6500800","鶯歌區"
"221036","130-UY","2019/08/24 18:49:27","新北市汐止區大同路二段599號","121.663873333333","25.0704833333333","6501100","汐止區"
"221015","131-UY","2019/08/24 18:49:37","新北市汐止區吉祥街12巷4-1號","121.668485","25.0802633333333","6501100","汐止區"
"221032","280-BY","2019/08/24 18:49:44","新北市汐止區民權街二段35-1號","121.6201","25.050245","6501100","汐止區"
"221029","298-VK","2019/08/24 18:49:06","新北市汐止區樟樹一路2巷34號","121.641585","25.062545","6501100","汐止區"
"221021","299-VK","2019/08/24 18:49:44","新北市汐止區復興路71號","121.657391666667","25.0620483333333","6501100","汐止區"
"221031","353-TW","2019/08/24 18:49:38","新北市汐止區福德一路274號","121.63209","25.0640366666667","6501100","汐止區"
"221025","623-UM","2019/08/24 18:49:36","新北市汐止區福安街20巷22號","121.661911666667","25.0646333333333","6501100","汐止區"
"221038","646-BX","2019/08/24 18:45:31","新北市汐止區康寧街901號","121.650748333333","25.0753033333333","6501100","汐止區"
"221033","647-BX","2019/08/24 18:49:29","新北市汐止區南勢街3號","121.627085","25.0374233333333","6501100","汐止區"
"221002","707-TV","2019/08/24 18:49:39","新北市汐止區大同路一段89-3號","121.624641666667","25.05496","6501100","汐止區"
"221018","753-BX","2019/08/24 18:49:40","新北市汐止區茄苳路274號","121.672183333333","25.0680416666667","6501100","汐止區"
"220079","145-BY","2019/08/24 18:49:42","新北市板橋區南雅西路二段192巷1弄21號","121.452288333333","25.0150866666667","6500100","板橋區"
"220082","610-BX","2019/08/24 18:49:32","新北市板橋區篤行路三段玉平巷57號","121.428473333333","24.9865383333333","6500100","板橋區"
"220091","267-BY","2019/08/24 18:49:43","新北市板橋區雙十路二段47巷61號","121.474848333333","25.02524","6500100","板橋區"
"220056","276-BY","2019/08/24 18:49:34","新北市板橋區信義路16-3號","121.456956666667","24.9958083333333","6500100","板橋區"
"220072","277-BY","2019/08/24 18:49:25","新北市板橋區金門街12號","121.433363333333","24.9946366666667","6500100","板橋區"
"220101","280-UM","2019/08/24 18:49:38","新北市板橋區莊敬路157號","121.471556666667","25.024735","6500100","板橋區"
"220071","283-VK","2019/08/24 18:49:44","新北市板橋區四川路一段24號","121.459446666667","25.0063566666667","6500100","板橋區"
"220094","285-UM","2019/08/24 18:49:42","新北市板橋區文化路二段28號","121.469206666667","25.0249566666667","6500100","板橋區"
"220053","285-VK","2019/08/24 18:49:43","新北市板橋區成功路35號","121.475103333333","25.0175583333333","6500100","板橋區"
"220083","286-VK","2019/08/24 18:49:42","新北市板橋區大觀路二段22巷37號","121.444671666667","25.0036683333333","6500100","板橋區"
"220081","287-VK","2019/08/24 18:49:26","新北市板橋區光華街13巷34號","121.453066666667","25.0113283333333","6500100","板橋區"
"220090","288-VK","2019/08/24 18:49:36","新北市板橋區四維路221號","121.46332","25.02686","6500100","板橋區"
"220061","293-UM","2019/08/24 18:49:28","新北市板橋區永豐街157號","121.475351666667","25.0203","6500100","板橋區"
"220084","296-UM","2019/08/24 18:49:44","新北市板橋區大觀路二段150巷24號","121.441695","24.9995616666667","6500100","板橋區"
"220067","299-UM","2019/08/24 18:49:42","新北市板橋區中山路二段90巷47弄2號","121.476615","25.0147133333333","6500100","板橋區"
"220075","303-R5","2019/08/24 18:49:33","新北市板橋區大觀路一段15號","121.45037","25.0084766666667","6500100","板橋區"
"220062","305-R5","2019/08/24 18:49:35","新北市板橋區中山路二段40巷7號","121.473308333333","25.0149366666667","6500100","板橋區"
"220092","307-R5","2019/08/24 18:49:34","新北市板橋區文化路一段136巷8弄1號","121.465513333333","25.0183116666667","6500100","板橋區"
"220098","317-R6","2019/08/24 18:49:42","新北市板橋區民生路二段232-9號","121.468903333333","25.0226766666667","6500100","板橋區"
"220089","487-VK","2019/08/24 18:49:37","新北市板橋區文化路二段453號","121.475533333333","25.0335833333333","6500100","板橋區"
"220088","491-VK","2019/08/24 18:49:45","新北市板橋區莒光路48-1號","121.470616666667","25.0243416666667","6500100","板橋區"
"220103","561-BX","2019/08/24 18:49:36","新北市板橋區文化路一段188巷11弄54號","121.469095","25.01878","6500100","板橋區"
"220080","568-UM","2019/08/24 18:49:38","新北市板橋區大觀路二段265巷72弄13號","121.441915","24.99688","6500100","板橋區"
"220063","609-BX","2019/08/24 18:49:38","新北市板橋區民生路一段80號","121.47353","25.01545","6500100","板橋區"
"220035","630-UY","2019/08/24 18:49:30","新北市板橋區中正路275巷77號","121.452413333333","25.0181383333333","6500100","板橋區"
"220057","686-BX","2019/08/24 18:49:39","新北市板橋區重慶路238號","121.462863333333","25.0014316666667","6500100","板橋區"
"220077","687-BX","2019/08/24 18:49:28","新北市板橋區大觀路二段174巷165弄2號","121.441915","25.0034","6500100","板橋區"
"220093","689-BX","2019/08/24 18:49:40","新北市板橋區民生路三段54號","121.467138333333","25.025235","6500100","板橋區"
"220054","741-BX","2019/08/24 18:49:36","新北市板橋區館前東路22號","121.460178333333","25.0071433333333","6500100","板橋區"
"220102","KEA-2699","2019/08/24 18:49:31","新北市板橋區萬板路558-1號","121.4808","25.0266016666667","6500100","板橋區"
"220055","827-TW","2019/08/24 18:49:33","新北市板橋區重慶路183號","121.462843333333","25.0023466666667","6500100","板橋區"
"220074","895-R6","2019/08/24 18:49:42","新北市板橋區南門街2號","121.45757","25.009245","6500100","板橋區"
"220073","985-R7","2019/08/24 18:49:39","新北市板橋區館前西路154-1號","121.455121666667","25.0085083333333","6500100","板橋區"
"220097","AAC-210","2019/08/24 18:49:37","新北市板橋區漢生西路157號","121.463231666667","25.0235166666667","6500100","板橋區"
"220064","AAC-253","2019/08/24 18:49:37","新北市板橋區漢生東路178號","121.467265","25.0146583333333","6500100","板橋區"
"235068","KEA-2873","2019/08/24 18:49:36","新北市中和區中正路211巷36弄4號","121.497213333333","24.992745","6500300","中和區"
"235061","KEA-2875","2019/08/24 18:49:38","新北市中和區民治街134巷2-2號","121.475333333333","25.00214","6500300","中和區"
