"lineid","car","time","location","longitude","latitude","cityid","cityname"
"234046","148-BY","2019/08/24 19:29:39","新北市永和區秀朗路二段169-1號","121.525343333333","25.0015833333333","6500400","永和區"
"234081","298-R6","2019/08/24 19:29:42","新北市永和區林森路10巷8號","121.526105","25.0061033333333","6500400","永和區"
"234038","336-UY","2019/08/24 19:29:41","新北市永和區成功路二段65號","121.527365","25.0001516666667","6500400","永和區"
"234064","337-UY","2019/08/24 19:29:35","新北市永和區得和路243巷28弄1號","121.520801666667","25.001265","6500400","永和區"
"234086","338-UY","2019/08/24 19:29:28","新北市永和區國中路2號","121.524185","25.004175","6500400","永和區"
"234070","552-UM","2019/08/24 19:29:40","新北市永和區警光街12號","121.51974","25.0096016666667","6500400","永和區"
"234017","745-BX","2019/08/24 19:29:43","新北市永和區環河西路一段51巷2號","121.513905","25.0182233333333","6500400","永和區"
"234030","746-BX","2019/08/24 19:29:31","新北市永和區民生路2號","121.522688333333","24.9979966666667","6500400","永和區"
"234054","KEA-2590","2019/08/24 19:29:29","新北市永和區復興街19巷9號","121.516108333333","25.01322","6500400","永和區"
"234007","KED-0605","2019/08/24 19:29:29","新北市永和區永和路一段140號","121.514071666667","25.008185","6500400","永和區"
"234013","KEA-2591","2019/08/24 19:29:43","新北市永和區中山路一段184巷7號","121.508588333333","25.0094716666667","6500400","永和區"
"234061","AAD-866","2019/08/24 19:29:31","新北市永和區永貞路145號","121.516166666667","25.004155","6500400","永和區"
"234042","862-TW","2019/08/24 19:29:46","新北市永和區中和路525號","121.511256666667","25.0029033333333","6500400","永和區"
"234050","863-TW","2019/08/24 19:29:27","新北市永和區信義路86號","121.512496666667","25.013505","6500400","永和區"
"234026","9371-KE","2019/08/24 19:29:28","新北市中和區安樂路255號","121.514021666667","24.9998916666667","6500400","永和區"
"234011","9373-KE","2019/08/24 19:29:32","新北市永和區保安路151號","121.506915","25.0131283333333","6500400","永和區"
"249002","305-UY","2019/08/24 19:29:27","新北市八里區龍形一街33巷1-6號","121.449376666667","25.1294733333333","6502300","八里區"
"249003","593-UM","2019/08/24 19:29:39","新北市八里區中山路二段462號","121.39901","25.1472316666667","6502300","八里區"
"248020","KED-0813","2019/08/24 19:29:29","新北市五股區凌雲路三段92-2號","121.428085","25.1198883333333","6501500","五股區"
"248012","247-BX","2019/08/24 19:29:38","新北市五股區成泰路二段91巷9號","121.4376","25.0842683333333","6501500","五股區"
"248014","261-SL","2019/08/24 19:29:19","新北市五股區民義路一段172巷11號","121.43351","25.08808","6501500","五股區"
"248010","272-BY","2019/08/24 19:29:44","新北市五股區水碓一路23號","121.4306","25.0712833333333","6501500","五股區"
"248004","677-BX","2019/08/24 19:29:28","新北市五股區工商路140號","121.435063333333","25.086595","6501500","五股區"
"248002","678-BX","2019/08/24 19:29:39","新北市五股區凌雲路一段158巷6號","121.447788333333","25.1030083333333","6501500","五股區"
"234023","9380-KE","2019/08/24 19:29:30","新北市永和區竹林路91巷43弄2號","121.521303333333","25.0127933333333","6500400","永和區"
"234077","969-R7","2019/08/24 19:29:28","新北市永和區民權路58巷3號","121.519608333333","24.9982683333333","6500400","永和區"
"234074","AAC-211","2019/08/24 19:29:40","新北市永和區環河東路二段54號","121.52332","25.0116116666667","6500400","永和區"
"234067","AAC-212","2019/08/24 19:29:34","新北市永和區保平路196號","121.510206666667","25.0063866666667","6500400","永和區"
"234003","AAC-295","2019/08/24 19:29:40","新北市永和區福和路387號","121.514128333333","25.0075666666667","6500400","永和區"
"244023","483-VK","2019/08/24 19:29:34","新北市林口區文化三路一段617巷90號","121.370016666667","25.07771","6501700","林口區"
"243012","AAD-798","2019/08/24 19:29:37","新北市泰山區仁義路222號","121.433013333333","25.05363","6501600","泰山區"
"243010","297-R6","2019/08/24 19:29:40","新北市泰山區民生路17巷2號","121.429976666667","25.0525133333333","6501600","泰山區"
"243014","KEA-2801","2019/08/24 19:29:42","新北市泰山區中港西路418號","121.433916666667","25.05396","6501600","泰山區"
"243016","421-VK","2019/08/24 19:29:38","新北市泰山區明志路三段204巷12號","121.422011666667","25.0379066666667","6501600","泰山區"
"243009","KEA-2215","2019/08/24 19:29:40","新北市泰山區明志路一段14號","121.433596666667","25.0658483333333","6501600","泰山區"
"243011","KEA-2216","2019/08/24 19:29:43","新北市泰山區中山路二段561-9號","121.42993","25.0406066666667","6501600","泰山區"
"243013","646-TV","2019/08/24 19:29:39","新北市泰山區貴子路36巷16號","121.425875","25.0411116666667","6501600","泰山區"
"243015","680-BX","2019/08/24 19:29:47","新北市泰山區明志路二段136巷1-1號","121.427365","25.0511816666667","6501600","泰山區"
"222003","436-BY","2019/08/24 19:29:40","新北市深坑區深南路51-1號","121.621221666667","25.0098166666667","6501800","深坑區"
"222001","628-TS","2019/08/24 19:29:33","新北市深坑區深坑街10號","121.615788333333","25.0027866666667","6501800","深坑區"
"222002","659-BX","2019/08/24 19:29:45","新北市深坑區北深路一段177號","121.632545","25.0108616666667","6501800","深坑區"
"231061","002-UM","2019/08/24 19:29:33","新北市新店區安康路一段302-2號","121.517298333333","24.964015","6500600","新店區"
"231044","046-UY","2019/08/24 19:29:33","新北市新店區中興路三段136號","121.544688333333","24.9798766666667","6500600","新店區"
"231060","106-UY","2019/08/24 19:29:28","新北市新店區安康路二段1-1號","121.516555","24.9637066666667","6500600","新店區"
"231051","107-UY","2019/08/24 19:29:37","新北市新店區中央五街31號","121.52889","24.974815","6500600","新店區"
"231049","108-UY","2019/08/24 19:29:28","新北市新店區北新路三段65巷12弄16號","121.540848333333","24.981395","6500600","新店區"
"231065","110-UY","2019/08/24 19:29:32","新北市新店區安祥路109巷1弄39號","121.476953333333","24.9603666666667","6500600","新店區"
"231062","256-BX","2019/08/24 19:29:28","新北市新店區莒光路85巷3號","121.523448333333","24.9565016666667","6500600","新店區"
"231054","260-TV","2019/08/24 19:29:46","新北市新店區文中路40號","121.539701666667","24.9565416666667","6500600","新店區"
"231042","268-BY","2019/08/24 19:29:39","新北市新店區中興路一段136號","121.542046666667","24.96347","6500600","新店區"
"231064","278-BY","2019/08/24 19:29:41","新北市新店區安康路二段87號","121.513456666667","24.9628516666667","6500600","新店區"
"231050","AAD-862","2019/08/24 19:29:40","新北市新店區北宜路二段82巷11號","121.553778333333","24.9518116666667","6500600","新店區"
"231045","355-BY","2019/08/24 19:29:25","新北市新店區北宜路二段209號","121.553153333333","24.953245","6500600","新店區"
"231058","3713-VJ","2019/08/24 19:29:35","新北市新店區北新路二段228巷13號","121.543476666667","24.9771666666667","6500600","新店區"
"231056","4715-K9","2019/08/24 19:29:32","新北市新店區安和路三段4巷1-3號","121.518313333333","24.980385","6500600","新店區"
"231067","4772-VM","2019/08/24 19:29:42","新北市新店區安康路二段320巷15弄2號","121.504281666667","24.9596533333333","6500600","新店區"
"231052","513-UM","2019/08/24 19:29:37","新北市新店區新烏路二段198巷2弄6號","121.54795","24.9175533333333","6500600","新店區"
"231063","616-UM","2019/08/24 19:29:40","新北市新店區達觀路14巷1號","121.503606666667","24.9411266666667","6500600","新店區"
"231041","619-UM","2019/08/24 19:29:33","新北市新店區中正路543-4號","121.533695","24.9873916666667","6500600","新店區"
"231048","KED-0819","2019/08/24 19:29:40","新北市新店區五峰路66號","121.545968333333","24.968215","6500600","新店區"
"231046","719-UM","2019/08/24 19:29:38","新北市新店區北新路一段46號","121.54099","24.96618","6500600","新店區"
"231057","720-UM","2019/08/24 19:29:30","新北市新店區花園一路二段27號","121.551323333333","24.9324966666667","6500600","新店區"
"231059","897-TW","2019/08/24 19:29:36","新北市新店區安和路三段46號","121.518051666667","24.9818666666667","6500600","新店區"
"231040","898-TW","2019/08/24 19:29:40","新北市新店區三民路20巷2號","121.537593333333","24.9705966666667","6500600","新店區"
"231043","899-TW","2019/08/24 19:29:37","新北市新店區北新路二段182號","121.542983333333","24.9760916666667","6500600","新店區"
"231066","AKT-0513","2019/08/24 19:29:34","新北市新店區安康路三段355巷15號","121.484848333333","24.9504583333333","6500600","新店區"
"241028","022-UY","2019/08/24 19:29:33","新北市三重區中寮街31號","121.492641666667","25.05891","6500200","三重區"
"241008","059-VK","2019/08/24 19:29:26","新北市三重區永福街135巷30號","121.47752","25.0770833333333","6500200","三重區"
"241029","060-VK","2019/08/24 19:29:32","新北市三重區重安街140號","121.49536","25.0550766666667","6500200","三重區"
"241031","061-VK","2019/08/24 19:29:33","新北市三重區集美街100號","121.488746666667","25.0541116666667","6500200","三重區"
"241017","063-VK","2019/08/24 19:29:29","新北市三重區中正北路25巷6號","121.493381666667","25.0628116666667","6500200","三重區"
"241007","742-BX","2019/08/24 19:29:28","新北市三重區溪尾街120巷21號","121.488806666667","25.07903","6500200","三重區"
"241006","262-UM","2019/08/24 19:29:38","新北市三重區車路頭街80巷2號","121.48414","25.0737583333333","6500200","三重區"
"241009","267-UM","2019/08/24 19:29:37","新北市三重區溪尾街242巷66號","121.48619","25.0814116666667","6500200","三重區"
"241032","269-UM","2019/08/24 19:29:38","新北市三重區三陽路63號","121.484366666667","25.058825","6500200","三重區"
"241013","270-UM","2019/08/24 19:29:30","新北市三重區仁愛街119號","121.4953","25.074595","6500200","三重區"
"241025","271-UM","2019/08/24 19:29:39","新北市三重區頂崁街210巷27號","121.475785","25.0681766666667","6500200","三重區"
"241030","KED-0822","2019/08/24 19:29:28","新北市三重區成功路41巷10號","121.490281666667","25.0515416666667","6500200","三重區"
"241035","462-BY","2019/08/24 19:29:36","新北市三重區信義西街1巷21號","121.498078333333","25.0652666666667","6500200","三重區"
"241020","478-VK","2019/08/24 19:29:44","新北市三重區三和路四段20巷22號","121.490113333333","25.0735966666667","6500200","三重區"
"241023","545-UM","2019/08/24 19:29:39","新北市三重區頂崁街99號","121.477978333333","25.063865","6500200","三重區"
"241026","743-BX","2019/08/24 19:29:47","新北市三重區文化南路36號","121.500305","25.0613066666667","6500200","三重區"
"241022","KED-0820","2019/08/24 19:29:44","新北市三重區三民街165巷2號","121.48376","25.0651483333333","6500200","三重區"
"241012","941-UM","2019/08/24 19:29:45","新北市三重區河邊北街379-1號","121.501696666667","25.0764516666667","6500200","三重區"
"235064","005-UY","2019/08/24 19:29:42","新北市中和區南華路29號","121.503061666667","24.9960066666667","6500300","中和區"
"235063","006-UY","2019/08/24 19:29:43","新北市中和區連城路203巷10弄2號","121.495035","24.9973333333333","6500300","中和區"
"235056","096-UM","2019/08/24 19:29:34","新北市中和區員山路581巷31弄22號","121.476655","25.0104083333333","6500300","中和區"
"235039","097-UM","2019/08/24 19:29:27","新北市中和區秀峰街103巷5弄1號","121.520393333333","24.9898533333333","6500300","中和區"
"235065","098-UM","2019/08/24 19:29:34","新北市中和區中山路二段2巷13弄26號","121.502536666667","25.0065383333333","6500300","中和區"
"235040","150-BY","2019/08/24 19:29:32","新北市中和區保健路46巷17號","121.509301666667","24.996365","6500300","中和區"
"235058","151-BY","2019/08/24 19:29:34","新北市中和區連城路374巷7-2號","121.481426666667","24.9956266666667","6500300","中和區"
"235055","183-VK","2019/08/24 19:29:32","新北市中和區民享街30巷1號","121.473975","25.0034866666667","6500300","中和區"
"235038","185-VK","2019/08/24 19:29:25","新北市中和區自立路127號","121.521876666667","24.9940816666667","6500300","中和區"
"235049","186-VK","2019/08/24 19:29:38","新北市中和區安平路27號","121.509281666667","24.9943816666667","6500300","中和區"
"235067","255-BX","2019/08/24 19:29:24","新北市中和區新生街220巷4號","121.482891666667","24.99856","6500300","中和區"
"235044","293-VK","2019/08/24 19:29:41","新北市中和區捷運路58-3號","121.507458333333","24.9906483333333","6500300","中和區"
"235072","301-VK","2019/08/24 19:29:42","新北市中和區連城路263巷4弄10號","121.491691666667","24.99535","6500300","中和區"
"235043","352-BY","2019/08/24 19:29:42","新北市中和區安和路27號","121.510483333333","24.994355","6500300","中和區"
"235042","KEA-2878","2019/08/24 19:29:37","新北市中和區中和路262巷24弄12號","121.509578333333","24.998815","6500300","中和區"
"235070","558-UM","2019/08/24 19:29:38","新北市中和區景平路597號","121.49705","25.0008183333333","6500300","中和區"
"235045","565-BX","2019/08/24 19:29:39","新北市中和區景新街467巷3號","121.513633333333","24.9881866666667","6500300","中和區"
"235060","KED-0823","2019/08/24 19:29:33","新北市中和區中山路二段523巷14號","121.481563333333","25.0044633333333","6500300","中和區"
"235054","640-BX","2019/08/24 19:29:41","新北市中和區莒光路49號","121.47211","25.0046216666667","6500300","中和區"
"235047","732-UM","2019/08/24 19:29:27","新北市中和區景平路241巷64弄8號","121.507666666667","24.9925733333333","6500300","中和區"
"235046","733-UM","2019/08/24 19:29:37","新北市中和區忠孝街60巷2弄2號","121.511628333333","24.9837316666667","6500300","中和區"
"235071","783-BX","2019/08/24 19:29:43","新北市中和區連城路469巷6號","121.483503333333","24.995485","6500300","中和區"
"235057","801-TS","2019/08/24 19:29:45","新北市中和區員山路239號","121.481198333333","24.9983666666667","6500300","中和區"
"235052","805-TS","2019/08/24 19:29:40","新北市中和區華新街143巷71弄41號","121.507716666667","24.9792816666667","6500300","中和區"
"235048","896-TW","2019/08/24 19:29:42","新北市中和區忠孝街108-1號","121.512178333333","24.9846333333333","6500300","中和區"
"235053","900-TW","2019/08/24 19:29:43","新北市中和區民德路95號","121.468886666667","25.001105","6500300","中和區"
"235066","911-UM","2019/08/24 19:29:17","新北市中和區景新街18號","121.502841666667","24.9993016666667","6500300","中和區"
"235051","157-BY","2019/08/24 19:29:38","新北市中和區景平路419-1號","121.501775","24.99507","6500300","中和區"
"235037","AAC-213","2019/08/24 19:29:42","新北市中和區秀朗路三段50巷4弄4號","121.525706666667","24.9957133333333","6500300","中和區"
"235059","AAC-215","2019/08/24 19:29:34","新北市中和區圓通路252巷29弄10號","121.492726666667","24.9918683333333","6500300","中和區"
"220065","072-UY","2019/08/24 19:29:41","新北市板橋區國泰街111巷3號","121.466025","25.0063016666667","6500100","板橋區"
"220086","073-UY","2019/08/24 19:29:42","新北市板橋區中正路216巷133號","121.460451666667","25.019545","6500100","板橋區"
"220106","075-UY","2019/08/24 19:29:35","新北市板橋區民治街26巷18號","121.477333333333","25.03361","6500100","板橋區"
"220069","AAD-861","2019/08/24 19:29:31","新北市板橋區貴興路88-3號","121.45592","25.0032416666667","6500100","板橋區"
"220068","120-SR","2019/08/24 19:29:44","新北市板橋區萬安街41號","121.484136666667","25.0235516666667","6500100","板橋區"
"226004","312-R5","2019/08/24 19:29:33","新北市平溪區十分里十分街233號","121.778285","25.0439716666667","6502400","平溪區"
"235041","251-BX","2019/08/24 19:29:28","新北市中和區中和路416號","121.511645","25.0031683333333","6500300","中和區"
"228003","097-TW","2019/08/24 19:29:32","新北市貢寮區和美里和美街22-1號","121.912863333333","25.0826166666667","6502600","貢寮區"
"228001","212-TW","2019/08/24 19:29:32","新北市貢寮區真理里大澳街34號","121.925078333333","25.0561483333333","6502600","貢寮區"
"228002","663-BX","2019/08/24 19:29:45","新北市貢寮區龍門里龍門街76號","121.931355","25.0270633333333","6502600","貢寮區"
"224008","273-VK","2019/08/24 19:29:43","新北市瑞芳區一坑路97-1號","121.802013333333","25.1079133333333","6501200","瑞芳區"
"227002","642-TC","2019/08/24 19:29:34","新北市雙溪區雙溪里光復街22號","121.865211666667","25.035455","6502500","雙溪區"
"227001","400-TW","2019/08/24 19:29:24","新北市雙溪區新基里新基北街64號","121.868795","25.0397266666667","6502500","雙溪區"
"208002","KEA-2872","2019/08/24 19:29:37","新北市金山區中山路311號","121.635571666667","25.2236133333333","6502700","金山區"
"208003","665-BX","2019/08/24 19:29:35","新北市金山區中山路263巷10號","121.636328333333","25.22164","6502700","金山區"
"251009","008-UM","2019/08/24 19:29:38","新北市淡水區中正路28號","121.444318333333","25.1690833333333","6501000","淡水區"
"251005","010-UM","2019/08/24 19:29:45","新北市淡水區水源街一段47巷38號","121.444118333333","25.1734883333333","6501000","淡水區"
"251010","012-UM","2019/08/24 19:29:32","新北市淡水區濱海路三段148巷50弄78號","121.430138333333","25.1905933333333","6501000","淡水區"
"251015","KEA-2871","2019/08/24 19:29:39","新北市淡水區北新路三段120號","121.487328333333","25.1886166666667","6501000","淡水區"
"251016","179-VK","2019/08/24 19:29:39","新北市淡水區淡金路三段350巷18號","121.450771666667","25.208345","6501000","淡水區"
"251013","180-VK","2019/08/24 19:29:43","新北市淡水區安子內18號","121.471265","25.2190366666667","6501000","淡水區"
"251008","181-VK","2019/08/24 19:29:33","新北市淡水區中正路一段25號","121.426238333333","25.176315","6501000","淡水區"
"251007","182-VK","2019/08/24 19:29:33","新北市淡水區八勢路50巷8弄2號","121.463686666667","25.15179","6501000","淡水區"
"251001","559-UM","2019/08/24 19:29:44","新北市淡水區民權路137號","121.460218333333","25.1365333333333","6501000","淡水區"
"251006","561-UM","2019/08/24 19:29:31","新北市淡水區大義街51號","121.441455","25.1781466666667","6501000","淡水區"
"251014","577-R6","2019/08/24 19:29:35","新北市淡水區小中寮19-7號","121.484705","25.229635","6501000","淡水區"
"251002","672-BX","2019/08/24 19:29:43","新北市淡水區新市一路一段6號","121.428748333333","25.1871916666667","6501000","淡水區"
"251003","766-UM","2019/08/24 19:29:35","新北市淡水區中山北路三段132-1號","121.44412","25.194215","6501000","淡水區"
"207003","550-UM","2019/08/24 19:29:43","新北市萬里區大鵬里萬里加投105號","121.645925","25.213075","6502800","萬里區"
"207004","291-VK","2019/08/24 19:29:36","新北市萬里區萬里里瑪鋉路87-1號","121.688716666667","25.17719","6502800","萬里區"
"252002","178-VK","2019/08/24 19:29:40","新北市三芝區淡金路二段18-1號","121.50271","25.259535","6502100","三芝區"
"208001","170-UY","2019/08/24 19:29:42","新北市金山區南勢80號","121.626546666667","25.2203533333333","6502700","金山區"
"237004","KEA-2597","2019/08/24 19:29:40","新北市三峽區有木206號","121.43913","24.851485","6500900","三峽區"
"237007","153-BY","2019/08/24 19:29:35","新北市三峽區二鬮路136巷16弄27號","121.359171666667","24.9088483333333","6500900","三峽區"
"237009","210-TH","2019/08/24 19:29:28","新北市三峽區長福街2號","121.369815","24.9337583333333","6500900","三峽區"
"237013","252-BX","2019/08/24 19:29:41","新北市三峽區介壽路一段316-1號","121.38074","24.930235","6500900","三峽區"
"237012","275-BY","2019/08/24 19:29:45","新北市三峽區三樹路98巷119號","121.38284","24.9395233333333","6500900","三峽區"
"237008","302-VK","2019/08/24 19:29:33","新北市三峽區永安街192號","121.373323333333","24.9278783333333","6500900","三峽區"
"237014","433-BY","2019/08/24 19:29:43","新北市三峽區中山路301號","121.361351666667","24.937545","6500900","三峽區"
"237006","5529-G3","2019/08/24 19:29:39","新北市三峽區中正路一段336巷15弄2號","121.36996","24.9249616666667","6500900","三峽區"
"237011","KEA-2596","2019/08/24 19:29:28","新北市三峽區介壽路一段207號","121.378765","24.9304716666667","6500900","三峽區"
"237015","649-BX","2019/08/24 19:29:42","新北市三峽區成福路257號","121.42785","24.923555","6500900","三峽區"
"237010","706-TV","2019/08/24 19:29:47","新北市三峽區復興路167號","121.370266666667","24.938465","6500900","三峽區"
"237005","AKY-6261","2019/08/24 19:29:41","新北市三峽區中山路223號","121.363181666667","24.9370066666667","6500900","三峽區"
"236042","KED-0685","2019/08/24 19:29:42","新北市土城區學府路一段193號","121.451968333333","24.9848933333333","6501300","土城區"
"236079","166-UM","2019/08/24 19:29:44","新北市土城區中州路10號","121.414816666667","24.957235","6501300","土城區"
"236070","KEA-2877","2019/08/24 19:29:30","新北市土城區學府路一段194號","121.453166666667","24.9859716666667","6501300","土城區"
"252001","KED-0821","2019/08/24 19:29:34","新北市三芝區長勤街62-1號","121.50012","25.2561683333333","6502100","三芝區"
"236021","401-BY","2019/08/24 19:29:34","新北市土城區峰廷街3號","121.469056666667","24.9873433333333","6501300","土城區"
"236049","913-UM","2019/08/24 19:29:43","新北市土城區清水路209號","121.460366666667","24.9819183333333","6501300","土城區"
"236055","AAC-216","2019/08/24 19:29:27","新北市土城區學府路一段239號","121.450376666667","24.9833483333333","6501300","土城區"
"238015","755-BX","2019/08/24 19:29:40","新北市樹林區復興路271號","121.419256666667","24.98977","6500700","樹林區"
"238023","601-UM","2019/08/24 19:29:40","新北市樹林區三福街41號","121.408335","25.01652","6500700","樹林區"
"238019","599-UM","2019/08/24 19:29:32","新北市樹林區東榮街90號","121.415936666667","24.9825916666667","6500700","樹林區"
"238024","5061-A6","2019/08/24 19:29:35","新北市樹林區中山路三段125號","121.39896","24.9742933333333","6500700","樹林區"
"238018","KEA-2217","2019/08/24 19:29:25","新北市樹林區中華路96號","121.418726666667","24.9810033333333","6500700","樹林區"
"238022","KEA-2213","2019/08/24 19:29:29","新北市樹林區國凱街66號","121.420713333333","24.9790466666667","6500700","樹林區"
"238021","KEA-2539","2019/08/24 19:29:30","新北市樹林區佳園路三段358號","121.384485","24.945425","6500700","樹林區"
"238025","303-VK","2019/08/24 19:29:32","新北市樹林區中山路二段168號","121.412206666667","24.9826966666667","6500700","樹林區"
"238017","283-BY","2019/08/24 19:29:41","新北市樹林區光興街273號","121.407555","25.005535","6500700","樹林區"
"238014","282-BY","2019/08/24 19:29:41","新北市樹林區千歲街6巷15號","121.42562","24.9952216666667","6500700","樹林區"
"238020","268-VK","2019/08/24 19:29:25","新北市樹林區俊英街111巷1-17號","121.423376666667","25.0093066666667","6500700","樹林區"
"238026","172-UY","2019/08/24 19:29:39","新北市樹林區佳園路三段51號","121.387815","24.953415","6500700","樹林區"
"238016","169-UY","2019/08/24 19:29:37","新北市樹林區復興路464巷32號","121.413116666667","24.9835066666667","6500700","樹林區"
"239007","AAC-297","2019/08/24 19:29:31","新北市鶯歌區西湖街53巷30號","121.341955","24.9607833333333","6500800","鶯歌區"
"239006","891-R6","2019/08/24 19:29:38","新北市鶯歌區鶯桃路69-1號","121.340708333333","24.9531116666667","6500800","鶯歌區"
"239005","526-UM","2019/08/24 19:28:58","新北市鶯歌區中湖街276號","121.34845","24.97693","6500800","鶯歌區"
"239001","417-VK","2019/08/24 19:29:36","新北市鶯歌區鶯桃路95巷80號","121.337115","24.952805","6500800","鶯歌區"
"239003","360-BY","2019/08/24 19:29:44","新北市鶯歌區建國路136-1號","121.351453333333","24.9539483333333","6500800","鶯歌區"
"239002","359-BY","2019/08/24 19:29:33","新北市鶯歌區中正一路240號","121.354283333333","24.9569133333333","6500800","鶯歌區"
"239004","193-VK","2019/08/24 19:29:46","新北市鶯歌區中正三路291巷20弄2號","121.329775","24.9355566666667","6500800","鶯歌區"
"221008","489-VK","2019/08/24 19:29:45","新北市汐止區康寧街237號","121.624211666667","25.0666966666667","6501100","汐止區"
"221027","281-BY","2019/08/24 19:29:38","新北市汐止區忠孝東路9號","121.65828","25.0659416666667","6501100","汐止區"
"221031","353-TW","2019/08/24 19:29:38","新北市汐止區汐萬路一段312號","121.650686666667","25.0752316666667","6501100","汐止區"
"221025","623-UM","2019/08/24 19:29:36","新北市汐止區秀峰路57號","121.65973","25.0650516666667","6501100","汐止區"
"221038","646-BX","2019/08/24 19:29:37","新北市汐止區忠孝東路201號","121.65927","25.0659433333333","6501100","汐止區"
"221033","647-BX","2019/08/24 19:29:29","新北市汐止區南勢街3號","121.627088333333","25.0374066666667","6501100","汐止區"
"221002","707-TV","2019/08/24 19:29:39","新北市汐止區大同路一段330號","121.63776","25.0588816666667","6501100","汐止區"
"220079","145-BY","2019/08/24 19:29:44","新北市板橋區民權路202巷14弄1號","121.46068","25.015905","6500100","板橋區"
"220082","610-BX","2019/08/24 19:29:29","新北市板橋區金門街299號","121.430125","24.986455","6500100","板橋區"
"220091","267-BY","2019/08/24 19:29:43","新北市板橋區文聖街149巷23弄1號","121.479321666667","25.02845","6500100","板橋區"
"220056","276-BY","2019/08/24 19:29:34","新北市板橋區和平路19號","121.459571666667","24.9950133333333","6500100","板橋區"
"220072","277-BY","2019/08/24 19:29:25","新北市板橋區篤行路二段151巷12號","121.430381666667","24.9874516666667","6500100","板橋區"
"220101","280-UM","2019/08/24 19:29:31","新北市板橋區萬板路46巷27號","121.472736666667","25.02254","6500100","板橋區"
"220071","283-VK","2019/08/24 19:29:46","新北市板橋區忠孝路48巷9弄19號","121.46206","25.00036","6500100","板橋區"
"220094","285-UM","2019/08/24 19:29:42","新北市板橋區銘傳街41-2號","121.469088333333","25.0313983333333","6500100","板橋區"
"220053","285-VK","2019/08/24 19:29:31","新北市板橋區懷仁街77巷35號","121.477698333333","25.0193733333333","6500100","板橋區"
"220083","286-VK","2019/08/24 19:29:42","新北市板橋區龍興街71巷8號","121.44345","25.0020933333333","6500100","板橋區"
"220081","287-VK","2019/08/24 19:29:46","新北市板橋區南雅西路一段96號","121.45256","25.00565","6500100","板橋區"
"220090","288-VK","2019/08/24 19:29:36","新北市板橋區長江路一段48巷4弄1-3號","121.45915","25.0285166666667","6500100","板橋區"
"220061","293-UM","2019/08/24 19:29:28","新北市板橋區民生路一段80號","121.473488333333","25.01566","6500100","板橋區"
"220084","296-UM","2019/08/24 19:29:43","新北市板橋區篤行路三段玉平巷2-2號","121.428961666667","24.98773","6500100","板橋區"
"220067","299-UM","2019/08/24 19:29:38","新北市板橋區長安街138巷14號","121.472895","25.0091833333333","6500100","板橋區"
"220075","303-R5","2019/08/24 19:29:33","新北市板橋區中正路275巷93號","121.450778333333","25.0181416666667","6500100","板橋區"
"220062","305-R5","2019/08/24 19:29:35","新北市板橋區三民路二段123巷29號","121.480521666667","25.0157033333333","6500100","板橋區"
"220092","307-R5","2019/08/24 19:29:34","新北市板橋區自由路51巷24弄7-2號","121.46447","25.02345","6500100","板橋區"
"220098","317-R6","2019/08/24 19:29:30","新北市板橋區民有街89巷11號","121.464258333333","25.0272866666667","6500100","板橋區"
"220089","487-VK","2019/08/24 19:29:37","新北市板橋區龍泉街98-4號","121.456653333333","25.025","6500100","板橋區"
"220088","491-VK","2019/08/24 19:29:25","新北市板橋區文化路二段578號","121.476655","25.0346066666667","6500100","板橋區"
"220103","561-BX","2019/08/24 19:29:36","新北市板橋區陽明街29巷1弄13號","121.46453","25.0217216666667","6500100","板橋區"
"220080","568-UM","2019/08/24 19:29:38","新北市板橋區大觀路二段3巷52號","121.448918333333","25.0034333333333","6500100","板橋區"
"220063","609-BX","2019/08/24 19:29:45","新北市板橋區中山路二段505巷37號","121.481971666667","25.0224","6500100","板橋區"
"220035","630-UY","2019/08/24 19:29:39","新北市板橋區中正路433巷23號","121.453405","25.023615","6500100","板橋區"
"220057","686-BX","2019/08/24 19:29:36","新北市板橋區廣和街124號","121.462576666667","24.9924783333333","6500100","板橋區"
"220077","687-BX","2019/08/24 19:29:43","新北市板橋區大觀路一段28巷60號","121.449836666667","25.0103433333333","6500100","板橋區"
"220093","689-BX","2019/08/24 19:29:40","新北市板橋區長江路一段93-3號","121.459155","25.0294883333333","6500100","板橋區"
"220054","741-BX","2019/08/24 19:29:36","新北市板橋區校前街84號","121.462368333333","25.00335","6500100","板橋區"
"220102","KEA-2699","2019/08/24 19:29:31","新北市板橋區松柏街36巷22號","121.475578333333","25.0292283333333","6500100","板橋區"
"220055","827-TW","2019/08/24 19:29:26","新北市板橋區重慶路254號","121.462976666667","25.00091","6500100","板橋區"
"220074","895-R6","2019/08/24 19:29:42","新北市板橋區民權路101巷2號","121.458796666667","25.0132916666667","6500100","板橋區"
"220073","985-R7","2019/08/24 19:29:39","新北市板橋區中正路294號","121.454958333333","25.0203616666667","6500100","板橋區"
"220097","AAC-210","2019/08/24 19:29:32","新北市板橋區文化路一段285巷2弄28號","121.464086666667","25.0196383333333","6500100","板橋區"
"220064","AAC-253","2019/08/24 19:29:36","新北市板橋區中山路一段96號","121.462113333333","25.0102183333333","6500100","板橋區"
"235068","KEA-2873","2019/08/24 19:29:35","新北市中和區景平路493巷12弄21-4號","121.498756666667","24.9971516666667","6500300","中和區"
"235061","KEA-2875","2019/08/24 19:29:38","新北市中和區民安街2巷1號","121.480663333333","25.0011616666667","6500300","中和區"
