"lineid","car","time","location","longitude","latitude","cityid","cityname"
"234046","148-BY","2019/08/24 19:39:39","新北市永和區永元路68號","121.522511666667","25.001635","6500400","永和區"
"234081","298-R6","2019/08/24 19:39:42","新北市永和區國中路104巷8弄3號","121.524965","25.0067183333333","6500400","永和區"
"234038","336-UY","2019/08/24 19:39:38","新北市永和區民樂街21號","121.527628333333","25.0020166666667","6500400","永和區"
"234064","337-UY","2019/08/24 19:39:39","新北市永和區秀朗路二段24巷28弄9號","121.51961","25.0018166666667","6500400","永和區"
"234086","338-UY","2019/08/24 19:39:44","新北市永和區永亨路165巷1-5號","121.526058333333","25.0040933333333","6500400","永和區"
"234070","552-UM","2019/08/24 19:39:41","新北市永和區永和路二段217號","121.515571666667","25.0140216666667","6500400","永和區"
"234017","745-BX","2019/08/24 19:39:28","新北市永和區永和路二段425巷57弄7號","121.513588333333","25.0171233333333","6500400","永和區"
"234030","746-BX","2019/08/24 19:39:31","新北市永和區民權路1巷36號","121.522023333333","24.9981333333333","6500400","永和區"
"234054","KEA-2590","2019/08/24 19:39:29","新北市永和區竹林路39巷17號","121.518661666667","25.014695","6500400","永和區"
"234007","KED-0605","2019/08/24 19:39:30","新北市永和區中和路431-1號","121.509411666667","25.0008633333333","6500400","永和區"
"234013","KEA-2591","2019/08/24 19:39:41","新北市永和區仁愛路204號","121.509363333333","25.01232","6500400","永和區"
"234061","AAD-866","2019/08/24 19:39:29","新北市永和區中正路456號","121.51758","25.0028616666667","6500400","永和區"
"234042","862-TW","2019/08/24 19:39:46","新北市永和區永貞路267號","121.51178","25.0047466666667","6500400","永和區"
"234050","863-TW","2019/08/24 19:39:27","新北市永和區保安路35號","121.509826666667","25.0161466666667","6500400","永和區"
"234026","9371-KE","2019/08/24 19:39:27","新北市永和區中和路499號","121.510596666667","25.0022633333333","6500400","永和區"
"234011","9373-KE","2019/08/24 19:39:32","新北市永和區仁愛路335號","121.503015","25.00733","6500400","永和區"
"249002","305-UY","2019/08/24 19:39:47","新北市八里區頂寮二街83號","121.450045","25.12556","6502300","八里區"
"249003","593-UM","2019/08/24 19:39:39","新北市八里區中華路二段532號","121.399108333333","25.145685","6502300","八里區"
"248016","026-BX","2019/08/24 19:39:42","新北市五股區成泰路三段476號","121.451858333333","25.1014333333333","6501500","五股區"
"248020","KED-0813","2019/08/24 19:39:41","新北市五股區中直路26-1號","121.426018333333","25.111435","6501500","五股區"
"248012","247-BX","2019/08/24 19:39:38","新北市五股區成泰路一段241巷5號","121.436105","25.0809783333333","6501500","五股區"
"248014","261-SL","2019/08/24 19:39:39","新北市五股區五福路42巷27號","121.434856666667","25.090085","6501500","五股區"
"248010","272-BY","2019/08/24 19:39:44","新北市五股區自強路155號","121.43136","25.0693416666667","6501500","五股區"
"248004","677-BX","2019/08/24 19:39:28","新北市五股區成泰路一段239-9號","121.436793333333","25.0805883333333","6501500","五股區"
"248002","678-BX","2019/08/24 19:39:39","新北市五股區成泰路三段577巷77號","121.44969","25.1037216666667","6501500","五股區"
"234023","9380-KE","2019/08/24 19:39:30","新北市永和區保生路55-1號","121.50458","25.0109","6500400","永和區"
"234077","969-R7","2019/08/24 19:39:28","新北市永和區民權路80號","121.519905","24.9973966666667","6500400","永和區"
"234074","AAC-211","2019/08/24 19:39:38","新北市永和區竹林路225巷56號","121.523038333333","25.008805","6500400","永和區"
"234067","AAC-212","2019/08/24 19:39:29","新北市永和區中山路一段201號","121.509003333333","25.008655","6500400","永和區"
"234003","AAC-295","2019/08/24 19:39:40","新北市永和區自由街55號","121.5136","25.0055933333333","6500400","永和區"
"244023","483-VK","2019/08/24 19:39:42","新北市林口區仁愛路二段516號","121.373623333333","25.077635","6501700","林口區"
"243012","AAD-798","2019/08/24 19:39:31","新北市泰山區全興路216號","121.434298333333","25.0557183333333","6501600","泰山區"
"243016","421-VK","2019/08/24 19:38:18","新北市泰山區中山路三段6號","121.420948333333","25.032305","6501600","泰山區"
"243009","KEA-2215","2019/08/24 19:39:40","新北市泰山區美寧街60號","121.430951666667","25.0647083333333","6501600","泰山區"
"243011","KEA-2216","2019/08/24 19:39:43","新北市泰山區中山路二段678號","121.427","25.03708","6501600","泰山區"
"243015","680-BX","2019/08/24 19:39:27","新北市泰山區民權街89號","121.428515","25.049655","6501600","泰山區"
"222003","436-BY","2019/08/24 19:39:40","新北市深坑區深南路51-1號","121.621243333333","25.0097966666667","6501800","深坑區"
"222001","628-TS","2019/08/24 19:39:33","新北市深坑區北深路二段198號","121.61308","25.0015816666667","6501800","深坑區"
"222002","659-BX","2019/08/24 19:39:25","新北市深坑區北深路一段177號","121.632478333333","25.010905","6501800","深坑區"
"231061","002-UM","2019/08/24 19:39:35","新北市新店區安民街131號","121.516396666667","24.9690683333333","6500600","新店區"
"231044","046-UY","2019/08/24 19:39:33","新北市新店區順安街4-1號","121.541166666667","24.98482","6500600","新店區"
"231060","106-UY","2019/08/24 19:39:28","新北市新店區安康路二段208號","121.510206666667","24.9596016666667","6500600","新店區"
"231051","107-UY","2019/08/24 19:39:37","新北市新店區中央四街27號","121.528821666667","24.9744","6500600","新店區"
"231049","108-UY","2019/08/24 19:39:30","新北市新店區大豐路23號","121.54123","24.9801833333333","6500600","新店區"
"231065","110-UY","2019/08/24 19:39:32","新北市新店區安祥路109巷85弄17號","121.478251666667","24.9601416666667","6500600","新店區"
"231062","256-BX","2019/08/24 19:39:28","新北市新店區合作路28號","121.53274","24.9577733333333","6500600","新店區"
"231054","260-TV","2019/08/24 19:39:26","新北市新店區文中路40號","121.539685","24.956555","6500600","新店區"
"231042","268-BY","2019/08/24 19:39:39","新北市新店區中興路一段203號","121.543558333333","24.9655233333333","6500600","新店區"
"231064","278-BY","2019/08/24 19:39:41","新北市新店區安和路一段55號","121.517513333333","24.96615","6500600","新店區"
"231050","AAD-862","2019/08/24 19:39:40","新北市新店區北宜路二段98號","121.555433333333","24.953575","6500600","新店區"
"231045","355-BY","2019/08/24 19:39:45","新北市新店區北宜路二段207號","121.553138333333","24.953275","6500600","新店區"
"231058","3713-VJ","2019/08/24 19:39:43","新北市新店區中正路76巷11弄12號","121.54391","24.971465","6500600","新店區"
"231056","4715-K9","2019/08/24 19:39:32","新北市新店區民權路74號","121.538111666667","24.9832366666667","6500600","新店區"
"231067","4772-VM","2019/08/24 19:39:42","新北市新店區精忠路10-1號","121.5325","24.9590466666667","6500600","新店區"
"231052","513-UM","2019/08/24 19:39:37","新北市新店區新烏路二段427號","121.551893333333","24.909045","6500600","新店區"
"231063","616-UM","2019/08/24 19:39:40","新北市新店區達觀路38號","121.502415","24.9388633333333","6500600","新店區"
"231041","619-UM","2019/08/24 19:39:33","新北市新店區中正路485號","121.533968333333","24.982035","6500600","新店區"
"231048","KED-0819","2019/08/24 19:39:45","新北市新店區五峰路63巷8弄42號","121.547866666667","24.96867","6500600","新店區"
"231046","719-UM","2019/08/24 19:39:38","新北市新店區中正路329巷1弄2號","121.535585","24.974915","6500600","新店區"
"231057","720-UM","2019/08/24 19:39:30","新北市新店區橘園一路11號","121.547971666667","24.9340833333333","6500600","新店區"
"231059","897-TW","2019/08/24 19:39:36","新北市新店區安和路三段60-1號","121.51805","24.982745","6500600","新店區"
"231040","898-TW","2019/08/24 19:39:40","新北市新店區北新路一段40號","121.541015","24.9660433333333","6500600","新店區"
"231043","899-TW","2019/08/24 19:39:30","新北市新店區中正路151號","121.541353333333","24.9717283333333","6500600","新店區"
"231066","AKT-0513","2019/08/24 19:39:34","新北市新店區安康路三段207巷19號","121.488425","24.9507766666667","6500600","新店區"
"241011","013-R5","2019/08/24 19:39:38","新北市三重區秀江街180號","121.497951666667","25.0716716666667","6500200","三重區"
"241028","022-UY","2019/08/24 19:39:33","新北市三重區中正南路190號","121.493968333333","25.0560833333333","6500200","三重區"
"241008","059-VK","2019/08/24 19:39:26","新北市三重區永福街123號","121.479011666667","25.0770433333333","6500200","三重區"
"241029","060-VK","2019/08/24 19:39:32","新北市三重區光明路123號","121.49234","25.0566183333333","6500200","三重區"
"241031","061-VK","2019/08/24 19:39:33","新北市三重區重新路四段206-5號","121.485985","25.0544866666667","6500200","三重區"
"241015","062-VK","2019/08/24 19:39:28","新北市三重區福德北路24-8號","121.50209","25.0646616666667","6500200","三重區"
"241017","063-VK","2019/08/24 19:39:29","新北市三重區重陽路三段5巷36號","121.491615","25.0650916666667","6500200","三重區"
"241007","742-BX","2019/08/24 19:39:28","新北市三重區三和路四段135巷7號","121.485303333333","25.0781266666667","6500200","三重區"
"241006","262-UM","2019/08/24 19:39:36","新北市三重區聯華街78號","121.486088333333","25.0752583333333","6500200","三重區"
"241009","267-UM","2019/08/24 19:39:37","新北市三重區三和路四段402號","121.481201666667","25.0796466666667","6500200","三重區"
"241032","269-UM","2019/08/24 19:39:38","新北市三重區重陽路一段60巷74號","121.484301666667","25.0581966666667","6500200","三重區"
"241013","270-UM","2019/08/24 19:39:30","新北市三重區仁賢街12號","121.495891666667","25.07467","6500200","三重區"
"241025","271-UM","2019/08/24 19:39:39","新北市三重區頂崁街189號","121.477521666667","25.0663566666667","6500200","三重區"
"241030","KED-0822","2019/08/24 19:39:28","新北市三重區新興路28巷11號","121.491733333333","25.052925","6500200","三重區"
"241035","462-BY","2019/08/24 19:39:36","新北市三重區信義西街32號","121.498466666667","25.0647283333333","6500200","三重區"
"241020","478-VK","2019/08/24 19:39:24","新北市三重區自強路三段78號","121.486958333333","25.07404","6500200","三重區"
"241014","543-UM","2019/08/24 19:39:34","新北市三重區長壽街196號","121.504248333333","25.0690516666667","6500200","三重區"
"241023","545-UM","2019/08/24 19:39:39","新北市三重區忠孝路三段126號","121.479983333333","25.0633833333333","6500200","三重區"
"241001","547-UM","2019/08/24 19:39:28","新北市三重區仁愛街327巷103號","121.494305","25.08075","6500200","三重區"
"241019","KEA-2593","2019/08/24 19:39:46","新北市三重區六張街255巷9號","121.487226666667","25.0686516666667","6500200","三重區"
"241005","AAD-863","2019/08/24 19:39:28","新北市三重區溪尾街264-1號","121.487403333333","25.08339","6500200","三重區"
"241026","743-BX","2019/08/24 19:39:27","新北市三重區文化南路65巷22號","121.499341666667","25.060725","6500200","三重區"
"241012","941-UM","2019/08/24 19:39:25","新北市三重區仁興街26-8號","121.499008333333","25.0753333333333","6500200","三重區"
"235063","006-UY","2019/08/24 19:39:38","新北市中和區連城路263巷11弄1號","121.492483333333","24.995295","6500300","中和區"
"235056","096-UM","2019/08/24 19:39:34","新北市中和區民富街8號","121.476961666667","25.0061733333333","6500300","中和區"
"235039","097-UM","2019/08/24 19:39:27","新北市中和區景平路129號","121.514918333333","24.9920416666667","6500300","中和區"
"235065","098-UM","2019/08/24 19:39:34","新北市中和區莊敬路23號","121.500075","25.0045933333333","6500300","中和區"
"235040","150-BY","2019/08/24 19:39:32","新北市中和區保健路44巷5號","121.50928","24.9969283333333","6500300","中和區"
"235058","151-BY","2019/08/24 19:39:34","新北市中和區員山路142巷16號","121.482106666667","24.996535","6500300","中和區"
"235055","183-VK","2019/08/24 19:39:32","新北市中和區中山路三段181巷30號","121.473128333333","25.0049516666667","6500300","中和區"
"235038","185-VK","2019/08/24 19:39:45","新北市中和區自立路141巷4號","121.522415","24.9935016666667","6500300","中和區"
"235049","186-VK","2019/08/24 19:39:30","新北市中和區中正路2-1號","121.503296666667","24.9936883333333","6500300","中和區"
"235067","255-BX","2019/08/24 19:39:44","新北市中和區連城路340巷14弄2號","121.483361666667","24.9974066666667","6500300","中和區"
"235044","293-VK","2019/08/24 19:39:41","新北市中和區南山路421巷1弄1號","121.507381666667","24.9895583333333","6500300","中和區"
"235072","301-VK","2019/08/24 19:39:42","新北市中和區錦和路93巷4弄2號","121.490415","24.9956583333333","6500300","中和區"
"235043","352-BY","2019/08/24 19:39:33","新北市中和區華新街230號","121.506036666667","24.981745","6500300","中和區"
"235042","KEA-2878","2019/08/24 19:39:37","新北市中和區景安路79巷21號","121.507035","24.99674","6500300","中和區"
"235070","558-UM","2019/08/24 19:39:39","新北市中和區連勝街37號","121.49832","24.9977216666667","6500300","中和區"
"235045","565-BX","2019/08/24 19:39:39","新北市中和區安樂路11號","121.51161","24.9920683333333","6500300","中和區"
"235060","KED-0823","2019/08/24 19:39:33","新北市中和區中山路二段523巷1號","121.481645","25.0044866666667","6500300","中和區"
"235054","640-BX","2019/08/24 19:39:34","新北市中和區莒光路94號","121.472336666667","25.0024516666667","6500300","中和區"
"235047","732-UM","2019/08/24 19:39:27","新北市中和區景平路355號","121.50472","24.9933783333333","6500300","中和區"
"235046","733-UM","2019/08/24 19:39:32","新北市中和區景新街496巷26弄1號","121.513361666667","24.9860166666667","6500300","中和區"
"235071","783-BX","2019/08/24 19:39:43","新北市中和區中正路839巷29號","121.483591666667","25.0024416666667","6500300","中和區"
"235057","801-TS","2019/08/24 19:39:45","新北市中和區中正路820號","121.4851","25.00346","6500300","中和區"
"235052","805-TS","2019/08/24 19:39:40","新北市中和區華新街192巷2-1號","121.506783333333","24.9823816666667","6500300","中和區"
"235048","896-TW","2019/08/24 19:39:42","新北市中和區興南路二段49-6號","121.507401666667","24.9852983333333","6500300","中和區"
"235053","900-TW","2019/08/24 19:39:43","新北市中和區國光街215巷29號","121.46727","25.0004766666667","6500300","中和區"
"235066","911-UM","2019/08/24 19:39:37","新北市中和區南華路81號","121.505463333333","24.9973066666667","6500300","中和區"
"235051","157-BY","2019/08/24 19:39:38","新北市中和區中興街132巷9號","121.498928333333","24.9917416666667","6500300","中和區"
"235037","AAC-213","2019/08/24 19:39:42","新北市中和區秀朗路三段173-2號","121.524558333333","24.9913666666667","6500300","中和區"
"235059","AAC-215","2019/08/24 19:39:34","新北市中和區圓通路284號","121.491485","24.9906083333333","6500300","中和區"
"220065","072-UY","2019/08/24 19:39:42","新北市板橋區國泰街39巷5弄14號","121.468845","25.006045","6500100","板橋區"
"220086","073-UY","2019/08/24 19:39:42","新北市板橋區中正路216巷2弄11號","121.4565","25.0180416666667","6500100","板橋區"
"220106","075-UY","2019/08/24 19:39:35","新北市板橋區民治街57巷22號","121.480141666667","25.0338033333333","6500100","板橋區"
"220069","AAD-861","2019/08/24 19:39:27","新北市板橋區南雅南路二段68號","121.45382","25.001985","6500100","板橋區"
"220068","120-SR","2019/08/24 19:39:43","新北市板橋區中山路二段412巷15號","121.483375","25.0203783333333","6500100","板橋區"
"247004","893-R6","2019/08/24 19:39:42","新北市蘆洲區中華街6巷26號","121.46283","25.0821516666667","6501400","蘆洲區"
"247002","336-TH","2019/08/24 19:39:23","新北市蘆洲區三民路595號","121.460915","25.0936316666667","6501400","蘆洲區"
"226004","312-R5","2019/08/24 19:39:26","新北市平溪區十分里十分街96-2號","121.776641666667","25.04257","6502400","平溪區"
"235041","251-BX","2019/08/24 19:39:28","新北市中和區永貞路225號","121.513521666667","25.00361","6500300","中和區"
"228003","097-TW","2019/08/24 19:39:32","新北市貢寮區真理里美艷山街15-3號","121.923625","25.06813","6502600","貢寮區"
"228001","212-TW","2019/08/24 19:39:32","新北市貢寮區真理里延平街61號","121.924613333333","25.05568","6502600","貢寮區"
"224010","AGQ-8101","2019/08/24 19:39:36","新北市瑞芳區輕便路131號","121.843538333333","25.1087216666667","6501200","瑞芳區"
"224002","639-TC","2019/08/24 19:39:35","新北市瑞芳區三爪子坑路11號","121.81395","25.10763","6501200","瑞芳區"
"227002","642-TC","2019/08/24 19:39:34","新北市雙溪區雙溪里勝利街16號","121.865491666667","25.0357716666667","6502500","雙溪區"
"227001","400-TW","2019/08/24 19:39:44","新北市雙溪區新基里新基北街23號","121.86729","25.039265","6502500","雙溪區"
"208002","KEA-2872","2019/08/24 19:39:37","新北市金山區三民街34號","121.63493","25.223595","6502700","金山區"
"208003","665-BX","2019/08/24 19:39:35","新北市金山區仁愛路1巷1號","121.638635","25.220015","6502700","金山區"
"251009","008-UM","2019/08/24 19:39:39","新北市淡水區中山北路一段186巷8號","121.44533","25.178835","6501000","淡水區"
"251005","010-UM","2019/08/24 19:39:45","新北市淡水區原德路108巷1號","121.443508333333","25.173685","6501000","淡水區"
"251010","012-UM","2019/08/24 19:39:32","新北市淡水區崁頂93-2號","121.42739","25.2025183333333","6501000","淡水區"
"251015","KEA-2871","2019/08/24 19:39:39","新北市淡水區山子頂24-1號","121.491476666667","25.1873366666667","6501000","淡水區"
"251016","179-VK","2019/08/24 19:39:39","新北市淡水區淡金路3段350巷18-1號","121.451135","25.2080983333333","6501000","淡水區"
"251013","180-VK","2019/08/24 19:39:23","新北市淡水區店子後10號","121.460333333333","25.2190683333333","6501000","淡水區"
"251008","181-VK","2019/08/24 19:39:33","新北市淡水區中正路一段8巷1弄11號","121.428281666667","25.1763233333333","6501000","淡水區"
"251007","182-VK","2019/08/24 19:39:33","新北市淡水區中正東路一段111巷37號","121.455283333333","25.1614133333333","6501000","淡水區"
"251001","559-UM","2019/08/24 19:39:43","新北市淡水區民權路13-5號","121.459758333333","25.1418716666667","6501000","淡水區"
"251006","561-UM","2019/08/24 19:39:31","新北市淡水區中山北路一段207巷52號","121.442371666667","25.1790883333333","6501000","淡水區"
"251014","577-R6","2019/08/24 19:39:35","新北市淡水區桂竹圍4-3號","121.47541","25.2322616666667","6501000","淡水區"
"251011","650-BX","2019/08/24 19:39:28","新北市淡水區中正東路二段143巷2弄1號","121.460705","25.1471683333333","6501000","淡水區"
"207003","550-UM","2019/08/24 19:39:43","新北市萬里區大鵬里萬里加投287-11號","121.645816666667","25.21814","6502800","萬里區"
"207004","291-VK","2019/08/24 19:39:43","新北市萬里區萬里里瑪鋉路12-4號","121.687676666667","25.1756833333333","6502800","萬里區"
"252002","178-VK","2019/08/24 19:39:40","新北市三芝區中正路一段18巷56號","121.504281666667","25.258705","6502100","三芝區"
"208001","170-UY","2019/08/24 19:39:42","新北市金山區重和里六股林口15-1號","121.604855","25.2215933333333","6502700","金山區"
"237004","KEA-2597","2019/08/24 19:39:40","新北市三峽區插角133-1號","121.411783333333","24.8697983333333","6500900","三峽區"
"237007","153-BY","2019/08/24 19:39:34","新北市三峽區二鬮路136巷125號","121.356095","24.9105566666667","6500900","三峽區"
"237009","210-TH","2019/08/24 19:39:28","新北市三峽區中園街29號","121.368253333333","24.92661","6500900","三峽區"
"237013","252-BX","2019/08/24 19:39:41","新北市三峽區介壽路二段6巷2-1號","121.38933","24.9345266666667","6500900","三峽區"
"237012","275-BY","2019/08/24 19:39:45","新北市三峽區民生街1號","121.374565","24.93534","6500900","三峽區"
"237008","302-VK","2019/08/24 19:39:33","新北市三峽區永安街183號","121.373166666667","24.9269","6500900","三峽區"
"237014","433-BY","2019/08/24 19:39:43","新北市三峽區中園街121號","121.367523333333","24.9239783333333","6500900","三峽區"
"237006","5529-G3","2019/08/24 19:39:39","新北市三峽區中正路一段336巷15弄2號","121.36996","24.9249716666667","6500900","三峽區"
"237011","KEA-2596","2019/08/24 19:39:28","新北市三峽區中正路一段290-1號","121.371576666667","24.92594","6500900","三峽區"
"237015","649-BX","2019/08/24 19:39:42","新北市三峽區成福路73號","121.418625","24.9292816666667","6500900","三峽區"
"237010","706-TV","2019/08/24 19:39:27","新北市三峽區復興路81號","121.372593333333","24.9375733333333","6500900","三峽區"
"237005","AKY-6261","2019/08/24 19:39:41","新北市三峽區文化路131號","121.369576666667","24.9360183333333","6500900","三峽區"
"236042","KED-0685","2019/08/24 19:39:42","新北市土城區學士路31號","121.453035","24.98228","6501300","土城區"
"236079","166-UM","2019/08/24 19:39:44","新北市土城區中州路35號","121.413411666667","24.9579666666667","6501300","土城區"
"236030","253-BX","2019/08/24 19:39:43","新北市土城區福祥街16號","121.44086","24.9798716666667","6501300","土城區"
"236038","271-VK","2019/08/24 19:39:36","新北市土城區清水路98巷3弄45號","121.458526666667","24.9809","6501300","土城區"
"236070","KEA-2877","2019/08/24 19:39:30","新北市土城區金城路二段2巷5號","121.447758333333","24.97643","6501300","土城區"
"252001","KED-0821","2019/08/24 19:39:34","新北市三芝區公正街66號","121.499795","25.2574666666667","6502100","三芝區"
"236021","401-BY","2019/08/24 19:39:40","新北市土城區金城路三段198號","121.46852","24.9880033333333","6501300","土城區"
"236059","912-UM","2019/08/24 19:39:39","新北市土城區中央路二段51號","121.442701666667","24.9796366666667","6501300","土城區"
"236049","913-UM","2019/08/24 19:39:43","新北市土城區明德路一段55號","121.465321666667","24.9846583333333","6501300","土城區"
"236055","AAC-216","2019/08/24 19:39:28","新北市土城區立德路22號","121.462866666667","24.98785","6501300","土城區"
"242004","440-UM","2019/08/24 19:39:43","新北市新莊區化成路25-23號","121.463326666667","25.0438733333333","6500500","新莊區"
"242048","400-BY","2019/08/24 19:39:34","新北市新莊區民安路37巷1號","121.423791666667","25.0268516666667","6500500","新莊區"
"242023","353-BY","2019/08/24 19:39:25","新北市新莊區復興路三段115號","121.46428","25.044535","6500500","新莊區"
"242013","132-UY","2019/08/24 19:39:28","新北市新莊區中泰街103號","121.448813333333","25.0465883333333","6500500","新莊區"
"242036","135-UY","2019/08/24 19:39:42","新北市新莊區民安路207巷21弄2號","121.427175","25.0232783333333","6500500","新莊區"
"242031","348-TH","2019/08/24 19:39:46","新北市新莊區新泰路225巷24號","121.445201666667","25.0391033333333","6500500","新莊區"
"238015","755-BX","2019/08/24 19:39:38","新北市樹林區育英街80號","121.420705","24.9896116666667","6500700","樹林區"
"238023","601-UM","2019/08/24 19:39:40","新北市樹林區三福街121巷13號","121.40604","25.0157016666667","6500700","樹林區"
"238019","599-UM","2019/08/24 19:39:32","新北市樹林區大同街14號","121.418393333333","24.9827","6500700","樹林區"
"238024","5061-A6","2019/08/24 19:39:35","新北市樹林區中山路三段245號","121.392868333333","24.97217","6500700","樹林區"
"238022","KEA-2213","2019/08/24 19:39:30","新北市樹林區名園街78巷14號","121.419528333333","24.9776966666667","6500700","樹林區"
"238021","KEA-2539","2019/08/24 19:39:30","新北市樹林區佳園路三段113巷5-1號","121.387083333333","24.9502216666667","6500700","樹林區"
"238025","303-VK","2019/08/24 19:39:32","新北市樹林區中山路一段73-1號","121.423638333333","24.99172","6500700","樹林區"
"238017","283-BY","2019/08/24 19:39:41","新北市樹林區光興街64號","121.409468333333","25.0027316666667","6500700","樹林區"
"238014","282-BY","2019/08/24 19:39:41","新北市樹林區保安二街89-1號","121.424048333333","24.9952166666667","6500700","樹林區"
"238020","268-VK","2019/08/24 19:39:45","新北市樹林區樹新路122號","121.430088333333","24.9984216666667","6500700","樹林區"
"238026","172-UY","2019/08/24 19:39:32","新北市樹林區佳園路二段95號","121.390528333333","24.95894","6500700","樹林區"
"238016","169-UY","2019/08/24 19:39:37","新北市樹林區東和街26號","121.403066666667","24.981335","6500700","樹林區"
"239007","AAC-297","2019/08/24 19:39:31","新北市鶯歌區大湖路109巷5號","121.3422","24.9634733333333","6500800","鶯歌區"
"239006","891-R6","2019/08/24 19:39:38","新北市鶯歌區永昌街178號","121.33957","24.9504666666667","6500800","鶯歌區"
"239001","417-VK","2019/08/24 19:39:36","新北市鶯歌區建國路443號","121.338538333333","24.9515416666667","6500800","鶯歌區"
"239002","359-BY","2019/08/24 19:39:33","新北市鶯歌區大湖路530巷2-2號","121.337765","24.9721683333333","6500800","鶯歌區"
"239004","193-VK","2019/08/24 19:39:26","新北市鶯歌區二甲路38-1號","121.337796666667","24.9351033333333","6500800","鶯歌區"
"221008","489-VK","2019/08/24 19:39:41","新北市汐止區康寧街145號","121.62179","25.0666783333333","6501100","汐止區"
"221010","269-BY","2019/08/24 19:39:46","新北市汐止區連峰街7號","121.646566666667","25.0771083333333","6501100","汐止區"
"221027","281-BY","2019/08/24 19:39:38","新北市汐止區忠孝東路9號","121.658303333333","25.0659216666667","6501100","汐止區"
"221021","299-VK","2019/08/24 19:39:38","新北市汐止區連興街136號","121.654003333333","25.0616383333333","6501100","汐止區"
"221031","353-TW","2019/08/24 19:39:38","新北市汐止區康寧街901號","121.650715","25.0752583333333","6501100","汐止區"
"221025","623-UM","2019/08/24 19:39:36","新北市汐止區福安街20巷1號","121.662615","25.0649883333333","6501100","汐止區"
"221038","646-BX","2019/08/24 19:39:39","新北市汐止區忠孝東路269號","121.66337","25.0680566666667","6501100","汐止區"
"221033","647-BX","2019/08/24 19:39:29","新北市汐止區南勢街3號","121.627096666667","25.037415","6501100","汐止區"
"220079","145-BY","2019/08/24 19:39:39","新北市板橋區民權路260巷24-2號","121.458743333333","25.01528","6500100","板橋區"
"220082","610-BX","2019/08/24 19:39:34","新北市板橋區金門街45號","121.433423333333","24.9934483333333","6500100","板橋區"
"220091","267-BY","2019/08/24 19:39:43","新北市板橋區懷德街181巷25號","121.480251666667","25.0303366666667","6500100","板橋區"
"220056","276-BY","2019/08/24 19:39:34","新北市板橋區信義路1巷26弄48號","121.459266666667","24.9966","6500100","板橋區"
"220072","277-BY","2019/08/24 19:39:25","新北市板橋區金門街253巷17弄9號","121.433478333333","24.9890616666667","6500100","板橋區"
"220101","280-UM","2019/08/24 19:39:31","新北市板橋區縣民大道三段97巷2號","121.475991666667","25.0220733333333","6500100","板橋區"
"220071","283-VK","2019/08/24 19:39:43","新北市板橋區忠孝路24巷36號","121.460196666667","25.0007133333333","6500100","板橋區"
"220094","285-UM","2019/08/24 19:39:42","新北市板橋區長江路二段163號","121.466286666667","25.031975","6500100","板橋區"
"220053","285-VK","2019/08/24 19:39:31","新北市板橋區民享街45號","121.475621666667","25.01497","6500100","板橋區"
"220083","286-VK","2019/08/24 19:39:45","新北市板橋區龍興街71巷25號","121.442685","25.0021466666667","6500100","板橋區"
"220081","287-VK","2019/08/24 19:39:26","新北市板橋區大觀路一段29巷137弄2號","121.450001666667","25.0054016666667","6500100","板橋區"
"220090","288-VK","2019/08/24 19:39:36","新北市板橋區龍泉街54巷7弄5號","121.456596666667","25.026455","6500100","板橋區"
"220061","293-UM","2019/08/24 19:39:28","新北市板橋區漢生東路113巷25號","121.46832","25.01556","6500100","板橋區"
"220084","296-UM","2019/08/24 19:39:43","新北市板橋區滿平街84巷70號","121.42582","24.9875383333333","6500100","板橋區"
"220067","299-UM","2019/08/24 19:39:38","新北市板橋區長安街251巷38號","121.471973333333","25.0113483333333","6500100","板橋區"
"220075","303-R5","2019/08/24 19:39:33","新北市板橋區中正路253巷19號","121.454503333333","25.0178516666667","6500100","板橋區"
"220062","305-R5","2019/08/24 19:39:40","新北市板橋區三民路二段29巷14號","121.481915","25.01809","6500100","板橋區"
"220092","307-R5","2019/08/24 19:39:34","新北市板橋區四維路259巷57號","121.46126","25.0269266666667","6500100","板橋區"
"220098","317-R6","2019/08/24 19:39:30","新北市板橋區民有街120號","121.464225","25.0288133333333","6500100","板橋區"
"220089","487-VK","2019/08/24 19:39:37","新北市板橋區新海路403巷2號","121.45839","25.0267616666667","6500100","板橋區"
"220088","491-VK","2019/08/24 19:39:33","新北市板橋區仁化街66號","121.475978333333","25.03179","6500100","板橋區"
"220103","561-BX","2019/08/24 19:39:36","新北市板橋區文化路一段435巷31弄21號","121.466816666667","25.0226016666667","6500100","板橋區"
"220080","568-UM","2019/08/24 19:39:38","新北市板橋區大觀路二段37巷226號","121.449413333333","25.0010633333333","6500100","板橋區"
"220063","609-BX","2019/08/24 19:39:41","新北市板橋區中山路二段397號","121.4804","25.0194083333333","6500100","板橋區"
"220035","630-UY","2019/08/24 19:39:37","新北市板橋區中正路399巷10號","121.45358","25.0224116666667","6500100","板橋區"
"220057","686-BX","2019/08/24 19:39:36","新北市板橋區四川路二段2號","121.456671666667","24.9966266666667","6500100","板橋區"
"220077","687-BX","2019/08/24 19:39:42","新北市板橋區僑中二街82號","121.446496666667","25.0096283333333","6500100","板橋區"
"220093","689-BX","2019/08/24 19:39:40","新北市板橋區長江路二段245號","121.46905","25.0327416666667","6500100","板橋區"
"220054","741-BX","2019/08/24 19:39:16","新北市板橋區光明街48號","121.46059","25.0024066666667","6500100","板橋區"
"220102","KEA-2699","2019/08/24 19:39:31","新北市板橋區文化路二段410巷21號","121.474776666667","25.0308683333333","6500100","板橋區"
"220055","827-TW","2019/08/24 19:39:45","新北市板橋區國慶路149巷2弄1-4號","121.461295","24.9965816666667","6500100","板橋區"
"220074","895-R6","2019/08/24 19:39:42","新北市板橋區府中路143-1號","121.45559","25.00916","6500100","板橋區"
"220073","985-R7","2019/08/24 19:39:39","新北市板橋區國光路49巷17號","121.45904","25.0188283333333","6500100","板橋區"
"220097","AAC-210","2019/08/24 19:39:39","新北市板橋區文化路一段189號","121.463188333333","25.0165116666667","6500100","板橋區"
"220064","AAC-253","2019/08/24 19:39:26","新北市板橋區館前東路96號","121.462348333333","25.0074683333333","6500100","板橋區"
"235068","KEA-2873","2019/08/24 19:39:35","新北市中和區中和路53號","121.500536666667","25.001425","6500300","中和區"
"235061","KEA-2875","2019/08/24 19:39:38","新北市中和區員山路170號","121.481498333333","24.999915","6500300","中和區"
