"lineid","car","time","location","longitude","latitude","cityid","cityname"
"234046","148-BY","2019/08/24 19:49:39","新北市永和區永利路147號","121.52439","25.00326","6500400","永和區"
"234081","298-R6","2019/08/24 19:49:42","新北市永和區永亨路98號","121.523085","25.0048716666667","6500400","永和區"
"234038","336-UY","2019/08/24 19:49:38","新北市永和區成功路二段129巷10-1號","121.527196666667","24.99822","6500400","永和區"
"234064","337-UY","2019/08/24 19:49:35","新北市永和區中正路362號","121.517871666667","25.0008633333333","6500400","永和區"
"234086","338-UY","2019/08/24 19:49:28","新北市永和區永利路48號","121.518821666667","25.0053466666667","6500400","永和區"
"234070","552-UM","2019/08/24 19:49:40","新北市永和區竹林路88號","121.519438333333","25.012575","6500400","永和區"
"234017","745-BX","2019/08/24 19:49:28","新北市永和區永和路二段310號","121.516126666667","25.016065","6500400","永和區"
"234030","746-BX","2019/08/24 19:49:31","新北市永和區四維街103巷16號","121.523736666667","24.9971016666667","6500400","永和區"
"234054","KEA-2590","2019/08/24 19:49:41","新北市永和區竹林路73號","121.51891","25.0132333333333","6500400","永和區"
"234007","KED-0605","2019/08/24 19:49:29","新北市永和區中山路一段215-1號","121.508368333333","25.0081683333333","6500400","永和區"
"234013","KEA-2591","2019/08/24 19:49:41","新北市永和區保安路244號","121.506565","25.01266","6500400","永和區"
"234061","AAD-866","2019/08/24 19:49:29","新北市永和區中正路17號","121.514231666667","24.9957783333333","6500400","永和區"
"234042","862-TW","2019/08/24 19:49:26","新北市永和區中和路305巷16弄1號","121.507443333333","25.0014","6500400","永和區"
"234050","863-TW","2019/08/24 19:49:47","新北市永和區保安路168號","121.508078333333","25.0143933333333","6500400","永和區"
"234026","9371-KE","2019/08/24 19:49:27","新北市永和區雙和街52巷1號","121.508985","25.0032233333333","6500400","永和區"
"234011","9373-KE","2019/08/24 19:49:32","新北市永和區仁愛路352巷112弄6號","121.500888333333","25.008455","6500400","永和區"
"249005","172-UM","2019/08/24 19:49:26","新北市八里區中華路三段192-1號","121.391205","25.1278333333333","6502300","八里區"
"249001","173-UM","2019/08/24 19:49:34","新北市八里區中華路二段199號","121.40637","25.1504033333333","6502300","八里區"
"249004","303-UY","2019/08/24 19:49:38","新北市八里區中山路一段268巷40號","121.414733333333","25.1608333333333","6502300","八里區"
"249002","305-UY","2019/08/24 19:49:27","新北市八里區頂寮三街7號","121.451558333333","25.12556","6502300","八里區"
"249003","593-UM","2019/08/24 19:49:39","新北市八里區華峰三街35號","121.398501666667","25.1453566666667","6502300","八里區"
"248016","026-BX","2019/08/24 19:49:42","新北市五股區成泰路四段22巷19號","121.454698333333","25.107495","6501500","五股區"
"248020","KED-0813","2019/08/24 19:49:29","新北市五股區中直路65號","121.417971666667","25.1182533333333","6501500","五股區"
"248012","247-BX","2019/08/24 19:49:38","新北市五股區蓬萊路8號","121.4355","25.079455","6501500","五股區"
"248014","261-SL","2019/08/24 19:49:39","新北市五股區五福路20號","121.434228333333","25.088825","6501500","五股區"
"248010","272-BY","2019/08/24 19:49:44","新北市五股區登林路貿商巷3弄15號","121.429726666667","25.0699483333333","6501500","五股區"
"248004","677-BX","2019/08/24 19:49:28","新北市五股區成泰路一段48-1號","121.435433333333","25.0692666666667","6501500","五股區"
"248002","678-BX","2019/08/24 19:49:39","新北市五股區成泰路四段14號","121.453388333333","25.1067016666667","6501500","五股區"
"234023","9380-KE","2019/08/24 19:49:30","新北市永和區中山路一段238號","121.507398333333","25.0075866666667","6500400","永和區"
"234077","969-R7","2019/08/24 19:49:28","新北市永和區中正路242巷2弄1號","121.516786666667","24.9980216666667","6500400","永和區"
"234074","AAC-211","2019/08/24 19:49:40","新北市永和區豫溪街136巷5號","121.52135","25.009985","6500400","永和區"
"234067","AAC-212","2019/08/24 19:49:43","新北市永和區永貞路353號","121.50902","25.0074983333333","6500400","永和區"
"234003","AAC-295","2019/08/24 19:49:40","新北市永和區福和路316號","121.516075","25.0073116666667","6500400","永和區"
"244023","483-VK","2019/08/24 19:49:34","新北市林口區民權路179號","121.37445","25.0849933333333","6501700","林口區"
"243012","AAD-798","2019/08/24 19:49:31","新北市泰山區仁愛路100巷58號","121.433821666667","25.054415","6501600","泰山區"
"243016","421-VK","2019/08/24 19:49:38","新北市泰山區新北大道六段373號","121.422381666667","25.032555","6501600","泰山區"
"243009","KEA-2215","2019/08/24 19:49:40","新北市泰山區美寧街60號","121.430955","25.0646783333333","6501600","泰山區"
"243011","KEA-2216","2019/08/24 19:49:43","新北市泰山區明志路三段196巷21弄22號","121.422728333333","25.038585","6501600","泰山區"
"222003","436-BY","2019/08/24 19:49:40","新北市深坑區深南路51-1號","121.621231666667","25.009825","6501800","深坑區"
"222001","628-TS","2019/08/24 19:49:33","新北市深坑區北深路三段116號","121.606575","25.001615","6501800","深坑區"
"222002","659-BX","2019/08/24 19:49:45","新北市深坑區北深路一段361號","121.622343333333","25.0049216666667","6501800","深坑區"
"231061","002-UM","2019/08/24 19:49:33","新北市新店區安民街259號","121.51744","24.9725683333333","6500600","新店區"
"231055","0291-UT","2019/08/24 19:49:42","新北市新店區力行路74號","121.538676666667","24.96625","6500600","新店區"
"231044","046-UY","2019/08/24 19:49:33","新北市新店區復興路76號","121.537616666667","24.98689","6500600","新店區"
"231060","106-UY","2019/08/24 19:49:28","新北市新店區安康路二段163號","121.51007","24.9592933333333","6500600","新店區"
"231051","107-UY","2019/08/24 19:49:37","新北市新店區中央三街23號","121.528785","24.9739266666667","6500600","新店區"
"231049","108-UY","2019/08/24 19:49:28","新北市新店區民權路88-4號","121.536586666667","24.983325","6500600","新店區"
"231065","110-UY","2019/08/24 19:49:32","新北市新店區安祥路109巷151弄14號","121.477948333333","24.958835","6500600","新店區"
"231068","187-VK","2019/08/24 19:49:27","新北市新店區安一路一段1-1號","121.51957","24.9612266666667","6500600","新店區"
"231062","256-BX","2019/08/24 19:49:28","新北市新店區永業路35號","121.532683333333","24.9553866666667","6500600","新店區"
"231054","260-TV","2019/08/24 19:49:46","新北市新店區光明街13號","121.538376666667","24.9593216666667","6500600","新店區"
"231042","268-BY","2019/08/24 19:48:39","新北市新店區中興路一段266-6號","121.545158333333","24.967575","6500600","新店區"
"231064","278-BY","2019/08/24 19:49:41","新北市新店區光華街3-1號","121.517876666667","24.9687966666667","6500600","新店區"
"231050","AAD-862","2019/08/24 19:49:40","新北市新店區北宜路二段415號","121.559886666667","24.9545","6500600","新店區"
"231045","355-BY","2019/08/24 19:49:45","新北市新店區北宜路二段483號","121.562183333333","24.9539133333333","6500600","新店區"
"231056","4715-K9","2019/08/24 19:49:32","新北市新店區民權路42巷38號","121.5389","24.9839666666667","6500600","新店區"
"231067","4772-VM","2019/08/24 19:49:42","新北市新店區精忠路10-1號","121.532423333333","24.9591316666667","6500600","新店區"
"231052","513-UM","2019/08/24 19:49:37","新北市新店區新烏路三段249號","121.546685","24.8959566666667","6500600","新店區"
"231063","616-UM","2019/08/24 19:49:39","新北市新店區車子路11號","121.50304","24.9520133333333","6500600","新店區"
"231041","619-UM","2019/08/24 19:49:34","新北市新店區中央路125號","121.530615","24.9742166666667","6500600","新店區"
"231048","KED-0819","2019/08/24 19:49:40","新北市新店區五峰路59-7號","121.547468333333","24.9700883333333","6500600","新店區"
"231046","719-UM","2019/08/24 19:47:18","新北市新店區福園街10巷1號","121.532713333333","24.972815","6500600","新店區"
"231057","720-UM","2019/08/24 19:49:30","新北市新店區花園二路三段21-2號","121.556806666667","24.93133","6500600","新店區"
"231059","897-TW","2019/08/24 19:49:36","新北市新店區安和路二段173號","121.51854","24.9744616666667","6500600","新店區"
"231040","898-TW","2019/08/24 19:49:40","新北市新店區北新路一段126巷32號","121.543458333333","24.96892","6500600","新店區"
"231043","899-TW","2019/08/24 19:49:30","新北市新店區中正路263-3號","121.53832","24.9737183333333","6500600","新店區"
"231066","AKT-0513","2019/08/24 19:49:34","新北市新店區安康路二段440號","121.495675","24.95482","6500600","新店區"
"241011","013-R5","2019/08/24 19:49:38","新北市三重區三和路二段173巷47號","121.499308333333","25.0702516666667","6500200","三重區"
"241028","022-UY","2019/08/24 19:49:33","新北市三重區中正南路113號","121.49415","25.0576766666667","6500200","三重區"
"241008","059-VK","2019/08/24 19:49:46","新北市三重區永福街96號","121.47884","25.07593","6500200","三重區"
"241029","060-VK","2019/08/24 19:49:39","新北市三重區光明路13巷15號","121.490626666667","25.0585116666667","6500200","三重區"
"241031","061-VK","2019/08/24 19:49:33","新北市三重區重新路四段101-1號","121.485828333333","25.0543916666667","6500200","三重區"
"241015","062-VK","2019/08/24 19:49:28","新北市三重區三和路一段29號","121.503596666667","25.064905","6500200","三重區"
"241017","063-VK","2019/08/24 19:49:29","新北市三重區重陽路三段27巷1號","121.489636666667","25.0665383333333","6500200","三重區"
"241024","065-VK","2019/08/24 19:49:36","新北市三重區中正北路193巷35弄4號","121.47608","25.0708633333333","6500200","三重區"
"241003","091-VK","2019/08/24 19:49:38","新北市三重區五華街93巷54號","121.49379","25.0849666666667","6500200","三重區"
"241007","742-BX","2019/08/24 19:49:28","新北市三重區慈愛街8號","121.484386666667","25.0785233333333","6500200","三重區"
"241006","262-UM","2019/08/24 19:49:36","新北市三重區力行路二段76巷25號","121.480726666667","25.073515","6500200","三重區"
"241016","266-UM","2019/08/24 19:49:42","新北市三重區正義北路28巷58號","121.49598","25.06291","6500200","三重區"
"241009","267-UM","2019/08/24 19:49:37","新北市三重區三和路四段396巷2-1號","121.481473333333","25.0791416666667","6500200","三重區"
"241032","269-UM","2019/08/24 19:49:38","新北市三重區重陽路一段44巷25號","121.485583333333","25.05782","6500200","三重區"
"241013","270-UM","2019/08/24 19:49:30","新北市三重區仁愛街92巷13號","121.494735","25.0738616666667","6500200","三重區"
"241025","271-UM","2019/08/24 19:49:39","新北市三重區頂崁街210巷9號","121.476551666667","25.06776","6500200","三重區"
"241030","KED-0822","2019/08/24 19:49:28","新北市三重區環河南路254巷32號","121.490123333333","25.051075","6500200","三重區"
"241035","462-BY","2019/08/24 19:49:36","新北市三重區大榮街23號","121.498471666667","25.0634033333333","6500200","三重區"
"241020","478-VK","2019/08/24 19:49:24","新北市三重區三和路4段20巷26-1號","121.490121666667","25.0732266666667","6500200","三重區"
"241014","543-UM","2019/08/24 19:49:34","新北市三重區三和路二段37-8號","121.501358333333","25.0675133333333","6500200","三重區"
"241023","545-UM","2019/08/24 19:49:39","新北市三重區頂崁街172號","121.477618333333","25.0659533333333","6500200","三重區"
"241001","547-UM","2019/08/24 19:49:28","新北市三重區仁愛街283巷17號","121.493623333333","25.0794566666667","6500200","三重區"
"241019","KEA-2593","2019/08/24 19:49:26","新北市三重區自強路二段74巷23-1號","121.487916666667","25.0698566666667","6500200","三重區"
"241005","AAD-863","2019/08/24 19:49:28","新北市三重區溪尾街322號","121.48786","25.084645","6500200","三重區"
"241026","743-BX","2019/08/24 19:49:27","新北市三重區文化南路38-1號","121.500281666667","25.0610566666667","6500200","三重區"
"241012","941-UM","2019/08/24 19:49:25","新北市三重區仁興街41號","121.499193333333","25.0758316666667","6500200","三重區"
"235056","096-UM","2019/08/24 19:49:34","新北市中和區漢民路401號","121.472245","25.0072116666667","6500300","中和區"
"235039","097-UM","2019/08/24 19:49:27","新北市中和區大勇街27巷25號","121.516426666667","24.9938133333333","6500300","中和區"
"235065","098-UM","2019/08/24 19:49:34","新北市中和區福美路269號","121.498131666667","25.0049966666667","6500300","中和區"
"235040","150-BY","2019/08/24 19:49:32","新北市中和區安平路59號","121.509476666667","24.9950683333333","6500300","中和區"
"235058","151-BY","2019/08/24 19:49:34","新北市中和區員山路150巷2弄5號","121.481693333333","24.9981483333333","6500300","中和區"
"235055","183-VK","2019/08/24 19:49:32","新北市中和區德光路15巷22號","121.471405","25.0032116666667","6500300","中和區"
"235038","185-VK","2019/08/24 19:49:45","新北市中和區自立路15巷1號","121.52246","24.9962216666667","6500300","中和區"
"235049","186-VK","2019/08/24 19:49:41","新北市中和區南華路5號","121.502076666667","24.9955016666667","6500300","中和區"
"235067","255-BX","2019/08/24 19:49:44","新北市中和區中正路751巷3弄16號","121.484105","24.9991566666667","6500300","中和區"
"235044","293-VK","2019/08/24 19:49:41","新北市中和區南山路146巷7號","121.50344","24.9923666666667","6500300","中和區"
"235043","352-BY","2019/08/24 19:49:33","新北市中和區興南路二段159巷7號","121.505308333333","24.9831083333333","6500300","中和區"
"235042","KEA-2878","2019/08/24 19:49:37","新北市永和區中正路4號","121.512381666667","24.99364","6500300","中和區"
"247014","KEA-2869","2019/08/24 19:49:41","新北市蘆洲區中央路87號","121.472881666667","25.08442","6501400","蘆洲區"
"235050","4979-A6","2019/08/24 19:49:29","新北市中和區景平路241巷84弄54號","121.506076666667","24.9923483333333","6500300","中和區"
"235070","558-UM","2019/08/24 19:49:39","新北市中和區圓通路159號","121.498073333333","24.9956133333333","6500300","中和區"
"235060","KED-0823","2019/08/24 19:49:33","新北市中和區新生街52號","121.483251666667","25.00297","6500300","中和區"
"235047","732-UM","2019/08/24 19:49:27","新北市中和區和平街74號","121.507723333333","24.99115","6500300","中和區"
"235046","733-UM","2019/08/24 19:49:32","新北市中和區興南路一段61號","121.510316666667","24.9897116666667","6500300","中和區"
"235071","783-BX","2019/08/24 19:49:43","新北市中和區立言街47號","121.48814","25.0068533333333","6500300","中和區"
"235052","805-TS","2019/08/24 19:49:40","新北市中和區華新街91號","121.508526666667","24.9833783333333","6500300","中和區"
"235048","896-TW","2019/08/24 19:49:42","新北市中和區興南路一段48號","121.511076666667","24.9906733333333","6500300","中和區"
"235053","900-TW","2019/08/24 19:49:43","新北市中和區民德路181號","121.468455","24.9994083333333","6500300","中和區"
"235066","911-UM","2019/08/24 19:49:37","新北市中和區南工路36號","121.505798333333","25.0011483333333","6500300","中和區"
"235051","157-BY","2019/08/24 19:49:38","新北市中和區中興街180巷37號","121.498196666667","24.98928","6500300","中和區"
"235037","AAC-213","2019/08/24 19:49:42","新北市中和區自立路22號","121.522333333333","24.99327","6500300","中和區"
"235059","AAC-215","2019/08/24 19:49:34","新北市中和區圓通路305巷29弄2號","121.495073333333","24.9890933333333","6500300","中和區"
"220065","072-UY","2019/08/24 19:49:41","新北市板橋區民族路129巷16號","121.467693333333","25.008625","6500100","板橋區"
"220086","073-UY","2019/08/24 19:49:42","新北市板橋區中正路236巷8號","121.456175","25.019005","6500100","板橋區"
"220106","075-UY","2019/08/24 19:49:35","新北市板橋區民治街52巷11號","121.478866666667","25.0328416666667","6500100","板橋區"
"220069","AAD-861","2019/08/24 19:49:27","新北市板橋區大明街13號","121.458926666667","25.0025233333333","6500100","板橋區"
"220068","120-SR","2019/08/24 19:49:43","新北市板橋區光復街13號","121.484986666667","25.0196866666667","6500100","板橋區"
"247004","893-R6","2019/08/24 19:49:42","新北市蘆洲區中原路63-1號","121.458716666667","25.082015","6501400","蘆洲區"
"247008","341-TH","2019/08/24 19:49:36","新北市蘆洲區中山一路19號","121.479475","25.0804816666667","6501400","蘆洲區"
"247002","336-TH","2019/08/24 19:49:43","新北市蘆洲區永平街28號","121.458861666667","25.09076","6501400","蘆洲區"
"247016","053-VK","2019/08/24 19:49:39","新北市蘆洲區中正路245號","121.467695","25.0869966666667","6501400","蘆洲區"
"226004","312-R5","2019/08/24 19:49:26","新北市平溪區十分里十分街302號","121.77629","25.04454","6502400","平溪區"
"235041","251-BX","2019/08/24 19:49:28","新北市中和區中安街108號","121.511545","25.0008116666667","6500300","中和區"
"228003","097-TW","2019/08/24 19:49:32","新北市貢寮區真理里美艷山街3-1號","121.925736666667","25.059575","6502600","貢寮區"
"228001","212-TW","2019/08/24 19:49:32","新北市貢寮區真理里新港街118號","121.926948333333","25.0565366666667","6502600","貢寮區"
"224010","AGQ-8101","2019/08/24 19:49:36","新北市瑞芳區汽車路19號","121.845545","25.1105116666667","6501200","瑞芳區"
"224002","639-TC","2019/08/24 19:49:43","新北市瑞芳區三爪子坑路13巷211號","121.816115","25.1058466666667","6501200","瑞芳區"
"227002","642-TC","2019/08/24 19:49:39","新北市雙溪區雙溪里內挖路47號","121.863291666667","25.03659","6502500","雙溪區"
"227001","400-TW","2019/08/24 19:49:44","新北市雙溪區新基里中華路55號","121.865773333333","25.03786","6502500","雙溪區"
"208002","KEA-2872","2019/08/24 19:49:37","新北市金山區中正路149號","121.631803333333","25.2209966666667","6502700","金山區"
"208003","665-BX","2019/08/24 19:49:35","新北市金山區海興路112號","121.631298333333","25.238815","6502700","金山區"
"251009","008-UM","2019/08/24 19:49:38","新北市淡水區中正路38-1號","121.443725","25.1692833333333","6501000","淡水區"
"251004","009-UM","2019/08/24 19:49:29","新北市淡水區民權路185巷22號","121.46041","25.13384","6501000","淡水區"
"251005","010-UM","2019/08/24 19:49:45","新北市淡水區中正東路6號","121.447023333333","25.1671066666667","6501000","淡水區"
"251015","KEA-2871","2019/08/24 19:49:39","新北市淡水區山子頂24-1號","121.491466666667","25.18736","6501000","淡水區"
"251016","179-VK","2019/08/24 19:49:39","新北市淡水區三塊厝3-2號","121.456298333333","25.2093666666667","6501000","淡水區"
"251013","180-VK","2019/08/24 19:49:43","新北市淡水區頂田寮1-3號","121.457551666667","25.2152716666667","6501000","淡水區"
"251008","181-VK","2019/08/24 19:49:33","新北市淡水區中正路一段24巷2-4號","121.426798333333","25.1770066666667","6501000","淡水區"
"251007","182-VK","2019/08/24 19:49:33","新北市淡水區竿蓁一街53號","121.453311666667","25.166355","6501000","淡水區"
"251012","441-VK","2019/08/24 19:49:30","新北市淡水區淡金路三段64號","121.448238333333","25.1998033333333","6501000","淡水區"
"251001","559-UM","2019/08/24 19:49:44","新北市淡水區淡金路132號","121.457826666667","25.1646783333333","6501000","淡水區"
"251006","561-UM","2019/08/24 19:49:31","新北市淡水區水碓街15號","121.443496666667","25.17694","6501000","淡水區"
"251014","577-R6","2019/08/24 19:49:35","新北市淡水區番社前1號","121.46796","25.2361316666667","6501000","淡水區"
"251011","650-BX","2019/08/24 19:49:28","新北市淡水區紅樹林路211號","121.460898333333","25.155945","6501000","淡水區"
"207003","550-UM","2019/08/24 19:49:43","新北市萬里區大鵬里萬里加投287-18號","121.646831666667","25.2172816666667","6502800","萬里區"
"207004","291-VK","2019/08/24 19:49:35","新北市萬里區萬里里瑪鋉路122號","121.690618333333","25.1790683333333","6502800","萬里區"
"252002","178-VK","2019/08/24 19:49:40","新北市三芝區三民街33-1號","121.504633333333","25.25854","6502100","三芝區"
"208001","170-UY","2019/08/24 19:49:33","新北市金山區重和里林口18號","121.597388333333","25.210565","6502700","金山區"
"237004","KEA-2597","2019/08/24 19:49:40","新北市三峽區添福30-1號","121.375758333333","24.89698","6500900","三峽區"
"237007","153-BY","2019/08/24 19:49:34","新北市三峽區二鬮路136巷20弄9號","121.35654","24.91015","6500900","三峽區"
"237009","210-TH","2019/08/24 19:49:28","新北市三峽區清水街423號","121.368746666667","24.9262066666667","6500900","三峽區"
"237013","252-BX","2019/08/24 19:49:41","新北市三峽區溪北街47號","121.397141666667","24.9360483333333","6500900","三峽區"
"237012","275-BY","2019/08/24 19:49:25","新北市三峽區中華路26號","121.37393","24.9323916666667","6500900","三峽區"
"237008","302-VK","2019/08/24 19:49:33","新北市三峽區大同路209號","121.370621666667","24.926995","6500900","三峽區"
"237014","433-BY","2019/08/24 19:49:42","新北市三峽區嘉添109-11號","121.36928","24.9096616666667","6500900","三峽區"
"237006","5529-G3","2019/08/24 19:49:39","新北市三峽區中正路一段336巷15弄2號","121.369968333333","24.9249916666667","6500900","三峽區"
"237015","649-BX","2019/08/24 19:49:42","新北市三峽區橫溪路99巷76號","121.400686666667","24.937505","6500900","三峽區"
"237005","AKY-6261","2019/08/24 19:49:41","新北市三峽區長泰街54號","121.37777","24.93258","6500900","三峽區"
"236042","KED-0685","2019/08/24 19:49:42","新北市土城區學士路2號","121.454051666667","24.983315","6501300","土城區"
"236079","166-UM","2019/08/24 19:49:24","新北市土城區溪頭路131號","121.409738333333","24.9513366666667","6501300","土城區"
"236030","253-BX","2019/08/24 19:49:43","新北市土城區中央路一段318巷4弄12號","121.44324","24.9823683333333","6501300","土城區"
"236070","KEA-2877","2019/08/24 19:49:32","新北市土城區中央路二段346巷13號","121.439498333333","24.9722333333333","6501300","土城區"
"252001","KED-0821","2019/08/24 19:49:33","新北市三芝區公正街66號","121.499815","25.2574766666667","6502100","三芝區"
"236021","401-BY","2019/08/24 19:49:33","新北市土城區延吉街96號","121.470561666667","24.9863616666667","6501300","土城區"
"236059","912-UM","2019/08/24 19:49:34","新北市土城區中央路一段100號","121.446796666667","24.988335","6501300","土城區"
"236049","913-UM","2019/08/24 19:49:43","新北市土城區青雲路216號","121.459003333333","24.981565","6501300","土城區"
"236063","915-UM","2019/08/24 19:49:34","新北市土城區延平街33巷1號","121.467778333333","24.9916933333333","6501300","土城區"
"236055","AAC-216","2019/08/24 19:49:38","新北市土城區金城路三段203號","121.470211666667","24.9891933333333","6501300","土城區"
"242039","AAC-296","2019/08/24 19:49:42","新北市新莊區民安路299巷34號","121.429536666667","25.023315","6500500","新莊區"
"242061","986-R7","2019/08/24 19:49:31","新北市新莊區瓊泰路7-1號","121.444738333333","25.0282883333333","6500500","新莊區"
"242002","751-BX","2019/08/24 19:49:38","新北市新莊區新泰路2-11號","121.450183333333","25.0325233333333","6500500","新莊區"
"242004","440-UM","2019/08/24 19:49:42","新北市新莊區化成路63巷24弄16號","121.462103333333","25.046065","6500500","新莊區"
"242048","400-BY","2019/08/24 19:49:34","新北市新莊區後港一路28巷16弄2號","121.425515","25.02502","6500500","新莊區"
"242025","362-BY","2019/08/24 19:49:27","新北市新莊區五工路99-3號","121.456425","25.06431","6500500","新莊區"
"242023","353-BY","2019/08/24 19:49:45","新北市新莊區化成路218號","121.465608333333","25.0466483333333","6500500","新莊區"
"242013","132-UY","2019/08/24 19:49:28","新北市新莊區中泰街64號","121.450163333333","25.04692","6500500","新莊區"
"242036","135-UY","2019/08/24 19:49:42","新北市新莊區民安路207巷30弄26號","121.428223333333","25.024085","6500500","新莊區"
"242015","173-VK","2019/08/24 19:49:33","新北市新莊區新泰路502巷52號","121.444325","25.046395","6500500","新莊區"
"242034","347-TH","2019/08/24 19:49:46","新北市新莊區仁愛街54巷1號","121.444981666667","25.0371183333333","6500500","新莊區"
"242031","348-TH","2019/08/24 19:49:26","新北市新莊區新泰路214號","121.44672","25.038835","6500500","新莊區"
"238015","755-BX","2019/08/24 19:49:30","新北市樹林區中山路一段94號","121.42292","24.9912683333333","6500700","樹林區"
"238023","601-UM","2019/08/24 19:49:40","新北市樹林區大安路179號","121.421001666667","24.99622","6500700","樹林區"
"238019","599-UM","2019/08/24 19:49:32","新北市樹林區中山路二段219號","121.402838333333","24.976455","6500700","樹林區"
"238024","5061-A6","2019/08/24 19:49:35","新北市樹林區中山路三段204號","121.38682","24.9682933333333","6500700","樹林區"
"238022","KEA-2213","2019/08/24 19:49:30","新北市樹林區國凱街74號","121.420958333333","24.9789533333333","6500700","樹林區"
"238021","KEA-2539","2019/08/24 19:49:37","新北市樹林區田尾街192巷7號","121.40012","24.9493716666667","6500700","樹林區"
"238025","303-VK","2019/08/24 19:49:32","新北市樹林區中山路二段62-4號","121.416063333333","24.9843483333333","6500700","樹林區"
"238017","283-BY","2019/08/24 19:49:41","新北市樹林區保安街二段167巷32號","121.413891666667","25.0027616666667","6500700","樹林區"
"238014","282-BY","2019/08/24 19:49:41","新北市樹林區千歲街46巷2弄1號","121.426341666667","24.9967266666667","6500700","樹林區"
"239007","AAC-297","2019/08/24 19:49:31","新北市鶯歌區大湖路326巷5號","121.34558","24.9702483333333","6500800","鶯歌區"
"239006","891-R6","2019/08/24 19:49:38","新北市鶯歌區尖山埔路2號","121.350025","24.95125","6500800","鶯歌區"
"239002","359-BY","2019/08/24 19:49:33","新北市鶯歌區湖山路30巷2號","121.34035","24.9742716666667","6500800","鶯歌區"
"239004","193-VK","2019/08/24 19:49:46","新北市鶯歌區二甲路93號","121.340713333333","24.9313766666667","6500800","鶯歌區"
"221008","489-VK","2019/08/24 19:49:41","新北市汐止區康寧街61巷22弄7號","121.619675","25.066965","6501100","汐止區"
"221010","269-BY","2019/08/24 19:49:44","新北市汐止區汐萬路二段23巷2號","121.649513333333","25.0812266666667","6501100","汐止區"
"221012","278-VK","2019/08/24 19:49:40","新北市汐止區大同路三段356號","121.680195","25.0710616666667","6501100","汐止區"
"221023","279-VK","2019/08/24 19:49:37","新北市汐止區中興路284號","121.628363333333","25.069465","6501100","汐止區"
"221029","298-VK","2019/08/24 19:49:26","新北市汐止區康寧街901號","121.651471666667","25.07496","6501100","汐止區"
"221021","299-VK","2019/08/24 19:49:38","新北市汐止區莊敬街70號","121.656438333333","25.06133","6501100","汐止區"
"221031","353-TW","2019/08/24 19:49:38","新北市汐止區連峰街1巷1號","121.646811666667","25.076095","6501100","汐止區"
"221025","623-UM","2019/08/24 19:49:36","新北市汐止區秀峰路81巷15弄4-1號","121.660796666667","25.0646483333333","6501100","汐止區"
"221038","646-BX","2019/08/24 19:49:37","新北市汐止區忠孝東路428-2號","121.666043333333","25.0720066666667","6501100","汐止區"
"220079","145-BY","2019/08/24 19:49:36","新北市板橋區建國街54巷34號","121.459918333333","25.0167866666667","6500100","板橋區"
"220082","610-BX","2019/08/24 19:49:42","新北市板橋區篤行路一段30號","121.431973333333","24.9942466666667","6500100","板橋區"
"220091","267-BY","2019/08/24 19:49:43","新北市板橋區懷德街127巷23弄31號","121.480291666667","25.0321933333333","6500100","板橋區"
"220056","276-BY","2019/08/24 19:49:34","新北市板橋區四川路二段47巷1弄2號","121.454133333333","24.9949166666667","6500100","板橋區"
"220072","277-BY","2019/08/24 19:49:25","新北市板橋區金門街173號","121.432656666667","24.990125","6500100","板橋區"
"220101","280-UM","2019/08/24 19:49:31","新北市板橋區莒光路182號","121.473966666667","25.0228166666667","6500100","板橋區"
"220071","283-VK","2019/08/24 19:49:43","新北市板橋區四川路一段367號","121.45832","24.9997416666667","6500100","板橋區"
"220094","285-UM","2019/08/24 19:49:42","新北市板橋區雨農路13號","121.46228","25.0246183333333","6500100","板橋區"
"220053","285-VK","2019/08/24 19:49:31","新北市板橋區永豐街14號","121.474811666667","25.016885","6500100","板橋區"
"220083","286-VK","2019/08/24 19:49:42","新北市板橋區大觀路二段174巷114弄24號","121.44165","25.00144","6500100","板橋區"
"220081","287-VK","2019/08/24 19:49:46","新北市板橋區大觀路一段29巷61號","121.450463333333","25.006705","6500100","板橋區"
"220090","288-VK","2019/08/24 19:49:36","新北市板橋區漢生西路165巷1號","121.462711666667","25.0233033333333","6500100","板橋區"
"220061","293-UM","2019/08/24 19:49:35","新北市板橋區板新路114號","121.471245","25.0152833333333","6500100","板橋區"
"220084","296-UM","2019/08/24 19:49:43","新北市板橋區溪崑二街118巷2號","121.426161666667","24.9883483333333","6500100","板橋區"
"220067","299-UM","2019/08/24 19:49:38","新北市板橋區長安街331巷19弄13號","121.473406666667","25.0122283333333","6500100","板橋區"
"220075","303-R5","2019/08/24 19:49:33","新北市板橋區大勇街8巷1號","121.453966666667","25.017035","6500100","板橋區"
"220062","305-R5","2019/08/24 19:49:35","新北市板橋區光復街33巷17號","121.482035","25.01896","6500100","板橋區"
"220092","307-R5","2019/08/24 19:49:34","新北市板橋區幸福路32巷4弄5-3號","121.461065","25.0214366666667","6500100","板橋區"
"220098","317-R6","2019/08/24 19:49:43","新北市板橋區四維路269巷21號","121.462465","25.0279266666667","6500100","板橋區"
"220089","487-VK","2019/08/24 19:49:37","新北市板橋區四維路179-1號","121.464411666667","25.0265433333333","6500100","板橋區"
"220088","491-VK","2019/08/24 19:49:42","新北市板橋區懷德街133號","121.479156666667","25.03047","6500100","板橋區"
"220103","561-BX","2019/08/24 19:49:36","新北市板橋區陽明街277-1號","121.46215","25.02621","6500100","板橋區"
"220080","568-UM","2019/08/24 19:49:18","新北市板橋區大觀路二段37巷69號","121.44983","25.0024516666667","6500100","板橋區"
"220063","609-BX","2019/08/24 19:49:38","新北市板橋區三民路一段5巷1號","121.479041666667","25.0234016666667","6500100","板橋區"
"220035","630-UY","2019/08/24 19:49:46","新北市板橋區新生街98巷6號","121.458683333333","25.0218683333333","6500100","板橋區"
"220057","686-BX","2019/08/24 19:49:36","新北市板橋區四川路二段245巷35號","121.451635","24.9927833333333","6500100","板橋區"
"220077","687-BX","2019/08/24 19:49:26","新北市板橋區僑中二街116巷1號","121.445701666667","25.0062466666667","6500100","板橋區"
"220093","689-BX","2019/08/24 19:49:40","新北市板橋區民治街57巷32-1號","121.480833333333","25.0356233333333","6500100","板橋區"
"220054","741-BX","2019/08/24 19:49:36","新北市板橋區忠孝路239巷16號","121.466776666667","25.00319","6500100","板橋區"
"220102","KEA-2699","2019/08/24 19:49:31","新北市板橋區松柏街20號","121.47457","25.02982","6500100","板橋區"
"220055","827-TW","2019/08/24 19:49:26","新北市板橋區國慶路149巷27號","121.460921666667","24.9976883333333","6500100","板橋區"
"220074","895-R6","2019/08/24 19:49:43","新北市板橋區東門街6號","121.457941666667","25.0090883333333","6500100","板橋區"
"220073","985-R7","2019/08/24 19:49:39","新北市板橋區國光路47號","121.457988333333","25.0179416666667","6500100","板橋區"
"220097","AAC-210","2019/08/24 19:49:42","新北市板橋區光正街24號","121.46237","25.0172433333333","6500100","板橋區"
"220064","AAC-253","2019/08/24 19:49:26","新北市板橋區館前東路154號","121.46465","25.0079266666667","6500100","板橋區"
"235068","KEA-2873","2019/08/24 19:49:35","新北市中和區永和路56號","121.499323333333","25.004315","6500300","中和區"
