"lineid","car","time","location","longitude","latitude","cityid","cityname"
"234081","298-R6","2019/08/24 20:39:42","新北市永和區永貞路82號","121.520106666667","25.0050716666667","6500400","永和區"
"234064","337-UY","2019/08/24 20:39:35","新北市永和區中正路435號","121.517145","25.0051383333333","6500400","永和區"
"234030","746-BX","2019/08/24 20:39:31","新北市中和區成功路137號","121.526936666667","24.989695","6500400","永和區"
"234061","AAD-866","2019/08/24 20:39:28","新北市永和區中正路381號","121.517118333333","25.0037066666667","6500400","永和區"
"234042","862-TW","2019/08/24 20:39:25","新北市永和區永利路31號","121.51844","25.00582","6500400","永和區"
"249001","173-UM","2019/08/24 20:39:34","新北市八里區中山路三段375號","121.37285","25.137805","6502300","八里區"
"249004","303-UY","2019/08/24 20:39:38","新北市八里區中山路一段121號","121.413601666667","25.1593883333333","6502300","八里區"
"249002","305-UY","2019/08/24 20:39:47","新北市八里區龍米路二段108-2號","121.443308333333","25.150225","6502300","八里區"
"249003","593-UM","2019/08/24 20:39:39","新北市林口區汕頭32號","121.366626666667","25.1350483333333","6502300","八里區"
"234023","9380-KE","2019/08/24 20:39:30","新北市永和區竹林路25巷21號","121.518171666667","25.0150233333333","6500400","永和區"
"234074","AAC-211","2019/08/24 20:39:38","新北市永和區竹林路75巷4弄34號","121.521555","25.0142333333333","6500400","永和區"
"243012","AAD-798","2019/08/24 20:39:31","新北市泰山區忠孝街19巷3號","121.427463333333","25.0656966666667","6501600","泰山區"
"243009","KEA-2215","2019/08/24 20:39:40","新北市泰山區泰林路二段538號","121.423421666667","25.0640733333333","6501600","泰山區"
"222003","436-BY","2019/08/24 20:39:39","新北市深坑區文山路二段30巷31號","121.615058333333","24.9985633333333","6501800","深坑區"
"222001","628-TS","2019/08/24 20:39:33","新北市深坑區北深路三段230號","121.600731666667","25.003975","6501800","深坑區"
"222002","659-BX","2019/08/24 20:39:25","新北市深坑區萬福路47號","121.599541666667","25.0068583333333","6501800","深坑區"
"231061","002-UM","2019/08/24 20:39:33","新北市新店區新和街36號","121.519278333333","24.9849083333333","6500600","新店區"
"231044","046-UY","2019/08/24 20:39:33","新北市新店區建國路257號","121.537385","24.98332","6500600","新店區"
"231060","106-UY","2019/08/24 20:39:28","新北市新店區錦秀路33號","121.479208333333","24.9438833333333","6500600","新店區"
"231051","107-UY","2019/08/24 20:39:37","新北市新店區中央三街127號","121.524203333333","24.97673","6500600","新店區"
"231049","108-UY","2019/08/24 20:39:41","新北市新店區永業路81巷1弄1-1號","121.529438333333","24.949425","6500600","新店區"
"231065","110-UY","2019/08/24 20:39:32","新北市新店區安祥路102巷42弄1號","121.4844","24.9643083333333","6500600","新店區"
"231068","187-VK","2019/08/24 20:39:47","新北市新店區寶慶街35巷1弄2號","121.543123333333","24.986315","6500600","新店區"
"221035","KEA-2785","2019/08/24 20:39:42","新北市汐止區長江街101-5號","121.658671666667","25.0731933333333","6501100","汐止區"
"231062","256-BX","2019/08/24 20:39:36","新北市新店區安泰路60巷55弄119號","121.484455","24.9464383333333","6500600","新店區"
"231054","260-TV","2019/08/24 20:39:26","新北市新店區北新路一段64巷39弄2號","121.542325","24.9657766666667","6500600","新店區"
"231042","268-BY","2019/08/24 20:39:39","新北市新店區寶高路120巷1號","121.554573333333","24.9760416666667","6500600","新店區"
"231064","278-BY","2019/08/24 20:39:41","新北市新店區安和路三段111巷4弄2號","121.51704","24.984755","6500600","新店區"
"231050","AAD-862","2019/08/24 20:39:40","新北市新店區中正路282-2號","121.538206666667","24.9741233333333","6500600","新店區"
"231045","355-BY","2019/08/24 20:39:45","新北市新店區長春路132號","121.556685","24.9615233333333","6500600","新店區"
"231058","3713-VJ","2019/08/24 20:39:35","新北市新店區自由街41號","121.534608333333","24.9739116666667","6500600","新店區"
"231056","4715-K9","2019/08/24 20:39:32","新北市新店區安業街8巷2號","121.515001666667","24.9777","6500600","新店區"
"231067","4772-VM","2019/08/24 20:39:41","新北市新店區安華路28-1號","121.51975","24.9607566666667","6500600","新店區"
"231052","513-UM","2019/08/24 20:39:37","新北市新店區松林路51號","121.544466666667","24.9113616666667","6500600","新店區"
"231063","616-UM","2019/08/24 20:39:40","新北市新店區玫瑰路4-2號","121.493991666667","24.951245","6500600","新店區"
"231041","619-UM","2019/08/24 20:39:34","新北市新店區中正路501-5號","121.533636666667","24.9839083333333","6500600","新店區"
"231048","KED-0819","2019/08/24 20:39:40","新北市新店區寶慶街8號","121.543521666667","24.9875833333333","6500600","新店區"
"231057","720-UM","2019/08/24 20:39:30","新北市新店區花園二路一段9-6號","121.55635","24.9329","6500600","新店區"
"231059","897-TW","2019/08/24 20:39:36","新北市新店區安豐路46號","121.500075","24.9549666666667","6500600","新店區"
"231040","898-TW","2019/08/24 20:39:40","新北市新店區中正路265巷12號","121.53759","24.9733933333333","6500600","新店區"
"231043","899-TW","2019/08/24 20:39:30","新北市新店區建國路25號","121.540155","24.9739783333333","6500600","新店區"
"231066","AKT-0513","2019/08/24 20:39:34","新北市新店區安民街365巷1弄8號","121.516296666667","24.9751716666667","6500600","新店區"
"241011","013-R5","2019/08/24 20:39:38","新北市三重區龍濱路219巷7號","121.502151666667","25.0720566666667","6500200","三重區"
"241028","022-UY","2019/08/24 20:39:33","新北市三重區光興街91號","121.497388333333","25.059935","6500200","三重區"
"241008","059-VK","2019/08/24 20:39:26","新北市三重區下竹圍街42-1號","121.481086666667","25.0748083333333","6500200","三重區"
"241029","060-VK","2019/08/24 20:39:32","新北市三重區集美街126巷26號","121.490093333333","25.0538983333333","6500200","三重區"
"241031","061-VK","2019/08/24 20:39:33","新北市三重區重陽路一段113巷1弄46號","121.488265","25.0587033333333","6500200","三重區"
"241015","062-VK","2019/08/24 20:39:28","新北市三重區文化北路200巷3號","121.497945","25.067985","6500200","三重區"
"241017","063-VK","2019/08/24 20:39:29","新北市三重區安慶街225號","121.49107","25.0678316666667","6500200","三重區"
"241024","065-VK","2019/08/24 20:39:36","新北市三重區忠孝路三段53號","121.480895","25.0666","6500200","三重區"
"241002","090-VK","2019/08/24 20:39:29","新北市三重區仁義街167巷12號","121.497468333333","25.08178","6500200","三重區"
"241003","091-VK","2019/08/24 20:39:38","新北市三重區集賢路87-1號","121.493786666667","25.0869466666667","6500200","三重區"
"241007","742-BX","2019/08/24 20:39:28","新北市三重區三和路四段97-12號","121.48845","25.0766983333333","6500200","三重區"
"241006","262-UM","2019/08/24 20:39:36","新北市三重區車路頭街139巷12號","121.484251666667","25.0762683333333","6500200","三重區"
"241016","266-UM","2019/08/24 20:39:35","新北市三重區長壽西街143-3號","121.494276666667","25.066695","6500200","三重區"
"241009","267-UM","2019/08/24 20:39:37","新北市三重區碧華街57號","121.484818333333","25.081295","6500200","三重區"
"241032","269-UM","2019/08/24 20:39:38","新北市三重區重陽路一段120巷46號","121.485088333333","25.0601516666667","6500200","三重區"
"241013","270-UM","2019/08/24 20:39:30","新北市三重區自強路四段28號","121.488925","25.076815","6500200","三重區"
"241025","271-UM","2019/08/24 20:39:39","新北市三重區頂崁街141號","121.477876666667","25.0650416666667","6500200","三重區"
"241030","KED-0822","2019/08/24 20:39:28","新北市三重區成功路73巷20號","121.489415","25.0520016666667","6500200","三重區"
"241035","462-BY","2019/08/24 20:39:36","新北市三重區三和路三段98號","121.49424","25.0720816666667","6500200","三重區"
"241004","475-VK","2019/08/24 20:39:40","新北市三重區仁愛街425巷1號","121.490595","25.08147","6500200","三重區"
"241020","478-VK","2019/08/24 20:39:44","新北市三重區忠孝路一段101號","121.489601666667","25.07212","6500200","三重區"
"241014","543-UM","2019/08/24 20:39:38","新北市三重區萬壽街16號","121.4995","25.0694983333333","6500200","三重區"
"241023","545-UM","2019/08/24 20:39:39","新北市三重區自由街18巷21號","121.478863333333","25.0665483333333","6500200","三重區"
"241001","547-UM","2019/08/24 20:39:28","新北市三重區自強路三段110巷31號","121.48561","25.07451","6500200","三重區"
"241019","KEA-2593","2019/08/24 20:39:26","新北市三重區忠孝路一段10巷27號","121.491245","25.0713483333333","6500200","三重區"
"241005","AAD-863","2019/08/24 20:39:28","新北市三重區五華街181號","121.490035","25.0851783333333","6500200","三重區"
"241026","743-BX","2019/08/24 20:39:47","新北市三重區文化南路8號","121.500211666667","25.0624366666667","6500200","三重區"
"241022","KED-0820","2019/08/24 20:39:42","新北市三重區新北大道一段15巷2號","121.48805","25.06058","6500200","三重區"
"241012","941-UM","2019/08/24 20:39:45","新北市三重區龍濱路269號","121.501386666667","25.0730083333333","6500200","三重區"
"241033","AAC-255","2019/08/24 20:39:41","新北市三重區光復路二段7號","121.472086666667","25.0541","6500200","三重區"
"235055","183-VK","2019/08/24 20:39:32","新北市八里區中山路三段363號","121.37426","25.1382133333333","6500300","中和區"
"247014","KEA-2869","2019/08/24 20:39:41","新北市蘆洲區中山一路236號","121.472783333333","25.080205","6501400","蘆洲區"
"235069","4980-A6","2019/08/24 20:39:37","新北市中和區新生街163號","121.483633333333","25.0010916666667","6500300","中和區"
"247004","893-R6","2019/08/24 20:39:42","新北市蘆洲區長安街297號","121.458128333333","25.0848433333333","6501400","蘆洲區"
"247008","341-TH","2019/08/24 20:39:36","新北市蘆洲區重陽街11號","121.480825","25.081955","6501400","蘆洲區"
"247002","336-TH","2019/08/24 20:39:43","新北市蘆洲區長安街375巷2號","121.457015","25.087925","6501400","蘆洲區"
"247022","057-VK","2019/08/24 20:39:38","新北市蘆洲區中正路245號","121.467803333333","25.086735","6501400","蘆洲區"
"247012","056-VK","2019/08/24 20:39:33","新北市蘆洲區民族路236巷51號","121.481331666667","25.08883","6501400","蘆洲區"
"247016","053-VK","2019/08/24 20:39:39","新北市蘆洲區中山一路282號","121.471275","25.0788733333333","6501400","蘆洲區"
"247020","007-UY","2019/08/24 20:39:36","新北市蘆洲區民族路331號","121.473806666667","25.091765","6501400","蘆洲區"
"247006","002-UY","2019/08/24 20:39:44","新北市蘆洲區和平路184號","121.466261666667","25.08148","6501400","蘆洲區"
"247024","001-UY","2019/08/24 20:39:44","新北市蘆洲區光榮路85號","121.461878333333","25.0888816666667","6501400","蘆洲區"
"251010","012-UM","2019/08/24 20:39:32","新北市淡水區沙崙路181巷15號","121.423995","25.1843766666667","6501000","淡水區"
"251015","KEA-2871","2019/08/24 20:39:39","新北市淡水區淡金路三段446號","121.450868333333","25.2144133333333","6501000","淡水區"
"251016","179-VK","2019/08/24 20:39:43","新北市淡水區後洲子7號","121.448986666667","25.223835","6501000","淡水區"
"251013","180-VK","2019/08/24 20:39:43","新北市淡水區下圭柔山28巷13號","121.45771","25.2039366666667","6501000","淡水區"
"251007","182-VK","2019/08/24 20:39:33","新北市淡水區忠愛街4號","121.459306666667","25.17137","6501000","淡水區"
"251012","441-VK","2019/08/24 20:39:30","新北市淡水區興仁路108號","121.451716666667","25.2181466666667","6501000","淡水區"
"251001","559-UM","2019/08/24 20:39:44","新北市淡水區淡金路一段156號","121.455086666667","25.1782816666667","6501000","淡水區"
"251006","561-UM","2019/08/24 20:39:31","新北市淡水區商工路186巷21號","121.450671666667","25.1870533333333","6501000","淡水區"
"251014","577-R6","2019/08/24 20:39:35","新北市淡水區公埔子36-1號","121.462571666667","25.2322266666667","6501000","淡水區"
"251002","672-BX","2019/08/24 20:39:43","新北市淡水區中正路36號","121.443791666667","25.1692333333333","6501000","淡水區"
"251003","766-UM","2019/08/24 20:39:35","新北市淡水區新民街152巷6弄20號","121.438705","25.1784666666667","6501000","淡水區"
"252002","178-VK","2019/08/24 20:39:40","新北市三芝區淡金路二段91號","121.504071666667","25.2608766666667","6502100","三芝區"
"247010","KED-0683","2019/08/24 20:39:33","新北市蘆洲區中山一路74巷55號","121.480046666667","25.0815733333333","6501400","蘆洲區"
"252001","KED-0821","2019/08/24 20:39:34","新北市三芝區育英街29-1號","121.501303333333","25.2574","6502100","三芝區"
"242039","AAC-296","2019/08/24 20:39:38","新北市新莊區民安路453號","121.43443","25.0225316666667","6500500","新莊區"
"242002","751-BX","2019/08/24 20:39:38","新北市新莊區中港路1號","121.454933333333","25.036885","6500500","新莊區"
"242029","615-BX","2019/08/24 20:39:42","新北市新莊區中華路二段97號","121.45269","25.0495333333333","6500500","新莊區"
"242027","613-BX","2019/08/24 20:39:33","新北市新莊區思源路195號","121.459748333333","25.0455983333333","6500500","新莊區"
"242058","612-BX","2019/08/24 20:39:28","新北市新莊區四維路129-1號","121.422931666667","25.02266","6500500","新莊區"
"242046","566-BX","2019/08/24 20:39:41","新北市新莊區中正路879-17號","121.418256666667","25.02573","6500500","新莊區"
"242051","497-BY","2019/08/24 20:39:41","新北市新莊區民安西路171號","121.426308333333","25.01603","6500500","新莊區"
"242056","442-UM","2019/08/24 20:39:39","新北市新莊區瓊泰路94巷48號","121.445015","25.0294016666667","6500500","新莊區"
"242004","440-UM","2019/08/24 20:39:42","新北市新莊區化成路389巷6號","121.464843333333","25.05839","6500500","新莊區"
"242042","415-TV","2019/08/24 20:39:39","新北市新莊區中正路700-11號","121.417746666667","25.0277666666667","6500500","新莊區"
"242011","413-TV","2019/08/24 20:39:38","新北市新莊區中榮街104巷23號","121.446883333333","25.0537666666667","6500500","新莊區"
"242048","400-BY","2019/08/24 20:39:34","新北市新莊區中正路654號","121.421395","25.0285233333333","6500500","新莊區"
"242025","362-BY","2019/08/24 20:39:27","新北市新莊區化成路579巷1號","121.464425","25.0661366666667","6500500","新莊區"
"242023","353-BY","2019/08/24 20:39:44","新北市新莊區化成路205號","121.465916666667","25.050975","6500500","新莊區"
"242013","132-UY","2019/08/24 20:39:28","新北市新莊區中平路302巷6號","121.44541","25.0516733333333","6500500","新莊區"
"242053","172-VK","2019/08/24 20:39:30","新北市新莊區西盛街324巷10號","121.427581666667","25.014765","6500500","新莊區"
"242015","173-VK","2019/08/24 20:39:43","新北市新莊區中和街24號","121.448238333333","25.0436566666667","6500500","新莊區"
"242021","175-VK","2019/08/24 20:39:25","新北市新莊區中正路210號","121.449073333333","25.0354566666667","6500500","新莊區"
"242019","346-TH","2019/08/24 20:39:43","新北市新莊區銘德街139號","121.454773333333","25.042875","6500500","新莊區"
"242034","347-TH","2019/08/24 20:39:27","新北市新莊區中正路334巷19號","121.445635","25.0356683333333","6500500","新莊區"
"242031","348-TH","2019/08/24 20:39:45","新北市新莊區三和路60-19號","121.437835","25.0418433333333","6500500","新莊區"
"242007","349-TH","2019/08/24 20:39:31","新北市新莊區思源路287巷2弄14號","121.459455","25.0486416666667","6500500","新莊區"
"242017","351-TH","2019/08/24 20:39:33","新北市新莊區中港三街116號","121.448035","25.046025","6500500","新莊區"
"221008","489-VK","2019/08/24 20:39:41","新北市汐止區康寧街523-1號","121.63356","25.0687316666667","6501100","汐止區"
"221036","130-UY","2019/08/24 20:39:27","新北市汐止區新昌路9號","121.662025","25.067185","6501100","汐止區"
"221015","131-UY","2019/08/24 20:39:37","新北市汐止區建成路37巷1號","121.663698333333","25.0728266666667","6501100","汐止區"
"221010","269-BY","2019/08/24 20:39:24","新北市汐止區八連路二段616號","121.625026666667","25.1098033333333","6501100","汐止區"
"221012","278-VK","2019/08/24 20:39:40","新北市汐止區保新街143號","121.688145","25.0700366666667","6501100","汐止區"
"221023","279-VK","2019/08/24 20:39:37","新北市汐止區湖東街19號","121.635513333333","25.072345","6501100","汐止區"
"221032","280-BY","2019/08/24 20:39:28","新北市汐止區民權街二段28號","121.619371666667","25.050075","6501100","汐止區"
"221029","298-VK","2019/08/24 20:39:28","新北市汐止區大同路一段509號","121.6452","25.062475","6501100","汐止區"
"221021","299-VK","2019/08/24 20:39:38","新北市汐止區水源路一段284號","121.654258333333","25.05828","6501100","汐止區"
"221031","353-TW","2019/08/24 20:39:38","新北市汐止區中興路110巷34號","121.634296666667","25.064675","6501100","汐止區"
"221025","623-UM","2019/08/24 20:39:36","新北市汐止區水源路二段185號","121.657806666667","25.0535383333333","6501100","汐止區"
"221033","647-BX","2019/08/24 20:39:09","新北市汐止區合順街18巷8弄5號","121.620356666667","25.041935","6501100","汐止區"
"221002","707-TV","2019/08/24 20:39:39","新北市汐止區福德二路124號","121.631173333333","25.0655933333333","6501100","汐止區"
"221018","753-BX","2019/08/24 20:39:00","新北市汐止區茄苳路70號","121.666731666667","25.0706616666667","6501100","汐止區"
"220083","286-VK","2019/08/24 20:39:42","新北市板橋區僑中二街106巷2號","121.44579","25.007605","6500100","板橋區"
"220084","296-UM","2019/08/24 20:39:43","新北市樹林區柑園街一段1-2號","121.407986666667","24.9599916666667","6500100","板橋區"
"242044","281-VK","2019/08/24 20:39:45","新北市新莊區龍安路90號","121.417603333333","25.02076","6500500","新莊區"
"242009","280-VK","2019/08/24 20:39:44","新北市新莊區昌隆街67號","121.457063333333","25.0510183333333","6500500","新莊區"
