"lineid","car","time","location","longitude","latitude","cityid","cityname"
"241007","742-BX","2019/08/24 21:49:28","新北市八里區中山路三段382號","121.368593333333","25.135885","6500200","三重區"
"251004","009-UM","2019/08/24 21:49:34","新北市淡水區自強路201巷39號","121.462148333333","25.1268","6501000","淡水區"
"251005","010-UM","2019/08/24 21:49:25","新北市淡水區鄧公路30巷27號","121.453521666667","25.169865","6501000","淡水區"
"251010","012-UM","2019/08/24 21:49:31","新北市淡水區中正路二段206號","121.426226666667","25.1891033333333","6501000","淡水區"
"251008","181-VK","2019/08/24 21:49:33","新北市淡水區學府路104號","121.449813333333","25.1717816666667","6501000","淡水區"
"251007","182-VK","2019/08/24 21:49:33","新北市淡水區水源街二段177巷51號","121.452051666667","25.177185","6501000","淡水區"
"251012","441-VK","2019/08/24 21:49:30","新北市淡水區淡金路三段333號","121.44886","25.2064066666667","6501000","淡水區"
"251001","559-UM","2019/08/24 21:49:24","新北市淡水區新市二路三段152號","121.43536","25.1942883333333","6501000","淡水區"
"251006","561-UM","2019/08/24 21:41:58","新北市淡水區中正路11巷3號","121.437856666667","25.17075","6501000","淡水區"
"251011","650-BX","2019/08/24 21:49:28","新北市淡水區新民街322巷5弄1號","121.436178333333","25.1830116666667","6501000","淡水區"
"251002","672-BX","2019/08/24 21:49:46","新北市淡水區大忠街126號","121.447023333333","25.17704","6501000","淡水區"
"251003","766-UM","2019/08/24 21:49:35","新北市淡水區新春街83號","121.438803333333","25.1824583333333","6501000","淡水區"
