"lineid","car","time","location","longitude","latitude","cityid","cityname"
"244005","248-BX","2019/12/14 08:29:38","新北市林口區瑞平里33-1號","121.348468333333","25.12815","6501700","林口區"
"222007","289-BY","2019/12/14 08:29:39","新北市深坑區昇高坑路33號","121.628268333333","24.9989733333333","6501800","深坑區"
"231007","189-VK","2019/12/14 08:29:24","新北市新店區新潭路一段100-3號","121.527221666667","24.9377833333333","6500600","新店區"
"231008","192-VK","2019/12/14 08:29:40","新北市新店區新烏路三段165巷20號","121.553098333333","24.9012933333333","6500600","新店區"
"223003","205-TH","2019/12/14 08:29:38","新北市石碇區北宜路六段塗潭巷21號","121.650916666667","24.9337383333333","6501900","石碇區"
"223008","406-TH","2019/12/14 08:29:23","新北市石碇區串空湖7-1號","121.670746666667","25.00148","6501900","石碇區"
"223001","592-UM","2019/12/14 08:29:24","新北市石碇區北宜路六段塗潭巷47-1號","121.651515","24.9342633333333","6501900","石碇區"
"223004","660-BX","2019/12/14 08:29:29","新北市石碇區石碇東街20號","121.660583333333","24.9909316666667","6501900","石碇區"
"223007","661-BX","2019/12/14 08:29:28","新北市石碇區靜安路一段160號","121.665055","25.0072316666667","6501900","石碇區"
"223005","677-TV","2019/12/14 08:29:26","新北市石碇區碇坪路一段79號","121.660495","24.9910433333333","6501900","石碇區"
"227004","030-BX","2019/12/14 08:29:40","新北市雙溪區平林里竹寮坑10號","121.844071666667","25.04436","6502500","雙溪區"
"252004","249-BX","2019/12/14 08:29:32","新北市三芝區興華里車埕9-1號","121.502211666667","25.200125","6502100","三芝區"
"252007","AAC-283","2019/12/14 08:29:26","新北市三芝區後厝里番子崙17-3號","121.479688333333","25.2389033333333","6502100","三芝區"
"233003","KEA-2870","2019/12/14 08:29:38","新北市烏來區信福路2巷2號","121.537903333333","24.84076","6502900","烏來區"
