"lineid","car","time","location","longitude","latitude","cityid","cityname"
"222007","289-BY","2019/12/14 09:43:38","新北市深坑區阿柔洋60-1號","121.608038333333","24.9986316666667","6501800","深坑區"
"231007","189-VK","2019/12/14 09:43:24","新北市新店區新潭路三段190號","121.508166666667","24.9054683333333","6500600","新店區"
"231008","192-VK","2019/12/14 09:43:40","新北市新店區平廣路一段7號","121.53757","24.907835","6500600","新店區"
"223003","205-TH","2019/12/14 09:43:38","新北市石碇區內楒仔腳1-3號","121.632473333333","24.96817","6501900","石碇區"
"227004","030-BX","2019/12/14 09:43:39","新北市雙溪區長源里柑腳52-2號","121.794636666667","25.0089966666667","6502500","雙溪區"
"252004","249-BX","2019/12/14 09:38:51","新北市三芝區圓山里石曹子坑44-1號","121.517241666667","25.2164683333333","6502100","三芝區"
"252007","AAC-283","2019/12/14 09:43:26","新北市三芝區新庄里新庄子95-8號","121.513958333333","25.274365","6502100","三芝區"
"233003","KEA-2870","2019/12/14 09:43:38","新北市烏來區屯鹿4號","121.51374","24.8143883333333","6502900","烏來區"
