"lineid","car","time","location","longitude","latitude","cityid","cityname"
"234044","148-BY","2019/12/14 13:43:40","新北市永和區成功路一段80號","121.526243333333","25.003165","6500400","永和區"
"234078","298-R6","2019/12/14 13:43:46","新北市永和區永亨路98號","121.523053333333","25.004885","6500400","永和區"
"234036","336-UY","2019/12/14 13:43:43","新北市永和區環河東路四段22號","121.528576666667","24.9995866666667","6500400","永和區"
"234062","337-UY","2019/12/14 13:43:47","新北市永和區秀朗路一段192巷6弄12號","121.519023333333","25.00228","6500400","永和區"
"234084","338-UY","2019/12/14 13:43:45","新北市永和區永亨路151號","121.525611666667","25.003895","6500400","永和區"
"234068","552-UM","2019/12/14 13:43:41","新北市永和區永和路二段217號","121.515475","25.01404","6500400","永和區"
"234015","745-BX","2019/12/14 13:43:46","新北市永和區忠孝街26巷8號","121.515455","25.0166716666667","6500400","永和區"
"234028","746-BX","2019/12/14 13:43:45","新北市永和區四維街103巷2號","121.523886666667","24.9978866666667","6500400","永和區"
"234052","KEA-2590","2019/12/14 13:43:40","新北市永和區竹林路55號","121.518296666667","25.0137933333333","6500400","永和區"
"234005","KED-0605","2019/12/14 13:43:33","新北市永和區中山路一段4號","121.514291666667","25.0103733333333","6500400","永和區"
"234012","KEA-2591","2019/12/14 13:43:28","新北市永和區仁愛路188號","121.509798333333","25.012565","6500400","永和區"
"234060","AAD-866","2019/12/14 13:43:33","新北市永和區中正路354號","121.517678333333","25.000545","6500400","永和區"
"234040","862-TW","2019/12/14 13:43:43","新北市永和區中和路305巷16弄22號","121.507051666667","25.00098","6500400","永和區"
"234048","863-TW","2019/12/14 13:43:35","新北市永和區保安路13號","121.510448333333","25.016925","6500400","永和區"
"234010","9373-KE","2019/12/14 13:43:42","新北市永和區保福路二段163巷12號","121.508951666667","25.0146783333333","6500400","永和區"
"248017","KED-0813","2019/12/14 13:43:29","新北市五股區民義路二段41號","121.41384","25.1014633333333","6501500","五股區"
"234022","9380-KE","2019/12/14 13:43:30","新北市永和區中正路662巷25號","121.51769","25.0089316666667","6500400","永和區"
"234076","969-R7","2019/12/14 13:43:39","新北市永和區民族街27巷9號","121.51934","24.9996433333333","6500400","永和區"
"234072","AAC-211","2019/12/14 13:43:20","新北市永和區竹林路179巷17弄1號","121.521125","25.009915","6500400","永和區"
"234066","AAC-212","2019/12/14 13:43:34","新北市永和區永平路173巷12號","121.510303333333","25.0087083333333","6500400","永和區"
"234001","AAC-295","2019/12/14 13:43:37","新北市永和區自由街67號","121.513688333333","25.0053233333333","6500400","永和區"
"244005","248-BX","2019/12/14 13:43:44","新北市林口區嘉寶里15鄰43號","121.340931666667","25.1072583333333","6501700","林口區"
"231030","002-UM","2019/12/14 13:43:47","新北市新店區安康路一段52巷2號","121.530056666667","24.961175","6500600","新店區"
"231024","0291-UT","2019/12/14 13:43:41","新北市新店區華興街36號","121.53707","24.9690016666667","6500600","新店區"
"231027","0293-UT","2019/12/14 13:43:31","新北市新店區新店路4號","121.538918333333","24.9523233333333","6500600","新店區"
"231005","046-UY","2019/12/14 13:43:37","新北市新店區寶中路85號","121.547856666667","24.980685","6500600","新店區"
"231004","047-UY","2019/12/14 13:43:39","新北市新店區北新路二段65號","121.542921666667","24.9733983333333","6500600","新店區"
"231029","106-UY","2019/12/14 13:43:37","新北市新店區安康路二段156號","121.512355","24.9608866666667","6500600","新店區"
"231018","107-UY","2019/12/14 13:43:44","新北市新店區百忍街38號","121.533738333333","24.975845","6500600","新店區"
"231013","108-UY","2019/12/14 13:43:30","新北市新店區二十張路58號","121.536906666667","24.980335","6500600","新店區"
"231036","110-UY","2019/12/14 13:43:27","新北市新店區安祥路145巷13號","121.475031666667","24.9559533333333","6500600","新店區"
"231017","KEA-2219","2019/12/14 13:43:31","新北市新店區竹林路2巷19號","121.550283333333","24.9512566666667","6500600","新店區"
"231033","256-BX","2019/12/14 13:43:45","新北市新店區安康路一段94號","121.527758333333","24.9621716666667","6500600","新店區"
"231023","260-TV","2019/12/14 13:43:40","新北市新店區新店路183號","121.537073333333","24.9560233333333","6500600","新店區"
"231003","268-BY","2019/12/14 13:43:35","新北市新店區中興路一段222號","121.543885","24.9659866666667","6500600","新店區"
"231035","278-BY","2019/12/14 13:43:33","新北市新店區安忠路57巷1-8號","121.513483333333","24.95927","6500600","新店區"
"231006","355-BY","2019/12/14 13:43:31","新北市新店區北宜路一段66號","121.538461666667","24.9559283333333","6500600","新店區"
"231038","3712-VJ","2019/12/14 13:43:50","新北市新店區安華路30巷1號","121.519586666667","24.9592783333333","6500600","新店區"
"231025","4715-K9","2019/12/14 13:43:42","新北市新店區中央路208號","121.530205","24.97395","6500600","新店區"
"231002","619-UM","2019/12/14 13:43:33","新北市新店區中央三街127號","121.524048333333","24.9768233333333","6500600","新店區"
"231034","641-BX","2019/12/14 13:43:48","新北市新店區達觀路14巷7號","121.503341666667","24.9430716666667","6500600","新店區"
"231012","KED-0819","2019/12/14 13:43:45","新北市新店區德正街27巷29弄61號","121.545745","24.9722533333333","6500600","新店區"
"231020","718-UY","2019/12/14 13:43:29","新北市新店區永興路7號","121.544921666667","24.9395716666667","6500600","新店區"
"231010","719-UM","2019/12/14 13:43:40","新北市新店區平等街63號","121.535961666667","24.9725683333333","6500600","新店區"
"231026","720-UM","2019/12/14 13:43:33","新北市新店區光明街197號","121.539856666667","24.96356","6500600","新店區"
"231028","897-TW","2019/12/14 13:43:49","新北市新店區安和路二段3-5號","121.518101666667","24.967235","6500600","新店區"
"231001","898-TW","2019/12/14 13:43:39","新北市新店區中正路404號","121.534471666667","24.97753","6500600","新店區"
"231037","AKT-0513","2019/12/14 13:43:35","新北市新店區安康路三段359巷12弄5號","121.484291666667","24.949695","6500600","新店區"
"235030","003-UY","2019/12/14 13:43:39","新北市中和區水源路34巷6號","121.504665","25.0031766666667","6500300","中和區"
"235028","005-UY","2019/12/14 13:43:47","新北市中和區連城路47巷8號","121.497966666667","25.0014066666667","6500300","中和區"
"235027","006-UY","2019/12/14 13:43:46","新北市中和區錦和路111-1號","121.490175","24.995125","6500300","中和區"
"235020","096-UM","2019/12/14 13:43:42","新北市中和區新民街94巷18號","121.481368333333","25.0091616666667","6500300","中和區"
"235003","097-UM","2019/12/14 13:43:47","新北市中和區大勇街25巷38弄13號","121.516228333333","24.9941933333333","6500300","中和區"
"235029","098-UM","2019/12/14 13:43:45","新北市中和區中山路二段2巷41號","121.502625","25.00692","6500300","中和區"
"235004","150-BY","2019/12/14 13:43:46","新北市中和區安平路38號","121.50983","24.9951516666667","6500300","中和區"
"235022","151-BY","2019/12/14 13:43:28","新北市中和區員山路65號","121.480816666667","24.9937666666667","6500300","中和區"
"235019","183-VK","2019/12/14 13:43:35","新北市中和區民生街72號","121.468645","25.0048066666667","6500300","中和區"
"235002","185-VK","2019/12/14 13:43:39","新北市中和區立人街14巷52號","121.518416666667","24.9956583333333","6500300","中和區"
"235031","255-BX","2019/12/14 13:43:49","新北市中和區新生街220巷3號","121.48336","24.99845","6500300","中和區"
"235008","293-VK","2019/12/14 13:43:32","新北市中和區復興路280巷48號","121.500986666667","24.9920216666667","6500300","中和區"
"235036","301-VK","2019/12/14 13:43:34","新北市中和區中山路二段134-7號","121.501956666667","25.0034166666667","6500300","中和區"
"235007","352-BY","2019/12/14 13:43:49","新北市中和區景平路37號","121.522045","24.9905183333333","6500300","中和區"
"235006","KEA-2878","2019/12/14 13:43:45","新北市中和區秀朗路三段135巷7弄7號","121.525676666667","24.9919616666667","6500300","中和區"
"235014","4979-A6","2019/12/14 13:43:41","新北市中和區景新街496巷35弄1號","121.513538333333","24.9857","6500300","中和區"
"235033","4980-A6","2019/12/14 13:43:43","新北市中和區南山路111巷3號","121.502601666667","24.9977916666667","6500300","中和區"
"235032","551-UM","2019/12/14 13:43:34","新北市中和區圓通路265巷29號","121.496143333333","24.9925716666667","6500300","中和區"
"235034","558-UM","2019/12/14 13:43:40","新北市中和區中和路241號","121.504616666667","24.9998683333333","6500300","中和區"
"235009","565-BX","2019/12/14 13:43:48","新北市中和區復興路65號","121.503916666667","24.990225","6500300","中和區"
"235024","KED-0823","2019/12/14 13:43:32","新北市中和區民治街10巷1號","121.475078333333","25.0046166666667","6500300","中和區"
"235018","640-BX","2019/12/14 13:43:45","新北市中和區民享街30巷1號","121.474063333333","25.0034633333333","6500300","中和區"
"235035","647-TV","2019/12/14 13:43:44","新北市中和區立言街48號","121.488258333333","25.00674","6500300","中和區"
"235011","732-UM","2019/12/14 13:43:47","新北市中和區興南路二段74巷8號","121.505233333333","24.984655","6500300","中和區"
"235010","733-UM","2019/12/14 13:43:39","新北市中和區仁愛街36巷44號","121.511361666667","24.986355","6500300","中和區"
"235073","800-TS","2019/12/14 13:43:37","新北市中和區中山路二段344號","121.493518333333","25.0026","6500300","中和區"
"235021","801-TS","2019/12/14 13:43:45","新北市中和區民安街53-5號","121.47938","24.9996016666667","6500300","中和區"
"235005","802-TS","2019/12/14 13:43:35","新北市中和區永貞路249巷18號","121.512438333333","25.003635","6500300","中和區"
"235016","805-TS","2019/12/14 13:40:59","新北市中和區興南路三段83號","121.491151666667","24.97384","6500300","中和區"
"235012","896-TW","2019/12/14 13:43:29","新北市中和區南山路273號","121.504023333333","24.9924783333333","6500300","中和區"
"235017","900-TW","2019/12/14 13:43:38","新北市中和區華福街3號","121.465251666667","24.9970616666667","6500300","中和區"
"235015","157-BY","2019/12/14 13:43:31","新北市中和區工專路137號","121.508683333333","24.9792566666667","6500300","中和區"
"235001","AAC-213","2019/12/14 13:43:39","新北市中和區自立路99巷36弄9號","121.523973333333","24.99424","6500300","中和區"
"235023","AAC-215","2019/12/14 13:43:47","新北市中和區錦和路354巷5號","121.490241666667","24.9915283333333","6500300","中和區"
"220002","015-TV","2019/12/14 13:43:43","新北市板橋區南雅南路二段1-1號","121.454765","25.003745","6500100","板橋區"
"220034","073-UY","2019/12/14 13:43:39","新北市板橋區華東街328號","121.452793333333","25.00329","6500100","板橋區"
"220105","075-UY","2019/12/14 13:43:41","新北市板橋區民生路二段228號","121.46904","25.0219633333333","6500100","板橋區"
"220017","AAD-861","2019/12/14 13:43:45","新北市板橋區館前西路46巷2號","121.458953333333","25.0070616666667","6500100","板橋區"
"247005","893-R6","2019/12/14 13:43:42","新北市蘆洲區中山二路280號","121.468946666667","25.078015","6501400","蘆洲區"
"247003","500-BY","2019/12/14 13:43:44","新北市蘆洲區中原路21巷1號","121.460675","25.0826366666667","6501400","蘆洲區"
"247013","056-VK","2019/12/14 13:43:38","新北市蘆洲區三民路378號","121.464186666667","25.091575","6501400","蘆洲區"
"235013","251-BX","2019/12/14 13:43:36","新北市中和區景安路177巷9號","121.505748333333","24.9943666666667","6500300","中和區"
"228005","097-TW","2019/12/14 13:43:26","新北市貢寮區美豐里文秀坑2-3號","121.899465","25.05452","6502600","貢寮區"
"228004","212-TW","2019/12/14 13:43:31","新北市貢寮區龍崗里嵩陽街8號","121.901878333333","25.0108416666667","6502600","貢寮區"
"253003","6232-TK","2019/12/14 13:43:40","新北市石門區內石門14-3號","121.573126666667","25.27708","6502200","石門區"
"253004","6251-TK","2019/12/14 13:43:49","新北市石門區草埔尾28號","121.603396666667","25.2647216666667","6502200","石門區"
"253002","637-UY","2019/12/14 13:43:42","新北市石門區九芎林36-1號","121.565996666667","25.25248","6502200","石門區"
"253001","KEC-0718","2019/12/14 13:43:38","新北市石門區八甲60-5號","121.526433333333","25.271555","6502200","石門區"
"207002","749-BX","2019/12/14 13:43:40","新北市萬里區崁腳里崁腳路166號","121.645096666667","25.1558666666667","6502800","萬里區"
"207001","662-BX","2019/12/14 13:43:35","新北市萬里區大鵬里萬里加投64號","121.641278333333","25.212915","6502800","萬里區"
"252005","AAC-283","2019/12/14 13:43:47","新北市三芝區圓山里木屐寮38號","121.529761666667","25.2259583333333","6502100","三芝區"
"236040","KED-0685","2019/12/14 13:43:35","新北市土城區城林路6巷80號","121.438546666667","24.9797266666667","6501300","土城區"
"236029","253-BX","2019/12/14 13:43:38","新北市土城區城林路6巷80號","121.438461666667","24.9798333333333","6501300","土城區"
"236013","270-VK","2019/12/14 13:43:32","新北市土城區城林路6巷80號","121.438526666667","24.9797933333333","6501300","土城區"
"236032","271-VK","2019/12/14 13:43:28","新北市土城區城林路6巷80號","121.438505","24.9798","6501300","土城區"
"247011","KED-0683","2019/12/14 13:43:45","新北市五股區中興路三段163號","121.44937","25.080675","6501400","蘆洲區"
"236068","KEA-2877","2019/12/14 13:43:27","新北市土城區城林路6巷80號","121.438675","24.9796983333333","6501300","土城區"
"236017","401-BY","2019/12/14 13:43:47","新北市土城區城林路6巷80號","121.438665","24.9798166666667","6501300","土城區"
"236057","912-UM","2019/12/14 13:43:44","新北市土城區城林路6巷80號","121.43838","24.9797633333333","6501300","土城區"
"236045","913-UM","2019/12/14 13:43:45","新北市土城區城林路6巷80號","121.438466666667","24.9797666666667","6501300","土城區"
"236060","915-UM","2019/12/14 13:43:46","新北市土城區城林路6巷80號","121.438436666667","24.9797733333333","6501300","土城區"
"220027","145-BY","2019/12/14 13:43:33","新北市板橋區南雅西路二段175巷4號","121.451748333333","25.012635","6500100","板橋區"
"220028","200-UY","2019/12/14 13:43:44","新北市板橋區大觀路二段265巷76弄27號","121.441518333333","24.9966766666667","6500100","板橋區"
"220030","610-BX","2019/12/14 13:43:33","新北市板橋區篤行路二段71號","121.431758333333","24.9920483333333","6500100","板橋區"
"220050","245-BX","2019/12/14 13:43:46","新北市板橋區民生路二段234巷9號","121.46844","25.0228616666667","6500100","板橋區"
"220004","276-BY","2019/12/14 13:43:36","新北市板橋區四川路一段205號","121.460071666667","25.003615","6500100","板橋區"
"220020","277-BY","2019/12/14 13:43:48","新北市板橋區金門街31巷38號","121.433813333333","24.9934233333333","6500100","板橋區"
"220019","283-VK","2019/12/14 13:43:39","新北市板橋區四川路一段282號","121.458713333333","25.0008966666667","6500100","板橋區"
"220107","286-VK","2019/12/14 13:43:47","新北市板橋區大觀路二段20號","121.446738333333","25.0034116666667","6500100","板橋區"
"220029","287-VK","2019/12/14 13:43:40","新北市板橋區南雅東路89號","121.453093333333","25.008635","6500100","板橋區"
"220039","288-VK","2019/12/14 13:43:38","新北市板橋區民生路三段107號","121.466511666667","25.0252766666667","6500100","板橋區"
"220009","293-UM","2019/12/14 13:43:41","新北市板橋區太和街4巷3號","121.474008333333","25.019845","6500100","板橋區"
"220041","295-UM","2019/12/14 13:43:30","新北市板橋區漢生東路31號","121.4653","25.0169916666667","6500100","板橋區"
"220032","296-UM","2019/12/14 13:43:43","新北市板橋區大觀路二段174巷102弄19-1號","121.441666666667","25.0012633333333","6500100","板橋區"
"220023","303-R5","2019/12/14 13:43:39","新北市板橋區華東街270號","121.452615","25.0016733333333","6500100","板橋區"
"220010","305-R5","2019/12/14 13:43:37","新北市板橋區民生路二段120號","121.470431666667","25.0195716666667","6500100","板橋區"
"220047","317-R6","2019/12/14 13:43:38","新北市板橋區民生路二段56-6號","121.47093","25.01906","6500100","板橋區"
"220110","487-VK","2019/12/14 13:43:38","新北市板橋區民生路二段232-14號","121.468788333333","25.0223133333333","6500100","板橋區"
"220037","491-VK","2019/12/14 13:43:39","新北市板橋區民生路二段120號","121.470425","25.01957","6500100","板橋區"
"220104","560-BX","2019/12/14 13:43:28","新北市板橋區南雅西路二段301巷27號","121.451776666667","25.0162033333333","6500100","板橋區"
"220052","561-BX","2019/12/14 13:43:46","新北市板橋區縣民大道三段32號","121.471471666667","25.018605","6500100","板橋區"
"220013","568-UM","2019/12/14 13:43:35","新北市板橋區成都街20巷1號","121.461201666667","25.004625","6500100","板橋區"
"220109","609-BX","2019/12/14 13:43:45","新北市板橋區中山路二段37號","121.473145","25.0157733333333","6500100","板橋區"
"220022","630-UY","2019/12/14 13:43:34","新北市板橋區南門街34號","121.457113333333","25.00844","6500100","板橋區"
"220005","686-BX","2019/12/14 13:43:37","新北市板橋區館前東路56號","121.460966666667","25.0073233333333","6500100","板橋區"
"220025","687-BX","2019/12/14 13:43:40","新北市板橋區大觀路三段129號","121.432643333333","24.994145","6500100","板橋區"
"220051","KEA-2699","2019/12/14 13:43:41","新北市板橋區民生路二段120號","121.47043","25.0196083333333","6500100","板橋區"
"220003","827-TW","2019/12/14 13:43:47","新北市板橋區忠孝路91號","121.462238333333","25.0022683333333","6500100","板橋區"
"220016","830-TW","2019/12/14 13:43:30","新北市板橋區大同街22號","121.477658333333","25.0270666666667","6500100","板橋區"
"220108","985-R7","2019/12/14 13:43:35","新北市板橋區館前西路87號","121.457276666667","25.0071966666667","6500100","板橋區"
"220046","AAC-210","2019/12/14 13:43:30","新北市板橋區民生路二段120號","121.470483333333","25.0198866666667","6500100","板橋區"
"220012","AAC-253","2019/12/14 13:43:34","新北市板橋區中山路一段293-1號","121.470738333333","25.01443","6500100","板橋區"
"235025","KEA-2875","2019/12/14 13:43:24","新北市中和區民享街69巷2號","121.474366666667","25.0021866666667","6500300","中和區"
