"lineid","car","time","location","longitude","latitude","cityid","cityname"
"234044","148-BY","2019/12/14 14:13:34","新北市永和區永元路2號","121.5219","24.99977","6500400","永和區"
"234078","298-R6","2019/12/14 14:13:47","新北市永和區福和路7巷14弄11號","121.524905","25.0073866666667","6500400","永和區"
"234036","336-UY","2019/12/14 14:13:43","新北市永和區環河東路三段96號","121.52819","25.00409","6500400","永和區"
"234062","337-UY","2019/12/14 14:13:33","新北市永和區得和路259號","121.521361666667","24.999875","6500400","永和區"
"234084","338-UY","2019/12/14 14:13:45","新北市永和區中正路529號","121.516845","25.00774","6500400","永和區"
"234068","552-UM","2019/12/14 14:13:41","新北市永和區永亨路31號","121.519678333333","25.0062016666667","6500400","永和區"
"234015","745-BX","2019/12/14 14:13:42","新北市永和區仁愛路97號","121.512863333333","25.0130766666667","6500400","永和區"
"234028","746-BX","2019/12/14 14:13:45","新北市永和區民權路51號","121.520085","24.9971316666667","6500400","永和區"
"234052","KEA-2590","2019/12/14 14:13:32","新北市永和區博愛街9號","121.51698","25.015845","6500400","永和區"
"234005","KED-0605","2019/12/14 14:13:33","新北市中和區保平路300號","121.507786666667","25.0043883333333","6500400","永和區"
"234012","KEA-2591","2019/12/14 14:13:48","新北市永和區保生路5巷1號","121.506056666667","25.0071633333333","6500400","永和區"
"234060","AAD-866","2019/12/14 14:13:33","新北市永和區中正路151巷1-1號","121.516328333333","24.99831","6500400","永和區"
"234040","862-TW","2019/12/14 14:13:43","新北市永和區中和路463號","121.510071666667","25.0015533333333","6500400","永和區"
"234048","863-TW","2019/12/14 14:13:35","新北市永和區新生路2-7號","121.509346666667","25.01696","6500400","永和區"
"234025","9371-KE","2019/12/14 14:13:46","新北市永和區安樂路198巷3號","121.515523333333","25.0019733333333","6500400","永和區"
"248017","KED-0813","2019/12/14 14:13:49","新北市五股區民義路一段255-6號","121.42608","25.0914316666667","6501500","五股區"
"234022","9380-KE","2019/12/14 14:13:36","新北市永和區竹林路25巷21號","121.51811","25.014995","6500400","永和區"
"234076","969-R7","2019/12/14 14:13:38","新北市永和區民族街81巷3號","121.51879","24.9966366666667","6500400","永和區"
"234072","AAC-211","2019/12/14 14:13:40","新北市永和區福和路14號","121.524353333333","25.008435","6500400","永和區"
"234066","AAC-212","2019/12/14 14:13:48","新北市永和區保平路268巷26號","121.507646666667","25.0063283333333","6500400","永和區"
"234001","AAC-295","2019/12/14 14:13:37","新北市永和區中正路609巷1號","121.516273333333","25.009495","6500400","永和區"
"244005","248-BX","2019/12/14 14:13:44","新北市林口區文化一路二段305號","121.38578","25.08582","6501700","林口區"
"231030","002-UM","2019/12/14 14:13:32","新北市新店區安民街115巷28號","121.515095","24.9675666666667","6500600","新店區"
"231027","0293-UT","2019/12/14 14:13:32","新北市新店區中興路一段34號","121.538713333333","24.9586533333333","6500600","新店區"
"231005","046-UY","2019/12/14 14:13:37","新北市新店區中興路三段221-2號","121.543418333333","24.9825583333333","6500600","新店區"
"231004","047-UY","2019/12/14 14:13:39","新北市新店區北新路二段13號","121.542666666667","24.9714533333333","6500600","新店區"
"231029","106-UY","2019/12/14 14:13:37","新北市新店區安康路二段161號","121.510216666667","24.959335","6500600","新店區"
"231018","107-UY","2019/12/14 14:13:44","新北市新店區中央五街44號","121.528211666667","24.9750883333333","6500600","新店區"
"231013","108-UY","2019/12/14 14:13:30","新北市新店區北新路三段49號","121.541791666667","24.9805016666667","6500600","新店區"
"231036","110-UY","2019/12/14 14:13:48","新北市新店區安祥路109巷85弄42號","121.478723333333","24.9596616666667","6500600","新店區"
"231017","KEA-2219","2019/12/14 14:13:31","新北市新店區中生路170巷18號","121.57138","24.9488066666667","6500600","新店區"
"231033","256-BX","2019/12/14 14:13:45","新北市新店區永業路51巷2號","121.531888333333","24.954725","6500600","新店區"
"231023","260-TV","2019/12/14 14:13:40","新北市新店區文中路40號","121.539661666667","24.956525","6500600","新店區"
"231003","268-BY","2019/12/14 14:13:35","新北市新店區中興路一段168號","121.542781666667","24.9643866666667","6500600","新店區"
"231035","278-BY","2019/12/14 14:13:33","新北市新店區安和路二段115號","121.518605","24.9704383333333","6500600","新店區"
"231006","355-BY","2019/12/14 14:13:31","新北市新店區北宜路二段82-10號","121.554438333333","24.95348","6500600","新店區"
"231038","3712-VJ","2019/12/14 14:13:29","新北市新店區安康路一段11號","121.533403333333","24.9603133333333","6500600","新店區"
"231025","4715-K9","2019/12/14 14:13:42","新北市新店區自立街34號","121.538438333333","24.9785283333333","6500600","新店區"
"231002","619-UM","2019/12/14 14:13:33","新北市新店區中正路472號","121.533985","24.9809383333333","6500600","新店區"
"231034","641-BX","2019/12/14 14:13:28","新北市新店區車子路11號","121.502873333333","24.9516716666667","6500600","新店區"
"231012","KED-0819","2019/12/14 14:13:45","新北市新店區五峰路63巷8弄42號","121.547863333333","24.9686366666667","6500600","新店區"
"231020","718-UY","2019/12/14 14:13:29","新北市新店區櫻花街206號","121.548068333333","24.91939","6500600","新店區"
"231026","720-UM","2019/12/14 14:13:33","新北市新店區安康路一段355-10號","121.520865","24.9639116666667","6500600","新店區"
"231028","897-TW","2019/12/14 14:13:29","新北市新店區安和路二段251號","121.516478333333","24.9780066666667","6500600","新店區"
"231001","898-TW","2019/12/14 14:13:39","新北市新店區中華路38號","121.540001666667","24.9680733333333","6500600","新店區"
"231037","AKT-0513","2019/12/14 14:13:35","新北市新店區安康路二段341巷21號","121.49713","24.954585","6500600","新店區"
"235030","003-UY","2019/12/14 14:13:46","新北市中和區枋寮街2號","121.502461666667","24.9997883333333","6500300","中和區"
"235028","005-UY","2019/12/14 14:13:47","新北市中和區南山路81巷61-1號","121.504225","24.9978083333333","6500300","中和區"
"235027","006-UY","2019/12/14 14:13:46","新北市中和區連勝街151號","121.494431666667","24.996365","6500300","中和區"
"235020","096-UM","2019/12/14 14:13:42","新北市中和區員山路458號","121.479955","25.00624","6500300","中和區"
"235003","097-UM","2019/12/14 14:13:47","新北市中和區秀峰街103巷7弄2號","121.519978333333","24.9895533333333","6500300","中和區"
"235029","098-UM","2019/12/14 14:13:45","新北市中和區中山路二段2巷13弄13號","121.503513333333","25.0065266666667","6500300","中和區"
"235004","150-BY","2019/12/14 14:13:46","新北市中和區宜安路47巷2號","121.511706666667","24.9964","6500300","中和區"
"235022","151-BY","2019/12/14 14:13:48","新北市中和區連城路469巷31號","121.48355","24.99476","6500300","中和區"
"235019","183-VK","2019/12/14 14:13:35","新北市中和區中山路三段181巷20號","121.47298","25.00535","6500300","中和區"
"235002","185-VK","2019/12/14 14:13:39","新北市中和區大仁街10巷18號","121.51874","24.99251","6500300","中和區"
"235031","255-BX","2019/12/14 14:13:29","新北市中和區連城路314號","121.483551666667","24.9961733333333","6500300","中和區"
"235008","293-VK","2019/12/14 14:13:32","新北市中和區中興街239號","121.50046","24.989225","6500300","中和區"
"235036","301-VK","2019/12/14 14:13:34","新北市中和區永和路1-2號","121.499813333333","25.003045","6500300","中和區"
"235007","352-BY","2019/12/14 14:13:29","新北市中和區景平路274-1號","121.514283333333","24.9926716666667","6500300","中和區"
"235006","KEA-2878","2019/12/14 14:13:45","新北市永和區民有街100號","121.517828333333","24.9956383333333","6500300","中和區"
"247015","KEA-2869","2019/12/14 14:13:48","新北市蘆洲區光華路68號","121.468068333333","25.0828833333333","6501400","蘆洲區"
"247009","KED-0682","2019/12/14 14:13:48","新北市蘆洲區信義路170號","121.47926","25.08384","6501400","蘆洲區"
"235014","4979-A6","2019/12/14 14:13:38","新北市中和區復興路280巷36弄10號","121.501691666667","24.9921966666667","6500300","中和區"
"235033","4980-A6","2019/12/14 14:13:43","新北市中和區景平路736巷1弄1號","121.497033333333","25.0039666666667","6500300","中和區"
"235032","551-UM","2019/12/14 14:13:34","新北市中和區景平路493巷11號","121.49952","24.99727","6500300","中和區"
"235034","558-UM","2019/12/14 14:13:27","新北市中和區圓通路25號","121.501251666667","24.997885","6500300","中和區"
"235009","565-BX","2019/12/14 14:13:28","新北市中和區景新街383巷51號","121.513535","24.990665","6500300","中和區"
"235024","KED-0823","2019/12/14 14:13:32","新北市中和區新生街114巷2號","121.483396666667","25.00249","6500300","中和區"
"235018","640-BX","2019/12/14 14:13:45","新北市中和區國光街102巷11弄1號","121.47061","25.0007466666667","6500300","中和區"
"235035","647-TV","2019/12/14 14:13:44","新北市中和區橋和路81號","121.489493333333","25.005265","6500300","中和區"
"235011","732-UM","2019/12/14 14:13:46","新北市中和區景平路239巷33弄44號","121.50983","24.9913816666667","6500300","中和區"
"235010","733-UM","2019/12/14 14:13:39","新北市中和區華新街170號","121.507341666667","24.9821883333333","6500300","中和區"
"235073","800-TS","2019/12/14 14:13:37","新北市中和區中山路二段350號","121.493101666667","25.0025183333333","6500300","中和區"
"235021","801-TS","2019/12/14 14:13:45","新北市中和區員山路459號","121.480466666667","25.0043733333333","6500300","中和區"
"235005","802-TS","2019/12/14 14:13:35","新北市中和區中安街188號","121.511336666667","24.99941","6500300","中和區"
"235016","805-TS","2019/12/14 14:13:39","新北市中和區興南路二段142巷17弄33號","121.502981666667","24.982855","6500300","中和區"
"235012","896-TW","2019/12/14 14:13:49","新北市中和區華新街109巷24號","121.508516666667","24.9804966666667","6500300","中和區"
"235017","900-TW","2019/12/14 14:13:28","新北市中和區民德路206號","121.468101666667","24.9984633333333","6500300","中和區"
"235015","157-BY","2019/12/14 14:13:31","新北市中和區和平街2巷2弄1號","121.510103333333","24.9903283333333","6500300","中和區"
"235001","AAC-213","2019/12/14 14:13:39","新北市中和區自立路15巷8號","121.522948333333","24.9959783333333","6500300","中和區"
"235023","AAC-215","2019/12/14 14:13:47","新北市中和區錦和路195巷1弄1號","121.490885","24.9908316666667","6500300","中和區"
"220002","015-TV","2019/12/14 14:13:43","新北市板橋區四川路一段199號","121.460656666667","25.0036983333333","6500100","板橋區"
"220034","073-UY","2019/12/14 14:13:39","新北市板橋區中正路216巷113號","121.459401666667","25.0193116666667","6500100","板橋區"
"220105","075-UY","2019/12/14 14:13:45","新北市板橋區雙十路三段68巷1號","121.470496666667","25.0321716666667","6500100","板橋區"
"220017","AAD-861","2019/12/14 14:13:45","新北市板橋區華興街33-2號","121.458355","25.00462","6500100","板橋區"
"247005","893-R6","2019/12/14 14:13:42","新北市蘆洲區九芎街15巷12號","121.467886666667","25.0778166666667","6501400","蘆洲區"
"247003","500-BY","2019/12/14 14:13:43","新北市蘆洲區長安街174號","121.45913","25.083375","6501400","蘆洲區"
"247021","341-TH","2019/12/14 14:13:38","新北市蘆洲區三民路300巷2-2號","121.46638","25.0909","6501400","蘆洲區"
"247023","057-VK","2019/12/14 14:13:38","新北市蘆洲區長榮路500號","121.459473333333","25.08972","6501400","蘆洲區"
"247013","056-VK","2019/12/14 14:13:38","新北市蘆洲區中山一路209號","121.474081666667","25.080995","6501400","蘆洲區"
"247017","053-VK","2019/12/14 14:13:49","新北市蘆洲區復興路178號","121.477796666667","25.0884866666667","6501400","蘆洲區"
"247007","002-UY","2019/12/14 14:13:45","新北市蘆洲區中山一路234號","121.47286","25.08026","6501400","蘆洲區"
"247001","001-UY","2019/12/14 14:13:42","新北市蘆洲區長榮路387號","121.459416666667","25.0895633333333","6501400","蘆洲區"
"235013","251-BX","2019/12/14 14:13:36","新北市中和區景新街243號","121.508278333333","24.9943883333333","6500300","中和區"
"228005","097-TW","2019/12/14 14:13:46","新北市貢寮區美豐里土地公嶺4號","121.896303333333","25.0595566666667","6502600","貢寮區"
"228004","212-TW","2019/12/14 14:13:31","新北市貢寮區雙玉里下雙溪街10-3號","121.915475","25.0136566666667","6502600","貢寮區"
"253003","6232-TK","2019/12/14 14:13:40","新北市石門區尖子鹿33-1號","121.581651666667","25.2651366666667","6502200","石門區"
"253004","6251-TK","2019/12/14 14:13:29","新北市石門區內阿里磅6號","121.589543333333","25.2527866666667","6502200","石門區"
"253002","637-UY","2019/12/14 14:13:22","新北市石門區七股31號","121.551665","25.2634116666667","6502200","石門區"
"253001","KEC-0718","2019/12/14 14:13:38","新北市石門區八甲27-1號","121.528386666667","25.2778983333333","6502200","石門區"
"207002","749-BX","2019/12/14 14:13:20","","121.60741","25.1444766666667","6502800","萬里區"
"207001","662-BX","2019/12/14 14:13:35","新北市萬里區磺潭里清水18號","121.637883333333","25.1976833333333","6502800","萬里區"
"252005","AAC-283","2019/12/14 14:13:47","新北市三芝區橫山里橫山49-1號","121.534178333333","25.2573933333333","6502100","三芝區"
"236040","KED-0685","2019/12/14 14:13:35","新北市土城區裕生路88號","121.447173333333","24.98503","6501300","土城區"
"236074","166-UM","2019/12/14 14:13:47","新北市土城區永寧路4號","121.430195","24.9641366666667","6501300","土城區"
"236029","253-BX","2019/12/14 14:13:37","新北市土城區員福街22號","121.441451666667","24.9786433333333","6501300","土城區"
"236024","269-VK","2019/12/14 14:13:45","新北市土城區承天路18號","121.439396666667","24.9636533333333","6501300","土城區"
"236013","270-VK","2019/12/14 14:13:32","新北市土城區青雲路39巷7號","121.460246666667","24.9874383333333","6501300","土城區"
"236032","271-VK","2019/12/14 14:13:27","新北市土城區青雲路453號","121.458685","24.97468","6501300","土城區"
"247011","KED-0683","2019/12/14 14:13:45","新北市蘆洲區信義路300號","121.477485","25.0876166666667","6501400","蘆洲區"
"236068","KEA-2877","2019/12/14 14:13:47","新北市土城區明德路一段128巷9號","121.463246666667","24.9789883333333","6501300","土城區"
"236017","401-BY","2019/12/14 14:13:47","新北市土城區清水路221號","121.46074","24.98218","6501300","土城區"
"236057","912-UM","2019/12/14 14:13:44","新北市土城區中央路四段207號","121.414038333333","24.9560516666667","6501300","土城區"
"236045","913-UM","2019/12/14 14:13:45","新北市土城區明德路一段365-1號","121.453545","24.9790733333333","6501300","土城區"
"236060","915-UM","2019/12/14 14:13:46","新北市土城區金城路三段12-1號","121.464883333333","24.9861566666667","6501300","土城區"
"236054","AAC-216","2019/12/14 14:13:40","新北市土城區中華路二段92號","121.438218333333","24.97478","6501300","土城區"
"220027","145-BY","2019/12/14 14:13:33","新北市板橋區民權路192號","121.459183333333","25.0137133333333","6500100","板橋區"
"220028","200-UY","2019/12/14 14:13:44","新北市板橋區大觀路二段5號","121.447103333333","25.003895","6500100","板橋區"
"220030","610-BX","2019/12/14 14:13:33","新北市板橋區溪崑二街25號","121.42864","24.9912966666667","6500100","板橋區"
"220050","245-BX","2019/12/14 14:13:46","新北市板橋區縣民大道三段127巷1號","121.477255","25.0230366666667","6500100","板橋區"
"220040","267-BY","2019/12/14 14:13:27","新北市板橋區萬板路460號","121.479573333333","25.0257816666667","6500100","板橋區"
"220004","276-BY","2019/12/14 14:13:36","新北市板橋區信義路233-5號","121.459875","24.991195","6500100","板橋區"
"220020","277-BY","2019/12/14 14:13:48","新北市板橋區金門街306號","121.428865","24.9853416666667","6500100","板橋區"
"220043","283-UM","2019/12/14 14:13:35","新北市板橋區吳鳳路17巷26弄20號","121.466756666667","25.0296666666667","6500100","板橋區"
"220019","283-VK","2019/12/14 14:13:39","新北市板橋區重慶路327巷5號","121.464248333333","24.9986166666667","6500100","板橋區"
"220001","285-VK","2019/12/14 14:13:40","新北市板橋區永豐街265號","121.478148333333","25.0212933333333","6500100","板橋區"
"220107","286-VK","2019/12/14 14:13:47","新北市板橋區大觀路二段174巷173弄12號","121.441156666667","25.0039616666667","6500100","板橋區"
"220029","287-VK","2019/12/14 14:13:40","新北市板橋區南雅西路二段131號","121.45235","25.0113183333333","6500100","板橋區"
"220039","288-VK","2019/12/14 14:13:38","新北市板橋區長江路一段106巷20弄11號","121.460128333333","25.0282733333333","6500100","板橋區"
"220009","293-UM","2019/12/14 14:13:41","新北市板橋區中山路二段255巷7號","121.47698","25.0179266666667","6500100","板橋區"
"220041","295-UM","2019/12/14 14:13:37","新北市板橋區松江街20號","121.469146666667","25.026465","6500100","板橋區"
"220032","296-UM","2019/12/14 14:13:43","新北市板橋區溪崑二街56巷1號","121.42788","24.9912716666667","6500100","板橋區"
"220023","303-R5","2019/12/14 14:13:39","新北市板橋區倉後街20號","121.455601666667","25.0093333333333","6500100","板橋區"
"220010","305-R5","2019/12/14 14:13:36","新北市板橋區三民路二段153巷36弄2號","121.481078333333","25.014155","6500100","板橋區"
"220047","317-R6","2019/12/14 14:13:38","新北市板橋區四維路103巷4號","121.465043333333","25.0243116666667","6500100","板橋區"
"220110","487-VK","2019/12/14 14:13:38","新北市板橋區國光路206號","121.461895","25.0185316666667","6500100","板橋區"
"220037","491-VK","2019/12/14 14:13:39","新北市板橋區文化路二段182巷3弄60號","121.47276","25.028815","6500100","板橋區"
"220104","560-BX","2019/12/14 14:13:47","新北市板橋區中正路360巷11號","121.454943333333","25.0237283333333","6500100","板橋區"
"220052","561-BX","2019/12/14 14:13:46","新北市板橋區介壽街3號","121.46717","25.0203466666667","6500100","板橋區"
"220013","568-UM","2019/12/14 14:13:34","新北市板橋區海山路1號","121.469571666667","25.0095166666667","6500100","板橋區"
"220109","609-BX","2019/12/14 14:13:45","新北市板橋區三民路二段204-4號","121.478948333333","25.0125116666667","6500100","板橋區"
"220022","630-UY","2019/12/14 14:13:39","新北市板橋區府中路126-1號","121.455026666667","25.0095533333333","6500100","板橋區"
"220005","686-BX","2019/12/14 14:13:39","新北市板橋區五權街43號","121.464548333333","24.993855","6500100","板橋區"
"220025","687-BX","2019/12/14 14:13:48","新北市板橋區龍興街22號","121.442956666667","25.000125","6500100","板橋區"
"220111","689-BX","2019/12/14 14:13:41","新北市板橋區新海路69號","121.461821666667","25.0217266666667","6500100","板橋區"
"220051","KEA-2699","2019/12/14 14:13:41","新北市板橋區松柏街70巷1號","121.476493333333","25.0301566666667","6500100","板橋區"
"220003","827-TW","2019/12/14 14:13:46","新北市板橋區新民街4巷15號","121.46494","25.009955","6500100","板橋區"
"220014","829-TW","2019/12/14 14:13:36","新北市板橋區長安街212號","121.47463","25.0121866666667","6500100","板橋區"
"220016","830-TW","2019/12/14 14:13:45","新北市板橋區萬安街137號","121.483351666667","25.02542","6500100","板橋區"
"220108","985-R7","2019/12/14 14:13:35","新北市板橋區中正路166號","121.456533333333","25.0169283333333","6500100","板橋區"
"220046","AAC-210","2019/12/14 14:13:30","新北市板橋區幸福路60巷56-1號","121.45981","25.0221383333333","6500100","板橋區"
"220012","AAC-253","2019/12/14 14:13:34","新北市板橋區縣民大道二段68-1號","121.463525","25.0131183333333","6500100","板橋區"
"235025","KEA-2875","2019/12/14 14:13:24","新北市中和區民利街9巷2弄10號","121.480338333333","24.9987533333333","6500300","中和區"
