"lineid","car","time","location","longitude","latitude","cityid","cityname"
"231030","002-UM","2019/12/14 15:29:33","新北市新店區新和街33號","121.518906666667","24.9846433333333","6500600","新店區"
"231024","0291-UT","2019/12/14 15:29:41","新北市新店區中央一街43號","121.527221666667","24.9736","6500600","新店區"
"231005","046-UY","2019/12/14 15:29:37","新北市新店區建國路293巷1號","121.536663333333","24.986155","6500600","新店區"
"231029","106-UY","2019/12/14 15:29:37","新北市新店區錦秀路1號","121.479025","24.9460016666667","6500600","新店區"
"231018","107-UY","2019/12/14 15:29:44","新北市新店區溪園路397號","121.523716666667","24.9776666666667","6500600","新店區"
"231013","108-UY","2019/12/14 15:29:50","新北市新店區永業路81巷25號","121.530953333333","24.948635","6500600","新店區"
"231036","110-UY","2019/12/14 15:29:48","新北市新店區安祥路69巷67號","121.482593333333","24.9596666666667","6500600","新店區"
"231017","KEA-2219","2019/12/14 15:25:51","新北市新店區明山路5號","121.563366666667","24.9556083333333","6500600","新店區"
"231033","256-BX","2019/12/14 15:29:48","新北市新店區和成街18巷50號","121.488578333333","24.9461533333333","6500600","新店區"
"231023","260-TV","2019/12/14 15:29:40","新北市新店區行政街17巷14號","121.543083333333","24.9671133333333","6500600","新店區"
"231003","268-BY","2019/12/14 15:29:35","新北市新店區寶高路120巷1號","121.55461","24.9760516666667","6500600","新店區"
"231035","278-BY","2019/12/14 15:29:33","新北市新店區安興路81號","121.515536666667","24.975205","6500600","新店區"
"231038","3712-VJ","2019/12/14 15:29:50","新北市新店區安康路二段16巷30號","121.516478333333","24.9649066666667","6500600","新店區"
"231025","4715-K9","2019/12/14 15:29:41","新北市新店區安光路8號","121.513995","24.963655","6500600","新店區"
"231039","512-UM","2019/12/14 15:29:37","新北市新店區寶元路一段74巷1號","121.544156666667","24.984165","6500600","新店區"
"231002","619-UM","2019/12/14 15:29:33","新北市新店區環河路182-3號","121.533961666667","24.9699616666667","6500600","新店區"
"231034","641-BX","2019/12/14 15:29:48","新北市新店區玫瑰路28號","121.495296666667","24.9501666666667","6500600","新店區"
"231012","KED-0819","2019/12/14 15:29:45","新北市新店區文化路92號","121.544976666667","24.9826016666667","6500600","新店區"
"231020","718-UY","2019/12/14 15:29:49","新北市新店區湖興路97號","121.566635","24.9321","6500600","新店區"
"231026","720-UM","2019/12/14 15:29:51","新北市新店區三民路43號","121.537138333333","24.9708816666667","6500600","新店區"
"231028","897-TW","2019/12/14 15:29:49","新北市新店區僑信路94號","121.49988","24.9476866666667","6500600","新店區"
"231037","AKT-0513","2019/12/14 15:29:35","新北市新店區安興路69號","121.51589","24.9752266666667","6500600","新店區"
"241017","063-VK","2019/12/14 15:29:46","新北市三重區重新路四段121號","121.484906666667","25.052055","6500200","三重區"
"241007","066-VK","2019/12/14 15:29:38","新北市三重區重新路四段121號","121.484965","25.0518733333333","6500200","三重區"
"241013","270-UM","2019/12/14 15:29:51","新北市三重區重新路四段121號","121.484663333333","25.0519083333333","6500200","三重區"
"241020","478-VK","2019/12/14 15:29:46","新北市三重區重新路四段121號","121.48441","25.0521833333333","6500200","三重區"
"241033","AAC-255","2019/12/14 15:29:36","新北市三重區成功路90號","121.487951666667","25.051215","6500200","三重區"
"235019","183-VK","2019/12/14 15:29:34","新北市新店區安康路二段320巷15弄2號","121.504601666667","24.959865","6500300","中和區"
"235007","352-BY","2019/12/14 15:29:49","新北市中和區建八路1號","121.485525","24.9986733333333","6500300","中和區"
"235014","4979-A6","2019/12/14 15:29:38","新北市中和區景平路385巷11號","121.502406666667","24.994265","6500300","中和區"
"235033","4980-A6","2019/12/14 15:29:43","新北市中和區連城路302號","121.483843333333","24.9962416666667","6500300","中和區"
"235023","AAC-215","2019/12/14 15:29:47","新北市中和區員山路11號","121.480345","24.9831716666667","6500300","中和區"
"207001","662-BX","2019/12/14 15:29:47","新北市萬里區大鵬里萬里加投14號","121.65156","25.2087083333333","6502800","萬里區"
"236040","KED-0685","2019/12/14 15:29:49","新北市土城區學府路一段98巷8號","121.45594","24.9883466666667","6501300","土城區"
"236074","166-UM","2019/12/14 15:29:45","新北市三峽區介壽路三段245號","121.407865","24.9495666666667","6501300","土城區"
"236029","253-BX","2019/12/14 15:29:37","新北市土城區中央路一段118巷1弄19號","121.445628333333","24.98752","6501300","土城區"
"236024","269-VK","2019/12/14 15:29:45","新北市土城區中央路一段289號","121.444348333333","24.9842733333333","6501300","土城區"
"236013","270-VK","2019/12/14 15:29:32","新北市土城區德興街133號","121.455026666667","24.9916916666667","6501300","土城區"
"236032","271-VK","2019/12/14 15:29:48","新北市土城區延吉街363巷7號","121.464366666667","24.98347","6501300","土城區"
"236068","KEA-2877","2019/12/14 15:29:47","新北市土城區中央路二段192巷4號","121.441615","24.9760316666667","6501300","土城區"
"236017","401-BY","2019/12/14 15:29:51","新北市土城區延吉街109號","121.471401666667","24.9867216666667","6501300","土城區"
"236057","912-UM","2019/12/14 15:29:44","新北市土城區中央路一段269-3號","121.444878333333","24.9852066666667","6501300","土城區"
"236045","913-UM","2019/12/14 15:29:45","新北市土城區青雲路151巷21號","121.459785","24.9846183333333","6501300","土城區"
"236060","915-UM","2019/12/14 15:29:46","新北市土城區金城路三段73巷4弄32號","121.466265","24.98837","6501300","土城區"
"236054","AAC-216","2019/12/14 15:29:31","新北市土城區學府路一段8號","121.45942","24.9884816666667","6501300","土城區"
"220107","286-VK","2019/12/14 15:29:47","新北市板橋區僑中二街104巷48號","121.444156666667","25.008335","6500100","板橋區"
