"lineid","car","time","location","longitude","latitude","cityid","cityname"
"234026","9371-KE","2019/12/14 17:59:50","新北市永和區水源街2巷24號","121.512121666667","25.0056966666667","6500400","永和區"
"249005","172-UM","2019/12/14 17:59:53","新北市八里區荖阡坑路15-4號","121.399706666667","25.140985","6502300","八里區"
"249001","173-UM","2019/12/14 17:59:40","新北市八里區龍米路二段35號","121.448426666667","25.1400333333333","6502300","八里區"
"249004","303-UY","2019/12/14 17:59:42","新北市八里區龍米路三段28號","121.428743333333","25.1590183333333","6502300","八里區"
"249002","305-UY","2019/12/14 17:59:35","新北市八里區龍形五街15號","121.450071666667","25.1335166666667","6502300","八里區"
"249003","593-UM","2019/12/14 17:59:38","新北市八里區中華路二段165巷19弄10號","121.409545","25.1512866666667","6502300","八里區"
"248014","025-BX","2019/12/14 17:59:52","新北市五股區成泰路二段25號","121.437143333333","25.0816","6501500","五股區"
"248008","KED-0815","2019/12/14 17:59:39","新北市五股區中興路二段150號","121.458613333333","25.0785616666667","6501500","五股區"
"248020","KED-0813","2019/12/14 17:59:34","新北市五股區中興路二段83巷26-3號","121.460081666667","25.075415","6501500","五股區"
"248004","677-BX","2019/12/14 17:59:50","新北市五股區中興路二段103巷14號","121.458261666667","25.0765266666667","6501500","五股區"
"234077","969-R7","2019/12/14 17:59:43","新北市永和區福和路1號","121.526385","25.0098416666667","6500400","永和區"
"232011","375-UM","2019/12/14 17:59:39","新北市坪林區北宜路八段227號","121.708983333333","24.93498","6502000","坪林區"
"244007","080-UY","2019/12/14 17:59:45","新北市林口區林口路124巷7號","121.38881","25.0817716666667","6501700","林口區"
"244013","KEA-2802","2019/12/14 17:59:49","新北市林口區中山路130號","121.392195","25.0786716666667","6501700","林口區"
"244023","483-VK","2019/12/14 17:59:52","新北市林口區東湖路75巷19號","121.385185","25.0726283333333","6501700","林口區"
"244017","485-VK","2019/12/14 17:59:38","新北市林口區忠孝路486號","121.370305","25.070395","6501700","林口區"
"244009","657-BX","2019/12/14 17:59:34","新北市林口區竹林路606巷21弄5號","121.38494","25.0828516666667","6501700","林口區"
"244011","701-TV","2019/12/14 17:59:38","新北市林口區中正路25號","121.39624","25.07737","6501700","林口區"
"244025","837-TS","2019/12/14 17:59:42","新北市林口區八德路470號","121.356748333333","25.0659716666667","6501700","林口區"
"244021","838-TS","2019/12/14 17:59:52","新北市林口區新寮27-6號","121.396323333333","25.066305","6501700","林口區"
"222003","436-BY","2019/12/14 17:59:46","新北市深坑區炮子崙23-1號","121.607063333333","24.9907816666667","6501800","深坑區"
"222002","659-BX","2019/12/14 17:59:51","新北市深坑區文化街96號","121.617136666667","25.0018966666667","6501800","深坑區"
"221031","KEA-2785","2019/12/14 17:59:49","新北市汐止區中興路96巷2號","121.635121666667","25.0625466666667","6501100","汐止區"
"231046","719-UM","2019/12/14 17:59:51","新北市新店區下石厝路29-1號","121.53425","24.9299766666667","6500600","新店區"
"231040","898-TW","2019/12/14 17:59:35","新北市新店區安華路28-1號","121.519275","24.96087","6500600","新店區"
"241018","268-UM","2019/12/14 17:59:47","新北市八里區下罟子30-35號","121.3679","25.1351983333333","6500200","三重區"
"241033","AAC-255","2019/12/14 17:59:35","新北市三重區中興北街52-5號","121.469316666667","25.05051","6500200","三重區"
"235064","005-UY","2019/12/14 17:59:33","新北市中和區中正路173號","121.497718333333","24.9936333333333","6500300","中和區"
"235063","006-UY","2019/12/14 17:59:52","新北市中和區員山路36巷16-3號","121.485066666667","24.991145","6500300","中和區"
"235065","098-UM","2019/12/14 17:59:35","新北市中和區中山路二段478號","121.487958333333","25.004855","6500300","中和區"
"235058","151-BY","2019/12/14 17:59:42","新北市中和區圓通路367巷33弄31號","121.495698333333","24.98563","6500300","中和區"
"235038","185-VK","2019/12/14 17:59:43","新北市中和區中正路161巷2號","121.498403333333","24.9936133333333","6500300","中和區"
"235042","KEA-2878","2019/12/14 17:59:54","新北市中和區中正路637巷52弄1號","121.485483333333","24.9934916666667","6500300","中和區"
"247016","KEA-2869","2019/12/14 17:59:35","新北市蘆洲區光華路110巷36號","121.465946666667","25.0840983333333","6501400","蘆洲區"
"235069","4980-A6","2019/12/14 17:59:49","新北市中和區中正路637巷52弄1號","121.485471666667","24.9934616666667","6500300","中和區"
"235070","558-UM","2019/12/14 17:59:37","新北市中和區員山路36巷16-3號","121.485131666667","24.9914716666667","6500300","中和區"
"235045","565-BX","2019/12/14 17:59:47","新北市中和區錦和路350-1號","121.49041","24.993565","6500300","中和區"
"235060","KED-0823","2019/12/14 17:59:43","新北市中和區中正路637巷52弄11號","121.48481","24.9937383333333","6500300","中和區"
"235054","640-BX","2019/12/14 17:59:38","新北市土城區金城路三段214號","121.47202","24.989935","6500300","中和區"
"235047","732-UM","2019/12/14 17:59:41","新北市中和區中正路273號","121.495623333333","24.9938866666667","6500300","中和區"
"235062","800-TS","2019/12/14 17:59:36","新北市中和區中正路747號","121.485058333333","24.999705","6500300","中和區"
"235057","801-TS","2019/12/14 17:59:50","新北市中和區民享街97巷19號","121.475438333333","24.9995916666667","6500300","中和區"
"235052","805-TS","2019/12/14 17:59:54","新北市中和區中正路589巷15號","121.485628333333","24.9935133333333","6500300","中和區"
"235051","157-BY","2019/12/14 17:59:50","新北市中和區中正路190-1號","121.49786","24.9937316666667","6500300","中和區"
"235037","AAC-213","2019/12/14 17:59:48","新北市中和區景平路149號","121.513856666667","24.9921166666667","6500300","中和區"
"207004","KEE-1107","2019/12/14 17:59:45","新北市萬里區萬里里瑪鋉路5號","121.686001666667","25.1749","6502800","萬里區"
"247006","893-R6","2019/12/14 17:59:46","新北市蘆洲區中華街20號","121.462993333333","25.08136","6501400","蘆洲區"
"247004","500-BY","2019/12/14 17:59:46","新北市蘆洲區永康街79號","121.45572","25.08522","6501400","蘆洲區"
"247014","056-VK","2019/12/14 17:59:53","新北市蘆洲區三民路105號","121.472596666667","25.085945","6501400","蘆洲區"
"247002","001-UY","2019/12/14 17:59:37","新北市蘆洲區永平街32巷57弄21號","121.459023333333","25.0931533333333","6501400","蘆洲區"
"226004","312-R5","2019/12/14 17:59:48","新北市平溪區石底里公園街18-3號","121.733331666667","25.025875","6502400","平溪區"
"228003","097-TW","2019/12/14 17:59:55","新北市貢寮區真理里美艷山街6-2號","121.928895","25.0607383333333","6502600","貢寮區"
"228001","212-TW","2019/12/14 17:59:43","新北市貢寮區真理里新港街26巷49號","121.927765","25.0532166666667","6502600","貢寮區"
"228002","663-BX","2019/12/14 17:59:42","新北市貢寮區福連里香蘭街2-1號","121.968733333333","25.0234666666667","6502600","貢寮區"
"224006","676-BX","2019/12/14 17:59:52","新北市瑞芳區傑魚坑路356號","121.79093","25.1100083333333","6501200","瑞芳區"
"224007","285-BY","2019/12/14 17:59:46","新北市瑞芳區大寮路84號","121.78029","25.101275","6501200","瑞芳區"
"224009","275-VK","2019/12/14 17:59:48","新北市瑞芳區山尖路191號","121.851008333333","25.111845","6501200","瑞芳區"
"224008","273-VK","2019/12/14 17:59:53","新北市瑞芳區明燈路一段201巷97-1號","121.818748333333","25.1066233333333","6501200","瑞芳區"
"224005","271-BY","2019/12/14 17:59:47","新北市瑞芳區深澳路67-1號","121.81843","25.1299333333333","6501200","瑞芳區"
"227001","400-TW","2019/12/14 17:59:48","新北市雙溪區三貂里政光路3-1號","121.850763333333","25.063375","6502500","雙溪區"
"253005","032-BX","2019/12/14 17:59:40","新北市石門區中山路62-9號","121.567966666667","25.28933","6502200","石門區"
"253006","295-VK","2019/12/14 17:59:49","新北市石門區大丘田45-2號","121.54981","25.27489","6502200","石門區"
"222001","KEA-2212","2019/12/14 17:59:45","新北市深坑區北深路三段6號","121.611285","25.001085","6501800","深坑區"
"208002","KEA-2872","2019/12/14 17:59:51","新北市金山區三界壇路44號","121.62343","25.22905","6502700","金山區"
"208003","665-BX","2019/12/14 17:59:47","新北市金山區磺港里磺港路236號","121.64369","25.2257133333333","6502700","金山區"
"251009","008-UM","2019/12/14 17:59:50","新北市淡水區中山路144號","121.441346666667","25.1713583333333","6501000","淡水區"
"251004","009-UM","2019/12/14 17:59:48","新北市淡水區民權路187號","121.459693333333","25.1335333333333","6501000","淡水區"
"251005","010-UM","2019/12/14 17:59:34","新北市淡水區英專路135號","121.446553333333","25.1727666666667","6501000","淡水區"
"251002","012-UM","2019/12/14 17:59:44","新北市淡水區鼻頭街18-5號","121.446635","25.1666266666667","6501000","淡水區"
"251015","KEA-2871","2019/12/14 17:59:44","新北市淡水區興福寮33號","121.488776666667","25.1617666666667","6501000","淡水區"
"251016","180-VK","2019/12/14 17:59:51","新北市淡水區淡金路三段46巷13弄1號","121.448475","25.1993733333333","6501000","淡水區"
"251008","181-VK","2019/12/14 17:59:46","新北市淡水區八勢一街77號","121.46141","25.1550466666667","6501000","淡水區"
"251010","413-VK","2019/12/14 17:59:38","新北市淡水區中正路一段87巷13弄1號","121.420778333333","25.178555","6501000","淡水區"
"251012","441-VK","2019/12/14 17:59:47","新北市淡水區北新路三段38巷7號","121.484525","25.1870016666667","6501000","淡水區"
"251001","559-UM","2019/12/14 17:59:39","新北市淡水區民權路94巷1號","121.463143333333","25.1248266666667","6501000","淡水區"
"251006","561-UM","2019/12/14 17:59:51","新北市淡水區新生街15號","121.438898333333","25.1732133333333","6501000","淡水區"
"251014","577-R6","2019/12/14 17:59:52","新北市淡水區公埔子16-6號","121.480375","25.2241016666667","6501000","淡水區"
"251011","650-BX","2019/12/14 17:59:47","新北市淡水區小坪頂23-4號","121.484486666667","25.153515","6501000","淡水區"
"251003","673-BX","2019/12/14 17:59:43","新北市淡水區大忠街47號","121.444718333333","25.1763666666667","6501000","淡水區"
"251013","178-VK","2019/12/14 17:59:56","新北市淡水區泉洲厝31號","121.479531666667","25.1910116666667","6501000","淡水區"
"252001","292-VK","2019/12/14 17:59:55","新北市三芝區中興街二段2號","121.498383333333","25.256615","6502100","三芝區"
"237004","KEA-2597","2019/12/14 17:59:49","新北市三峽區中園街167號","121.36715","24.9219116666667","6500900","三峽區"
"237007","153-BY","2019/12/14 17:59:52","新北市三峽區中園街161號","121.367173333333","24.9219866666667","6500900","三峽區"
"237009","210-TH","2019/12/14 17:59:43","新北市三峽區中山路106巷21號","121.366071666667","24.936365","6500900","三峽區"
"237013","252-BX","2019/12/14 17:59:50","新北市三峽區介壽路一段59號","121.375723333333","24.9326233333333","6500900","三峽區"
"237012","275-BY","2019/12/14 17:59:50","新北市三峽區民生街27巷30號","121.376063333333","24.9360733333333","6500900","三峽區"
"237008","302-VK","2019/12/14 17:59:50","新北市三峽區白雞33-24號","121.371096666667","24.9120416666667","6500900","三峽區"
"237014","433-BY","2019/12/14 17:59:38","新北市三峽區和平街34號","121.37021","24.9371833333333","6500900","三峽區"
"237006","5529-G3","2019/12/14 17:59:41","新北市三峽區介壽路二段138巷1弄90-2號","121.397666666667","24.9321366666667","6500900","三峽區"
"237011","KEA-2596","2019/12/14 17:59:50","新北市三峽區中正路一段27號","121.376001666667","24.930765","6500900","三峽區"
"237015","649-BX","2019/12/14 17:59:45","新北市三峽區紫微路105號","121.409295","24.91176","6500900","三峽區"
"237010","706-TV","2019/12/14 17:59:45","新北市三峽區中山路54號","121.368366666667","24.9345133333333","6500900","三峽區"
"237005","AKY-6261","2019/12/14 17:59:51","新北市三峽區和平街89巷14號","121.369746666667","24.9375816666667","6500900","三峽區"
"236042","KED-0685","2019/12/14 17:59:50","新北市土城區城林路6巷80號","121.438543333333","24.9795916666667","6501300","土城區"
"236079","166-UM","2019/12/14 17:59:50","新北市土城區永寧路32巷10弄5號","121.428745","24.9610016666667","6501300","土城區"
"236030","253-BX","2019/12/14 17:59:35","新北市土城區城林路6巷80號","121.438428333333","24.97974","6501300","土城區"
"236026","269-VK","2019/12/14 17:59:41","新北市土城區城林路6巷80號","121.438473333333","24.97961","6501300","土城區"
"236014","270-VK","2019/12/14 17:59:35","新北市土城區城林路6巷80號","121.438503333333","24.9796033333333","6501300","土城區"
"236038","271-VK","2019/12/14 17:59:54","新北市土城區員福街52號","121.440375","24.9791666666667","6501300","土城區"
"247012","KED-0683","2019/12/14 17:59:38","新北市蘆洲區信義路302巷21號","121.478165","25.0884316666667","6501400","蘆洲區"
"236070","KEA-2877","2019/12/14 17:59:51","新北市土城區石門路61號","121.457145","24.963185","6501300","土城區"
"252002","KED-0821","2019/12/14 17:59:45","新北市三芝區中山路二段40號","121.503046666667","25.25509","6502100","三芝區"
"236021","401-BY","2019/12/14 17:59:45","新北市土城區城林路6巷80號","121.438701666667","24.9796483333333","6501300","土城區"
"236059","912-UM","2019/12/14 17:59:50","新北市土城區中央路三段260號","121.427271666667","24.96398","6501300","土城區"
"236049","913-UM","2019/12/14 17:59:46","新北市土城區城林路6巷80號","121.438363333333","24.9799966666667","6501300","土城區"
"236063","915-UM","2019/12/14 17:59:45","新北市土城區城林路6巷80號","121.438725","24.9796183333333","6501300","土城區"
"236055","AAC-216","2019/12/14 17:59:46","新北市土城區城林路6巷80號","121.43852","24.979585","6501300","土城區"
"242061","986-R7","2019/12/14 17:59:42","新北市新莊區新樹路601號","121.433191666667","25.00584","6500500","新莊區"
"242004","751-BX","2019/12/14 17:59:52","新北市新莊區思源路177巷17號","121.45924","25.0463","6500500","新莊區"
"242029","615-BX","2019/12/14 17:59:33","新北市新莊區中平路73號","121.444731666667","25.044965","6500500","新莊區"
"242027","613-BX","2019/12/14 17:59:44","新北市新莊區福壽街175號","121.457976666667","25.0540616666667","6500500","新莊區"
"242058","612-BX","2019/12/14 17:59:53","新北市新莊區雙鳳路134巷8號","121.412783333333","25.0281233333333","6500500","新莊區"
"242048","566-BX","2019/12/14 17:59:46","新北市新莊區萬安街146巷1號","121.419808333333","25.021225","6500500","新莊區"
"242053","497-BY","2019/12/14 17:59:46","新北市新莊區光華街15號","121.428861666667","25.0108","6500500","新莊區"
"242042","442-UM","2019/12/14 17:59:52","新北市泰山區壽山路50號","121.420278333333","25.0290916666667","6500500","新莊區"
"242044","415-TV","2019/12/14 17:59:42","新北市新莊區雙鳳路73巷1號","121.414966666667","25.0275333333333","6500500","新莊區"
"242013","413-TV","2019/12/14 17:59:41","新北市新莊區中和街82巷7號","121.448331666667","25.0465283333333","6500500","新莊區"
"242051","400-BY","2019/12/14 17:59:52","新北市新莊區西盛街153巷3號","121.428523333333","25.018085","6500500","新莊區"
"242025","362-BY","2019/12/14 17:59:51","新北市新莊區五工路52號","121.459821666667","25.0629","6500500","新莊區"
"242023","353-BY","2019/12/14 17:59:50","新北市新莊區福壽街47號","121.458255","25.0488166666667","6500500","新莊區"
"242015","132-UY","2019/12/14 17:59:37","新北市新莊區新泰路502巷51號","121.444266666667","25.0465083333333","6500500","新莊區"
"242056","172-VK","2019/12/14 17:59:39","新北市新莊區豐年街124巷7號","121.446011666667","25.0296966666667","6500500","新莊區"
"242017","173-VK","2019/12/14 17:59:42","新北市新莊區中和街60巷35號","121.449485","25.04498","6500500","新莊區"
"242031","175-VK","2019/12/14 17:59:47","新北市新莊區新泰路305巷12號","121.444608333333","25.0409283333333","6500500","新莊區"
"242039","176-VK","2019/12/14 17:59:44","新北市新莊區民安西路10號","121.42657","25.0217266666667","6500500","新莊區"
"242021","KED-0687","2019/12/14 17:59:47","新北市新莊區中華路一段2號","121.452016666667","25.0364","6500500","新莊區"
"242007","346-TH","2019/12/14 17:59:52","新北市新莊區自信街81巷17弄1號","121.456008333333","25.048765","6500500","新莊區"
"242002","347-TH","2019/12/14 17:59:41","新北市新莊區大觀街46號","121.45385","25.03557","6500500","新莊區"
"242036","348-TH","2019/12/14 17:59:44","新北市新莊區建福路63號","121.426798333333","25.0271683333333","6500500","新莊區"
"242009","349-TH","2019/12/14 17:59:38","新北市新莊區昌平街59巷34號","121.453795","25.0532683333333","6500500","新莊區"
"242034","350-TH","2019/12/14 17:59:53","新北市新莊區景德路397號","121.44556","25.03334","6500500","新莊區"
"242019","351-TH","2019/12/14 17:59:36","新北市新莊區博愛路10巷1號","121.456098333333","25.0439966666667","6500500","新莊區"
"238015","755-BX","2019/12/14 17:59:42","新北市樹林區大安路307巷2弄14號","121.417751666667","24.99158","6500700","樹林區"
"238023","601-UM","2019/12/14 17:59:38","新北市樹林區龍興街54號","121.403098333333","25.0153466666667","6500700","樹林區"
"238019","599-UM","2019/12/14 17:59:38","新北市樹林區太平路148號","121.418561666667","24.9780816666667","6500700","樹林區"
"238018","KEA-2217","2019/12/14 17:59:45","新北市樹林區中正路7-1號","121.430221666667","24.99757","6500700","樹林區"
"238022","KEA-2213","2019/12/14 17:59:35","新北市樹林區太平路150巷7號","121.418111666667","24.9777883333333","6500700","樹林區"
"238021","KEA-2539","2019/12/14 17:59:54","新北市樹林區柑園街一段278-2號","121.390068333333","24.9563366666667","6500700","樹林區"
"238025","303-VK","2019/12/14 17:59:54","新北市樹林區三俊街7號","121.41135","25.0154016666667","6500700","樹林區"
"238017","283-BY","2019/12/14 17:59:43","新北市樹林區中正路626號","121.410101666667","25.01599","6500700","樹林區"
"238014","282-BY","2019/12/14 17:59:52","新北市樹林區中正路45巷10號","121.426608333333","24.9992816666667","6500700","樹林區"
"238020","268-VK","2019/12/14 17:59:45","新北市新莊區龍安路254巷18-1號","121.420641666667","25.0184216666667","6500700","樹林區"
"238026","172-UY","2019/12/14 17:59:42","新北市樹林區中洲街30巷4號","121.397356666667","24.9714816666667","6500700","樹林區"
"238016","169-UY","2019/12/14 17:59:49","新北市樹林區育英街135巷5弄8號","121.4195","24.9884616666667","6500700","樹林區"
"239007","AAC-297","2019/12/14 17:59:35","新北市鶯歌區鶯桃路16號","121.342176666667","24.9516633333333","6500800","鶯歌區"
"239006","891-R6","2019/12/14 17:59:36","新北市鶯歌區鶯桃路413巷34弄34號","121.330771666667","24.964115","6500800","鶯歌區"
"239008","527-UM","2019/12/14 17:59:41","新北市鶯歌區香賓街11巷18號","121.336286666667","24.9798433333333","6500800","鶯歌區"
"239005","526-UM","2019/12/14 17:59:44","新北市鶯歌區鳳吉五街3號","121.326391666667","24.9722183333333","6500800","鶯歌區"
"239001","417-VK","2019/12/14 17:59:37","新北市鶯歌區中正三路236-8號","121.330373333333","24.9368716666667","6500800","鶯歌區"
"239003","360-BY","2019/12/14 17:59:46","新北市鶯歌區永吉街35-1號","121.335795","24.95748","6500800","鶯歌區"
"239002","359-BY","2019/12/14 17:59:53","新北市鶯歌區育英街17巷1弄3號","121.347683333333","24.95522","6500800","鶯歌區"
"239004","193-VK","2019/12/14 17:59:37","新北市鶯歌區尖山路88號","121.34863","24.949535","6500800","鶯歌區"
"221008","489-VK","2019/12/14 17:59:53","新北市汐止區康寧街753巷2弄6號","121.639208333333","25.0738433333333","6501100","汐止區"
"221036","130-UY","2019/12/14 17:59:55","新北市汐止區橋東街36號","121.66599","25.075405","6501100","汐止區"
"221015","131-UY","2019/12/14 17:59:53","新北市汐止區長江街190號","121.660236666667","25.0759933333333","6501100","汐止區"
"244019","KED-0667","2019/12/14 17:59:55","新北市林口區麗園路28號","121.374485","25.0697116666667","6501700","林口區"
"221010","269-BY","2019/12/14 17:59:43","新北市汐止區汐萬路二段220號","121.646858333333","25.0876016666667","6501100","汐止區"
"221018","277-VK","2019/12/14 17:59:46","新北市汐止區忠孝東路337號","121.665278333333","25.0699783333333","6501100","汐止區"
"221023","279-VK","2019/12/14 17:59:52","新北市汐止區明峰街92號","121.63112","25.0711183333333","6501100","汐止區"
"221029","298-VK","2019/12/14 17:59:48","新北市汐止區樟樹二路328號","121.641436666667","25.0702483333333","6501100","汐止區"
"207003","KEE-1020","2019/12/14 17:59:37","新北市萬里區野柳里東澳路66號","121.692595","25.20086","6502800","萬里區"
"221025","567-BX","2019/12/14 17:59:47","新北市汐止區仁愛路17號","121.6592","25.06395","6501100","汐止區"
"221035","622-UM","2019/12/14 17:59:30","新北市汐止區汐萬路一段213號","121.65188","25.0720533333333","6501100","汐止區"
"221038","646-BX","2019/12/14 17:59:38","新北市汐止區新台五路一段152號","121.65353","25.0621516666667","6501100","汐止區"
"221033","647-BX","2019/12/14 17:59:39","新北市汐止區合順街35號","121.620545","25.0432583333333","6501100","汐止區"
"233001","KEA-2870","2019/12/14 17:59:33","新北市烏來區西羅岸路22號","121.549231666667","24.8673966666667","6502900","烏來區"
"224002","257-TC","2019/12/14 17:59:48","新北市瑞芳區三爪子坑路145號","121.810516666667","25.106435","6501200","瑞芳區"
"242046","281-VK","2019/12/14 17:59:46","新北市新莊區福營路197號","121.43108","25.03049","6500500","新莊區"
"242011","280-VK","2019/12/14 17:59:52","新北市新莊區中港路618-2號","121.451095","25.0545466666667","6500500","新莊區"
"235061","KEA-2875","2019/12/14 17:59:36","新北市土城區金城路三段269號","121.472551666667","24.990195","6500300","中和區"
