"lineid","car","time","location","longitude","latitude","cityid","cityname"
"234046","148-BY","2019/12/14 18:29:43","新北市永和區豫溪街217巷15號","121.524936666667","25.01009","6500400","永和區"
"234081","298-R6","2019/12/14 18:29:47","新北市永和區福和路1號","121.52562","25.0094466666667","6500400","永和區"
"234086","338-UY","2019/12/14 18:29:41","新北市永和區中正路511號","121.516925","25.0071216666667","6500400","永和區"
"234007","KED-0605","2019/12/14 18:29:37","新北市永和區環河西路二段195號","121.502326666667","25.0111066666667","6500400","永和區"
"234013","KEA-2591","2019/12/14 18:29:49","新北市永和區福和路1號","121.525633333333","25.0094616666667","6500400","永和區"
"234026","9371-KE","2019/12/14 18:29:50","新北市永和區永貞路415號","121.50725","25.0093733333333","6500400","永和區"
"234011","9373-KE","2019/12/14 18:29:41","新北市永和區保安路132號","121.508915","25.0153183333333","6500400","永和區"
"249005","172-UM","2019/12/14 18:29:53","新北市八里區長坑口47-8號","121.390458333333","25.1342016666667","6502300","八里區"
"249001","173-UM","2019/12/14 18:29:40","新北市八里區龍米路一段158號","121.452743333333","25.12595","6502300","八里區"
"249004","303-UY","2019/12/14 18:29:42","新北市八里區文心街142號","121.425545","25.1612316666667","6502300","八里區"
"249002","305-UY","2019/12/14 18:29:54","新北市八里區龍形三街6巷1號","121.450155","25.13175","6502300","八里區"
"248014","025-BX","2019/12/14 18:29:52","新北市五股區成泰路一段118號","121.43537","25.07375","6501500","五股區"
"248016","026-BX","2019/12/14 18:29:47","新北市五股區凌雲路一段83巷20號","121.450128333333","25.10062","6501500","五股區"
"248008","KED-0815","2019/12/14 18:29:39","新北市五股區四維路185巷60號","121.462306666667","25.0782533333333","6501500","五股區"
"248020","KED-0813","2019/12/14 18:29:54","新北市五股區孝義路55巷1號","121.453066666667","25.1120866666667","6501500","五股區"
"248012","247-BX","2019/12/14 18:29:44","新北市五股區御成路118號","121.441503333333","25.0936883333333","6501500","五股區"
"248010","272-BY","2019/12/14 18:29:51","新北市五股區明德路6-4號","121.434005","25.0714266666667","6501500","五股區"
"248004","677-BX","2019/12/14 18:29:50","新北市五股區工商路150號","121.433231666667","25.087395","6501500","五股區"
"248002","678-BX","2019/12/14 18:29:41","新北市五股區西雲路116-6號","121.44467","25.0936233333333","6501500","五股區"
"234077","969-R7","2019/12/14 18:29:43","新北市永和區福和路1號","121.526381666667","25.0098516666667","6500400","永和區"
"232011","375-UM","2019/12/14 18:17:04","新北市坪林區坪雙路一段41號","121.711678333333","24.9424416666667","6502000","坪林區"
"244007","080-UY","2019/12/14 18:29:51","新北市林口區中湖62號","121.384646666667","25.10085","6501700","林口區"
"244013","KEA-2802","2019/12/14 18:29:49","新北市林口區文化一路二段86號","121.381361666667","25.0785833333333","6501700","林口區"
"244023","483-VK","2019/12/14 18:29:52","新北市林口區仁愛路二段62巷59號","121.383581666667","25.0759833333333","6501700","林口區"
"244017","485-VK","2019/12/14 18:29:41","新北市林口區文化二路一段2-1號","121.364196666667","25.0659783333333","6501700","林口區"
"244009","657-BX","2019/12/14 18:29:34","新北市林口區寶林路123號","121.382993333333","25.0854216666667","6501700","林口區"
"244011","701-TV","2019/12/14 18:29:38","新北市林口區仁愛路一段272巷21號","121.391981666667","25.076745","6501700","林口區"
"244025","837-TS","2019/12/14 18:29:42","新北市林口區南勢六街71-1號","121.35509","25.072175","6501700","林口區"
"244021","838-TS","2019/12/14 18:29:52","新北市林口區自強二街42-2號","121.398895","25.07736","6501700","林口區"
"208001","267-VK","2019/12/14 18:29:50","新北市金山區文化二路6號","121.636805","25.2245966666667","6502700","金山區"
"243015","680-BX","2019/12/14 18:29:46","新北市泰山區黎明路25號","121.421745","25.0606933333333","6501600","泰山區"
"222003","436-BY","2019/12/14 18:29:46","新北市深坑區翠谷街53號","121.627475","25.0092016666667","6501800","深坑區"
"222002","659-BX","2019/12/14 18:29:51","新北市深坑區雲鄉路152號","121.623165","24.9979483333333","6501800","深坑區"
"231061","002-UM","2019/12/14 18:29:43","新北市新店區安華路28-1號","121.519543333333","24.9608016666667","6500600","新店區"
"231055","0291-UT","2019/12/14 18:29:38","新北市新店區中正路128巷8號","121.542415","24.9716366666667","6500600","新店區"
"231058","0293-UT","2019/12/14 18:29:45","新北市新店區環河路19巷7弄2號","121.537556666667","24.9605716666667","6500600","新店區"
"231043","047-UY","2019/12/14 18:29:48","新北市新店區安華路28-1號","121.519161666667","24.96088","6500600","新店區"
"231060","106-UY","2019/12/14 18:29:44","新北市新店區安華路28-1號","121.51969","24.96084","6500600","新店區"
"231049","108-UY","2019/12/14 18:29:41","新北市新店區安一路一段1-1號","121.51943","24.961155","6500600","新店區"
"231065","110-UY","2019/12/14 18:29:51","新北市新店區安一路一段1-1號","121.519386666667","24.961135","6500600","新店區"
"231050","KEA-2219","2019/12/14 18:29:38","新北市新店區安一路一段1-1號","121.519756666667","24.9612566666667","6500600","新店區"
"221031","KEA-2785","2019/12/14 18:29:29","新北市汐止區大同路一段160-7號","121.635713333333","25.05521","6501100","汐止區"
"231054","260-TV","2019/12/14 18:29:38","新北市新店區安一路一段1-1號","121.519218333333","24.961295","6500600","新店區"
"231042","268-BY","2019/12/14 18:29:37","新北市新店區安一路一段1-1號","121.51969","24.96133","6500600","新店區"
"231064","278-BY","2019/12/14 18:29:48","新北市新店區安一路一段1-1號","121.519628333333","24.9610783333333","6500600","新店區"
"231045","355-BY","2019/12/14 18:29:54","新北市新店區安一路一段1-1號","121.519306666667","24.9610133333333","6500600","新店區"
"231056","4715-K9","2019/12/14 18:29:39","新北市新店區二十張路129巷1弄1號","121.53601","24.9791283333333","6500600","新店區"
"231067","4772-VM","2019/12/14 18:29:51","新北市新店區安華路28-1號","121.519165","24.960645","6500600","新店區"
"231041","619-UM","2019/12/14 18:29:38","新北市新店區安華路28-1號","121.519506666667","24.96087","6500600","新店區"
"231048","KED-0819","2019/12/14 18:29:46","新北市新店區安一路一段1-1號","121.519676666667","24.961145","6500600","新店區"
"231052","718-UY","2019/12/14 18:29:50","新北市新店區北宜路一段192巷4-1號","121.541785","24.95283","6500600","新店區"
"231046","719-UM","2019/12/14 18:29:50","新北市新店區直潭七街60號","121.532298333333","24.9397633333333","6500600","新店區"
"231057","720-UM","2019/12/14 18:29:44","新北市新店區安一路一段1-1號","121.519226666667","24.9612416666667","6500600","新店區"
"231040","898-TW","2019/12/14 18:29:35","新北市新店區安華路28-1號","121.51947","24.9607183333333","6500600","新店區"
"231066","AKT-0513","2019/12/14 18:29:36","新北市新店區安華路1-1號","121.519405","24.9605316666667","6500600","新店區"
"241018","268-UM","2019/12/14 18:29:47","新北市三重區自強路二段5號","121.490251666667","25.0688983333333","6500200","三重區"
"241032","269-UM","2019/12/14 18:29:40","新北市三重區中華路5號","121.48345","25.0601683333333","6500200","三重區"
"235064","005-UY","2019/12/14 18:29:53","新北市中和區連城路103號","121.496395","24.9995116666667","6500300","中和區"
"235063","006-UY","2019/12/14 18:29:52","新北市中和區建一路196號","121.487881666667","24.9964416666667","6500300","中和區"
"235056","096-UM","2019/12/14 18:29:46","新北市中和區員山路611巷1號","121.47789","25.0112233333333","6500300","中和區"
"235039","097-UM","2019/12/14 18:29:42","新北市永和區安樂路92號","121.514271666667","24.998905","6500300","中和區"
"235065","098-UM","2019/12/14 18:29:55","新北市中和區中山路二段64巷14弄1號","121.503431666667","25.0055766666667","6500300","中和區"
"235040","150-BY","2019/12/14 18:29:54","新北市中和區安平路59號","121.50952","24.995025","6500300","中和區"
"235058","151-BY","2019/12/14 18:29:42","新北市中和區圓通路369巷36弄26號","121.488998333333","24.9840333333333","6500300","中和區"
"235055","183-VK","2019/12/14 18:29:37","新北市中和區民生街70號","121.468736666667","25.0050266666667","6500300","中和區"
"235038","185-VK","2019/12/14 18:29:45","新北市中和區自強路48號","121.520115","24.9949333333333","6500300","中和區"
"235067","255-BX","2019/12/14 18:29:48","新北市中和區新生街7-1號","121.483165","25.004595","6500300","中和區"
"235044","293-VK","2019/12/14 18:29:49","新北市中和區復興路296號","121.501561666667","24.9903483333333","6500300","中和區"
"235072","301-VK","2019/12/14 18:29:49","新北市中和區連城路125號","121.496055","24.9992","6500300","中和區"
"235043","352-BY","2019/12/14 18:29:48","新北市中和區景平路207號","121.510928333333","24.9925733333333","6500300","中和區"
"235042","KEA-2878","2019/12/14 18:29:54","新北市中和區自立路56巷15號","121.522816666667","24.991645","6500300","中和區"
"235050","4979-A6","2019/12/14 18:29:41","新北市中和區景新街374號","121.51211","24.9901466666667","6500300","中和區"
"235069","4980-A6","2019/12/14 18:29:48","新北市中和區連城路103號","121.496391666667","24.9996933333333","6500300","中和區"
"235070","558-UM","2019/12/14 18:29:37","新北市中和區南華路32號","121.503428333333","24.9961766666667","6500300","中和區"
"235045","565-BX","2019/12/14 18:29:47","新北市中和區南山路236巷19號","121.505636666667","24.9886183333333","6500300","中和區"
"235060","KED-0823","2019/12/14 18:29:43","新北市中和區中山路三段82號","121.477783333333","25.00562","6500300","中和區"
"235054","640-BX","2019/12/14 18:29:48","新北市中和區莒光路116號","121.47247","25.00195","6500300","中和區"
"235047","732-UM","2019/12/14 18:29:41","新北市中和區南山路320巷3號","121.5076","24.986505","6500300","中和區"
"235062","800-TS","2019/12/14 18:29:36","新北市中和區景平路703巷11號","121.495835","25.00338","6500300","中和區"
"235057","801-TS","2019/12/14 18:29:50","新北市中和區民安街9號","121.480743333333","25.00086","6500300","中和區"
"235041","802-TS","2019/12/14 18:29:51","新北市中和區中和路260-1號","121.508001666667","24.9996466666667","6500300","中和區"
"235052","805-TS","2019/12/14 18:29:34","新北市中和區興南路二段133號","121.505193333333","24.9841433333333","6500300","中和區"
"235048","896-TW","2019/12/14 18:29:44","新北市中和區中正路33號","121.502118333333","24.993495","6500300","中和區"
"235051","157-BY","2019/12/14 18:29:50","新北市中和區興南路二段114巷10弄12號","121.503995","24.9849766666667","6500300","中和區"
"235037","AAC-213","2019/12/14 18:29:48","新北市中和區景德街68號","121.516975","24.991535","6500300","中和區"
"235059","AAC-215","2019/12/14 18:29:39","新北市中和區員山路36巷16-3號","121.485018333333","24.9912966666667","6500300","中和區"
"207004","KEE-1107","2019/12/14 18:29:45","新北市萬里區北基里忠二街1號","121.68482","25.1745583333333","6502800","萬里區"
"220054","015-TV","2019/12/14 18:29:41","新北市板橋區華東街1-9號","121.448151666667","24.9949283333333","6500100","板橋區"
"220086","073-UY","2019/12/14 18:29:45","新北市板橋區華東街1-10號","121.448251666667","24.9950533333333","6500100","板橋區"
"226004","312-R5","2019/12/14 18:29:48","新北市平溪區靜安路二段295號","121.732226666667","25.0230933333333","6502400","平溪區"
"235049","251-BX","2019/12/14 18:29:38","新北市中和區景安路78號","121.505723333333","24.9964083333333","6500300","中和區"
"228003","097-TW","2019/12/14 18:29:35","新北市貢寮區和美里和美街37號","121.912278333333","25.0877033333333","6502600","貢寮區"
"228001","212-TW","2019/12/14 18:29:54","新北市貢寮區仁理村仁和路60號","121.923048333333","25.0498033333333","6502600","貢寮區"
"228002","663-BX","2019/12/14 18:29:50","新北市貢寮區福連里香蘭街24號","121.98445","25.0214066666667","6502600","貢寮區"
"224010","AGQ-8101","2019/12/14 18:29:41","新北市瑞芳區烏勢巷108號","121.846186666667","25.1088816666667","6501200","瑞芳區"
"224006","676-BX","2019/12/14 18:29:52","新北市瑞芳區明燈路三段1號","121.809243333333","25.10746","6501200","瑞芳區"
"224007","285-BY","2019/12/14 18:29:46","新北市瑞芳區大埔路有勝二村1號","121.764235","25.1004233333333","6501200","瑞芳區"
"224009","275-VK","2019/12/14 18:29:48","新北市瑞芳區五號路308號","121.856868333333","25.11145","6501200","瑞芳區"
"224008","273-VK","2019/12/14 18:29:53","新北市瑞芳區逢甲路163號","121.805455","25.1103966666667","6501200","瑞芳區"
"224005","271-BY","2019/12/14 18:29:47","新北市瑞芳區台電新村89號","121.811203333333","25.12741","6501200","瑞芳區"
"227002","642-TC","2019/12/14 18:29:43","新北市雙溪區魚行里坤溪25號","121.870455","25.0298116666667","6502500","雙溪區"
"227001","400-TW","2019/12/14 18:29:48","新北市雙溪區牡丹里牡丹131號","121.85091","25.05912","6502500","雙溪區"
"253005","032-BX","2019/12/14 18:29:39","新北市石門區老崩山2-1號","121.55354","25.29156","6502200","石門區"
"253006","295-VK","2019/12/14 18:29:49","新北市石門區公地20號","121.545765","25.2901983333333","6502200","石門區"
"222001","KEA-2212","2019/12/14 18:29:45","新北市深坑區北深路一段175號","121.633051666667","25.010895","6501800","深坑區"
"208002","KEA-2872","2019/12/14 18:29:51","新北市金山區民生路151-2號","121.644171666667","25.2230533333333","6502700","金山區"
"208003","665-BX","2019/12/14 18:29:47","新北市金山區中山路116號","121.639356666667","25.2199416666667","6502700","金山區"
"251004","009-UM","2019/12/14 18:29:48","新北市淡水區民族路31巷2號","121.462401666667","25.1363166666667","6501000","淡水區"
"251002","012-UM","2019/12/14 18:29:44","新北市淡水區竿蓁二街65號","121.454885","25.163325","6501000","淡水區"
"251015","KEA-2871","2019/12/14 18:29:44","新北市淡水區興福寮88巷179號","121.485966666667","25.1666916666667","6501000","淡水區"
"251016","180-VK","2019/12/14 18:29:51","新北市淡水區下圭柔山114-5號","121.446546666667","25.211","6501000","淡水區"
"251008","181-VK","2019/12/14 18:29:46","新北市淡水區水源街二段346巷1弄1號","121.46439","25.1755066666667","6501000","淡水區"
"251010","413-VK","2019/12/14 18:29:38","新北市淡水區沙崙路181巷1號","121.424176666667","25.1842066666667","6501000","淡水區"
"251012","441-VK","2019/12/14 18:29:47","新北市淡水區北投子55號","121.457728333333","25.1821383333333","6501000","淡水區"
"251001","559-UM","2019/12/14 18:29:39","新北市淡水區自強路120-2號","121.464238333333","25.1329566666667","6501000","淡水區"
"251006","561-UM","2019/12/14 18:29:51","新北市淡水區新生街51巷30號","121.440703333333","25.1758316666667","6501000","淡水區"
"251014","577-R6","2019/12/14 18:29:51","新北市淡水區南平20號","121.494615","25.2162933333333","6501000","淡水區"
"251011","650-BX","2019/12/14 18:29:50","新北市淡水區坪頂路51巷2號","121.458415","25.1626016666667","6501000","淡水區"
"251003","673-BX","2019/12/14 18:29:43","新北市淡水區北新路169巷14號","121.449668333333","25.1801333333333","6501000","淡水區"
"251013","178-VK","2019/12/14 18:29:37","新北市淡水區椿子林20-2號","121.481166666667","25.2032083333333","6501000","淡水區"
"252003","249-BX","2019/12/14 18:29:36","新北市三芝區後厝里北勢子43號","121.471783333333","25.2524966666667","6502100","三芝區"
"252001","292-VK","2019/12/14 18:29:35","新北市三芝區中興街二段2號","121.4984","25.2566316666667","6502100","三芝區"
"237004","KEA-2597","2019/12/14 18:29:49","新北市三峽區五寮81-4號","121.359611666667","24.8583683333333","6500900","三峽區"
"237007","153-BY","2019/12/14 18:29:52","新北市三峽區中正路三段170巷34號","121.35269","24.90458","6500900","三峽區"
"237009","210-TH","2019/12/14 18:29:43","新北市三峽區大同路253號","121.366623333333","24.9259966666667","6500900","三峽區"
"237013","252-BX","2019/12/14 18:29:50","新北市三峽區永安街9巷38號","121.376555","24.9298566666667","6500900","三峽區"
"237012","275-BY","2019/12/14 18:29:50","新北市三峽區三樹路250號","121.379405","24.9432966666667","6500900","三峽區"
"237008","302-VK","2019/12/14 18:29:50","新北市三峽區白雞68-5號","121.395921666667","24.9082916666667","6500900","三峽區"
"237014","433-BY","2019/12/14 18:29:38","新北市三峽區復興路179號","121.369548333333","24.93876","6500900","三峽區"
"237006","5529-G3","2019/12/14 18:29:41","新北市三峽區溪東路473巷17號","121.414536666667","24.928845","6500900","三峽區"
"237011","KEA-2596","2019/12/14 18:29:50","新北市三峽區溪東路218巷5弄1號","121.407353333333","24.9312233333333","6500900","三峽區"
"237015","649-BX","2019/12/14 18:29:45","新北市三峽區竹崙路144號","121.435121666667","24.909095","6500900","三峽區"
"237010","706-TV","2019/12/14 18:29:45","新北市三峽區中山路244號","121.36229","24.9374533333333","6500900","三峽區"
"237005","AKY-6261","2019/12/14 18:29:51","新北市三峽區民族街5巷68號","121.36994","24.9325866666667","6500900","三峽區"
"236042","KED-0685","2019/12/14 18:29:50","新北市土城區學成路99巷11號","121.449933333333","24.9884966666667","6501300","土城區"
"236079","166-UM","2019/12/14 18:29:37","新北市土城區中央路四段27巷10弄2號","121.424701666667","24.9617583333333","6501300","土城區"
"236030","253-BX","2019/12/14 18:29:35","新北市土城區水源街81巷16號","121.439413333333","24.9760083333333","6501300","土城區"
"236026","269-VK","2019/12/14 18:29:41","新北市土城區南天母路135巷1-1號","121.447561666667","24.9544116666667","6501300","土城區"
"236014","270-VK","2019/12/14 18:29:55","新北市土城區青雲路39巷7號","121.4603","24.9874066666667","6501300","土城區"
"236038","271-VK","2019/12/14 18:29:34","新北市土城區明德路一段307號","121.459673333333","24.977185","6501300","土城區"
"236070","KEA-2877","2019/12/14 18:29:39","新北市土城區永豐路255巷21弄2號","121.475108333333","24.9735133333333","6501300","土城區"
"252002","KED-0821","2019/12/14 18:29:45","新北市三芝區中山路二段38號","121.502981666667","25.2551166666667","6502100","三芝區"
"236021","401-BY","2019/12/14 18:29:45","新北市土城區永豐路143號","121.466641666667","24.9834983333333","6501300","土城區"
"236059","912-UM","2019/12/14 18:29:35","新北市土城區中央路四段208號","121.415981666667","24.9575033333333","6501300","土城區"
"236049","913-UM","2019/12/14 18:29:46","新北市土城區青雲路499號","121.458765","24.97337","6501300","土城區"
"236063","915-UM","2019/12/14 18:29:50","新北市土城區延壽路111巷10號","121.468831666667","24.99368","6501300","土城區"
"236055","AAC-216","2019/12/14 18:29:46","新北市土城區福祥街101巷1號","121.440971666667","24.9817333333333","6501300","土城區"
"242061","986-R7","2019/12/14 18:29:42","新北市新莊區新樹路138號","121.43562","25.0234883333333","6500500","新莊區"
"242027","613-BX","2019/12/14 18:29:53","新北市新莊區幸福路821號","121.445348333333","25.049065","6500500","新莊區"
"242058","612-BX","2019/12/14 18:29:53","新北市新莊區中正路897-10號","121.411618333333","25.0216433333333","6500500","新莊區"
"242053","497-BY","2019/12/14 18:29:46","新北市新莊區樹新路120巷40號","121.43004","24.99603","6500500","新莊區"
"242042","442-UM","2019/12/14 18:29:54","新北市新莊區天祥街92巷33號","121.415401666667","25.03028","6500500","新莊區"
"242044","415-TV","2019/12/14 18:29:42","新北市新莊區中正路732號","121.41409","25.0232183333333","6500500","新莊區"
"242051","400-BY","2019/12/14 18:29:52","新北市新莊區新樹路206巷4號","121.43356","25.0203733333333","6500500","新莊區"
"242025","362-BY","2019/12/14 18:29:51","新北市新莊區新北大道四段69號","121.448743333333","25.0587916666667","6500500","新莊區"
"242056","172-VK","2019/12/14 18:28:45","新北市新莊區瓊泰路77巷16號","121.442553333333","25.0292516666667","6500500","新莊區"
"242002","347-TH","2019/12/14 18:29:55","新北市新莊區瓊林路46-7號","121.447218333333","25.0292","6500500","新莊區"
"242009","349-TH","2019/12/14 18:29:38","新北市新莊區中華路二段126號","121.453141666667","25.049155","6500500","新莊區"
"238023","601-UM","2019/12/14 18:29:37","新北市樹林區三福街114號","121.406453333333","25.0163533333333","6500700","樹林區"
"238019","599-UM","2019/12/14 18:29:38","新北市樹林區國凱街47巷10號","121.421505","24.9799066666667","6500700","樹林區"
"238024","5061-A6","2019/12/14 18:29:47","新北市樹林區育英街2巷52號","121.423551666667","24.99055","6500700","樹林區"
"238018","KEA-2217","2019/12/14 18:29:45","新北市樹林區樹新路50號","121.42881","24.9966866666667","6500700","樹林區"
"238017","283-BY","2019/12/14 18:29:43","新北市樹林區光興街18號","121.412383333333","25.0029133333333","6500700","樹林區"
"238020","268-VK","2019/12/14 18:29:45","新北市樹林區中正路642巷19號","121.411431666667","25.0174966666667","6500700","樹林區"
"238026","172-UY","2019/12/14 18:29:40","新北市樹林區佳園路一段75巷196號","121.39707","24.9706933333333","6500700","樹林區"
"239007","AAC-297","2019/12/14 18:29:35","新北市鶯歌區建國路278號","121.34696","24.9532766666667","6500800","鶯歌區"
"239006","891-R6","2019/12/14 18:29:56","新北市鶯歌區鶯桃路242巷12號","121.336601666667","24.9599183333333","6500800","鶯歌區"
"239008","527-UM","2019/12/14 18:29:41","新北市鶯歌區朝陽街4號","121.336258333333","24.9765766666667","6500800","鶯歌區"
"239005","526-UM","2019/12/14 18:29:44","新北市鶯歌區鶯桃路668巷73號","121.329906666667","24.9717733333333","6500800","鶯歌區"
"239001","417-VK","2019/12/14 18:29:57","新北市鶯歌區高職東街19巷2弄10號","121.341156666667","24.941195","6500800","鶯歌區"
"239003","360-BY","2019/12/14 18:29:46","新北市鶯歌區福安街58號","121.335616666667","24.9651933333333","6500800","鶯歌區"
"239002","359-BY","2019/12/14 18:29:53","新北市鶯歌區中正一路建德巷2號","121.364585","24.956625","6500800","鶯歌區"
"239004","193-VK","2019/12/14 18:29:37","新北市鶯歌區尖山路166巷42號","121.34492","24.949325","6500800","鶯歌區"
"221036","130-UY","2019/12/14 18:29:35","新北市汐止區大同路三段143號","121.669346666667","25.07774","6501100","汐止區"
"221015","131-UY","2019/12/14 18:29:53","新北市汐止區鄉長路二段23巷15號","121.667806666667","25.082735","6501100","汐止區"
"244019","KED-0667","2019/12/14 18:29:55","新北市林口區麗園二街36巷9號","121.380403333333","25.06874","6501700","林口區"
"221010","269-BY","2019/12/14 18:29:43","新北市汐止區汐萬路35號","121.644305","25.091495","6501100","汐止區"
"221018","277-VK","2019/12/14 18:29:46","新北市汐止區茄苳路120巷2號","121.667735","25.06993","6501100","汐止區"
"221012","278-VK","2019/12/14 18:29:47","新北市汐止區保長路35巷16弄1號","121.673111666667","25.0798716666667","6501100","汐止區"
"221023","279-VK","2019/12/14 18:29:52","新北市汐止區康寧街474巷7-2號","121.632301666667","25.0678883333333","6501100","汐止區"
"221032","280-BY","2019/12/14 18:29:51","新北市汐止區民權街二段109巷10號","121.619446666667","25.0467683333333","6501100","汐止區"
"221027","281-BY","2019/12/14 18:29:47","新北市汐止區和平街84號","121.661493333333","25.0707733333333","6501100","汐止區"
"221029","298-VK","2019/12/14 18:29:48","新北市汐止區樟樹一路272-6號","121.642736666667","25.0688083333333","6501100","汐止區"
"221021","299-VK","2019/12/14 18:29:52","新北市汐止區新台五路一段149號","121.653428333333","25.06225","6501100","汐止區"
"207003","KEE-1020","2019/12/14 18:29:36","新北市萬里區野柳里港東路6-1號","121.686568333333","25.2032583333333","6502800","萬里區"
"221025","567-BX","2019/12/14 18:29:47","新北市汐止區秀峰路143號","121.660385","25.0621933333333","6501100","汐止區"
"221035","622-UM","2019/12/14 18:29:47","新北市汐止區大同路二段187巷8弄2號","121.652515","25.06548","6501100","汐止區"
"221038","646-BX","2019/12/14 18:29:38","新北市汐止區忠孝東路256號","121.663046666667","25.067555","6501100","汐止區"
"221033","647-BX","2019/12/14 18:29:39","新北市汐止區宜興街59巷3號","121.622293333333","25.0427983333333","6501100","汐止區"
"221002","707-TV","2019/12/14 18:29:51","新北市汐止區福德一路190號","121.63518","25.0656716666667","6501100","汐止區"
"220079","145-BY","2019/12/14 18:29:37","新北市板橋區華東街1-10號","121.448366666667","24.99506","6500100","板橋區"
"220080","200-UY","2019/12/14 18:29:50","新北市板橋區華東街1-9號","121.448151666667","24.994915","6500100","板橋區"
"224002","257-TC","2019/12/14 18:29:47","新北市瑞芳區正貿新村20號","121.81335","25.10579","6501200","瑞芳區"
"220056","276-BY","2019/12/14 18:29:39","新北市板橋區南雅南路二段146號","121.45154","24.9961583333333","6500100","板橋區"
"220072","277-BY","2019/12/14 18:29:49","新北市板橋區華東街1-10號","121.448366666667","24.9950466666667","6500100","板橋區"
"220071","283-VK","2019/12/14 18:29:47","新北市板橋區華東街1-9號","121.448133333333","24.9948566666667","6500100","板橋區"
"220084","296-UM","2019/12/14 18:29:33","新北市板橋區華東街1-9號","121.448175","24.994935","6500100","板橋區"
"242046","281-VK","2019/12/14 18:29:46","新北市新莊區中正路803巷39號","121.422021666667","25.027775","6500500","新莊區"
"242011","280-VK","2019/12/14 18:29:52","新北市新莊區中榮街84號","121.44802","25.0526666666667","6500500","新莊區"
"220035","560-BX","2019/12/14 18:29:52","新北市板橋區華東街330號","121.453071666667","25.0038216666667","6500100","板橋區"
"220057","686-BX","2019/12/14 18:29:39","新北市板橋區南雅南路二段140號","121.451798333333","24.996205","6500100","板橋區"
"220055","827-TW","2019/12/14 18:29:39","新北市板橋區四川路二段140巷16弄28號","121.44875","24.9945416666667","6500100","板橋區"
"220074","895-R6","2019/12/14 18:29:42","新北市板橋區華東街1-10號","121.448258333333","24.9949283333333","6500100","板橋區"
"220073","985-R7","2019/12/14 18:29:50","新北市板橋區四川路二段247號","121.450093333333","24.9931316666667","6500100","板橋區"
"220064","AAC-253","2019/12/14 18:29:54","新北市板橋區縣民大道一段187號","121.458638333333","25.0075633333333","6500100","板橋區"
"235061","KEA-2875","2019/12/14 18:29:36","新北市中和區民享街112號","121.474521666667","24.99925","6500300","中和區"
"235068","KEA-2876","2019/12/14 18:29:54","新北市中和區中正路271-5號","121.495808333333","24.9932366666667","6500300","中和區"
