"lineid","car","time","location","longitude","latitude","cityid","cityname"
"234046","148-BY","2019/12/14 18:43:51","新北市永和區永元路40巷51號","121.524075","25.0005983333333","6500400","永和區"
"234081","298-R6","2019/12/14 18:43:47","新北市永和區林森路81號","121.523933333333","25.00383","6500400","永和區"
"234064","337-UY","2019/12/14 18:43:45","新北市永和區福和路1號","121.526531666667","25.0100483333333","6500400","永和區"
"234086","338-UY","2019/12/14 18:43:41","新北市中和區安樂路71-1號","121.512515","24.9940116666667","6500400","永和區"
"234017","745-BX","2019/12/14 18:43:47","新北市永和區環河西路一段1號","121.515421666667","25.0180633333333","6500400","永和區"
"234030","746-BX","2019/12/14 18:43:47","新北市永和區得和路321號","121.523363333333","24.9996533333333","6500400","永和區"
"234054","KEA-2590","2019/12/14 18:43:50","新北市永和區福和路1號","121.525983333333","25.0094366666667","6500400","永和區"
"234007","KED-0605","2019/12/14 18:43:37","新北市永和區文化路164號","121.512145","25.0153683333333","6500400","永和區"
"234013","KEA-2591","2019/12/14 18:43:49","新北市永和區保福路二段105號","121.510201666667","25.0133716666667","6500400","永和區"
"234061","AAD-866","2019/12/14 18:43:54","新北市永和區福和路100號","121.522248333333","25.0079716666667","6500400","永和區"
"234042","862-TW","2019/12/14 18:43:38","新北市永和區永貞路308號","121.511875","25.0048833333333","6500400","永和區"
"234050","863-TW","2019/12/14 18:43:49","新北市永和區福和路1號","121.525466666667","25.0095616666667","6500400","永和區"
"234011","9373-KE","2019/12/14 18:43:40","新北市永和區仁愛路31巷2弄7號","121.51376","25.012805","6500400","永和區"
"249005","172-UM","2019/12/14 18:43:53","新北市八里區長道坑16-6號","121.394886666667","25.1161433333333","6502300","八里區"
"249001","173-UM","2019/12/14 18:43:40","新北市八里區龍米路一段263-2號","121.449955","25.13625","6502300","八里區"
"249004","303-UY","2019/12/14 18:43:42","新北市八里區中山路一段39號","121.419841666667","25.1597283333333","6502300","八里區"
"249002","305-UY","2019/12/14 18:43:35","新北市八里區頂寮二街138號","121.449311666667","25.1294533333333","6502300","八里區"
"248014","025-BX","2019/12/14 18:43:52","新北市五股區民義路一段107巷32號","121.432088333333","25.0849633333333","6501500","五股區"
"248016","026-BX","2019/12/14 18:43:45","新北市五股區凌雲路一段149巷42號","121.448623333333","25.100905","6501500","五股區"
"248008","KED-0815","2019/12/14 18:43:39","新北市五股區中興路一段151巷31號","121.465193333333","25.0722583333333","6501500","五股區"
"248020","KED-0813","2019/12/14 18:41:34","新北市五股區凌雲路三段田埔巷16號","121.43803","25.1215166666667","6501500","五股區"
"248012","247-BX","2019/12/14 18:43:44","新北市五股區成泰路三段6號","121.44108","25.087525","6501500","五股區"
"248010","272-BY","2019/12/14 18:43:51","新北市五股區水碓九路140號","121.430201666667","25.073115","6501500","五股區"
"248004","677-BX","2019/12/14 18:43:51","新北市五股區民義路二段5號","121.421191666667","25.0962283333333","6501500","五股區"
"248002","678-BX","2019/12/14 18:43:41","新北市五股區西雲路240號","121.448806666667","25.0968983333333","6501500","五股區"
"234023","9380-KE","2019/12/14 18:43:51","新北市永和區環河東路二段90號","121.523833333333","25.0105883333333","6500400","永和區"
"234077","969-R7","2019/12/14 18:43:43","新北市永和區中正路2巷5號","121.512838333333","24.9934283333333","6500400","永和區"
"234067","AAC-212","2019/12/14 18:43:55","新北市中和區永貞路274-3號","121.513446666667","25.0037816666667","6500400","永和區"
"234003","AAC-295","2019/12/14 18:43:53","新北市永和區福和路79號","121.522448333333","25.0079166666667","6500400","永和區"
"232011","375-UM","2019/12/14 18:17:04","新北市坪林區坪雙路一段41號","121.711678333333","24.9424416666667","6502000","坪林區"
"244007","080-UY","2019/12/14 18:43:45","新北市林口區太平里20-1號","121.377613333333","25.1158233333333","6501700","林口區"
"244013","KEA-2802","2019/12/14 18:43:49","新北市林口區麗園一街6巷2-3號","121.376295","25.0699433333333","6501700","林口區"
"244023","483-VK","2019/12/14 18:43:52","新北市林口區文化二路二段76號","121.378481666667","25.0809416666667","6501700","林口區"
"244017","485-VK","2019/12/14 18:43:38","新北市林口區文化二路一段20巷13號","121.365338333333","25.067265","6501700","林口區"
"244009","657-BX","2019/12/14 18:43:34","新北市林口區竹林路346巷5號","121.391931666667","25.0836283333333","6501700","林口區"
"244011","701-TV","2019/12/14 18:43:38","新北市林口區仁愛路一段285巷32號","121.395573333333","25.075275","6501700","林口區"
"244025","837-TS","2019/12/14 18:43:42","新北市林口區南勢六街248號","121.355971666667","25.0748316666667","6501700","林口區"
"244021","838-TS","2019/12/14 18:43:52","新北市林口區工六路100號","121.401316666667","25.0766083333333","6501700","林口區"
"208001","267-VK","2019/12/14 18:43:50","新北市金山區文化三路66巷1號","121.634218333333","25.2256316666667","6502700","金山區"
"222003","436-BY","2019/12/14 18:43:46","新北市深坑區翠谷街15號","121.626586666667","25.00837","6501800","深坑區"
"222002","659-BX","2019/12/14 18:43:51","新北市深坑區文山路一段64號","121.623571666667","25.0007383333333","6501800","深坑區"
"231061","002-UM","2019/12/14 18:43:43","新北市新店區安華路28-1號","121.519556666667","24.9608483333333","6500600","新店區"
"231055","0291-UT","2019/12/14 18:43:38","新北市新店區華興街24號","121.537558333333","24.969265","6500600","新店區"
"231058","0293-UT","2019/12/14 18:43:45","新北市新店區國校路76-1號","121.538611666667","24.9531116666667","6500600","新店區"
"231043","047-UY","2019/12/14 18:43:48","新北市新店區安華路28-1號","121.519271666667","24.9608866666667","6500600","新店區"
"231060","106-UY","2019/12/14 18:43:43","新北市新店區安華路28-1號","121.519611666667","24.9608233333333","6500600","新店區"
"231049","108-UY","2019/12/14 18:43:41","新北市新店區安康路一段162號","121.526108333333","24.9630466666667","6500600","新店區"
"231065","110-UY","2019/12/14 18:43:51","新北市新店區車子路18-1號","121.505643333333","24.954605","6500600","新店區"
"231050","KEA-2219","2019/12/14 18:43:38","新北市新店區安一路一段1-1號","121.519746666667","24.9612216666667","6500600","新店區"
"221031","KEA-2785","2019/12/14 18:43:49","新北市汐止區大同路一段312號","121.637336666667","25.0588116666667","6501100","汐止區"
"231062","256-BX","2019/12/14 18:43:49","新北市新店區安一路一段1-1號","121.519641666667","24.9611266666667","6500600","新店區"
"231054","260-TV","2019/12/14 18:43:38","新北市新店區安一路一段1-1號","121.519263333333","24.961275","6500600","新店區"
"231042","268-BY","2019/12/14 18:43:57","新北市新店區安一路一段1-1號","121.519735","24.9615833333333","6500600","新店區"
"231064","278-BY","2019/12/14 18:43:48","新北市新店區安一路一段1-1號","121.519641666667","24.961105","6500600","新店區"
"231045","355-BY","2019/12/14 18:43:54","新北市新店區安華路28-1號","121.519325","24.96095","6500600","新店區"
"231056","4715-K9","2019/12/14 18:43:39","新北市新店區建國路164號","121.538425","24.9795016666667","6500600","新店區"
"231067","4772-VM","2019/12/14 18:43:51","新北市新店區安華路28-1號","121.51934","24.9606283333333","6500600","新店區"
"231041","619-UM","2019/12/14 18:43:38","新北市新店區安華路28-1號","121.519551666667","24.9608683333333","6500600","新店區"
"231063","641-BX","2019/12/14 18:43:57","新北市新店區安華路28-1號","121.51955","24.9605516666667","6500600","新店區"
"231048","KED-0819","2019/12/14 18:43:46","新北市新店區安康路一段222-2號","121.522916666667","24.9636666666667","6500600","新店區"
"231052","718-UY","2019/12/14 18:43:50","新北市新店區永興路34號","121.543608333333","24.9388","6500600","新店區"
"231046","719-UM","2019/12/14 18:43:50","新北市新店區直潭二街1號","121.535403333333","24.9431466666667","6500600","新店區"
"231057","720-UM","2019/12/14 18:43:44","新北市新店區新烏路一段60號","121.546106666667","24.9487433333333","6500600","新店區"
"231059","897-TW","2019/12/14 18:43:48","新北市新店區安華路28-1號","121.51953","24.960885","6500600","新店區"
"231040","898-TW","2019/12/14 18:43:35","新北市新店區安華路28-1號","121.519451666667","24.9608116666667","6500600","新店區"
"231066","AKT-0513","2019/12/14 18:43:55","新北市新店區安豐路49號","121.50003","24.954895","6500600","新店區"
"241018","268-UM","2019/12/14 18:33:44","新北市三重區大智街65號","121.492545","25.0680883333333","6500200","三重區"
"241035","462-BY","2019/12/14 18:43:51","新北市三重區重新路四段121號","121.48489","25.0519266666667","6500200","三重區"
"235066","003-UY","2019/12/14 18:43:36","新北市中和區水源路102號","121.506095","25.0034616666667","6500300","中和區"
"235064","005-UY","2019/12/14 18:43:53","新北市中和區泰和街46巷2號","121.49867","25.0001266666667","6500300","中和區"
"235063","006-UY","2019/12/14 18:43:52","新北市中和區連城路319巷12號","121.489165","24.9951166666667","6500300","中和區"
"235056","096-UM","2019/12/14 18:43:46","新北市中和區員山路494號","121.479716666667","25.0070533333333","6500300","中和區"
"235039","097-UM","2019/12/14 18:43:42","新北市中和區保健路123號","121.512521666667","24.9962266666667","6500300","中和區"
"235065","098-UM","2019/12/14 18:43:55","新北市中和區中山路二段2巷81弄2號","121.500775","25.0073483333333","6500300","中和區"
"235040","150-BY","2019/12/14 18:43:54","新北市中和區宜安路41號","121.511941666667","24.99635","6500300","中和區"
"235058","151-BY","2019/12/14 18:43:42","新北市中和區連城路428巷2號","121.480071666667","24.9951766666667","6500300","中和區"
"235055","183-VK","2019/12/14 18:43:37","新北市中和區民生街85巷1弄2號","121.469081666667","25.0045083333333","6500300","中和區"
"235038","185-VK","2019/12/14 18:43:43","新北市中和區自強路60號","121.519848333333","24.9945383333333","6500300","中和區"
"235067","255-BX","2019/12/14 18:43:48","新北市中和區新生街13巷5-1號","121.483551666667","25.004315","6500300","中和區"
"235044","293-VK","2019/12/14 18:43:49","新北市中和區復興路280巷28號","121.501756666667","24.9917383333333","6500300","中和區"
"235072","301-VK","2019/12/14 18:43:49","新北市中和區中山路二段44號","121.504328333333","25.004945","6500300","中和區"
"235043","352-BY","2019/12/14 18:43:48","新北市中和區景平路1號","121.525508333333","24.990185","6500300","中和區"
"235042","KEA-2878","2019/12/14 18:43:54","新北市中和區秀朗路三段153巷17號","121.525448333333","24.9916516666667","6500300","中和區"
"235050","4979-A6","2019/12/14 18:43:48","新北市中和區景新街496巷30弄25號","121.51274","24.9855816666667","6500300","中和區"
"235069","4980-A6","2019/12/14 18:43:48","新北市中和區泰和街12號","121.499996666667","25.0010583333333","6500300","中和區"
"235070","558-UM","2019/12/14 18:43:37","新北市中和區中和路241號","121.504718333333","24.9999","6500300","中和區"
"235045","565-BX","2019/12/14 18:43:47","新北市中和區捷運路155號","121.506511666667","24.9911716666667","6500300","中和區"
"235060","KED-0823","2019/12/14 18:43:51","新北市中和區民治街3巷2號","121.475016666667","25.00518","6500300","中和區"
"235054","640-BX","2019/12/14 18:43:38","新北市中和區民享街29-1號","121.474086666667","25.00421","6500300","中和區"
"235047","732-UM","2019/12/14 18:43:41","新北市中和區興南路二段34巷71號","121.504918333333","24.9851","6500300","中和區"
"235046","733-UM","2019/12/14 18:43:54","新北市中和區仁愛街36巷44號","121.51133","24.9863383333333","6500300","中和區"
"235062","800-TS","2019/12/14 18:43:56","新北市中和區中山路二段362-6號","121.492355","25.0027566666667","6500300","中和區"
"235057","801-TS","2019/12/14 18:43:50","新北市中和區民安街53-5號","121.479431666667","24.9996083333333","6500300","中和區"
"235041","802-TS","2019/12/14 18:43:51","新北市中和區宜安路118巷18號","121.510801666667","24.9985816666667","6500300","中和區"
"235052","805-TS","2019/12/14 18:43:34","新北市中和區興南路三段21號","121.497008333333","24.97941","6500300","中和區"
"235048","896-TW","2019/12/14 18:43:44","新北市中和區南山路310號","121.507886666667","24.9869","6500300","中和區"
"235053","900-TW","2019/12/14 18:43:34","新北市中和區華福街6號","121.465455","24.9968233333333","6500300","中和區"
"235051","157-BY","2019/12/14 18:43:50","新北市中和區忠孝街42號","121.510935","24.9833933333333","6500300","中和區"
"235037","AAC-213","2019/12/14 18:43:48","新北市中和區自立路141巷36號","121.524025","24.993845","6500300","中和區"
"235059","AAC-215","2019/12/14 18:43:39","新北市中和區錦和路410號","121.490923333333","24.9895183333333","6500300","中和區"
"207004","KEE-1107","2019/12/14 18:43:45","新北市萬里區萬里里獅頭路4-1號","121.692235","25.1778633333333","6502800","萬里區"
"220054","015-TV","2019/12/14 18:43:41","新北市板橋區南雅南路一段1巷42號","121.457556666667","25.0063366666667","6500100","板橋區"
"220065","072-UY","2019/12/14 18:43:55","新北市板橋區成都街29號","121.461033333333","25.0048916666667","6500100","板橋區"
"220086","073-UY","2019/12/14 18:43:45","新北市板橋區南雅西路二段145巷3號","121.45171","25.0114766666667","6500100","板橋區"
"220106","075-UY","2019/12/14 18:43:42","新北市板橋區文化路二段22號","121.468928333333","25.0244033333333","6500100","板橋區"
"220069","AAD-861","2019/12/14 18:43:45","新北市板橋區大華街94號","121.459271666667","25.0056066666667","6500100","板橋區"
"226004","312-R5","2019/12/14 18:43:48","新北市平溪區平溪里三坑路51號","121.734536666667","25.029185","6502400","平溪區"
"235049","251-BX","2019/12/14 18:43:38","新北市中和區景安路132巷4弄1號","121.50474","24.9944683333333","6500300","中和區"
"228003","097-TW","2019/12/14 18:43:55","新北市貢寮區和美里龍洞街1-5號","121.91919","25.1124233333333","6502600","貢寮區"
"228001","212-TW","2019/12/14 18:43:43","新北市貢寮區仁理村研海街12-1號","121.923793333333","25.051685","6502600","貢寮區"
"228002","663-BX","2019/12/14 18:43:42","新北市貢寮區福隆里東興街6-11號","121.950741666667","25.0210683333333","6502600","貢寮區"
"224006","676-BX","2019/12/14 18:43:52","新北市瑞芳區明燈路三段85號","121.805033333333","25.1083216666667","6501200","瑞芳區"
"224007","285-BY","2019/12/14 18:43:46","新北市瑞芳區大埔路186-1號","121.761486666667","25.1012583333333","6501200","瑞芳區"
"224009","275-VK","2019/12/14 18:43:48","新北市瑞芳區祈堂路53-1號","121.859598333333","25.1104533333333","6501200","瑞芳區"
"224008","273-VK","2019/12/14 18:43:53","新北市瑞芳區逢甲路282巷5弄2號","121.803576666667","25.1114583333333","6501200","瑞芳區"
"224005","271-BY","2019/12/14 18:43:47","新北市瑞芳區永龍新村2號","121.819193333333","25.1195283333333","6501200","瑞芳區"
"227002","642-TC","2019/12/14 18:43:43","新北市雙溪區魚行里坤溪3-5號","121.875233333333","25.0215433333333","6502500","雙溪區"
"227001","400-TW","2019/12/14 18:43:48","新北市雙溪區牡丹里下坑11號","121.850978333333","25.0561766666667","6502500","雙溪區"
"253005","032-BX","2019/12/14 18:43:39","新北市石門區中山路28-3號","121.565861666667","25.28991","6502200","石門區"
"253006","295-VK","2019/12/14 18:43:49","新北市石門區八甲1-7號","121.521043333333","25.2837983333333","6502200","石門區"
"222001","KEA-2212","2019/12/14 18:43:45","新北市深坑區松柏街43巷2號","121.638738333333","25.011975","6501800","深坑區"
"208002","KEA-2872","2019/12/14 18:43:51","新北市金山區仁愛路37號","121.636295","25.2193733333333","6502700","金山區"
"208003","665-BX","2019/12/14 18:43:52","新北市金山區中山路379號","121.634135","25.224725","6502700","金山區"
"251004","009-UM","2019/12/14 18:43:48","新北市淡水區民權路3巷20號","121.461688333333","25.1428933333333","6501000","淡水區"
"251002","012-UM","2019/12/14 18:43:44","新北市淡水區中正東路71-4號","121.44736","25.1675416666667","6501000","淡水區"
"251015","KEA-2871","2019/12/14 18:43:44","新北市淡水區興福寮66巷62號","121.487491666667","25.16283","6501000","淡水區"
"251016","180-VK","2019/12/14 18:43:51","新北市淡水區下圭柔山76-12號","121.443561666667","25.20572","6501000","淡水區"
"251008","181-VK","2019/12/14 18:43:46","新北市淡水區北投子80號","121.460986666667","25.17863","6501000","淡水區"
"251010","413-VK","2019/12/14 18:43:53","新北市淡水區沙崙路116號","121.423145","25.1826016666667","6501000","淡水區"
"251012","441-VK","2019/12/14 18:43:47","新北市淡水區北新路121號","121.449015","25.1786483333333","6501000","淡水區"
"251001","559-UM","2019/12/14 18:43:38","新北市淡水區自強路415巷2號","121.465488333333","25.1342566666667","6501000","淡水區"
"251006","561-UM","2019/12/14 18:43:51","新北市淡水區崁頂59-2號","121.441471666667","25.1986633333333","6501000","淡水區"
"251014","577-R6","2019/12/14 18:43:51","新北市淡水區崙頂12-8號","121.495568333333","25.2172233333333","6501000","淡水區"
"251011","650-BX","2019/12/14 18:43:47","新北市淡水區平遠街1-4號","121.44804","25.1676483333333","6501000","淡水區"
"251003","673-BX","2019/12/14 18:43:43","新北市淡水區北新路69巷26號","121.446743333333","25.1800916666667","6501000","淡水區"
"251013","178-VK","2019/12/14 18:43:37","新北市淡水區雲廣坑5號","121.474923333333","25.2131433333333","6501000","淡水區"
"252003","249-BX","2019/12/14 18:43:36","新北市三芝區後厝里大片頭83-19號","121.45874","25.243985","6502100","三芝區"
"252001","292-VK","2019/12/14 18:43:35","新北市三芝區中正路三段20號","121.502653333333","25.2530633333333","6502100","三芝區"
"237004","KEA-2597","2019/12/14 18:43:49","新北市三峽區插角112號","121.408065","24.8703333333333","6500900","三峽區"
"237007","153-BY","2019/12/14 18:43:52","新北市三峽區中正路二段570號","121.359618333333","24.906055","6500900","三峽區"
"237009","210-TH","2019/12/14 18:43:43","新北市三峽區民權街207號","121.367686666667","24.9286333333333","6500900","三峽區"
"237013","252-BX","2019/12/14 18:43:50","新北市三峽區大同路48巷17弄8-1號","121.376796666667","24.9291333333333","6500900","三峽區"
"237012","275-BY","2019/12/14 18:43:50","新北市三峽區三樹路340號","121.383976666667","24.9433233333333","6500900","三峽區"
"237008","302-VK","2019/12/14 18:43:50","新北市三峽區白雞33-60號","121.37089","24.91313","6500900","三峽區"
"237014","433-BY","2019/12/14 18:43:38","新北市三峽區隆恩街162號","121.365726666667","24.9436566666667","6500900","三峽區"
"237006","5529-G3","2019/12/14 18:43:41","新北市三峽區溪東路315巷42號","121.411286666667","24.9312033333333","6500900","三峽區"
"237011","KEA-2596","2019/12/14 18:43:50","新北市三峽區溪東路429號","121.412613333333","24.9285433333333","6500900","三峽區"
"237015","649-BX","2019/12/14 18:43:46","新北市三峽區安坑1-3號","121.43416","24.9242483333333","6500900","三峽區"
"237010","706-TV","2019/12/14 18:43:45","新北市三峽區復興路485號","121.361346666667","24.9384833333333","6500900","三峽區"
"237005","AKY-6261","2019/12/14 18:43:51","新北市三峽區新興街14號","121.372638333333","24.9356683333333","6500900","三峽區"
"236042","KED-0685","2019/12/14 18:43:50","新北市土城區裕民路92巷23弄1號","121.449855","24.9863033333333","6501300","土城區"
"236079","166-UM","2019/12/14 18:43:37","新北市土城區中央路四段47號","121.422088333333","24.9617916666667","6501300","土城區"
"236030","253-BX","2019/12/14 18:43:35","新北市土城區慶樂街31號","121.43858","24.97308","6501300","土城區"
"236026","269-VK","2019/12/14 18:43:41","新北市土城區農豐街12-1號","121.442516666667","24.973935","6501300","土城區"
"236014","270-VK","2019/12/14 18:43:35","新北市土城區清水路278巷28弄16號","121.462558333333","24.9823883333333","6501300","土城區"
"236038","271-VK","2019/12/14 18:43:54","新北市土城區明德路一段235巷16-1號","121.463196666667","24.9777766666667","6501300","土城區"
"236070","KEA-2877","2019/12/14 18:43:41","新北市土城區延和路21巷25號","121.463733333333","24.9889","6501300","土城區"
"252002","KED-0821","2019/12/14 18:43:45","新北市三芝區民生街17號","121.503668333333","25.2569533333333","6502100","三芝區"
"236021","401-BY","2019/12/14 18:43:48","新北市土城區延安街76號","121.468108333333","24.9840266666667","6501300","土城區"
"236059","912-UM","2019/12/14 18:43:55","新北市土城區忠義路47號","121.44052","24.9692766666667","6501300","土城區"
"236049","913-UM","2019/12/14 18:43:46","新北市土城區青雲路107-1號","121.459116666667","24.9855216666667","6501300","土城區"
"236063","915-UM","2019/12/14 18:43:45","新北市土城區延壽路13巷19號","121.469881666667","24.9913216666667","6501300","土城區"
"236055","AAC-216","2019/12/14 18:43:46","新北市土城區裕民路145-1號","121.451741666667","24.9863233333333","6501300","土城區"
"242061","986-R7","2019/12/14 18:43:42","新北市新莊區民安路188巷4號","121.425208333333","25.0235333333333","6500500","新莊區"
"242058","612-BX","2019/12/14 18:43:53","新北市新莊區中正路879-6號","121.417728333333","25.0261716666667","6500500","新莊區"
"242009","349-TH","2019/12/14 18:43:38","新北市新莊區瓊林路59-66號","121.441493333333","25.0227016666667","6500500","新莊區"
"238023","601-UM","2019/12/14 18:43:37","新北市樹林區三福街114號","121.406398333333","25.0163083333333","6500700","樹林區"
"238024","5061-A6","2019/12/14 18:43:46","新北市樹林區太順街79巷17號","121.41718","24.9781116666667","6500700","樹林區"
"238022","KEA-2213","2019/12/14 18:43:55","新北市樹林區中華路393號","121.411376666667","24.980485","6500700","樹林區"
"238017","283-BY","2019/12/14 18:43:43","新北市樹林區光興街83-3號","121.409893333333","25.0026383333333","6500700","樹林區"
"238020","268-VK","2019/12/14 18:43:45","新北市樹林區俊英街223巷2號","121.423665","25.0135683333333","6500700","樹林區"
"238026","172-UY","2019/12/14 18:43:40","新北市樹林區育德街78-1號","121.387991666667","24.9680533333333","6500700","樹林區"
"239007","AAC-297","2019/12/14 18:43:55","新北市鶯歌區中正一路建德巷38號","121.364498333333","24.9577233333333","6500800","鶯歌區"
"239006","891-R6","2019/12/14 18:43:36","新北市鶯歌區鶯桃路285巷6號","121.334541666667","24.9593216666667","6500800","鶯歌區"
"239008","527-UM","2019/12/14 18:43:41","新北市鶯歌區朝陽街2號","121.33624","24.976595","6500800","鶯歌區"
"239005","526-UM","2019/12/14 18:43:44","桃園市八德區桃鶯路30號","121.326715","24.971455","6500800","鶯歌區"
"239001","417-VK","2019/12/14 18:43:37","新北市鶯歌區國中街197號","121.338238333333","24.9391766666667","6500800","鶯歌區"
"239003","360-BY","2019/12/14 18:43:46","新北市鶯歌區福安街58號","121.335563333333","24.9652483333333","6500800","鶯歌區"
"239002","359-BY","2019/12/14 18:43:53","新北市鶯歌區國慶街169號","121.351235","24.9529783333333","6500800","鶯歌區"
"239004","193-VK","2019/12/14 18:43:41","新北市鶯歌區尖山路323號","121.341843333333","24.9444016666667","6500800","鶯歌區"
"221036","130-UY","2019/12/14 18:43:37","新北市汐止區長興街一段49號","121.670281666667","25.0791733333333","6501100","汐止區"
"221015","131-UY","2019/12/14 18:43:53","新北市汐止區鄉友街6號","121.66826","25.0806733333333","6501100","汐止區"
"244019","KED-0667","2019/12/14 18:43:55","新北市林口區麗園二街1巷4-3號","121.377415","25.0700516666667","6501700","林口區"
"221010","269-BY","2019/12/14 18:43:43","新北市汐止區汐萬路三段268號","121.643075","25.1056116666667","6501100","汐止區"
"221018","277-VK","2019/12/14 18:43:46","新北市汐止區茄苳路250巷17號","121.671715","25.0677133333333","6501100","汐止區"
"221012","278-VK","2019/12/14 18:43:40","新北市汐止區保長路149號","121.677041666667","25.0765033333333","6501100","汐止區"
"221032","280-BY","2019/12/14 18:43:51","新北市汐止區福山街60巷16號","121.618363333333","25.0461416666667","6501100","汐止區"
"221029","298-VK","2019/12/14 18:43:48","新北市汐止區樟樹一路95號","121.641996666667","25.0635366666667","6501100","汐止區"
"221021","299-VK","2019/12/14 18:43:38","新北市汐止區復興路74號","121.657181666667","25.0620266666667","6501100","汐止區"
"207003","KEE-1020","2019/12/14 18:43:43","新北市萬里區野柳里港東路152號","121.68929","25.205095","6502800","萬里區"
"221025","567-BX","2019/12/14 18:43:47","新北市汐止區仁愛路120號","121.662865","25.06382","6501100","汐止區"
"221035","622-UM","2019/12/14 18:43:47","新北市汐止區大同路二段37號","121.647796666667","25.0633916666667","6501100","汐止區"
"221002","707-TV","2019/12/14 18:43:51","新北市汐止區大同路一段149號","121.632103333333","25.0560716666667","6501100","汐止區"
"220079","145-BY","2019/12/14 18:43:36","新北市板橋區南雅西路二段221號","121.451556666667","25.0139166666667","6500100","板橋區"
"220080","200-UY","2019/12/14 18:43:50","新北市板橋區大觀路二段265巷76弄26號","121.441533333333","24.9967466666667","6500100","板橋區"
"220030","610-BX","2019/12/14 18:43:43","新北市板橋區篤行路二段117-1號","121.431401666667","24.990915","6500100","板橋區"
"220101","245-BX","2019/12/14 18:43:55","新北市板橋區文化路二段82號","121.46972","25.0258016666667","6500100","板橋區"
"224002","257-TC","2019/12/14 18:43:42","新北市瑞芳區明燈路二段56號","121.809978333333","25.1075216666667","6501200","瑞芳區"
"220056","276-BY","2019/12/14 18:43:45","新北市板橋區四川路一段147號","121.459973333333","25.0042266666667","6500100","板橋區"
"220072","277-BY","2019/12/14 18:43:49","新北市板橋區金門街23號","121.43346","24.9944533333333","6500100","板橋區"
"220094","283-UM","2019/12/14 18:43:43","新北市板橋區民生路二段89-6號","121.470895","25.019305","6500100","板橋區"
"220071","283-VK","2019/12/14 18:43:47","新北市板橋區四川路一段253號","121.459766666667","25.0025716666667","6500100","板橋區"
"220053","285-VK","2019/12/14 18:43:50","新北市板橋區民生路二段80號","121.471933333333","25.01846","6500100","板橋區"
"220083","286-VK","2019/12/14 18:43:36","新北市板橋區大觀路二段22號","121.446598333333","25.003285","6500100","板橋區"
"220081","287-VK","2019/12/14 18:43:53","新北市板橋區館前西路162號","121.452626666667","25.00857","6500100","板橋區"
"220090","288-VK","2019/12/14 18:43:48","新北市板橋區民生路三段107號","121.466531666667","25.025235","6500100","板橋區"
"220061","293-UM","2019/12/14 18:43:48","新北市板橋區太和街4巷7號","121.474136666667","25.0199433333333","6500100","板橋區"
"220084","296-UM","2019/12/14 18:43:53","新北市板橋區大觀路二段174巷102弄19號","121.441628333333","25.001205","6500100","板橋區"
"220075","303-R5","2019/12/14 18:43:40","新北市板橋區館前西路168-1號","121.45198","25.0082466666667","6500100","板橋區"
"220062","305-R5","2019/12/14 18:43:52","新北市板橋區觀光街2-4號","121.472206666667","25.015505","6500100","板橋區"
"220092","307-R5","2019/12/14 18:43:40","新北市板橋區漢生東路27-1號","121.465286666667","25.01704","6500100","板橋區"
"220098","317-R6","2019/12/14 18:43:44","新北市板橋區民生路二段226巷6弄2號","121.469615","25.0218233333333","6500100","板橋區"
"220089","487-VK","2019/12/14 18:43:34","新北市板橋區文化路二段28號","121.469201666667","25.02498","6500100","板橋區"
"220088","491-VK","2019/12/14 18:43:49","新北市板橋區民生路二段148號","121.471365","25.0198033333333","6500100","板橋區"
"220035","560-BX","2019/12/14 18:43:52","新北市板橋區南雅西路二段301巷16號","121.451815","25.0161766666667","6500100","板橋區"
"220063","609-BX","2019/12/14 18:43:54","新北市板橋區民生路一段109號","121.474018333333","25.0143483333333","6500100","板橋區"
"220057","686-BX","2019/12/14 18:43:39","新北市板橋區重慶路37號","121.461671666667","25.0075733333333","6500100","板橋區"
"220077","687-BX","2019/12/14 18:43:45","新北市板橋區大觀路二段419號","121.441033333333","24.9958766666667","6500100","板橋區"
"220093","689-BX","2019/12/14 18:43:36","新北市板橋區民生路二段161巷1號","121.469908333333","25.0199266666667","6500100","板橋區"
"220102","KEA-2699","2019/12/14 18:43:41","新北市板橋區民生路二段56-6號","121.470948333333","25.0189916666667","6500100","板橋區"
"220055","827-TW","2019/12/14 18:43:39","新北市板橋區忠孝路103號","121.462525","25.002285","6500100","板橋區"
"220014","829-TW","2019/12/14 18:43:51","新北市板橋區三民路二段正隆巷45號","121.476738333333","25.01351","6500100","板橋區"
"220068","830-TW","2019/12/14 18:43:42","新北市板橋區大同街27號","121.477616666667","25.0271","6500100","板橋區"
"220074","895-R6","2019/12/14 18:43:42","新北市板橋區南門街44號","121.456941666667","25.0081183333333","6500100","板橋區"
"220073","985-R7","2019/12/14 18:43:50","新北市板橋區華興街49號","121.457765","25.0045983333333","6500100","板橋區"
"220064","AAC-253","2019/12/14 18:43:57","新北市板橋區中山路二段18號","121.472396666667","25.0150183333333","6500100","板橋區"
"235061","KEA-2875","2019/12/14 18:43:45","新北市中和區民治街132巷9號","121.474895","25.0022666666667","6500300","中和區"
"235068","KEA-2876","2019/12/14 18:43:54","新北市中和區中正路175號","121.497581666667","24.9934633333333","6500300","中和區"
