"lineid","car","time","location","longitude","latitude","cityid","cityname"
"234046","148-BY","2019/12/14 20:13:22","新北市永和區得和路372號","121.524486666667","24.999345","6500400","永和區"
"234081","298-R6","2019/12/14 20:13:27","新北市永和區國中路109巷5弄2號","121.523705","25.0051716666667","6500400","永和區"
"234038","336-UY","2019/12/14 20:13:21","新北市永和區成功路一段93巷23弄13號","121.528486666667","25.003395","6500400","永和區"
"234064","337-UY","2019/12/14 20:13:25","新北市永和區得和路249-4號","121.520916666667","24.9999133333333","6500400","永和區"
"234086","338-UY","2019/12/14 20:13:21","新北市永和區福和路277號","121.517471666667","25.0074333333333","6500400","永和區"
"234070","552-UM","2019/12/14 20:13:17","新北市永和區永亨路31號","121.519725","25.0062133333333","6500400","永和區"
"234017","745-BX","2019/12/14 20:13:07","新北市永和區文化路29號","121.514876666667","25.0150266666667","6500400","永和區"
"234030","746-BX","2019/12/14 20:13:25","新北市永和區民族街81巷1號","121.51867","24.9966916666667","6500400","永和區"
"234054","KEA-2590","2019/12/14 20:13:11","新北市永和區光復街4號","121.516341666667","25.0167866666667","6500400","永和區"
"234007","KED-0605","2019/12/14 20:13:17","新北市永和區環河西路二段217巷5號","121.501658333333","25.0098766666667","6500400","永和區"
"234013","KEA-2591","2019/12/14 20:13:08","新北市永和區保生路3號","121.506545","25.0074866666667","6500400","永和區"
"234061","AAD-866","2019/12/14 20:13:13","新北市永和區中正路129巷7號","121.515473333333","24.9981483333333","6500400","永和區"
"234042","862-TW","2019/12/14 20:13:18","新北市永和區雙和街43號","121.508881666667","25.0029716666667","6500400","永和區"
"234050","863-TW","2019/12/14 20:13:08","新北市永和區環河西路二段37號","121.507321666667","25.015695","6500400","永和區"
"249005","172-UM","2019/12/14 20:13:13","新北市八里區下罟子5號","121.387223333333","25.141605","6502300","八里區"
"249001","173-UM","2019/12/14 20:13:06","新北市八里區中華路二段342號","121.402843333333","25.1476116666667","6502300","八里區"
"249004","303-UY","2019/12/14 20:13:06","新北市八里區中山路一段400號","121.411683333333","25.1583816666667","6502300","八里區"
"249002","305-UY","2019/12/14 20:13:15","新北市八里區龍米路一段2-1號","121.458106666667","25.1148566666667","6502300","八里區"
"249003","593-UM","2019/12/14 20:13:07","新北市八里區中山路二段447巷2號","121.396953333333","25.1453866666667","6502300","八里區"
"248016","026-BX","2019/12/14 20:13:24","新北市五股區凌雲路一段158巷50弄19號","121.44779","25.1044166666667","6501500","五股區"
"248012","247-BX","2019/12/14 20:13:24","新北市五股區六合街107號","121.429763333333","25.090465","6501500","五股區"
"248010","272-BY","2019/12/14 20:13:11","新北市五股區成泰路一段7巷20號","121.433098333333","25.066895","6501500","五股區"
"248004","677-BX","2019/12/14 20:12:54","新北市五股區中興路四段23號","121.43892","25.0825983333333","6501500","五股區"
"248002","678-BX","2019/12/14 20:13:26","新北市五股區成泰路三段265號","121.44695","25.09391","6501500","五股區"
"234023","9380-KE","2019/12/14 20:13:11","新北市永和區永和路二段127號","121.515011666667","25.012145","6500400","永和區"
"234077","969-R7","2019/12/14 20:13:23","新北市永和區智光街126號","121.515046666667","24.99565","6500400","永和區"
"234074","AAC-211","2019/12/14 20:13:15","新北市永和區竹林路191巷3號","121.520883333333","25.0095666666667","6500400","永和區"
"234067","AAC-212","2019/12/14 20:13:15","新北市永和區保平路214巷12弄3號","121.509005","25.00679","6500400","永和區"
"234003","AAC-295","2019/12/14 20:13:13","新北市永和區自強街28巷1號","121.51567","25.007965","6500400","永和區"
"243012","AAD-798","2019/12/14 20:13:13","新北市泰山區楓江路46巷11號","121.4355","25.0617566666667","6501600","泰山區"
"243010","297-R6","2019/12/14 20:05:54","新北市泰山區中華街25號","121.42737","25.05191","6501600","泰山區"
"243014","KEA-2801","2019/12/14 20:13:15","新北市泰山區明志路一段30號","121.433593333333","25.065425","6501600","泰山區"
"243016","421-VK","2019/12/14 20:13:14","新北市泰山區明志路三段243號","121.423528333333","25.037675","6501600","泰山區"
"243011","KEA-2216","2019/12/14 20:13:14","新北市新莊區壽山路160巷1號","121.416925","25.0310833333333","6501600","泰山區"
"243013","646-TV","2019/12/14 20:13:16","新北市泰山區明志路三段74巷16號","121.424253333333","25.0417833333333","6501600","泰山區"
"243015","680-BX","2019/12/14 20:13:26","新北市泰山區明志路一段408號","121.430696666667","25.05705","6501600","泰山區"
"222003","436-BY","2019/12/14 20:13:14","新北市深坑區埔新街99號","121.619226666667","25.00226","6501800","深坑區"
"222002","659-BX","2019/12/14 20:13:11","新北市深坑區北深路三段158巷52號","121.601291666667","25.0049733333333","6501800","深坑區"
"231061","002-UM","2019/12/14 20:13:23","新北市新店區安興路33-1號","121.51584","24.9704266666667","6500600","新店區"
"231055","0291-UT","2019/12/14 20:13:18","新北市新店區中華路48巷20號","121.540548333333","24.9689966666667","6500600","新店區"
"231058","0293-UT","2019/12/14 20:13:05","新北市新店區薏仁坑路自強巷6號","121.49651","24.95833","6500600","新店區"
"231044","046-UY","2019/12/14 20:13:20","新北市新店區寶慶街66號","121.542011666667","24.9867916666667","6500600","新店區"
"231043","047-UY","2019/12/14 20:13:28","新北市新店區建國路131號","121.539468333333","24.9782016666667","6500600","新店區"
"231060","106-UY","2019/12/14 20:13:24","新北市新店區安康路三段489號","121.482708333333","24.9492383333333","6500600","新店區"
"231051","107-UY","2019/12/14 20:13:28","新北市新店區中央路137號","121.5303","24.973745","6500600","新店區"
"231049","108-UY","2019/12/14 20:13:21","新北市新店區北新路二段97巷9弄27號","121.542413333333","24.9735216666667","6500600","新店區"
"231065","110-UY","2019/12/14 20:13:11","新北市新店區安祥路106巷202號","121.474325","24.9603583333333","6500600","新店區"
"231050","KEA-2219","2019/12/14 20:13:18","新北市新店區北新路一段327號","121.54179","24.9684133333333","6500600","新店區"
"221031","KEA-2785","2019/12/14 20:13:08","新北市汐止區中興路142號","121.632815","25.0643216666667","6501100","汐止區"
"231062","256-BX","2019/12/14 20:13:09","新北市新店區安康路一段266巷4號","121.520011666667","24.9639616666667","6500600","新店區"
"231054","260-TV","2019/12/14 20:13:18","新北市新店區檳榔路43巷2號","121.543025","24.9630266666667","6500600","新店區"
"231042","268-BY","2019/12/14 20:13:22","新北市新店區中興路二段87號","121.547141666667","24.9711933333333","6500600","新店區"
"231064","278-BY","2019/12/14 20:13:08","新北市新店區吉安街37-1號","121.515758333333","24.966135","6500600","新店區"
"231045","355-BY","2019/12/14 20:13:14","新北市新店區北宜路一段129號","121.540555","24.9532883333333","6500600","新店區"
"231056","4715-K9","2019/12/14 20:13:19","新北市新店區中正路328巷45號","121.538008333333","24.9764816666667","6500600","新店區"
"231067","4772-VM","2019/12/14 20:13:11","新北市新店區溪洲路8巷101號","121.532855","24.96321","6500600","新店區"
"231068","512-UM","2019/12/14 20:13:18","新北市新店區中興路三段215號","121.54361","24.9820333333333","6500600","新店區"
"231041","619-UM","2019/12/14 20:13:19","新北市新店區民權路126號","121.53502","24.9828166666667","6500600","新店區"
"231063","641-BX","2019/12/14 20:13:17","新北市新店區黎明路9號","121.502513333333","24.9502166666667","6500600","新店區"
"231048","KED-0819","2019/12/14 20:13:19","新北市新店區永華街37號","121.543996666667","24.97612","6500600","新店區"
"231052","718-UY","2019/12/14 20:13:10","新北市新店區新烏路三段42號","121.553805","24.9048616666667","6500600","新店區"
"231057","720-UM","2019/12/14 20:13:24","新北市新店區花園一路二段30號","121.552651666667","24.9327166666667","6500600","新店區"
"231059","897-TW","2019/12/14 20:13:28","新北市新店區安德街53號","121.510933333333","24.9621966666667","6500600","新店區"
"231040","898-TW","2019/12/14 20:13:15","新北市新店區中正路108號","121.543031666667","24.9706033333333","6500600","新店區"
"231066","AKT-0513","2019/12/14 20:13:15","新北市新店區安德街116巷38號","121.508241666667","24.9617266666667","6500600","新店區"
"241011","013-R5","2019/12/14 20:13:24","新北市三重區仁愛街51號","121.496475","25.07191","6500200","三重區"
"241028","022-UY","2019/12/14 20:13:08","新北市三重區大同南路151-3號","121.496588333333","25.0569916666667","6500200","三重區"
"241008","059-VK","2019/12/14 20:13:12","新北市三重區永福街211巷1號","121.479845","25.0742633333333","6500200","三重區"
"241031","061-VK","2019/12/14 20:13:17","新北市三重區三寧街15號","121.489418333333","25.05974","6500200","三重區"
"241015","062-VK","2019/12/14 20:13:19","新北市三重區福德北路23號","121.502405","25.0645483333333","6500200","三重區"
"241017","063-VK","2019/12/14 20:13:25","新北市三重區大同北路221巷12號","121.49189","25.0664416666667","6500200","三重區"
"241024","065-VK","2019/12/14 20:13:15","新北市三重區中正北路165巷31號","121.479478333333","25.07031","6500200","三重區"
"241007","066-VK","2019/12/14 20:13:18","新北市三重區三和路四段117巷17號","121.486225","25.07784","6500200","三重區"
"241002","090-VK","2019/12/14 20:13:25","新北市三重區仁義街225巷34號","121.497488333333","25.0828566666667","6500200","三重區"
"241003","091-VK","2019/12/14 20:13:10","新北市三重區分子尾街45號","121.489308333333","25.0820683333333","6500200","三重區"
"241026","742-BX","2019/12/14 20:13:16","新北市三重區中央南路68號","121.501518333333","25.0612683333333","6500200","三重區"
"241006","262-UM","2019/12/14 20:13:17","新北市三重區車路頭街139巷12號","121.484228333333","25.0762383333333","6500200","三重區"
"241016","266-UM","2019/12/14 20:13:24","新北市三重區大同北路54巷1號","121.494258333333","25.0635333333333","6500200","三重區"
"241009","267-UM","2019/12/14 20:13:19","新北市三重區三和路四段382巷80號","121.4802","25.0781766666667","6500200","三重區"
"241018","268-UM","2019/12/14 20:13:26","新北市三重區正義北路256巷61號","121.494498333333","25.06818","6500200","三重區"
"241032","269-UM","2019/12/14 20:13:25","新北市三重區捷運路19巷2弄1號","121.48516","25.056325","6500200","三重區"
"241013","270-UM","2019/12/14 20:13:13","新北市三重區溪尾街1號","121.491876666667","25.0741416666667","6500200","三重區"
"241030","KED-0822","2019/12/14 20:13:09","新北市三重區集美街75巷12號","121.488171666667","25.0530466666667","6500200","三重區"
"241035","462-BY","2019/12/14 20:13:19","新北市三重區正義北路33巷25號","121.498273333333","25.0637766666667","6500200","三重區"
"241004","475-VK","2019/12/14 20:13:28","新北市三重區仁愛街366巷28號","121.490816666667","25.0800766666667","6500200","三重區"
"241020","478-VK","2019/12/14 20:13:17","新北市三重區忠孝路一段61號","121.490923333333","25.0719866666667","6500200","三重區"
"241014","543-UM","2019/12/14 20:13:14","新北市三重區長樂街129號","121.50281","25.0697166666667","6500200","三重區"
"241023","545-UM","2019/12/14 20:13:10","新北市三重區頂崁街217巷4弄1號","121.477675","25.0678566666667","6500200","三重區"
"241001","547-UM","2019/12/14 20:13:18","新北市三重區三和路四段91號","121.488743333333","25.075565","6500200","三重區"
"241019","KEA-2593","2019/12/14 20:13:14","新北市三重區忠孝路一段30巷58號","121.490506666667","25.0712533333333","6500200","三重區"
"241005","AAD-863","2019/12/14 20:13:20","新北市三重區碧華街303號","121.490656666667","25.0840283333333","6500200","三重區"
"241012","743-BX","2019/12/14 20:13:09","新北市三重區仁厚街64號","121.500411666667","25.07682","6500200","三重區"
"241022","KED-0820","2019/12/14 20:13:13","新北市三重區中正北路28號","121.488176666667","25.063545","6500200","三重區"
"241029","942-UM","2019/12/14 20:13:22","新北市三重區中正南路137號","121.493808333333","25.05687","6500200","三重區"
"241033","AAC-255","2019/12/14 20:13:23","新北市三重區光復路一段61巷27-1號","121.473985","25.04922","6500200","三重區"
"235066","003-UY","2019/12/14 20:13:15","新北市中和區水源路154巷2號","121.50811","25.0032966666667","6500300","中和區"
"235039","097-UM","2019/12/14 20:13:22","新北市中和區大勇街48號","121.517481666667","24.994085","6500300","中和區"
"235065","098-UM","2019/12/14 20:13:15","新北市中和區橋和路288號","121.496458333333","25.0069316666667","6500300","中和區"
"235040","150-BY","2019/12/14 20:13:14","新北市中和區保健路26巷21號","121.508631666667","24.997195","6500300","中和區"
"235055","183-VK","2019/12/14 20:13:16","新北市五股區新城三路45號","121.448778333333","25.0928383333333","6500300","中和區"
"247016","KEA-2869","2019/12/14 20:13:16","新北市蘆洲區光華路186巷31號","121.464808333333","25.083475","6501400","蘆洲區"
"247010","KED-0682","2019/12/14 20:13:10","新北市蘆洲區信義路188巷3號","121.47947","25.0844816666667","6501400","蘆洲區"
"235050","4979-A6","2019/12/14 20:13:21","新北市中和區安樂路18-1號","121.511825","24.9921166666667","6500300","中和區"
"235069","4980-A6","2019/12/14 20:13:09","新北市中和區圓通路89號","121.499801666667","24.9967466666667","6500300","中和區"
"235051","157-BY","2019/12/14 20:13:10","新北市中和區景平路191號","121.511403333333","24.992575","6500300","中和區"
"235037","AAC-213","2019/12/14 20:13:28","新北市新莊區化成路585-8號","121.463303333333","25.0668566666667","6500300","中和區"
"235059","AAC-215","2019/12/14 20:13:19","新北市中和區圓通路367巷13弄29-6號","121.493151666667","24.988395","6500300","中和區"
"207004","KEE-1107","2019/12/14 20:13:27","新北市萬里區北基里仁三街24號","121.681886666667","25.1763733333333","6502800","萬里區"
"220054","015-TV","2019/12/14 20:13:21","新北市板橋區忠孝路忠義巷9弄16號","121.465411666667","25.00401","6500100","板橋區"
"220065","072-UY","2019/12/14 20:13:24","新北市板橋區民族路69巷1號","121.465355","25.0089633333333","6500100","板橋區"
"220106","075-UY","2019/12/14 20:13:22","新北市新莊區化成路585-8號","121.463453333333","25.0667666666667","6500100","板橋區"
"247006","893-R6","2019/12/14 20:13:10","新北市蘆洲區永安南路二段2號","121.467705","25.0766516666667","6501400","蘆洲區"
"247022","341-TH","2019/12/14 20:13:23","新北市蘆洲區中正路285號","121.466845","25.087985","6501400","蘆洲區"
"247004","336-TH","2019/12/14 20:13:13","新北市蘆洲區長安街285巷16號","121.457476666667","25.08416","6501400","蘆洲區"
"247024","057-VK","2019/12/14 20:13:26","新北市蘆洲區光明路110號","121.463531666667","25.088125","6501400","蘆洲區"
"247014","056-VK","2019/12/14 20:13:26","新北市蘆洲區中山二路166號","121.470706666667","25.080945","6501400","蘆洲區"
"247018","053-VK","2019/12/14 20:13:24","新北市蘆洲區民族路382號","121.475461666667","25.09126","6501400","蘆洲區"
"247002","001-UY","2019/12/14 20:13:22","新北市蘆洲區長安街242號","121.457621666667","25.0859433333333","6501400","蘆洲區"
"226004","312-R5","2019/12/14 20:13:08","新北市平溪區嶺腳里嶺腳寮1-5號","121.745675","25.028175","6502400","平溪區"
"222001","KEA-2212","2019/12/14 20:13:25","新北市深坑區北深路三段234號","121.600421666667","25.004095","6501800","深坑區"
"251009","008-UM","2019/12/14 20:13:10","新北市淡水區清水街2號","121.445431666667","25.1704666666667","6501000","淡水區"
"251004","009-UM","2019/12/14 20:13:16","新北市淡水區民族路29巷24號","121.461648333333","25.136895","6501000","淡水區"
"251002","012-UM","2019/12/14 20:13:24","新北市淡水區中正路306號","121.43723","25.1723516666667","6501000","淡水區"
"251015","KEA-2871","2019/12/14 20:13:24","新北市淡水區商工路376號","121.469133333333","25.185695","6501000","淡水區"
"251016","180-VK","2019/12/14 20:13:11","新北市淡水區番子田23號","121.45846","25.22811","6501000","淡水區"
"251008","181-VK","2019/12/14 20:13:06","新北市淡水區淡海路72巷30弄1號","121.424355","25.1825116666667","6501000","淡水區"
"243009","549-UM","2019/12/14 20:13:16","新北市泰山區泰林路二段114號","121.434731666667","25.0593033333333","6501600","泰山區"
"251012","441-VK","2019/12/14 20:13:14","新北市淡水區淡金路三段266號","121.448938333333","25.2065833333333","6501000","淡水區"
"251001","559-UM","2019/12/14 20:13:18","新北市淡水區淡金路二段15號","121.44634","25.1892216666667","6501000","淡水區"
"251006","561-UM","2019/12/14 20:13:11","新北市淡水區北新路141巷2弄1號","121.449241666667","25.17931","6501000","淡水區"
"251014","577-R6","2019/12/14 20:13:11","新北市淡水區石頭厝2-1號","121.458113333333","25.2357133333333","6501000","淡水區"
"251011","650-BX","2019/12/14 20:13:21","新北市淡水區崁頂105號","121.433706666667","25.2038916666667","6501000","淡水區"
"251003","673-BX","2019/12/14 20:13:23","新北市淡水區中山北路一段229號","121.444481666667","25.1794866666667","6501000","淡水區"
"251013","178-VK","2019/12/14 20:13:16","新北市淡水區奎柔山路760號","121.474953333333","25.2036766666667","6501000","淡水區"
"252001","292-VK","2019/12/14 20:13:15","新北市三芝區中山路一段9巷16號","121.499885","25.2586766666667","6502100","三芝區"
"237006","5529-G3","2019/12/14 20:13:21","新北市三峽區嘉添1-3號","121.367828333333","24.9117866666667","6500900","三峽區"
"236042","KED-0685","2019/12/14 20:13:10","新北市土城區學成路4號","121.453561666667","24.9864083333333","6501300","土城區"
"236079","166-UM","2019/12/14 20:13:17","新北市土城區金安街10號","121.421181666667","24.96442","6501300","土城區"
"236030","253-BX","2019/12/14 20:13:24","新北市土城區中央路一段121巷8弄4號","121.447491666667","24.9879533333333","6501300","土城區"
"236026","269-VK","2019/12/14 20:13:21","新北市土城區裕生路83巷27號","121.448081666667","24.9839983333333","6501300","土城區"
"236014","270-VK","2019/12/14 20:13:15","新北市土城區廣明街41巷21號","121.454476666667","24.992715","6501300","土城區"
"236038","271-VK","2019/12/14 20:13:11","新北市土城區延吉街331號","121.46529","24.9841466666667","6501300","土城區"
"247012","KED-0683","2019/12/14 20:13:16","新北市蘆洲區中興街15巷34號","121.480018333333","25.0881583333333","6501400","蘆洲區"
"236070","KEA-2877","2019/12/14 20:13:17","新北市土城區大安路126號","121.43387","24.9697166666667","6501300","土城區"
"252002","KED-0821","2019/12/14 20:13:25","新北市三芝區中正路一段18巷10號","121.50337","25.259","6502100","三芝區"
"236021","401-BY","2019/12/14 20:13:24","新北市土城區金城路三段206巷1號","121.471505","24.9896983333333","6501300","土城區"
"236059","912-UM","2019/12/14 20:13:19","新北市土城區中央路三段46號","121.437306666667","24.9676533333333","6501300","土城區"
"236049","913-UM","2019/12/14 20:13:06","新北市土城區青雲路216號","121.458973333333","24.9815233333333","6501300","土城區"
"242061","986-R7","2019/12/14 20:13:26","新北市新莊區瓊林路瓊英巷4弄2號","121.443626666667","25.0273916666667","6500500","新莊區"
"242029","615-BX","2019/12/14 20:13:21","新北市新莊區中原路349號","121.445075","25.054335","6500500","新莊區"
"242027","613-BX","2019/12/14 20:13:18","新北市新莊區立信三街73號","121.444088333333","25.0510516666667","6500500","新莊區"
"242058","612-BX","2019/12/14 20:13:09","新北市新莊區八德街169號","121.423395","25.0190616666667","6500500","新莊區"
"242048","566-BX","2019/12/14 20:13:06","新北市新莊區後港二路29號","121.422295","25.02322","6500500","新莊區"
"242053","497-BY","2019/12/14 20:13:11","新北市新莊區西盛街427號","121.42728","25.0121233333333","6500500","新莊區"
"242042","442-UM","2019/12/14 20:13:25","新北市新莊區青山路一段64號","121.409156666667","25.0276666666667","6500500","新莊區"
"242044","415-TV","2019/12/14 20:13:17","桃園市龜山區萬壽路一段21巷10號","121.410565","25.0202983333333","6500500","新莊區"
"242013","413-TV","2019/12/14 20:13:21","新北市新莊區幸福路678巷2號","121.45081","25.0497633333333","6500500","新莊區"
"242051","400-BY","2019/12/14 20:13:26","新北市新莊區民安西路196巷8號","121.425275","25.01551","6500500","新莊區"
"242025","362-BY","2019/12/14 20:13:09","新北市新莊區五權一路12巷25弄2號","121.458051666667","25.0641233333333","6500500","新莊區"
"242023","353-BY","2019/12/14 20:13:26","新北市新莊區化成路688號","121.465885","25.0561983333333","6500500","新莊區"
"242015","132-UY","2019/12/14 20:13:24","新北市新莊區中平路26巷44號","121.446818333333","25.0432583333333","6500500","新莊區"
"242056","172-VK","2019/12/14 20:13:16","新北市新莊區新莊路649巷13弄14號","121.445605","25.031845","6500500","新莊區"
"242017","173-VK","2019/12/14 20:13:21","新北市新莊區中港路397號","121.451973333333","25.0469833333333","6500500","新莊區"
"242031","175-VK","2019/12/14 20:13:07","新北市新莊區中正路449號","121.443148333333","25.0341483333333","6500500","新莊區"
"242039","176-VK","2019/12/14 20:13:10","新北市新莊區龍安路481號","121.425568333333","25.0182416666667","6500500","新莊區"
"242021","KED-0687","2019/12/14 20:13:27","新北市新莊區中興街39號","121.449186666667","25.036825","6500500","新莊區"
"242007","346-TH","2019/12/14 20:13:14","新北市新莊區思源路421號","121.459306666667","25.05253","6500500","新莊區"
"242002","347-TH","2019/12/14 20:13:15","新北市新莊區中正路121-1號","121.460033333333","25.0386416666667","6500500","新莊區"
"242036","348-TH","2019/12/14 20:13:20","新北市新莊區建安街59號","121.428253333333","25.0252033333333","6500500","新莊區"
"242009","349-TH","2019/12/14 20:13:18","新北市新莊區昌平街16號","121.454813333333","25.0527216666667","6500500","新莊區"
"242034","350-TH","2019/12/14 20:13:13","新北市新莊區中正路318巷15號","121.446243333333","25.0359616666667","6500500","新莊區"
"242019","351-TH","2019/12/14 20:13:17","新北市新莊區民樂街66號","121.457945","25.0420983333333","6500500","新莊區"
"221008","489-VK","2019/12/14 20:13:13","台北市內湖區康樂街125巷2號","121.619536666667","25.0733616666667","6501100","汐止區"
"221036","130-UY","2019/12/14 20:13:15","新北市汐止區新台五路二段21號","121.662583333333","25.0662","6501100","汐止區"
"221015","131-UY","2019/12/14 20:13:12","新北市汐止區建成路26號","121.664351666667","25.0726716666667","6501100","汐止區"
"221010","269-BY","2019/12/14 20:13:22","新北市汐止區連峰街225巷3號","121.644721666667","25.0809483333333","6501100","汐止區"
"221018","277-VK","2019/12/14 20:13:26","新北市汐止區茄興街20巷1弄1號","121.673566666667","25.067105","6501100","汐止區"
"221012","278-VK","2019/12/14 20:13:20","新北市汐止區大同路三段307號","121.674575","25.0744466666667","6501100","汐止區"
"221023","279-VK","2019/12/14 20:13:09","新北市汐止區明峰街298巷2弄2號","121.625261666667","25.06809","6501100","汐止區"
"221032","280-BY","2019/12/14 20:13:10","新北市汐止區弘道街10號","121.61698","25.048605","6501100","汐止區"
"221029","298-VK","2019/12/14 20:13:26","新北市汐止區樟樹一路119巷8-6號","121.641266666667","25.0644366666667","6501100","汐止區"
"221021","299-VK","2019/12/14 20:13:18","新北市汐止區水源路一段262號","121.654121666667","25.0596866666667","6501100","汐止區"
"207003","KEE-1020","2019/12/14 20:13:18","新北市萬里區大鵬里萬里加投150-3號","121.644241666667","25.2146433333333","6502800","萬里區"
"221025","567-BX","2019/12/14 20:13:27","新北市汐止區秀峰路62號","121.659761666667","25.06464","6501100","汐止區"
"221035","622-UM","2019/12/14 20:13:26","新北市汐止區長江街43號","121.655785","25.0712466666667","6501100","汐止區"
"221038","646-BX","2019/12/14 20:13:15","新北市汐止區忠孝東路462巷40號","121.666321666667","25.0741433333333","6501100","汐止區"
"221033","647-BX","2019/12/14 20:13:19","新北市汐止區東勢街201巷104號","121.633623333333","25.042895","6501100","汐止區"
"221002","707-TV","2019/12/14 20:13:11","新北市汐止區福德一路49號","121.639105","25.0687233333333","6501100","汐止區"
"220079","145-BY","2019/12/14 20:13:16","新北市板橋區復興街55號","121.458733333333","25.0175933333333","6500100","板橋區"
"220080","200-UY","2019/12/14 20:13:18","新北市板橋區大觀路二段187巷13號","121.445541666667","24.9995066666667","6500100","板橋區"
"224002","257-TC","2019/12/14 20:13:22","新北市瑞芳區員山子路3-9號","121.820361666667","25.1037533333333","6501200","瑞芳區"
"220083","286-VK","2019/12/14 20:13:15","新北市板橋區僑中二街88巷18號","121.445535","25.00959","6500100","板橋區"
"220081","287-VK","2019/12/14 20:13:18","新北市板橋區僑中一街124巷18弄48號","121.448138333333","25.013325","6500100","板橋區"
"220061","293-UM","2019/12/14 20:13:08","新北市板橋區中山路一段86號","121.46191","25.01013","6500100","板橋區"
"242046","281-VK","2019/12/14 20:13:26","新北市新莊區裕民街108號","121.418176666667","25.0230766666667","6500500","新莊區"
"242011","280-VK","2019/12/14 20:13:18","新北市新莊區中信街51巷4弄2號","121.449713333333","25.0502333333333","6500500","新莊區"
"220035","560-BX","2019/12/14 20:13:12","新北市板橋區新生街53巷3弄2號","121.457575","25.0215866666667","6500100","板橋區"
"220103","561-BX","2019/12/14 20:13:16","新北市板橋區漢生東路23巷15號","121.465436666667","25.0176183333333","6500100","板橋區"
"220057","686-BX","2019/12/14 20:13:19","新北市泰山區新五路一段25號","121.442141666667","25.0589833333333","6500100","板橋區"
"220077","687-BX","2019/12/14 20:13:24","新北市板橋區僑中一街124巷20弄1號","121.446235","25.0141483333333","6500100","板橋區"
"220102","KEA-2699","2019/12/14 20:13:20","新北市板橋區民治街57巷32-1號","121.481511666667","25.03599","6500100","板橋區"
"220055","827-TW","2019/12/14 20:13:25","新北市板橋區仁愛路86巷20號","121.461046666667","24.998715","6500100","板橋區"
"220074","895-R6","2019/12/14 20:13:21","新北市板橋區文化路一段32巷15號","121.459798333333","25.0111883333333","6500100","板橋區"
"220064","AAC-253","2019/12/14 20:13:17","新北市板橋區中山路一段206巷131號","121.472771666667","25.0131266666667","6500100","板橋區"
"235068","KEA-2876","2019/12/14 20:13:24","新北市中和區勝利路35巷1弄5號","121.499126666667","25.0075633333333","6500300","中和區"
