"lineid","car","time","location","longitude","latitude","cityid","cityname"
"244005","248-BX","2019/11/16 08:59:30","新北市林口區太平里11鄰38號","121.360063333333","25.1318033333333","6501700","林口區"
"222007","289-BY","2019/11/16 08:59:33","新北市深坑區大崙尾8號","121.61325","24.9804833333333","6501800","深坑區"
"231007","189-VK","2019/11/16 08:59:19","新北市新店區新潭路三段215巷26號","121.507481666667","24.9033933333333","6500600","新店區"
"231008","192-VK","2019/11/16 08:59:25","新北市新店區松林路9號","121.54731","24.910735","6500600","新店區"
"223003","205-TH","2019/11/16 08:59:27","新北市石碇區北宜路六段水底寮巷11-1號","121.665543333333","24.9445866666667","6501900","石碇區"
"223008","406-TH","2019/11/16 08:59:24","新北市石碇區光明路13號","121.679588333333","25.0337866666667","6501900","石碇區"
"223004","437-BY","2019/11/16 08:59:22","新北市石碇區崩山46號","121.680273333333","24.968575","6501900","石碇區"
"223001","592-UM","2019/11/16 08:59:19","新北市石碇區北宜路六段水底寮巷25號","121.665703333333","24.9443166666667","6501900","石碇區"
"223007","661-BX","2019/11/16 08:59:22","新北市石碇區光明路2號","121.674345","25.0285733333333","6501900","石碇區"
"223005","677-TV","2019/11/16 08:59:31","新北市石碇區崩山53號","121.682395","24.9688566666667","6501900","石碇區"
"227004","282-VK","2019/11/16 08:59:29","新北市雙溪區上林里大瀨1號","121.830083333333","25.0250633333333","6502500","雙溪區"
"252004","249-BX","2019/11/16 08:59:16","新北市三芝區興華里田心子22-1號","121.492128333333","25.1997633333333","6502100","三芝區"
"252007","AAC-283","2019/11/16 08:59:19","新北市三芝區樂全街150號","121.487175","25.2577733333333","6502100","三芝區"
"237004","756-BX","2019/11/16 08:59:31","新北市三峽區中山路459巷135號","121.349705","24.9334183333333","6500900","三峽區"
"220104","560-BX","2019/11/16 08:59:16","新北市鶯歌區鶯桃路184-1號","121.337726666667","24.9575783333333","6500100","板橋區"
