"lineid","car","time","location","longitude","latitude","cityid","cityname"
"234044","148-BY","2019/11/16 13:59:19","新北市永和區成功路一段77號","121.526901666667","25.0031433333333","6500400","永和區"
"234078","298-R6","2019/11/16 13:59:33","新北市永和區永利路83號","121.521481666667","25.0035216666667","6500400","永和區"
"234036","336-UY","2019/11/16 13:59:17","新北市永和區成功路二段126號","121.526561666667","24.997675","6500400","永和區"
"234062","337-UY","2019/11/16 13:59:25","新北市永和區中正路412巷20弄21號","121.518988333333","25.0015116666667","6500400","永和區"
"234084","338-UY","2019/11/16 13:59:18","新北市永和區福和路160號","121.521385","25.0078916666667","6500400","永和區"
"234068","552-UM","2019/11/16 13:59:24","新北市永和區國光路39號","121.519186666667","25.0082916666667","6500400","永和區"
"234015","745-BX","2019/11/16 13:59:35","新北市永和區文化路92號","121.513805","25.0152516666667","6500400","永和區"
"234028","746-BX","2019/11/16 13:59:25","新北市永和區民權路49巷10號","121.520703333333","24.9969566666667","6500400","永和區"
"234052","KEA-2590","2019/11/16 13:59:24","新北市永和區竹林路39巷35號","121.520391666667","25.0154383333333","6500400","永和區"
"234005","KED-0605","2019/11/16 13:59:24","新北市中和區中和路326號","121.509733333333","25.0010216666667","6500400","永和區"
"234012","KEA-2591","2019/11/16 13:59:19","新北市永和區保生路55號","121.504655","25.010595","6500400","永和區"
"234060","AAD-866","2019/11/16 13:59:20","新北市永和區中正路151巷14號","121.515616666667","24.9988083333333","6500400","永和區"
"234040","862-TW","2019/11/16 13:59:34","新北市永和區雙和街17巷3號","121.509245","25.0016983333333","6500400","永和區"
"234048","863-TW","2019/11/16 13:59:26","新北市永和區保安路264號","121.505865","25.012295","6500400","永和區"
"234025","9371-KE","2019/11/16 13:59:14","新北市永和區自由街58號","121.513808333333","25.005955","6500400","永和區"
"234010","9373-KE","2019/11/16 13:59:28","新北市永和區仁愛路352巷122弄13號","121.500743333333","25.008835","6500400","永和區"
"248017","KED-0813","2019/11/16 13:59:24","新北市五股區民義路一段220巷32號","121.428503333333","25.0939266666667","6501500","五股區"
"234022","9380-KE","2019/11/16 13:59:29","新北市永和區復興街44號","121.51643","25.0130333333333","6500400","永和區"
"234076","969-R7","2019/11/16 13:59:19","新北市永和區民族街43巷8號","121.51892","24.9983883333333","6500400","永和區"
"234072","AAC-211","2019/11/16 13:59:23","新北市永和區豫溪街134號","121.520988333333","25.0103633333333","6500400","永和區"
"234066","AAC-212","2019/11/16 13:59:32","新北市永和區永貞路376號","121.509848333333","25.0068533333333","6500400","永和區"
"234001","AAC-295","2019/11/16 13:59:31","新北市永和區福和路310-1號","121.516225","25.0074883333333","6500400","永和區"
"244005","248-BX","2019/11/16 13:59:31","新北市林口區粉寮69號","121.404958333333","25.09087","6501700","林口區"
"243001","267-VK","2019/11/16 13:59:19","新北市泰山區楓里路10號","121.442115","25.05811","6501600","泰山區"
"231030","002-UM","2019/11/16 13:59:24","新北市新店區安康路一段230-3號","121.522403333333","24.9637633333333","6500600","新店區"
"231024","0291-UT","2019/11/16 13:59:23","新北市新店區新生街30號","121.53964","24.9667283333333","6500600","新店區"
"231005","046-UY","2019/11/16 13:59:23","新北市新店區中興路三段248號","121.543095","24.98398","6500600","新店區"
"231029","106-UY","2019/11/16 13:59:32","新北市新店區安康路一段351-1號","121.519398333333","24.9640816666667","6500600","新店區"
"231018","107-UY","2019/11/16 13:59:27","新北市新店區中央路192號","121.530896666667","24.97475","6500600","新店區"
"231013","108-UY","2019/11/16 13:59:32","新北市新店區明德路111號","121.541506666667","24.9794416666667","6500600","新店區"
"231036","110-UY","2019/11/16 13:59:23","新北市新店區安祥路110巷23號","121.473673333333","24.95629","6500600","新店區"
"231033","256-BX","2019/11/16 13:59:31","新北市新店區莒光路44巷21弄11-6號","121.518348333333","24.952295","6500600","新店區"
"231023","260-TV","2019/11/16 13:59:18","新北市新店區文中路40號","121.539693333333","24.9565533333333","6500600","新店區"
"231003","268-BY","2019/11/16 13:59:26","新北市新店區光明街36號","121.538746666667","24.9590366666667","6500600","新店區"
"231035","278-BY","2019/11/16 13:59:15","新北市新店區安和路二段115號","121.518665","24.9704183333333","6500600","新店區"
"231017","AAD-862","2019/11/16 13:59:21","新北市新店區郵政路3巷2號","121.557315","24.951895","6500600","新店區"
"231006","355-BY","2019/11/16 13:59:30","新北市新店區北宜路二段50號","121.548795","24.9514066666667","6500600","新店區"
"231027","3713-VJ","2019/11/16 13:59:19","新北市新店區中興路一段24-2號","121.538531666667","24.9582883333333","6500600","新店區"
"231025","4715-K9","2019/11/16 13:59:16","新北市新店區中正路302巷5弄1號","121.538233333333","24.9754566666667","6500600","新店區"
"231020","513-UM","2019/11/16 13:59:23","新北市新店區新烏路二段7號","121.543835","24.929595","6500600","新店區"
"231034","616-UM","2019/11/16 13:59:31","新北市新店區達觀路27-1號","121.503721666667","24.9383733333333","6500600","新店區"
"231002","619-UM","2019/11/16 13:59:19","新北市新店區中正路676號","121.534051666667","24.98979","6500600","新店區"
"231012","KED-0819","2019/11/16 13:59:17","新北市新店區中興路二段57巷16號","121.545815","24.9708066666667","6500600","新店區"
"231010","719-UM","2019/11/16 13:59:34","新北市新店區安康路一段138號","121.526591666667","24.96287","6500600","新店區"
"231026","720-UM","2019/11/16 13:59:25","新北市新店區三民路159巷19弄46號","121.532266666667","24.9732","6500600","新店區"
"231028","897-TW","2019/11/16 13:59:27","新北市新店區安和路三段46號","121.517993333333","24.981815","6500600","新店區"
"231001","898-TW","2019/11/16 13:59:29","新北市新店區三民路43號","121.53715","24.9708583333333","6500600","新店區"
"231004","899-TW","2019/11/16 13:59:27","新北市新店區北新路二段141-1號","121.542875","24.9756683333333","6500600","新店區"
"231037","AKT-0513","2019/11/16 13:59:22","新北市新店區安康路三段355巷33號","121.484943333333","24.949755","6500600","新店區"
"235030","003-UY","2019/11/16 13:59:19","新北市中和區光華街34號","121.504851666667","25.0039633333333","6500300","中和區"
"235028","005-UY","2019/11/16 13:59:33","新北市中和區連城路23巷11號","121.499123333333","25.00157","6500300","中和區"
"235027","006-UY","2019/11/16 13:59:32","新北市中和區中正路568號","121.486603333333","24.9947616666667","6500300","中和區"
"235020","096-UM","2019/11/16 13:59:27","新北市中和區員山路568號","121.478586666667","25.0106233333333","6500300","中和區"
"235003","097-UM","2019/11/16 13:59:33","新北市中和區自立路76號","121.524051666667","24.9913016666667","6500300","中和區"
"235029","098-UM","2019/11/16 13:59:22","新北市中和區莊敬路39號","121.500876666667","25.005015","6500300","中和區"
"235004","150-BY","2019/11/16 13:59:17","新北市中和區保健路46巷19號","121.509156666667","24.9963166666667","6500300","中和區"
"235022","151-BY","2019/11/16 13:59:30","新北市中和區連城路532巷12號","121.474918333333","24.9924616666667","6500300","中和區"
"235019","183-VK","2019/11/16 13:59:24","新北市中和區德光路113號","121.468025","25.0031783333333","6500300","中和區"
"235031","255-BX","2019/11/16 13:59:32","新北市中和區中正路681號","121.485025","24.9976566666667","6500300","中和區"
"235008","293-VK","2019/11/16 13:59:31","新北市中和區中興街180巷45號","121.498245","24.9896033333333","6500300","中和區"
"235036","301-VK","2019/11/16 13:59:17","新北市中和區中山路二段187號","121.500315","25.0027166666667","6500300","中和區"
"235007","352-BY","2019/11/16 13:59:36","新北市中和區成功路48號","121.52611","24.992735","6500300","中和區"
"235006","KEA-2878","2019/11/16 13:59:29","新北市中和區自立路141巷36號","121.524066666667","24.9937333333333","6500300","中和區"
"247015","KEA-2869","2019/11/16 13:59:32","新北市蘆洲區光華路44號","121.468833333333","25.0830716666667","6501400","蘆洲區"
"247009","KED-0682","2019/11/16 13:59:18","新北市蘆洲區集賢路226-3號","121.482181666667","25.0864633333333","6501400","蘆洲區"
"235014","4979-A6","2019/11/16 13:59:17","新北市中和區忠孝街37巷4號","121.511305","24.9836616666667","6500300","中和區"
"235033","4980-A6","2019/11/16 13:59:18","新北市中和區圓通路71號","121.5001","24.9970166666667","6500300","中和區"
"235002","551-UM","2019/11/16 13:59:21","新北市中和區立人街24-5號","121.51885","24.9941583333333","6500300","中和區"
"235034","558-UM","2019/11/16 13:59:15","新北市中和區中和路98號","121.501441666667","25.0003466666667","6500300","中和區"
"235009","565-BX","2019/11/16 13:59:21","新北市中和區景新街467巷38弄2號","121.514568333333","24.98853","6500300","中和區"
"235024","KED-0823","2019/11/16 13:59:18","新北市中和區員山路294巷6號","121.481808333333","25.0023683333333","6500300","中和區"
"235018","640-BX","2019/11/16 13:59:26","新北市中和區國光街107巷2弄28號","121.469585","24.9993166666667","6500300","中和區"
"235074","647-TV","2019/11/16 13:59:25","新北市中和區建康路8號","121.486723333333","25.0000866666667","6500300","中和區"
"235011","732-UM","2019/11/16 13:59:30","新北市中和區興南路二段107號","121.505798333333","24.984495","6500300","中和區"
"235010","733-UM","2019/11/16 13:59:22","新北市中和區忠孝街1巷84號","121.508196666667","24.9849783333333","6500300","中和區"
"235073","800-TS","2019/11/16 13:59:24","新北市中和區橋安街17號","121.492796666667","25.003785","6500300","中和區"
"235021","801-TS","2019/11/16 13:59:29","新北市中和區民利街53號","121.479355","24.99877","6500300","中和區"
"235005","802-TS","2019/11/16 13:59:35","新北市中和區永貞路274-5號","121.513355","25.0038116666667","6500300","中和區"
"235016","805-TS","2019/11/16 13:59:34","新北市中和區興南路二段261巷6-5號","121.502166666667","24.9792833333333","6500300","中和區"
"235012","896-TW","2019/11/16 13:59:30","新北市中和區華新街63號","121.507996666667","24.9841433333333","6500300","中和區"
"235017","900-TW","2019/11/16 13:59:18","新北市板橋區和平路178號","121.463398333333","24.9955266666667","6500300","中和區"
"235015","157-BY","2019/11/16 13:59:28","新北市中和區忠孝街31巷31號","121.509801666667","24.98434","6500300","中和區"
"235001","AAC-213","2019/11/16 13:59:27","新北市中和區秀朗路三段60巷34號","121.525216666667","24.99496","6500300","中和區"
"235023","AAC-215","2019/11/16 13:59:29","新北市中和區圓通路417-39號","121.489143333333","24.98814","6500300","中和區"
"220013","072-UY","2019/11/16 13:59:23","新北市板橋區漢生東路324號","121.471838333333","25.00791","6500100","板橋區"
"220034","073-UY","2019/11/16 13:59:15","新北市板橋區大智街10號","121.456043333333","25.0148466666667","6500100","板橋區"
"220105","075-UY","2019/11/16 13:59:26","新北市板橋區雙十路三段10巷10號","121.472053333333","25.030685","6500100","板橋區"
"220017","AAD-861","2019/11/16 13:59:26","新北市板橋區貴興路5號","121.457761666667","25.004465","6500100","板橋區"
"247005","893-R6","2019/11/16 13:59:18","新北市蘆洲區永安南路二段32號","121.467081666667","25.077155","6501400","蘆洲區"
"247019","546-UM","2019/11/16 13:59:24","新北市蘆洲區民族路422巷35號","121.473463333333","25.093535","6501400","蘆洲區"
"247003","341-TH","2019/11/16 13:59:16","新北市蘆洲區中華街26號","121.462736666667","25.0813533333333","6501400","蘆洲區"
"247023","057-VK","2019/11/16 13:59:20","新北市蘆洲區光榮路120巷9號","121.465175","25.0888416666667","6501400","蘆洲區"
"247013","056-VK","2019/11/16 13:59:23","新北市蘆洲區保和街73號","121.469186666667","25.08621","6501400","蘆洲區"
"247017","053-VK","2019/11/16 13:59:19","新北市蘆洲區仁愛街35巷26號","121.475593333333","25.08891","6501400","蘆洲區"
"247021","007-UY","2019/11/16 13:59:25","新北市蘆洲區中正路263巷2號","121.467331666667","25.0874266666667","6501400","蘆洲區"
"247007","002-UY","2019/11/16 13:59:25","新北市三重區永安北路二段5巷1號","121.481521666667","25.080895","6501400","蘆洲區"
"247001","001-UY","2019/11/16 13:59:23","新北市蘆洲區三民路605號","121.460591666667","25.09376","6501400","蘆洲區"
"235013","251-BX","2019/11/16 13:59:35","新北市中和區景安路100號","121.505515","24.9956183333333","6500300","中和區"
"228005","097-TW","2019/11/16 13:52:49","新北市貢寮區美豐里土地公嶺24號","121.890873333333","25.0651683333333","6502600","貢寮區"
"228004","212-TW","2019/11/16 13:59:23","新北市貢寮區龍崗里嵩陽街35-5號","121.90718","25.0175883333333","6502600","貢寮區"
"253003","6232-TK","2019/11/16 13:59:27","新北市石門區尖子鹿51號","121.581635","25.27282","6502200","石門區"
"253004","6251-TK","2019/11/16 13:59:11","新北市石門區小坑38號","121.597351666667","25.26676","6502200","石門區"
"253002","637-UY","2019/11/16 13:59:25","新北市石門區七股26號","121.551561666667","25.26705","6502200","石門區"
"253001","KEC-0718","2019/11/16 13:59:19","新北市石門區八甲43號","121.531965","25.2680333333333","6502200","石門區"
"207002","749-BX","2019/11/16 13:59:33","新北市萬里區溪底里富士坪路21-5號","121.629603333333","25.149415","6502800","萬里區"
"207001","662-BX","2019/11/16 13:59:23","新北市萬里區磺潭里清水18-3號","121.638931666667","25.1989316666667","6502800","萬里區"
"252005","AAC-283","2019/11/16 13:59:19","新北市三芝區圓山里二坪頂78號","121.541935","25.2460283333333","6502100","三芝區"
"236040","KED-0685","2019/11/16 13:59:16","新北市土城區城林路6巷80號","121.438488333333","24.9797333333333","6501300","土城區"
"236074","166-UM","2019/11/16 13:59:27","新北市土城區永寧路32巷10弄23號","121.428878333333","24.9610383333333","6501300","土城區"
"236029","253-BX","2019/11/16 13:59:16","新北市土城區城林路6巷80號","121.438446666667","24.9797583333333","6501300","土城區"
"236024","269-VK","2019/11/16 13:59:29","新北市土城區中央路三段42號","121.437518333333","24.9679566666667","6501300","土城區"
"236032","271-VK","2019/11/16 13:59:22","新北市土城區城林路6巷80號","121.438485","24.979755","6501300","土城區"
"247011","KED-0683","2019/11/16 13:59:32","新北市蘆洲區復興路358-2號","121.48379","25.091025","6501400","蘆洲區"
"236068","KEA-2877","2019/11/16 13:59:32","新北市土城區金城路一段137號","121.445216666667","24.97394","6501300","土城區"
"236017","401-BY","2019/11/16 13:59:21","新北市土城區城林路6巷80號","121.438615","24.979625","6501300","土城區"
"236045","752-BX","2019/11/16 13:59:36","新北市土城區員福街32號","121.44116","24.9787633333333","6501300","土城區"
"236057","912-UM","2019/11/16 13:59:25","新北市土城區中央路三段272號","121.42689","24.9638016666667","6501300","土城區"
"236060","915-UM","2019/11/16 13:59:23","新北市土城區城林路6巷80號","121.438595","24.9797233333333","6501300","土城區"
"236054","AAC-216","2019/11/16 13:59:25","新北市土城區中華路二段92號","121.438206666667","24.974745","6501300","土城區"
"220027","145-BY","2019/11/16 13:59:20","新北市板橋區中正路183巷24-1號","121.455506666667","25.0162916666667","6500100","板橋區"
"220028","200-UY","2019/11/16 13:59:20","新北市板橋區大觀路二段265巷3弄37號","121.444385","24.997835","6500100","板橋區"
"220030","610-BX","2019/11/16 13:59:24","新北市板橋區篤行路三段10號","121.429136666667","24.98762","6500100","板橋區"
"220050","245-BX","2019/11/16 13:59:30","新北市板橋區莊敬路220巷15號","121.472563333333","25.02077","6500100","板橋區"
"220040","267-BY","2019/11/16 13:59:26","新北市板橋區大同街8巷49號","121.477766666667","25.0264133333333","6500100","板橋區"
"220004","276-BY","2019/11/16 13:59:28","新北市板橋區信義路161號","121.458515","24.99241","6500100","板橋區"
"220020","277-BY","2019/11/16 13:59:19","新北市板橋區溪北路111號","121.430111666667","24.9887833333333","6500100","板橋區"
"220043","283-UM","2019/11/16 13:59:24","新北市板橋區光武街133號","121.465633333333","25.029135","6500100","板橋區"
"220019","283-VK","2019/11/16 13:59:27","新北市板橋區重慶路245巷49號","121.465156666667","25.00094","6500100","板橋區"
"220001","285-VK","2019/11/16 13:59:34","新北市板橋區太和街5巷14號","121.473211666667","25.0198733333333","6500100","板橋區"
"220107","286-VK","2019/11/16 13:59:21","新北市板橋區大觀路一段38巷180號","121.441563333333","25.00459","6500100","板橋區"
"220029","287-VK","2019/11/16 13:59:32","新北市板橋區光華街19巷8號","121.453643333333","25.0121033333333","6500100","板橋區"
"220039","288-VK","2019/11/16 13:59:24","新北市板橋區裕民街10號","121.462306666667","25.02913","6500100","板橋區"
"220009","293-UM","2019/11/16 13:59:24","新北市板橋區中山路二段226號","121.478218333333","25.017975","6500100","板橋區"
"220032","296-UM","2019/11/16 13:59:21","新北市板橋區龍興街65巷3號","121.443281666667","25.0013133333333","6500100","板橋區"
"220023","303-R5","2019/11/16 13:59:15","新北市板橋區南興路31號","121.454758333333","25.0076116666667","6500100","板橋區"
"220010","305-R5","2019/11/16 13:59:16","新北市板橋區三民路二段245巷89-1號","121.481793333333","25.0125216666667","6500100","板橋區"
"220041","307-R5","2019/11/16 13:59:30","新北市板橋區文化路二段225巷60弄43號","121.469085","25.0294566666667","6500100","板橋區"
"220047","317-R6","2019/11/16 13:59:19","新北市板橋區民生路二段226巷31弄2號","121.471205","25.02221","6500100","板橋區"
"220038","487-VK","2019/11/16 13:59:35","新北市板橋區文化路二段331號","121.472481666667","25.0301666666667","6500100","板橋區"
"220037","491-VK","2019/11/16 13:59:34","新北市板橋區莊敬路58號","121.472665","25.0268333333333","6500100","板橋區"
"220104","560-BX","2019/11/16 13:59:21","新北市板橋區中正路341巷35號","121.454165","25.0198133333333","6500100","板橋區"
"220052","561-BX","2019/11/16 13:59:20","新北市板橋區介壽街68號","121.46939","25.019375","6500100","板橋區"
"220011","609-BX","2019/11/16 13:59:32","新北市板橋區三民路二段67號","121.479511666667","25.0170266666667","6500100","板橋區"
"220005","686-BX","2019/11/16 13:59:27","新北市板橋區重慶路307號","121.463845","24.9986616666667","6500100","板橋區"
"220025","687-BX","2019/11/16 13:59:33","新北市板橋區大觀路二段174巷137號","121.441178333333","25.002015","6500100","板橋區"
"220042","689-BX","2019/11/16 13:59:35","新北市板橋區民生路三段135號","121.466125","25.02614","6500100","板橋區"
"220002","741-BX","2019/11/16 13:59:24","新北市板橋區重慶路139巷21號","121.4637","25.0047033333333","6500100","板橋區"
"220051","KEA-2699","2019/11/16 13:59:29","新北市板橋區田單街2巷38號","121.482236666667","25.0277066666667","6500100","板橋區"
"220003","827-TW","2019/11/16 13:59:32","新北市板橋區新站路1號","121.467135","25.0112183333333","6500100","板橋區"
"220016","830-TW","2019/11/16 13:59:27","新北市板橋區中山路二段465巷40弄2號","121.48119","25.0215033333333","6500100","板橋區"
"220014","831-TW","2019/11/16 13:59:35","新北市板橋區三民路二段正隆巷12弄1號","121.478081666667","25.0130283333333","6500100","板橋區"
"220022","895-R6","2019/11/16 13:59:32","新北市板橋區館前西路122號","121.456563333333","25.00772","6500100","板橋區"
"220021","985-R7","2019/11/16 13:59:28","新北市板橋區西門街14號","121.455513333333","25.0115583333333","6500100","板橋區"
"220046","AAC-210","2019/11/16 13:59:15","新北市板橋區新海路135巷29號","121.460098333333","25.0229166666667","6500100","板橋區"
"220012","AAC-253","2019/11/16 13:59:31","新北市板橋區板新路46號","121.4739","25.013905","6500100","板橋區"
"235032","KEA-2873","2019/11/16 13:59:26","新北市中和區連勝街6號","121.498995","24.99873","6500300","中和區"
"235025","KEA-2875","2019/11/16 13:59:18","新北市中和區員山路394巷12弄3號","121.481406666667","25.00422","6500300","中和區"
