"lineid","car","time","location","longitude","latitude","cityid","cityname"
"234078","298-R6","2019/11/16 14:29:53","新北市永和區福和路61號","121.522896666667","25.007845","6500400","永和區"
"234062","337-UY","2019/11/16 14:29:59","新北市永和區中正路417號","121.517101666667","25.00485","6500400","永和區"
"234084","338-UY","2019/11/16 14:29:56","新北市永和區光復街21號","121.516475","25.0174116666667","6500400","永和區"
"234068","552-UM","2019/11/16 14:29:44","新北市永和區永亨路2號","121.51913","25.00538","6500400","永和區"
"234015","745-BX","2019/11/16 14:29:58","新北市三重區後埔街61-1號","121.479476666667","25.0470983333333","6500400","永和區"
"234028","746-BX","2019/11/16 14:29:45","新北市中和區景平路336號","121.511815","24.9929266666667","6500400","永和區"
"234052","KEA-2590","2019/11/16 14:29:56","新北市永和區環河東路一段42號","121.518816666667","25.017095","6500400","永和區"
"234060","AAD-866","2019/11/16 14:29:40","新北市永和區秀朗路一段175號","121.517031666667","25.0036416666667","6500400","永和區"
"234040","862-TW","2019/11/16 14:29:54","新北市永和區安樂路348號","121.514423333333","25.0064633333333","6500400","永和區"
"234048","863-TW","2019/11/16 14:29:45","新北市永和區新生路118巷1弄17號","121.506621666667","25.014395","6500400","永和區"
"234025","9371-KE","2019/11/16 14:29:53","新北市中和區安平路222號","121.513965","25.0002333333333","6500400","永和區"
"248017","KED-0813","2019/11/16 14:29:44","新北市五股區外寮路13-1號","121.424776666667","25.0811166666667","6501500","五股區"
"234072","AAC-211","2019/11/16 14:29:42","新北市永和區環河東路一段124號","121.520688333333","25.0153966666667","6500400","永和區"
"234001","AAC-295","2019/11/16 14:29:51","新北市永和區大新街52巷1弄17號","121.516436666667","25.0081833333333","6500400","永和區"
"231030","002-UM","2019/11/16 14:29:44","新北市新店區安民街49號","121.516078333333","24.9657916666667","6500600","新店區"
"231005","046-UY","2019/11/16 14:29:43","新北市新店區順安街25號","121.540811666667","24.9856966666667","6500600","新店區"
"231029","106-UY","2019/11/16 14:29:52","新北市新店區安康路二段400號","121.497236666667","24.95548","6500600","新店區"
"231018","107-UY","2019/11/16 14:29:50","新北市新店區中央二街46號","121.527273333333","24.97405","6500600","新店區"
"231013","108-UY","2019/11/16 14:29:52","新北市新店區民權路100-1號","121.536151666667","24.98336","6500600","新店區"
"231036","110-UY","2019/11/16 14:29:43","新北市新店區安祥路109巷120號","121.476431666667","24.9582866666667","6500600","新店區"
"231033","256-BX","2019/11/16 14:29:51","新北市新店區溪洲路200-3號","121.529168333333","24.9679533333333","6500600","新店區"
"231023","260-TV","2019/11/16 14:29:46","新北市新店區光明街189號","121.540085","24.96335","6500600","新店區"
"231003","268-BY","2019/11/16 14:29:26","新北市新店區中興路一段267-1號","121.544818333333","24.967805","6500600","新店區"
"231035","278-BY","2019/11/16 14:29:55","新北市新店區安光路10-1號","121.51382","24.96415","6500600","新店區"
"231017","AAD-862","2019/11/16 14:29:41","新北市新店區北宜路二段410號","121.567598333333","24.9535766666667","6500600","新店區"
"231006","355-BY","2019/11/16 14:29:42","新北市新店區北宜路二段579巷3號","121.565116666667","24.9533933333333","6500600","新店區"
"231038","3712-VJ","2019/11/16 14:29:44","新北市新店區安康路一段32號","121.53168","24.9611883333333","6500600","新店區"
"231027","3713-VJ","2019/11/16 14:29:39","新北市新店區北新路一段96巷29號","121.54306","24.969155","6500600","新店區"
"231020","513-UM","2019/11/16 14:29:43","新北市新店區新烏路三段69號","121.555181666667","24.903785","6500600","新店區"
"231034","616-UM","2019/11/16 14:29:26","新北市新店區車子路11號","121.502946666667","24.9517483333333","6500600","新店區"
"231002","619-UM","2019/11/16 14:29:40","新北市新店區中央路63號","121.532563333333","24.9769966666667","6500600","新店區"
"231012","KED-0819","2019/11/16 14:29:57","新北市新店區寶興路61巷1號","121.550848333333","24.97209","6500600","新店區"
"231028","897-TW","2019/11/16 14:29:47","新北市新店區安和路一段15號","121.516786666667","24.9641733333333","6500600","新店區"
"231001","898-TW","2019/11/16 14:29:49","新北市新店區北新路一段96巷23號","121.54301","24.9688066666667","6500600","新店區"
"231004","899-TW","2019/11/16 14:29:46","新北市新店區中正路265巷5號","121.538305","24.973615","6500600","新店區"
"231037","AKT-0513","2019/11/16 14:29:41","新北市新店區安康路二段318-1號","121.504785","24.95811","6500600","新店區"
"235030","003-UY","2019/11/16 14:29:39","新北市中和區景新街45號","121.504108333333","24.99907","6500300","中和區"
"235028","005-UY","2019/11/16 14:29:54","新北市中和區圓通路2號","121.501915","24.998065","6500300","中和區"
"235027","006-UY","2019/11/16 14:29:52","新北市中和區連城路205號","121.494655","24.997965","6500300","中和區"
"235020","096-UM","2019/11/16 14:29:47","新北市中和區員山路581巷2弄26號","121.477401666667","25.0100066666667","6500300","中和區"
"235003","097-UM","2019/11/16 14:29:53","新北市中和區景平路322號","121.512198333333","24.99276","6500300","中和區"
"235029","098-UM","2019/11/16 14:29:42","新北市中和區福祥路90巷7弄5號","121.499471666667","25.0060666666667","6500300","中和區"
"235004","150-BY","2019/11/16 14:29:57","新北市中和區宜安路23巷14號","121.512421666667","24.9953516666667","6500300","中和區"
"235022","151-BY","2019/11/16 14:29:50","新北市中和區員山路126號","121.481075","24.9959783333333","6500300","中和區"
"235019","183-VK","2019/11/16 14:29:44","新北市中和區德光路15巷16號","121.471326666667","25.0036183333333","6500300","中和區"
"235031","255-BX","2019/11/16 14:29:52","新北市中和區員山路148巷29號","121.482246666667","24.9972133333333","6500300","中和區"
"235008","293-VK","2019/11/16 14:29:51","新北市中和區捷運路155號","121.506423333333","24.9910916666667","6500300","中和區"
"235036","301-VK","2019/11/16 14:29:57","新北市中和區中和路74號","121.500826666667","25.0001783333333","6500300","中和區"
"235007","352-BY","2019/11/16 14:29:56","新北市中和區景平路370號","121.510931666667","24.9928633333333","6500300","中和區"
"235006","KEA-2878","2019/11/16 14:29:49","新北市中和區中和路350巷8弄40號","121.509686666667","24.9997866666667","6500300","中和區"
"247015","KEA-2869","2019/11/16 14:29:52","新北市蘆洲區中正路185巷78弄21號","121.4654","25.0851","6501400","蘆洲區"
"247009","KED-0682","2019/11/16 14:29:38","新北市蘆洲區信義路146號","121.479591666667","25.08313","6501400","蘆洲區"
"235033","4980-A6","2019/11/16 14:29:58","新北市中和區連城路134巷11號","121.495218333333","25.00005","6500300","中和區"
"235002","551-UM","2019/11/16 14:29:40","新北市中和區自立路99巷1號","121.522028333333","24.9951183333333","6500300","中和區"
"235034","558-UM","2019/11/16 14:29:56","新北市中和區連勝街66號","121.497061666667","24.9969166666667","6500300","中和區"
"235009","565-BX","2019/11/16 14:29:41","新北市中和區景新街340號","121.512001666667","24.9905666666667","6500300","中和區"
"235024","KED-0823","2019/11/16 14:29:38","新北市中和區新生街251號","121.483855","24.99854","6500300","中和區"
"235018","640-BX","2019/11/16 14:29:46","新北市中和區莒光路258號","121.468065","24.9939383333333","6500300","中和區"
"235074","647-TV","2019/11/16 14:29:45","新北市中和區連城路469巷79弄30號","121.484263333333","24.9936516666667","6500300","中和區"
"235011","732-UM","2019/11/16 14:29:50","新北市中和區景平路241巷64弄8號","121.507678333333","24.9926366666667","6500300","中和區"
"235010","733-UM","2019/11/16 14:29:42","新北市中和區忠孝街37巷52號","121.511083333333","24.9849866666667","6500300","中和區"
"235073","800-TS","2019/11/16 14:29:44","新北市中和區立德街26巷10號","121.489951666667","25.0071216666667","6500300","中和區"
"235021","801-TS","2019/11/16 14:29:56","新北市中和區員山路144-3號","121.481228333333","24.9967583333333","6500300","中和區"
"235016","805-TS","2019/11/16 14:29:54","新北市中和區華新街143巷67弄19號","121.50721","24.9790966666667","6500300","中和區"
"235012","896-TW","2019/11/16 14:29:50","新北市中和區忠孝街39-5號","121.511855","24.9839683333333","6500300","中和區"
"235017","900-TW","2019/11/16 14:29:58","新北市中和區民德路197-1號","121.468456666667","24.999055","6500300","中和區"
"235015","157-BY","2019/11/16 14:29:48","新北市中和區中興街132巷1號","121.499571666667","24.9921083333333","6500300","中和區"
"235001","AAC-213","2019/11/16 14:29:47","新北市中和區秀朗路三段22巷22號","121.525271666667","24.99618","6500300","中和區"
"235023","AAC-215","2019/11/16 14:29:49","新北市中和區圓通路319-5號","121.492756666667","24.9907116666667","6500300","中和區"
"220013","072-UY","2019/11/16 14:29:43","新北市板橋區實踐路93巷101號","121.467318333333","25.005945","6500100","板橋區"
"220034","073-UY","2019/11/16 14:29:56","新北市板橋區中正路250巷32號","121.456741666667","25.019435","6500100","板橋區"
"220105","075-UY","2019/11/16 14:29:45","新北市板橋區文化路二段342號","121.47284","25.03042","6500100","板橋區"
"220017","AAD-861","2019/11/16 14:29:50","新北市板橋區貴興路106巷7號","121.455176666667","25.0028566666667","6500100","板橋區"
"247005","893-R6","2019/11/16 14:29:38","新北市蘆洲區中華街83號","121.461775","25.08017","6501400","蘆洲區"
"247019","546-UM","2019/11/16 14:29:44","新北市蘆洲區水湳街257號","121.46948","25.09247","6501400","蘆洲區"
"247003","341-TH","2019/11/16 14:29:36","新北市蘆洲區長安街200號","121.458671666667","25.0841316666667","6501400","蘆洲區"
"247023","057-VK","2019/11/16 14:29:40","新北市蘆洲區中正路263巷2號","121.467221666667","25.0875666666667","6501400","蘆洲區"
"247013","056-VK","2019/11/16 14:29:43","新北市蘆洲區成功路172號","121.471325","25.08366","6501400","蘆洲區"
"247017","053-VK","2019/11/16 14:29:39","新北市蘆洲區民族路267號","121.476086666667","25.0906833333333","6501400","蘆洲區"
"247007","002-UY","2019/11/16 14:29:45","新北市蘆洲區民生街20號","121.475245","25.078985","6501400","蘆洲區"
"247001","001-UY","2019/11/16 14:29:41","新北市蘆洲區永樂街38巷33弄29號","121.456908333333","25.0896383333333","6501400","蘆洲區"
"235013","251-BX","2019/11/16 14:29:56","新北市中和區安平路10-1號","121.509151666667","24.9939616666667","6500300","中和區"
"228005","097-TW","2019/11/16 14:29:49","新北市貢寮區美豐里巫里岸7號","121.901668333333","25.0691816666667","6502600","貢寮區"
"228004","212-TW","2019/11/16 14:29:59","新北市貢寮區雙玉里田寮洋街34-1號","121.931516666667","25.01492","6502600","貢寮區"
"253003","6232-TK","2019/11/16 14:29:47","新北市石門區尖子鹿11號","121.575993333333","25.2804033333333","6502200","石門區"
"253004","6251-TK","2019/11/16 14:29:51","新北市石門區內阿里磅37-2號","121.582451666667","25.2377483333333","6502200","石門區"
"253002","637-UY","2019/11/16 14:29:45","新北市石門區七股9-1號","121.547861666667","25.2650666666667","6502200","石門區"
"253001","KEC-0718","2019/11/16 14:29:39","新北市石門區崁子腳84號","121.532031666667","25.277735","6502200","石門區"
"207002","749-BX","2019/11/16 14:29:33","新北市萬里區溪底里香員林路17-1號","121.63618","25.1598066666667","6502800","萬里區"
"207001","662-BX","2019/11/16 14:29:43","新北市萬里區磺潭里清水9號","121.640421666667","25.1998966666667","6502800","萬里區"
"252005","AAC-283","2019/11/16 14:29:39","新北市三芝區橫山里大坑85-2號","121.528063333333","25.2578916666667","6502100","三芝區"
"236040","KED-0685","2019/11/16 14:29:56","新北市土城區學成路91巷6號","121.450756666667","24.9882416666667","6501300","土城區"
"236074","166-UM","2019/11/16 14:29:47","新北市土城區中央路四段46巷28號","121.421931666667","24.9616516666667","6501300","土城區"
"236029","253-BX","2019/11/16 14:29:56","新北市土城區水源街48號","121.440581666667","24.9759133333333","6501300","土城區"
"236024","269-VK","2019/11/16 14:29:49","新北市土城區承天路73號","121.440078333333","24.96311","6501300","土城區"
"236013","270-VK","2019/11/16 14:29:53","新北市土城區青雲路39巷7號","121.460378333333","24.9875583333333","6501300","土城區"
"236032","271-VK","2019/11/16 14:29:42","新北市土城區明德路一段297號","121.45997","24.97724","6501300","土城區"
"247011","KED-0683","2019/11/16 14:29:52","新北市蘆洲區中興街132號","121.48216","25.0893916666667","6501400","蘆洲區"
"236068","KEA-2877","2019/11/16 14:29:52","新北市土城區永豐路211-2號","121.474665","24.9760516666667","6501300","土城區"
"236017","401-BY","2019/11/16 14:29:41","新北市土城區永豐路202巷14號","121.466366666667","24.983415","6501300","土城區"
"236045","752-BX","2019/11/16 14:28:58","新北市土城區青雲路364號","121.458683333333","24.973915","6501300","土城區"
"236057","912-UM","2019/11/16 14:29:45","新北市土城區中央路四段58-3號","121.420018333333","24.9601366666667","6501300","土城區"
"236060","915-UM","2019/11/16 14:29:43","新北市中和區莒光路213號","121.469021666667","24.9945816666667","6501300","土城區"
"236054","AAC-216","2019/11/16 14:29:45","新北市土城區福祥街101巷1號","121.440966666667","24.9817333333333","6501300","土城區"
"220027","145-BY","2019/11/16 14:29:48","新北市板橋區公館街25號","121.460948333333","25.015165","6500100","板橋區"
"220028","200-UY","2019/11/16 14:29:50","新北市板橋區大觀路二段3巷100號","121.450385","25.0031283333333","6500100","板橋區"
"220030","610-BX","2019/11/16 14:29:43","新北市板橋區金門街362號","121.427455","24.9840933333333","6500100","板橋區"
"220050","245-BX","2019/11/16 14:29:58","新北市板橋區萬板路42號","121.472385","25.0224883333333","6500100","板橋區"
"220040","267-BY","2019/11/16 14:29:46","新北市板橋區文聖街149巷25號","121.479435","25.02865","6500100","板橋區"
"220004","276-BY","2019/11/16 14:29:55","新北市板橋區和平路4號","121.45814","24.9943683333333","6500100","板橋區"
"220020","277-BY","2019/11/16 14:29:59","新北市板橋區篤行路二段136號","121.42983","24.9884233333333","6500100","板橋區"
"220043","283-UM","2019/11/16 14:29:44","新北市板橋區銘傳街35號","121.468606666667","25.0310366666667","6500100","板橋區"
"220019","283-VK","2019/11/16 14:29:47","新北市板橋區忠孝路48巷2弄10號","121.460246666667","25.0010533333333","6500100","板橋區"
"220001","285-VK","2019/11/16 14:29:54","新北市板橋區永豐街181號","121.476","25.0206783333333","6500100","板橋區"
"220107","286-VK","2019/11/16 14:29:41","新北市板橋區龍興街65巷34號","121.44299","25.00188","6500100","板橋區"
"220029","287-VK","2019/11/16 14:29:52","新北市板橋區大觀路一段75巷39號","121.448978333333","25.0041733333333","6500100","板橋區"
"220039","288-VK","2019/11/16 14:29:44","新北市板橋區裕民街130號","121.45898","25.0273683333333","6500100","板橋區"
"220009","293-UM","2019/11/16 14:29:44","新北市板橋區漢生東路113巷11號","121.46776","25.015395","6500100","板橋區"
"220032","296-UM","2019/11/16 14:29:41","新北市板橋區滿平街84巷153號","121.42704","24.986325","6500100","板橋區"
"220023","303-R5","2019/11/16 14:29:35","新北市板橋區僑中一街124巷70-5號","121.449903333333","25.0165883333333","6500100","板橋區"
"220010","305-R5","2019/11/16 14:29:56","新北市板橋區三民路二段81巷25號","121.480503333333","25.0167266666667","6500100","板橋區"
"220041","307-R5","2019/11/16 14:29:50","新北市板橋區陽明街164巷29號","121.464588333333","25.0246816666667","6500100","板橋區"
"220047","317-R6","2019/11/16 14:29:49","新北市板橋區四維路266巷2弄1號","121.463988333333","25.028675","6500100","板橋區"
"220038","487-VK","2019/11/16 14:29:54","新北市板橋區英士路199號","121.458853333333","25.02353","6500100","板橋區"
"220037","491-VK","2019/11/16 14:29:54","新北市板橋區雙十路二段49號","121.476536666667","25.0263416666667","6500100","板橋區"
"220104","560-BX","2019/11/16 14:29:41","新北市板橋區中正路399巷17號","121.452956666667","25.0227366666667","6500100","板橋區"
"220052","561-BX","2019/11/16 14:29:40","新北市板橋區陽明街29巷11號","121.464888333333","25.0218766666667","6500100","板橋區"
"220011","609-BX","2019/11/16 14:29:52","新北市板橋區三民路一段1巷28號","121.48022","25.0244966666667","6500100","板橋區"
"220005","686-BX","2019/11/16 14:29:47","新北市板橋區國慶路49巷1號","121.459478333333","24.9955633333333","6500100","板橋區"
"220025","687-BX","2019/11/16 14:29:53","新北市板橋區大觀路一段51號","121.447873333333","25.0073866666667","6500100","板橋區"
"220042","689-BX","2019/11/16 14:29:49","新北市板橋區新海路407號","121.458468333333","25.0269133333333","6500100","板橋區"
"220002","741-BX","2019/11/16 14:29:55","新北市板橋區忠孝路213號","121.465431666667","25.0027266666667","6500100","板橋區"
"220051","KEA-2699","2019/11/16 14:29:52","新北市板橋區雙十路二段46巷13號","121.476058333333","25.0280083333333","6500100","板橋區"
"220003","827-TW","2019/11/16 14:29:52","新北市板橋區重慶路278巷2-3號","121.462756666667","24.9997033333333","6500100","板橋區"
"220016","830-TW","2019/11/16 14:29:46","新北市板橋區中山路二段551號","121.48382","25.021705","6500100","板橋區"
"220014","831-TW","2019/11/16 14:29:40","新北市板橋區漢生東路313巷2弄6號","121.472226666667","25.0080683333333","6500100","板橋區"
"220022","895-R6","2019/11/16 14:29:52","新北市板橋區倉後街1-10號","121.455371666667","25.009015","6500100","板橋區"
"220021","985-R7","2019/11/16 14:29:52","新北市板橋區新生街89巷28號","121.457118333333","25.022685","6500100","板橋區"
"220046","AAC-210","2019/11/16 14:29:55","新北市板橋區文化路一段285巷1弄15號","121.464201666667","25.01869","6500100","板橋區"
"220012","AAC-253","2019/11/16 14:29:45","新北市板橋區中山路一段102-3號","121.46251","25.0104266666667","6500100","板橋區"
"235032","KEA-2873","2019/11/16 14:29:56","新北市中和區莊敬路16巷2號","121.499838333333","25.004195","6500300","中和區"
"235025","KEA-2875","2019/11/16 14:29:48","新北市中和區員山路176號","121.481291666667","24.9999816666667","6500300","中和區"
