"lineid","car","time","location","longitude","latitude","cityid","cityname"
"231018","107-UY","2019/11/16 16:13:47","新北市新店區中正路700巷82號","121.535948333333","24.9932633333333","6500600","新店區"
"231046","719-UM","2019/11/16 16:08:38","新北市新店區永業路81巷54號","121.529671666667","24.94788","6500600","新店區"
"241011","013-R5","2019/11/16 16:13:54","新北市三重區三和路三段18號","121.496956666667","25.0702933333333","6500200","三重區"
"241028","022-UY","2019/11/16 16:13:39","新北市三重區正義南路111號","121.498228333333","25.0585783333333","6500200","三重區"
"241008","059-VK","2019/11/16 16:13:54","新北市三重區永福街211巷39號","121.478376666667","25.0740566666667","6500200","三重區"
"241015","062-VK","2019/11/16 16:13:53","新北市三重區三和路一段7號","121.50395","25.0644833333333","6500200","三重區"
"241017","063-VK","2019/11/16 16:13:47","新北市三重區重陽路三段5巷15號","121.491168333333","25.065265","6500200","三重區"
"241024","065-VK","2019/11/16 16:13:59","新北市三重區中正北路145巷9弄2號","121.4853","25.0680716666667","6500200","三重區"
"241007","066-VK","2019/11/16 16:13:52","新北市三重區三和路四段155巷31號","121.484808333333","25.0785766666667","6500200","三重區"
"241006","262-UM","2019/11/16 16:13:48","新北市三重區永福街46巷37號","121.482205","25.0774616666667","6500200","三重區"
"241014","316-R6","2019/11/16 16:13:46","新北市三重區長元街105號","121.504558333333","25.0664433333333","6500200","三重區"
"241016","266-UM","2019/11/16 16:13:57","新北市三重區大仁街35號","121.492933333333","25.0653333333333","6500200","三重區"
"241009","267-UM","2019/11/16 16:13:56","新北市三重區溪尾街196巷2號","121.487915","25.08083","6500200","三重區"
"241018","268-UM","2019/11/16 16:13:59","新北市三重區民生街76號","121.490326666667","25.0648966666667","6500200","三重區"
"241013","270-UM","2019/11/16 16:13:49","新北市三重區三和路三段83巷9-2號","121.495336666667","25.0723316666667","6500200","三重區"
"241025","271-UM","2019/11/16 16:13:47","新北市三重區忠孝路三段84巷1號","121.480175","25.0646683333333","6500200","三重區"
"241020","478-VK","2019/11/16 16:13:40","新北市三重區力行路一段185號","121.48361","25.0697366666667","6500200","三重區"
"241026","480-VK","2019/11/16 16:13:45","新北市三重區正義南路43號","121.498141666667","25.060875","6500200","三重區"
"241023","545-UM","2019/11/16 16:13:55","新北市三重區中正北路145巷8弄11號","121.483755","25.0682033333333","6500200","三重區"
"241001","547-UM","2019/11/16 16:13:47","新北市三重區自強路四段80號","121.49062","25.07886","6500200","三重區"
"241033","557-UM","2019/11/16 16:13:44","新北市三重區中興南街80巷3號","121.471395","25.0436966666667","6500200","三重區"
"241019","KEA-2593","2019/11/16 16:13:57","新北市三重區自強路二段24號","121.489613333333","25.069265","6500200","三重區"
"241012","743-BX","2019/11/16 16:13:53","新北市三重區河邊北街313號","121.502421666667","25.0748783333333","6500200","三重區"
"241005","KED-0670","2019/11/16 16:13:45","新北市三重區溪尾街305號","121.487503333333","25.0837366666667","6500200","三重區"
"241029","942-UM","2019/11/16 16:13:51","新北市三重區中正南路285號","121.493028333333","25.05214","6500200","三重區"
"224007","285-BY","2019/11/16 16:13:57","新北市瑞芳區大埔路106號","121.761736666667","25.1004266666667","6501200","瑞芳區"
"224005","271-BY","2019/11/16 16:13:44","新北市瑞芳區東和路9號","121.804668333333","25.1060816666667","6501200","瑞芳區"
"227001","642-TC","2019/11/16 16:13:53","新北市雙溪區三港里雙澳路6號","121.869201666667","25.0464416666667","6502500","雙溪區"
"227002","400-TW","2019/11/16 16:13:55","新北市雙溪區上林里內平林80號","121.828265","25.02792","6502500","雙溪區"
"251008","181-VK","2019/11/16 16:13:56","新北市淡水區重建街82號","121.440111666667","25.17238","6501000","淡水區"
"251013","182-VK","2019/11/16 16:13:51","新北市淡水區北新路一段129-1號","121.457493333333","25.1820266666667","6501000","淡水區"
"251014","577-R6","2019/11/16 16:13:46","新北市淡水區沙崙路198號","121.424545","25.1838066666667","6501000","淡水區"
