"lineid","car","time","location","longitude","latitude","cityid","cityname"
"249005","172-UM","2019/11/16 16:59:43","新北市八里區渡船頭1號","121.434131666667","25.1521016666667","6502300","八里區"
"249001","173-UM","2019/11/16 16:59:41","新北市八里區中山路三段106號","121.391103333333","25.1422133333333","6502300","八里區"
"249004","303-UY","2019/11/16 16:59:52","新北市八里區博物館路29號","121.41365","25.1625333333333","6502300","八里區"
"249002","305-UY","2019/11/16 16:57:26","新北市八里區牛寮埔19-1號","121.431646666667","25.1427183333333","6502300","八里區"
"249003","593-UM","2019/11/16 16:59:56","新北市八里區中山路二段297號","121.401333333333","25.14836","6502300","八里區"
"244019","402-UM","2019/11/16 16:59:49","新北市林口區東湖路153巷129號","121.381778333333","25.073225","6501700","林口區"
"244025","837-TS","2019/11/16 16:59:42","新北市林口區粉寮路二段22號","121.402653333333","25.0861283333333","6501700","林口區"
"244021","838-TS","2019/11/16 16:59:56","新北市林口區粉寮路二段42號","121.403471666667","25.0868","6501700","林口區"
"231046","719-UM","2019/11/16 16:59:38","新北市新店區灣潭路15-11號","121.54193","24.9407516666667","6500600","新店區"
"241011","013-R5","2019/11/16 16:59:54","新北市三重區龍濱路172號","121.501395","25.07273","6500200","三重區"
"241028","022-UY","2019/11/16 16:59:39","新北市三重區中正南路54號","121.493953333333","25.0598616666667","6500200","三重區"
"241008","059-VK","2019/11/16 16:59:54","新北市三重區永福街179-2號","121.478855","25.075","6500200","三重區"
"241023","060-VK","2019/11/16 16:36:22","新北市三重區重新路四段121號","121.484946666667","25.052475","6500200","三重區"
"241031","061-VK","2019/11/16 16:59:52","新北市三重區過圳街7巷36號","121.490468333333","25.0597816666667","6500200","三重區"
"241015","062-VK","2019/11/16 16:59:53","新北市三重區三和路二段14-2號","121.500895","25.0670766666667","6500200","三重區"
"241017","063-VK","2019/11/16 16:59:46","新北市三重區國隆路12巷16號","121.492533333333","25.0636033333333","6500200","三重區"
"241024","065-VK","2019/11/16 16:59:48","新北市三重區力行路二段7號","121.48201","25.0720933333333","6500200","三重區"
"241007","066-VK","2019/11/16 16:59:52","新北市三重區溪尾街130號","121.48911","25.0794583333333","6500200","三重區"
"241002","090-VK","2019/11/16 16:59:39","新北市三重區仁義街225巷42號","121.497791666667","25.083085","6500200","三重區"
"241003","091-VK","2019/11/16 16:59:40","新北市三重區五華街141巷58號","121.493571666667","25.0867916666667","6500200","三重區"
"241006","262-UM","2019/11/16 16:59:08","新北市三重區車路頭街143巷8號","121.484243333333","25.0766816666667","6500200","三重區"
"241014","316-R6","2019/11/16 16:59:58","新北市三重區介壽路189號","121.501428333333","25.0708233333333","6500200","三重區"
"241016","266-UM","2019/11/16 16:59:57","新北市三重區大同北路56號","121.494293333333","25.0637983333333","6500200","三重區"
"241009","267-UM","2019/11/16 16:59:36","新北市三重區三和路四段215巷42號","121.483201666667","25.080205","6500200","三重區"
"241018","268-UM","2019/11/16 16:59:39","新北市三重區六張街126巷6號","121.492335","25.0689416666667","6500200","三重區"
"241032","269-UM","2019/11/16 16:59:49","新北市三重區重陽路一段130巷11號","121.486013333333","25.060605","6500200","三重區"
"241013","270-UM","2019/11/16 16:59:49","新北市三重區仁興街28巷42號","121.498458333333","25.07494","6500200","三重區"
"241025","271-UM","2019/11/16 16:59:47","新北市三重區中正北路510號","121.472646666667","25.0715616666667","6500200","三重區"
"241030","KED-0822","2019/11/16 16:59:37","新北市三重區環河南路255號","121.491023333333","25.0506283333333","6500200","三重區"
"241004","475-VK","2019/11/16 16:59:44","新北市三重區五華街106號","121.492475","25.0825033333333","6500200","三重區"
"241020","478-VK","2019/11/16 16:59:58","新北市三重區國道路一段5號","121.486306666667","25.0734266666667","6500200","三重區"
"241026","480-VK","2019/11/16 16:59:45","新北市三重區光興街57號","121.49895","25.0601866666667","6500200","三重區"
"241023","545-UM","2019/11/16 16:59:55","新北市三重區忠孝路三段127巷5號","121.47931","25.0636066666667","6500200","三重區"
"241001","547-UM","2019/11/16 16:59:52","新北市三重區仁愛街247號","121.49361","25.078055","6500200","三重區"
"241033","557-UM","2019/11/16 16:59:44","新北市三重區中興北街275號","121.469065","25.06081","6500200","三重區"
"241019","KEA-2593","2019/11/16 16:59:57","新北市三重區自強路二段74巷21號","121.488006666667","25.0698616666667","6500200","三重區"
"241012","743-BX","2019/11/16 16:59:52","新北市三重區仁和街129號","121.498938333333","25.0744133333333","6500200","三重區"
"241022","KED-0820","2019/11/16 16:59:55","新北市三重區三民街155巷2號","121.483958333333","25.0643716666667","6500200","三重區"
"241005","KED-0670","2019/11/16 16:59:45","新北市三重區永安北路二段23號","121.482376666667","25.0815966666667","6500200","三重區"
"241029","942-UM","2019/11/16 16:59:51","新北市三重區中正南路181號","121.493703333333","25.0551983333333","6500200","三重區"
"247016","KEA-2869","2019/11/16 16:59:45","新北市蘆洲區正和街3號","121.470481666667","25.0826266666667","6501400","蘆洲區"
"247006","893-R6","2019/11/16 16:59:51","新北市蘆洲區長安街99巷21號","121.461061666667","25.0799916666667","6501400","蘆洲區"
"247020","546-UM","2019/11/16 16:59:57","新北市蘆洲區民族路422巷48弄22-3號","121.474363333333","25.09345","6501400","蘆洲區"
"247004","341-TH","2019/11/16 16:59:46","新北市蘆洲區長安街110號","121.46101","25.0814733333333","6501400","蘆洲區"
"247024","057-VK","2019/11/16 16:59:43","新北市蘆洲區長興路255號","121.460458333333","25.0874916666667","6501400","蘆洲區"
"247014","056-VK","2019/11/16 16:59:53","新北市蘆洲區中山二路16號","121.475001666667","25.081825","6501400","蘆洲區"
"247018","053-VK","2019/11/16 16:59:40","新北市蘆洲區民族路227巷25號","121.476758333333","25.089135","6501400","蘆洲區"
"247022","007-UY","2019/11/16 16:59:45","新北市蘆洲區三民路128巷128號","121.468781666667","25.0917283333333","6501400","蘆洲區"
"247008","002-UY","2019/11/16 16:59:54","新北市蘆洲區信義路57號","121.475093333333","25.079765","6501400","蘆洲區"
"247002","001-UY","2019/11/16 16:59:56","新北市蘆洲區長榮路526號","121.4596","25.09027","6501400","蘆洲區"
"228003","097-TW","2019/11/16 16:59:48","新北市貢寮區福隆里興隆街15號","121.94388","25.01648","6502600","貢寮區"
"228001","212-TW","2019/11/16 16:59:44","新北市貢寮區貢寮里朝陽街1-2號","121.912243333333","25.0212933333333","6502600","貢寮區"
"228002","663-BX","2019/11/16 16:59:50","新北市貢寮區貢寮里朝陽街142號","121.905958333333","25.0230666666667","6502600","貢寮區"
"224006","676-BX","2019/11/16 16:59:45","新北市瑞芳區大寮路356-1號","121.784953333333","25.103145","6501200","瑞芳區"
"224007","285-BY","2019/11/16 16:59:37","新北市瑞芳區楓子瀨路76號","121.762846666667","25.0984216666667","6501200","瑞芳區"
"224009","275-VK","2019/11/16 16:59:42","新北市瑞芳區明燈路一段1號","121.826558333333","25.1093333333333","6501200","瑞芳區"
"224008","273-VK","2019/11/16 16:59:57","新北市瑞芳區明燈路一段267號","121.81691","25.10842","6501200","瑞芳區"
"224005","271-BY","2019/11/16 16:59:58","新北市瑞芳區南雅路9號","121.888905","25.1202733333333","6501200","瑞芳區"
"227001","642-TC","2019/11/16 16:59:52","新北市雙溪區三貂里定福路6-1號","121.852305","25.0763683333333","6502500","雙溪區"
"227002","400-TW","2019/11/16 16:59:55","新北市雙溪區上林里內平林82-1號","121.828655","25.0279683333333","6502500","雙溪區"
"251009","008-UM","2019/11/16 16:59:41","新北市淡水區中正路二段31號","121.419491666667","25.1815783333333","6501000","淡水區"
"251004","009-UM","2019/11/16 16:59:41","新北市淡水區中山路70-1號","121.443193333333","25.1704833333333","6501000","淡水區"
"251005","010-UM","2019/11/16 16:59:43","新北市淡水區學府路10號","121.447535","25.1678683333333","6501000","淡水區"
"251015","KEA-2871","2019/11/16 16:59:43","新北市淡水區忠愛街5-2號","121.460583333333","25.1716466666667","6501000","淡水區"
"251016","180-VK","2019/11/16 16:59:59","新北市淡水區瓦坑3號","121.477578333333","25.1807566666667","6501000","淡水區"
"251008","181-VK","2019/11/16 16:59:39","新北市淡水區樹梅坑9號","121.472783333333","25.14266","6501000","淡水區"
"251013","182-VK","2019/11/16 16:59:51","新北市淡水區泉洲厝32號","121.489311666667","25.192565","6501000","淡水區"
"251012","441-VK","2019/11/16 16:59:58","新北市淡水區中正路二段18號","121.420076666667","25.181175","6501000","淡水區"
"251007","442-VK","2019/11/16 16:59:44","新北市淡水區中山路70-1號","121.443036666667","25.1704866666667","6501000","淡水區"
"251006","561-UM","2019/11/16 16:59:50","新北市淡水區中正路一段72號","121.42514","25.1770633333333","6501000","淡水區"
"251014","577-R6","2019/11/16 16:59:46","新北市淡水區淡金路四段478號","121.452393333333","25.2239166666667","6501000","淡水區"
"251011","650-BX","2019/11/16 16:59:52","新北市淡水區坪頂路50號","121.457911666667","25.16253","6501000","淡水區"
"252002","178-VK","2019/11/16 16:59:41","新北市三芝區忠孝街162號","121.506195","25.258845","6502100","三芝區"
"233002","762-BX","2019/11/16 16:59:41","新北市烏來區烏來街79-1號","121.551806666667","24.8644983333333","6502900","烏來區"
"247012","KED-0683","2019/11/16 16:59:55","新北市蘆洲區復興路342-1號","121.482361666667","25.0905","6501400","蘆洲區"
"252001","KED-0821","2019/11/16 16:59:41","新北市三芝區淡金路二段47-1號","121.50354","25.2605266666667","6502100","三芝區"
"242061","986-R7","2019/11/16 16:59:47","新北市新莊區新泰路357巷3弄57號","121.442353333333","25.039485","6500500","新莊區"
"242004","751-BX","2019/11/16 16:59:53","新北市新莊區三和路12-21號","121.442181666667","25.0385683333333","6500500","新莊區"
"242029","615-BX","2019/11/16 16:59:46","新北市新莊區新泰路357巷3弄57號","121.441998333333","25.0393","6500500","新莊區"
"242027","613-BX","2019/11/16 16:59:39","新北市新莊區新泰路357巷1弄57號","121.442568333333","25.0396716666667","6500500","新莊區"
"242058","612-BX","2019/11/16 16:59:54","新北市新莊區新泰路357巷3弄57號","121.442158333333","25.0392933333333","6500500","新莊區"
"242053","497-BY","2019/11/16 16:59:52","新北市新莊區新泰路357巷3弄57號","121.442236666667","25.0394483333333","6500500","新莊區"
"242002","441-UM","2019/11/16 16:59:44","新北市新莊區三和路12-21號","121.442021666667","25.038015","6500500","新莊區"
"242051","400-BY","2019/11/16 16:59:43","新北市新莊區新泰路357巷3弄57號","121.442198333333","25.039595","6500500","新莊區"
"242031","175-VK","2019/11/16 16:59:50","新北市新莊區三和路12-21號","121.441918333333","25.03878","6500500","新莊區"
"242007","346-TH","2019/11/16 16:59:54","新北市新莊區三和路12-21號","121.441968333333","25.0382316666667","6500500","新莊區"
"242034","350-TH","2019/11/16 16:59:52","新北市新莊區新泰路357巷3弄57號","121.441938333333","25.0390883333333","6500500","新莊區"
"242019","351-TH","2019/11/16 16:59:39","新北市新莊區新泰路357巷3弄57號","121.441973333333","25.0394816666667","6500500","新莊區"
"238017","283-BY","2019/11/16 16:59:44","新北市樹林區中山路三段125-11號","121.398713333333","24.97405","6500700","樹林區"
"238014","282-BY","2019/11/16 16:59:42","新北市樹林區佳園路一段153號","121.393895","24.9686716666667","6500700","樹林區"
"238020","268-VK","2019/11/16 16:59:42","新北市樹林區中山路二段89號","121.411406666667","24.9827766666667","6500700","樹林區"
"239007","AAC-297","2019/11/16 16:59:50","新北市鶯歌區環河路177-3號","121.34598","24.9351716666667","6500800","鶯歌區"
"239008","527-UM","2019/11/16 16:59:44","新北市鶯歌區二甲路13-16號","121.345083333333","24.9351683333333","6500800","鶯歌區"
"239005","526-UM","2019/11/16 16:59:45","新北市鶯歌區二甲路12-2號","121.3457","24.9352366666667","6500800","鶯歌區"
"239001","417-VK","2019/11/16 16:59:43","新北市鶯歌區環河路175號","121.34602","24.9358883333333","6500800","鶯歌區"
"242046","281-VK","2019/11/16 16:59:42","新北市新莊區三和路12-21號","121.442188333333","25.0383583333333","6500500","新莊區"
"242011","280-VK","2019/11/16 16:59:49","新北市新莊區三和路12-21號","121.441911666667","25.0381366666667","6500500","新莊區"
