"lineid","car","time","location","longitude","latitude","cityid","cityname"
"249005","172-UM","2019/11/16 17:13:43","新北市八里區華富山16號","121.418191666667","25.1338366666667","6502300","八里區"
"249001","173-UM","2019/11/16 17:13:41","新北市八里區中華路二段165巷23號","121.409055","25.1500366666667","6502300","八里區"
"249004","303-UY","2019/11/16 17:13:52","新北市八里區文化街39號","121.42352","25.1598316666667","6502300","八里區"
"249002","305-UY","2019/11/16 17:13:46","新北市八里區龍米路二段147巷2號","121.443393333333","25.1493616666667","6502300","八里區"
"249003","593-UM","2019/11/16 17:13:52","新北市八里區中山路二段439號","121.396796666667","25.1458716666667","6502300","八里區"
"244007","080-UY","2019/11/16 17:13:54","新北市林口區中湖48-21號","121.379975","25.0939833333333","6501700","林口區"
"244019","402-UM","2019/11/16 17:13:49","新北市林口區文化二路一段350-1號","121.373036666667","25.0753116666667","6501700","林口區"
"244013","KEA-2802","2019/11/16 17:13:53","新北市林口區粉寮69號","121.404808333333","25.09079","6501700","林口區"
"244023","483-VK","2019/11/16 17:13:41","新北市林口區仁愛路一段637巷15號","121.388586666667","25.0757583333333","6501700","林口區"
"244017","485-VK","2019/11/16 17:13:52","新北市林口區粉寮69號","121.405061666667","25.0908066666667","6501700","林口區"
"244009","656-BX","2019/11/16 17:13:56","新北市林口區文化北路二段550巷30弄36號","121.378213333333","25.09101","6501700","林口區"
"244025","837-TS","2019/11/16 17:13:42","新北市林口區文化三路二段73號","121.37419","25.0801233333333","6501700","林口區"
"244021","838-TS","2019/11/16 17:13:56","新北市林口區粉寮路二段160巷18號","121.405618333333","25.0927683333333","6501700","林口區"
"231046","719-UM","2019/11/16 17:13:37","新北市新店區直潭七街60號","121.532228333333","24.9400016666667","6500600","新店區"
"241011","013-R5","2019/11/16 17:13:54","新北市三重區龍門路43號","121.49622","25.07225","6500200","三重區"
"241028","022-UY","2019/11/16 17:13:39","新北市三重區仁化商場3號","121.49352","25.059525","6500200","三重區"
"241008","059-VK","2019/11/16 17:13:54","新北市三重區永福街174號","121.481105","25.0745016666667","6500200","三重區"
"241015","062-VK","2019/11/16 17:13:53","新北市三重區中央北路80號","121.500211666667","25.0666083333333","6500200","三重區"
"241017","063-VK","2019/11/16 17:13:47","新北市三重區中正北路25巷25弄5號","121.493385","25.0627016666667","6500200","三重區"
"241024","065-VK","2019/11/16 17:13:39","新北市三重區中正北路171號","121.478111666667","25.0693716666667","6500200","三重區"
"241007","066-VK","2019/11/16 17:13:52","新北市三重區三和路四段157號","121.483748333333","25.0784783333333","6500200","三重區"
"241002","090-VK","2019/11/16 17:13:39","新北市三重區自強路五段2號","121.491906666667","25.0801983333333","6500200","三重區"
"241003","091-VK","2019/11/16 17:13:40","新北市三重區富福街69號","121.49233","25.0847283333333","6500200","三重區"
"241006","262-UM","2019/11/16 17:13:48","新北市三重區車路頭街142號","121.484131666667","25.0757333333333","6500200","三重區"
"241014","316-R6","2019/11/16 17:13:46","新北市三重區長興街61號","121.50113","25.068765","6500200","三重區"
"241016","266-UM","2019/11/16 17:13:57","新北市三重區大同北路97-3號","121.494448333333","25.0635533333333","6500200","三重區"
"241009","267-UM","2019/11/16 17:13:56","新北市三重區仁美街97號","121.485786666667","25.0804616666667","6500200","三重區"
"241018","268-UM","2019/11/16 17:13:59","新北市三重區六張街39號","121.494238333333","25.0704783333333","6500200","三重區"
"241032","269-UM","2019/11/16 17:13:49","新北市三重區興華街122號","121.483501666667","25.0597816666667","6500200","三重區"
"241013","270-UM","2019/11/16 17:13:49","新北市三重區仁福街13號","121.496078333333","25.074315","6500200","三重區"
"241025","271-UM","2019/11/16 17:13:47","新北市三重區中正北路413號","121.470646666667","25.07215","6500200","三重區"
"241030","KED-0822","2019/11/16 17:13:57","新北市三重區環河南路254巷43-1號","121.489341666667","25.05164","6500200","三重區"
"241004","475-VK","2019/11/16 17:13:44","新北市三重區五華街110巷17弄5號","121.490865","25.0823533333333","6500200","三重區"
"241020","478-VK","2019/11/16 17:13:39","新北市三重區忠孝路一段173號","121.4875","25.0719983333333","6500200","三重區"
"241026","480-VK","2019/11/16 17:13:45","新北市三重區文化南路31-1號","121.500221666667","25.0616866666667","6500200","三重區"
"241023","545-UM","2019/11/16 17:13:55","新北市三重區忠孝路三段84巷5號","121.480201666667","25.0643216666667","6500200","三重區"
"241001","547-UM","2019/11/16 17:13:47","新北市三重區仁愛街269巷16號","121.493625","25.0790883333333","6500200","三重區"
"241033","557-UM","2019/11/16 17:13:44","新北市三重區中興北街186號","121.468885","25.0584066666667","6500200","三重區"
"241019","KEA-2593","2019/11/16 17:13:36","新北市三重區自強路二段74巷67號","121.486808333333","25.0696033333333","6500200","三重區"
"241012","743-BX","2019/11/16 17:13:52","新北市三重區河邊北街256巷13號","121.501276666667","25.0760983333333","6500200","三重區"
"241022","KED-0820","2019/11/16 17:13:55","新北市三重區重陽路二段34巷35號","121.485713333333","25.063925","6500200","三重區"
"241005","KED-0670","2019/11/16 17:13:45","新北市三重區永安北路二段5巷24號","121.482491666667","25.0812133333333","6500200","三重區"
"247016","KEA-2869","2019/11/16 17:13:45","新北市蘆洲區光華路73巷10號","121.468203333333","25.0823483333333","6501400","蘆洲區"
"247010","KED-0682","2019/11/16 17:13:58","新北市蘆洲區鷺江街39號","121.478543333333","25.0824066666667","6501400","蘆洲區"
"247006","893-R6","2019/11/16 17:13:51","新北市蘆洲區長安街108巷12號","121.461691666667","25.0821233333333","6501400","蘆洲區"
"247020","546-UM","2019/11/16 17:13:37","新北市蘆洲區仁愛街20號","121.47244","25.092885","6501400","蘆洲區"
"247004","341-TH","2019/11/16 17:13:45","新北市蘆洲區長安街207巷29號","121.45913","25.0816483333333","6501400","蘆洲區"
"247024","057-VK","2019/11/16 17:13:43","新北市蘆洲區長榮路50號","121.462773333333","25.0831633333333","6501400","蘆洲區"
"247014","056-VK","2019/11/16 17:13:58","新北市蘆洲區得勝街135號","121.472035","25.0832483333333","6501400","蘆洲區"
"247018","053-VK","2019/11/16 17:14:00","新北市蘆洲區民權路70號","121.474943333333","25.08735","6501400","蘆洲區"
"247022","007-UY","2019/11/16 17:13:45","新北市蘆洲區民義街9巷11號","121.470915","25.089065","6501400","蘆洲區"
"247008","002-UY","2019/11/16 17:13:54","新北市蘆洲區信義路30巷100號","121.474968333333","25.077285","6501400","蘆洲區"
"247002","001-UY","2019/11/16 17:13:43","新北市蘆洲區環堤大道166號","121.456198333333","25.0895666666667","6501400","蘆洲區"
"228003","097-TW","2019/11/16 17:13:46","新北市貢寮區福隆里東興街42號","121.948781666667","25.0179","6502600","貢寮區"
"228001","212-TW","2019/11/16 17:13:44","新北市貢寮區仁理村尖山腳街4號","121.92613","25.0478366666667","6502600","貢寮區"
"228002","663-BX","2019/11/16 17:13:50","新北市貢寮區雙玉里下雙溪街6-1號","121.913245","25.0161416666667","6502600","貢寮區"
"224006","676-BX","2019/11/16 17:13:45","新北市瑞芳區大寮路49巷4號","121.781895","25.0975883333333","6501200","瑞芳區"
"224009","275-VK","2019/11/16 17:13:42","新北市瑞芳區街頂巷36號","121.843541666667","25.1105283333333","6501200","瑞芳區"
"224008","273-VK","2019/11/16 17:13:57","新北市瑞芳區柴寮路50號","121.82755","25.0870233333333","6501200","瑞芳區"
"224005","271-BY","2019/11/16 17:13:44","新北市瑞芳區鼻頭路101號","121.915896666667","25.123925","6501200","瑞芳區"
"227001","642-TC","2019/11/16 17:13:52","新北市雙溪區三貂里定福路2號","121.850998333333","25.0667433333333","6502500","雙溪區"
"227002","400-TW","2019/11/16 17:13:55","新北市雙溪區平林里梅竹蹊59號","121.852193333333","25.0322066666667","6502500","雙溪區"
"251009","008-UM","2019/11/16 17:13:41","新北市淡水區中正路342號","121.435053333333","25.173575","6501000","淡水區"
"251004","009-UM","2019/11/16 17:10:56","新北市淡水區中正東路二段88巷15號","121.459038333333","25.1504983333333","6501000","淡水區"
"251005","010-UM","2019/11/16 17:13:42","新北市淡水區學府路17號","121.447635","25.1683033333333","6501000","淡水區"
"251015","KEA-2871","2019/11/16 17:13:42","新北市淡水區鄧公路36巷5號","121.457023333333","25.1690083333333","6501000","淡水區"
"251016","180-VK","2019/11/16 17:13:38","新北市淡水區鄒厝崙7號","121.470811666667","25.18804","6501000","淡水區"
"251008","181-VK","2019/11/16 17:13:58","新北市淡水區民生路169號","121.469623333333","25.14208","6501000","淡水區"
"251013","182-VK","2019/11/16 17:13:51","新北市淡水區大埤頭9-1號","121.482485","25.1947283333333","6501000","淡水區"
"251010","413-VK","2019/11/16 17:13:40","新北市淡水區中正路二段31號","121.41949","25.1814716666667","6501000","淡水區"
"251012","441-VK","2019/11/16 17:13:58","新北市淡水區中山北路一段158號","121.444176666667","25.177845","6501000","淡水區"
"251007","442-VK","2019/11/16 17:13:44","新北市淡水區民權路22號","121.459918333333","25.1377466666667","6501000","淡水區"
"251006","561-UM","2019/11/16 17:13:50","新北市淡水區真理街6號","121.438393333333","25.1745033333333","6501000","淡水區"
"251014","577-R6","2019/11/16 17:13:46","新北市淡水區八里堆12-1號","121.462268333333","25.2251583333333","6501000","淡水區"
"251011","650-BX","2019/11/16 17:13:52","新北市淡水區坪頂路49號","121.45789","25.1626216666667","6501000","淡水區"
"251003","766-UM","2019/11/16 17:13:54","新北市淡水區中正路二段31號","121.419376666667","25.18149","6501000","淡水區"
"252002","178-VK","2019/11/16 17:13:41","新北市三芝區忠孝街1-15號","121.50552","25.2539016666667","6502100","三芝區"
"233002","762-BX","2019/11/16 17:13:41","新北市烏來區西羅岸路64號","121.546581666667","24.8647016666667","6502900","烏來區"
"247012","KED-0683","2019/11/16 17:13:55","新北市蘆洲區信義路266巷24弄1號","121.47918","25.0873833333333","6501400","蘆洲區"
"252001","KED-0821","2019/11/16 17:13:41","新北市三芝區埔頭里埔頭15-7號","121.496503333333","25.2597883333333","6502100","三芝區"
"242042","AAC-296","2019/11/16 17:13:47","新北市新莊區新泰路357巷3弄11號","121.441993333333","25.0409283333333","6500500","新莊區"
"242061","986-R7","2019/11/16 17:13:47","新北市新莊區新泰路357巷1弄57號","121.442471666667","25.0394483333333","6500500","新莊區"
"242004","751-BX","2019/11/16 17:13:53","新北市新莊區三和路12-21號","121.442161666667","25.0380033333333","6500500","新莊區"
"242029","615-BX","2019/11/16 17:13:46","新北市新莊區新泰路488號","121.442446666667","25.0458016666667","6500500","新莊區"
"242027","613-BX","2019/11/16 17:13:40","新北市新莊區新泰路357巷3弄37號","121.442408333333","25.0404","6500500","新莊區"
"242058","612-BX","2019/11/16 17:13:54","新北市新莊區新泰路357巷3弄57號","121.44225","25.0392233333333","6500500","新莊區"
"242048","566-BX","2019/11/16 17:13:53","新北市新莊區中正路581號","121.434445","25.0326383333333","6500500","新莊區"
"242053","497-BY","2019/11/16 17:13:52","新北市新莊區瓊林路118號","121.442166666667","25.0255083333333","6500500","新莊區"
"242002","441-UM","2019/11/16 17:13:43","新北市新莊區新泰路369巷27號","121.442408333333","25.04323","6500500","新莊區"
"242044","415-TV","2019/11/16 17:13:54","新北市新莊區中正路615號","121.432375","25.0319983333333","6500500","新莊區"
"242051","400-BY","2019/11/16 17:13:43","新北市新莊區新泰路357巷3弄1號","121.442576666667","25.0415383333333","6500500","新莊區"
"242023","353-BY","2019/11/16 17:13:38","新北市新莊區三和路12-10號","121.442316666667","25.0368016666667","6500500","新莊區"
"242039","135-UY","2019/11/16 17:13:55","新北市新莊區中正路400號","121.441918333333","25.0341816666667","6500500","新莊區"
"242056","172-VK","2019/11/16 17:13:54","新北市新莊區中正路400號","121.441875","25.03427","6500500","新莊區"
"242017","173-VK","2019/11/16 17:13:42","新北市新莊區三和路12-21號","121.441876666667","25.03877","6500500","新莊區"
"242031","175-VK","2019/11/16 17:13:50","新北市新莊區三和路12-21號","121.44178","25.0387366666667","6500500","新莊區"
"242007","346-TH","2019/11/16 17:13:54","新北市新莊區三和路12-21號","121.441911666667","25.03816","6500500","新莊區"
"242021","347-TH","2019/11/16 17:13:49","新北市新莊區三和路12-21號","121.442136666667","25.0381316666667","6500500","新莊區"
"242036","348-TH","2019/11/16 17:13:45","新北市泰山區磚雅厝3號","121.442211666667","25.0416183333333","6500500","新莊區"
"242009","349-TH","2019/11/16 17:13:56","新北市新莊區三和路12-21號","121.44228","25.03833","6500500","新莊區"
"242034","350-TH","2019/11/16 17:13:52","新北市新莊區瓊林路46-5號","121.447255","25.0292983333333","6500500","新莊區"
"242019","351-TH","2019/11/16 17:13:39","新北市新莊區中港路311號","121.452665","25.04473","6500500","新莊區"
"238019","599-UM","2019/11/16 17:13:47","新北市樹林區八德街588號","121.39818","24.9692283333333","6500700","樹林區"
"238018","KEA-2217","2019/11/16 17:13:43","新北市樹林區博愛街229號","121.424956666667","24.9859866666667","6500700","樹林區"
"238022","KEA-2213","2019/11/16 17:13:46","新北市樹林區忠孝街33號","121.423731666667","24.9821466666667","6500700","樹林區"
"238017","283-BY","2019/11/16 17:13:44","新北市樹林區光武街28號","121.415801666667","25.0054433333333","6500700","樹林區"
"238014","282-BY","2019/11/16 17:13:42","新北市樹林區長壽街70巷8號","121.421723333333","24.9944483333333","6500700","樹林區"
"238020","268-VK","2019/11/16 17:13:42","新北市樹林區千歲街101號","121.428515","25.000855","6500700","樹林區"
"238016","169-UY","2019/11/16 17:13:43","新北市樹林區八德街1號","121.417526666667","24.9849816666667","6500700","樹林區"
"239007","AAC-297","2019/11/16 17:13:50","新北市鶯歌區光復街74巷2號","121.351476666667","24.9565916666667","6500800","鶯歌區"
"239006","891-R6","2019/11/16 17:13:57","新北市鶯歌區八德路23巷10號","121.333545","24.9506616666667","6500800","鶯歌區"
"239008","527-UM","2019/11/16 17:13:44","新北市鶯歌區文化路311號","121.352425","24.9523783333333","6500800","鶯歌區"
"239005","526-UM","2019/11/16 17:13:45","新北市鶯歌區鶯桃路544號","121.331073333333","24.9672766666667","6500800","鶯歌區"
"239001","417-VK","2019/11/16 17:13:44","新北市鶯歌區尖山路86巷26號","121.347101666667","24.9496083333333","6500800","鶯歌區"
"239003","360-BY","2019/11/16 17:13:53","新北市鶯歌區德昌二街70巷32弄23號","121.331238333333","24.958475","6500800","鶯歌區"
"239002","359-BY","2019/11/16 17:13:39","新北市鶯歌區建國路268號","121.347338333333","24.953385","6500800","鶯歌區"
"239004","193-VK","2019/11/16 17:14:00","新北市鶯歌區文化路501-17號","121.353668333333","24.9484933333333","6500800","鶯歌區"
"242046","281-VK","2019/11/16 17:13:42","新北市新莊區新樹路69號","121.438956666667","25.030045","6500500","新莊區"
"242011","280-VK","2019/11/16 17:13:49","新北市新莊區三和路12-21號","121.44188","25.0382866666667","6500500","新莊區"
