"lineid","car","time","location","longitude","latitude","cityid","cityname"
"234026","9371-KE","2019/11/16 17:43:51","新北市永和區永和路184-1號","121.514168333333","25.0089683333333","6500400","永和區"
"249005","172-UM","2019/11/16 17:43:43","新北市八里區荖阡坑路34-1號","121.40274","25.1297183333333","6502300","八里區"
"249001","173-UM","2019/11/16 17:43:41","新北市八里區龍米路二段153-8號","121.440136666667","25.1534666666667","6502300","八里區"
"249004","303-UY","2019/11/16 17:43:52","新北市八里區中華路一段88號","121.42063","25.1576516666667","6502300","八里區"
"249002","305-UY","2019/11/16 17:43:46","新北市八里區石壁腳19號","121.441705","25.1353383333333","6502300","八里區"
"249003","593-UM","2019/11/16 17:43:52","新北市八里區中山路二段125號","121.405438333333","25.151805","6502300","八里區"
"248002","678-BX","2019/11/16 17:43:37","新北市五股區中興路二段83巷26-3號","121.460075","25.0753416666667","6501500","五股區"
"232011","375-UM","2019/11/16 17:44:00","新北市坪林區北宜路八段29號","121.703438333333","24.9360983333333","6502000","坪林區"
"244007","080-UY","2019/11/16 17:43:53","新北市林口區佳林路19號","121.386841666667","25.0822516666667","6501700","林口區"
"244019","402-UM","2019/11/16 17:43:49","新北市林口區麗園路121號","121.371541666667","25.0675","6501700","林口區"
"244013","KEA-2802","2019/11/16 17:43:53","新北市林口區中山路143號","121.387235","25.079095","6501700","林口區"
"244023","483-VK","2019/11/16 17:43:41","新北市林口區興林路366號","121.388973333333","25.0691916666667","6501700","林口區"
"244017","485-VK","2019/11/16 17:43:52","新北市林口區公園路185-2號","121.371276666667","25.0724166666667","6501700","林口區"
"244009","656-BX","2019/11/16 17:43:56","新北市林口區文化一路二段209號","121.384063333333","25.0828783333333","6501700","林口區"
"244011","701-TV","2019/11/16 17:43:41","新北市林口區中正路263號","121.39026","25.0776466666667","6501700","林口區"
"244025","837-TS","2019/11/16 17:43:42","新北市林口區忠孝三路73號","121.35994","25.0697483333333","6501700","林口區"
"244021","838-TS","2019/11/16 17:43:56","新北市林口區仁愛路123巷1號","121.398755","25.0712016666667","6501700","林口區"
"222003","436-BY","2019/11/16 17:43:53","新北市深坑區北深路二段204號","121.612806666667","25.00143","6501800","深坑區"
"222002","659-BX","2019/11/16 17:43:51","新北市深坑區文化街118號","121.615628333333","25.0020033333333","6501800","深坑區"
"231046","719-UM","2019/11/16 17:14:58","新北市新店區直潭路99-1號","121.531858333333","24.939895","6500600","新店區"
"241015","062-VK","2019/11/16 17:43:53","新北市三重區新北大道一段3-1號","121.490693333333","25.0613516666667","6500200","三重區"
"241017","063-VK","2019/11/16 17:43:46","新北市三重區大同北路16巷6號","121.495158333333","25.061985","6500200","三重區"
"241024","065-VK","2019/11/16 17:43:59","新北市三重區力行路二段9巷35號","121.483488333333","25.0721833333333","6500200","三重區"
"241007","066-VK","2019/11/16 17:43:52","新北市五股區四維路185巷3-1號","121.467308333333","25.0765333333333","6500200","三重區"
"241014","316-R6","2019/11/16 17:43:46","新北市三重區龍門路242號","121.500808333333","25.0737066666667","6500200","三重區"
"241016","266-UM","2019/11/16 17:43:37","新北市三重區新北大道一段7號","121.489608333333","25.0612533333333","6500200","三重區"
"241013","270-UM","2019/11/16 17:43:49","新北市三重區中央南路134號","121.50204","25.0593333333333","6500200","三重區"
"241033","557-UM","2019/11/16 17:43:44","新北市三重區重新路五段509-4號","121.472065","25.04672","6500200","三重區"
"235063","006-UY","2019/11/16 17:43:51","新北市中和區員山路36巷16-3號","121.485086666667","24.9913233333333","6500300","中和區"
"247016","KEA-2869","2019/11/16 17:43:45","新北市蘆洲區光華路110巷18號","121.4668","25.08345","6501400","蘆洲區"
"247010","KED-0682","2019/11/16 17:43:37","新北市蘆洲區民族路31號","121.477313333333","25.0848383333333","6501400","蘆洲區"
"247006","893-R6","2019/11/16 17:43:51","新北市蘆洲區長安街23巷19號","121.463536666667","25.0785","6501400","蘆洲區"
"247020","546-UM","2019/11/16 17:43:57","新北市蘆洲區民義街99號","121.473635","25.0908666666667","6501400","蘆洲區"
"247004","341-TH","2019/11/16 17:43:46","新北市蘆洲區長安街170號","121.45919","25.0833233333333","6501400","蘆洲區"
"247024","057-VK","2019/11/16 17:43:43","新北市蘆洲區光榮路101巷2號","121.46431","25.0898","6501400","蘆洲區"
"247014","056-VK","2019/11/16 17:43:53","新北市蘆洲區中正路131號","121.469366666667","25.084575","6501400","蘆洲區"
"247018","053-VK","2019/11/16 17:43:40","新北市蘆洲區三民路98巷5號","121.472416666667","25.087095","6501400","蘆洲區"
"247022","007-UY","2019/11/16 17:43:45","新北市蘆洲區中正路216號","121.4664","25.0885583333333","6501400","蘆洲區"
"247008","002-UY","2019/11/16 17:43:54","新北市蘆洲區民生街139號","121.472415","25.07933","6501400","蘆洲區"
"247002","001-UY","2019/11/16 17:43:43","新北市蘆洲區永平街18巷8號","121.458908333333","25.09118","6501400","蘆洲區"
"228003","097-TW","2019/11/16 17:43:46","新北市貢寮區真理里延平街62號","121.92494","25.0574933333333","6502600","貢寮區"
"228001","212-TW","2019/11/16 17:43:44","新北市貢寮區仁理村仁愛路95-1號","121.927696666667","25.0554283333333","6502600","貢寮區"
"228002","663-BX","2019/11/16 17:43:54","新北市貢寮區福隆里外隆林街16號","121.958406666667","25.0042683333333","6502600","貢寮區"
"224010","AGQ-8101","2019/11/16 17:43:54","新北市瑞芳區岳王路154號","121.808655","25.1112833333333","6501200","瑞芳區"
"224006","676-BX","2019/11/16 17:43:46","新北市瑞芳區傑魚坑路183號","121.78848","25.1082866666667","6501200","瑞芳區"
"224009","275-VK","2019/11/16 17:43:42","新北市瑞芳區烏勢巷145號","121.848046666667","25.1092883333333","6501200","瑞芳區"
"224008","273-VK","2019/11/16 17:43:57","新北市瑞芳區明燈路一段15號","121.824573333333","25.1066183333333","6501200","瑞芳區"
"224005","271-BY","2019/11/16 17:43:44","新北市瑞芳區海濱路2巷1號","121.834305","25.1267983333333","6501200","瑞芳區"
"227001","642-TC","2019/11/16 17:23:19","新北市雙溪區三貂里定福路1-2號","121.85076","25.0633833333333","6502500","雙溪區"
"227002","400-TW","2019/11/16 17:43:55","新北市雙溪區共和里東榮街52號","121.866316666667","25.0336366666667","6502500","雙溪區"
"251009","008-UM","2019/11/16 17:43:41","新北市淡水區中正路36號","121.443765","25.16925","6501000","淡水區"
"251004","009-UM","2019/11/16 17:43:47","新北市淡水區民權路13-5號","121.459308333333","25.14165","6501000","淡水區"
"251005","010-UM","2019/11/16 17:43:42","新北市淡水區鄧公路35巷6號","121.451656666667","25.171215","6501000","淡水區"
"251002","012-UM","2019/11/16 17:43:49","新北市淡水區中正路22巷1-4號","121.43634","25.173315","6501000","淡水區"
"251015","KEA-2871","2019/11/16 17:43:42","新北市淡水區糞箕湖1-9號","121.484141666667","25.170925","6501000","淡水區"
"251016","180-VK","2019/11/16 17:43:58","新北市淡水區埤島39-15號","121.452775","25.195865","6501000","淡水區"
"251008","181-VK","2019/11/16 17:43:49","新北市淡水區八勢路一段98-2號","121.46728","25.155885","6501000","淡水區"
"251013","182-VK","2019/11/16 17:43:51","新北市淡水區演戲埔腳1-3號","121.475691666667","25.1929916666667","6501000","淡水區"
"251010","413-VK","2019/11/16 17:43:40","新北市淡水區淡海路280巷33弄34-2號","121.41872","25.1886016666667","6501000","淡水區"
"251012","441-VK","2019/11/16 17:43:57","新北市淡水區北新路一段2號","121.453691666667","25.1809516666667","6501000","淡水區"
"251007","442-VK","2019/11/16 17:43:44","新北市淡水區民生路52巷28-1號","121.46269","25.1376666666667","6501000","淡水區"
"251006","561-UM","2019/11/16 17:43:50","新北市淡水區大信街1巷2號","121.440865","25.17673","6501000","淡水區"
"251014","577-R6","2019/11/16 17:43:46","新北市淡水區北勢子19-1號","121.479921666667","25.22756","6501000","淡水區"
"251011","650-BX","2019/11/16 17:43:52","新北市淡水區小坪頂74號","121.484646666667","25.158925","6501000","淡水區"
"251003","766-UM","2019/11/16 17:43:54","新北市淡水區中山北路一段87號","121.442253333333","25.1761716666667","6501000","淡水區"
"207003","681-TV","2019/11/16 17:43:44","新北市萬里區龜吼里漁澳路25-1號","121.686276666667","25.19478","6502800","萬里區"
"207004","291-VK","2019/11/16 17:43:44","新北市萬里區中幅里中福路4-4號","121.68705","25.1644483333333","6502800","萬里區"
"252002","178-VK","2019/11/16 17:43:41","新北市三芝區中正路二段8號","121.504748333333","25.25549","6502100","三芝區"
"237014","433-BY","2019/11/16 17:43:51","新北市三峽區中山路331號","121.360393333333","24.9380466666667","6500900","三峽區"
"237011","KEA-2596","2019/11/16 17:43:50","新北市三峽區中山路107巷10號","121.364943333333","24.9355066666667","6500900","三峽區"
"237010","706-TV","2019/11/16 17:43:44","新北市三峽區中山路130號","121.365385","24.9360666666667","6500900","三峽區"
"237004","756-BX","2019/11/16 17:43:50","新北市三峽區中山路459巷68號","121.355945","24.9366116666667","6500900","三峽區"
"237005","AKY-6261","2019/11/16 17:43:54","新北市三峽區中山路459巷135號","121.348618333333","24.9329466666667","6500900","三峽區"
"236042","KED-0685","2019/11/16 17:43:48","新北市土城區城林路6巷80號","121.43851","24.9795333333333","6501300","土城區"
"233002","762-BX","2019/11/16 17:39:38","新北市烏來區西羅岸路22號","121.549141666667","24.8674416666667","6502900","烏來區"
"236079","166-UM","2019/11/16 17:43:41","新北市土城區中華路二段241號","121.437443333333","24.9725816666667","6501300","土城區"
"236030","253-BX","2019/11/16 17:43:47","新北市土城區城林路6巷80號","121.438563333333","24.9796066666667","6501300","土城區"
"236014","270-VK","2019/11/16 17:43:58","新北市土城區城林路6巷80號","121.438493333333","24.979605","6501300","土城區"
"236038","271-VK","2019/11/16 17:43:46","新北市土城區城林路6巷80號","121.438443333333","24.9797366666667","6501300","土城區"
"247012","KED-0683","2019/11/16 17:43:55","新北市蘆洲區復興路60巷1弄23號","121.475518333333","25.0865133333333","6501400","蘆洲區"
"236070","KEA-2877","2019/11/16 17:43:52","新北市土城區明德路一段361-1號","121.45657","24.9776583333333","6501300","土城區"
"252001","KED-0821","2019/11/16 17:43:41","新北市三芝區中山路一段12號","121.500793333333","25.258445","6502100","三芝區"
"236021","401-BY","2019/11/16 17:43:51","新北市土城區城林路6巷80號","121.438758333333","24.97969","6501300","土城區"
"236049","752-BX","2019/11/16 17:43:49","新北市土城區城林路6巷80號","121.438688333333","24.979645","6501300","土城區"
"236059","912-UM","2019/11/16 17:43:52","新北市土城區城林路6巷80號","121.438461666667","24.9796633333333","6501300","土城區"
"236063","915-UM","2019/11/16 17:43:43","新北市土城區城林路6巷80號","121.438711666667","24.979735","6501300","土城區"
"242042","AAC-296","2019/11/16 17:43:47","新北市新莊區中正路514巷49號","121.432225","25.0335566666667","6500500","新莊區"
"242061","986-R7","2019/11/16 17:43:47","新北市新莊區瓊林南路103巷8弄21號","121.435193333333","25.0112116666667","6500500","新莊區"
"242004","751-BX","2019/11/16 17:43:53","新北市新莊區自立街216號","121.457163333333","25.04539","6500500","新莊區"
"242025","705-TV","2019/11/16 17:43:48","新北市新莊區思源路336號","121.460225","25.0505633333333","6500500","新莊區"
"242029","615-BX","2019/11/16 17:43:46","新北市新莊區復興路一段101號","121.449028333333","25.0428966666667","6500500","新莊區"
"242027","613-BX","2019/11/16 17:43:59","新北市新莊區福壽街79號","121.458173333333","25.04985","6500500","新莊區"
"242058","612-BX","2019/11/16 17:43:54","新北市新莊區中正路676號","121.420723333333","25.028385","6500500","新莊區"
"242048","566-BX","2019/11/16 17:43:53","新北市新莊區萬安街125號","121.420728333333","25.0224016666667","6500500","新莊區"
"242053","497-BY","2019/11/16 17:43:51","新北市新莊區新樹路653號","121.432761666667","25.0031066666667","6500500","新莊區"
"242013","442-UM","2019/11/16 17:43:54","新北市新莊區幸福路753巷1號","121.448535","25.0486866666667","6500500","新莊區"
"242002","441-UM","2019/11/16 17:43:45","新北市新莊區新莊路421號","121.450581666667","25.0336033333333","6500500","新莊區"
"242044","415-TV","2019/11/16 17:43:54","新北市新莊區中正路871巷21號","121.41926","25.0266716666667","6500500","新莊區"
"242051","400-BY","2019/11/16 17:43:43","新北市新莊區西盛街229號","121.428125","25.01646","6500500","新莊區"
"242023","353-BY","2019/11/16 17:43:38","新北市新莊區民樂街76號","121.45791","25.0435583333333","6500500","新莊區"
"242015","132-UY","2019/11/16 17:43:52","新北市新莊區新泰路406巷1弄1號","121.44417","25.0439566666667","6500500","新莊區"
"242039","135-UY","2019/11/16 17:43:55","新北市新莊區民安東路18號","121.428231666667","25.02092","6500500","新莊區"
"242056","172-VK","2019/11/16 17:43:54","新北市新莊區瓊林路38-8號","121.448216666667","25.0303633333333","6500500","新莊區"
"242017","173-VK","2019/11/16 17:43:42","新北市新莊區復興路一段111號","121.449328333333","25.0429583333333","6500500","新莊區"
"242031","175-VK","2019/11/16 17:43:50","新北市新莊區新泰路368號","121.444398333333","25.0426416666667","6500500","新莊區"
"242007","346-TH","2019/11/16 17:43:54","新北市新莊區福樂街69號","121.45707","25.04779","6500500","新莊區"
"242021","347-TH","2019/11/16 17:43:49","新北市新莊區中華路一段78號","121.452036666667","25.039095","6500500","新莊區"
"242036","348-TH","2019/11/16 17:43:45","新北市新莊區後港一路103號","121.42822","25.0269816666667","6500500","新莊區"
"242009","349-TH","2019/11/16 17:43:56","新北市新莊區昌明街14巷7弄16號","121.45681","25.0535783333333","6500500","新莊區"
"242034","350-TH","2019/11/16 17:43:53","新北市新莊區新莊路667號","121.444613333333","25.0328433333333","6500500","新莊區"
"242019","351-TH","2019/11/16 17:43:39","新北市新莊區中港路271號","121.453515","25.0435316666667","6500500","新莊區"
"238015","755-BX","2019/11/16 17:43:45","新北市樹林區樹德街136巷10號","121.419376666667","24.9936633333333","6500700","樹林區"
"238023","601-UM","2019/11/16 17:43:48","新北市樹林區龍興街13巷38號","121.404036666667","25.016645","6500700","樹林區"
"238019","599-UM","2019/11/16 17:43:47","新北市樹林區太平路93號","121.419058333333","24.9813116666667","6500700","樹林區"
"238024","5061-A6","2019/11/16 17:43:50","新北市樹林區育德街78-1號","121.38736","24.9681333333333","6500700","樹林區"
"238018","KEA-2217","2019/11/16 17:43:43","新北市樹林區博愛街75號","121.427066666667","24.9920766666667","6500700","樹林區"
"238022","KEA-2213","2019/11/16 17:43:52","新北市樹林區太順街52號","121.418188333333","24.9793633333333","6500700","樹林區"
"238021","KEA-2539","2019/11/16 17:43:37","新北市樹林區柑園街一段21巷1號","121.404835","24.9606033333333","6500700","樹林區"
"238025","303-VK","2019/11/16 17:43:54","新北市樹林區三俊街60號","121.412956666667","25.0156833333333","6500700","樹林區"
"238017","283-BY","2019/11/16 17:43:44","新北市樹林區三德街30巷15號","121.414676666667","25.0126316666667","6500700","樹林區"
"238014","282-BY","2019/11/16 17:43:42","新北市樹林區保安街一段211號","121.42066","24.9961616666667","6500700","樹林區"
"238020","268-VK","2019/11/16 17:43:42","新北市樹林區俊英街168號","121.42658","25.006985","6500700","樹林區"
"238026","172-UY","2019/11/16 17:43:48","新北市樹林區新興街19巷34弄25號","121.402333333333","24.97257","6500700","樹林區"
"238016","169-UY","2019/11/16 17:43:43","新北市樹林區復興路236號","121.418713333333","24.9894783333333","6500700","樹林區"
"239007","AAC-297","2019/11/16 17:43:50","新北市鶯歌區鶯桃路120巷12號","121.338798333333","24.9550666666667","6500800","鶯歌區"
"239006","891-R6","2019/11/16 17:43:57","新北市鶯歌區永和街58號","121.333538333333","24.96805","6500800","鶯歌區"
"239008","527-UM","2019/11/16 17:43:44","新北市鶯歌區大湖路732巷15弄1號","121.332976666667","24.977725","6500800","鶯歌區"
"239005","526-UM","2019/11/16 17:43:45","新北市鶯歌區鳳吉四街21號","121.326715","24.9727566666667","6500800","鶯歌區"
"239001","417-VK","2019/11/16 17:43:44","新北市鶯歌區中正三路215號","121.335263333333","24.93933","6500800","鶯歌區"
"239003","360-BY","2019/11/16 17:43:53","新北市鶯歌區鶯桃路204號","121.337275","24.9590316666667","6500800","鶯歌區"
"239002","359-BY","2019/11/16 17:43:39","新北市鶯歌區育智路22號","121.344816666667","24.955255","6500800","鶯歌區"
"239004","193-VK","2019/11/16 17:43:56","新北市鶯歌區三鶯路135號","121.360766666667","24.9452283333333","6500800","鶯歌區"
"221008","489-VK","2019/11/16 17:43:52","新北市汐止區康寧街901號","121.651481666667","25.07503","6501100","汐止區"
"221010","269-BY","2019/11/16 17:43:47","新北市汐止區汐萬路一段418巷48號","121.65104","25.079155","6501100","汐止區"
"221029","298-VK","2019/11/16 17:43:55","新北市汐止區康寧街901號","121.651715","25.07494","6501100","汐止區"
"242046","281-VK","2019/11/16 17:43:42","新北市新莊區福營路103號","121.433896666667","25.0322766666667","6500500","新莊區"
"242011","280-VK","2019/11/16 17:43:54","新北市新莊區中港路646號","121.450858333333","25.0556216666667","6500500","新莊區"
