"lineid","car","time","location","longitude","latitude","cityid","cityname"
"234007","KED-0605","2019/11/16 18:13:55","新北市永和區光復街60巷4弄20號","121.517293333333","25.017825","6500400","永和區"
"234026","9371-KE","2019/11/16 18:13:49","新北市永和區自強街8巷5弄1號","121.514726666667","25.0077033333333","6500400","永和區"
"249005","172-UM","2019/11/16 18:13:43","新北市八里區荖阡坑路15號","121.401561666667","25.1400033333333","6502300","八里區"
"249001","173-UM","2019/11/16 18:13:41","新北市八里區龍米路一段245號","121.451101666667","25.13329","6502300","八里區"
"249004","303-UY","2019/11/16 18:13:52","新北市八里區龍米路二段200巷3號","121.433723333333","25.158735","6502300","八里區"
"249002","305-UY","2019/11/16 18:13:46","新北市八里區龍米路一段386巷2號","121.451903333333","25.1319416666667","6502300","八里區"
"248014","025-BX","2019/11/16 18:13:52","新北市五股區成泰路一段171巷15號","121.434366666667","25.0743583333333","6501500","五股區"
"248016","026-BX","2019/11/16 18:13:48","新北市五股區成泰路三段221巷16號","121.44573","25.0934183333333","6501500","五股區"
"248006","077-UY","2019/11/16 18:13:57","新北市五股區中興路一段147號","121.465215","25.0735666666667","6501500","五股區"
"248008","KED-0815","2019/11/16 18:13:51","新北市五股區更洲路32巷15弄1號","121.458606666667","25.0803316666667","6501500","五股區"
"248020","KED-0813","2019/11/16 18:13:59","新北市五股區成泰路三段590-3號","121.452818333333","25.1059316666667","6501500","五股區"
"248010","272-BY","2019/11/16 18:13:46","新北市五股區成泰路一段189巷24-3號","121.433303333333","25.0772283333333","6501500","五股區"
"248002","678-BX","2019/11/16 18:13:37","新北市五股區成泰路三段74號","121.44431","25.08978","6501500","五股區"
"248004","682-TV","2019/11/16 18:13:46","新北市五股區中興路四段42號","121.438328333333","25.08287","6501500","五股區"
"232011","375-UM","2019/11/16 18:13:55","新北市坪林區下坑子口5-9號","121.71322","24.9425116666667","6502000","坪林區"
"244007","080-UY","2019/11/16 18:13:53","新北市林口區湖子18-3號","121.385506666667","25.0920666666667","6501700","林口區"
"244019","402-UM","2019/11/16 18:13:49","新北市林口區忠孝路616巷21號","121.377238333333","25.067515","6501700","林口區"
"244013","KEA-2802","2019/11/16 18:13:53","新北市林口區中山路262-1號","121.38471","25.0799416666667","6501700","林口區"
"244023","483-VK","2019/11/16 18:13:41","新北市林口區東湖路153巷135號","121.382183333333","25.07361","6501700","林口區"
"244017","485-VK","2019/11/16 18:13:52","新北市林口區公園路26號","121.366768333333","25.0674566666667","6501700","林口區"
"244009","656-BX","2019/11/16 18:13:56","新北市林口區文化二路二段166號","121.380406666667","25.0835616666667","6501700","林口區"
"244011","701-TV","2019/11/16 18:13:41","新北市林口區新寮1-61號","121.392913333333","25.076405","6501700","林口區"
"244025","837-TS","2019/11/16 18:13:42","新北市林口區文化北路一段299巷39號","121.358751666667","25.0730883333333","6501700","林口區"
"244021","838-TS","2019/11/16 18:13:56","新北市林口區自強一街34號","121.398943333333","25.0778083333333","6501700","林口區"
"243013","646-TV","2019/11/16 18:13:51","新北市泰山區南林路93號","121.41559","25.0511966666667","6501600","泰山區"
"222003","436-BY","2019/11/16 18:13:53","新北市深坑區文山路一段79號","121.626201666667","25.0015966666667","6501800","深坑區"
"222002","659-BX","2019/11/16 18:13:51","新北市深坑區文化街17巷3弄7號","121.620416666667","25.0012433333333","6501800","深坑區"
"231055","0291-UT","2019/11/16 18:13:42","新北市新店區安華路28-1號","121.519595","24.9606883333333","6500600","新店區"
"231060","106-UY","2019/11/16 18:13:47","新北市新店區安華路28-1號","121.519706666667","24.9608066666667","6500600","新店區"
"231065","110-UY","2019/11/16 18:13:45","新北市新店區安一路一段1-1號","121.519358333333","24.9611883333333","6500600","新店區"
"231054","260-TV","2019/11/16 18:13:54","新北市新店區安一路一段1-1號","121.519201666667","24.9612366666667","6500600","新店區"
"231042","268-BY","2019/11/16 18:13:40","新北市新店區安一路一段1-1號","121.519718333333","24.9613216666667","6500600","新店區"
"231064","278-BY","2019/11/16 18:13:50","新北市新店區安一路一段1-1號","121.519716666667","24.961145","6500600","新店區"
"231050","AAD-862","2019/11/16 18:13:49","新北市新店區安華路28-1號","121.519855","24.961065","6500600","新店區"
"231045","355-BY","2019/11/16 18:13:38","新北市新店區安華路28-1號","121.519003333333","24.9608616666667","6500600","新店區"
"231058","3713-VJ","2019/11/16 18:13:49","新北市新店區安一路一段1-1號","121.519621666667","24.961425","6500600","新店區"
"231056","4715-K9","2019/11/16 18:13:50","新北市新店區秀山路70號","121.53115","24.9609433333333","6500600","新店區"
"231052","513-UM","2019/11/16 18:13:40","新北市新店區安一路一段1-1號","121.519716666667","24.96122","6500600","新店區"
"231063","616-UM","2019/11/16 18:13:44","新北市新店區安華路1-1號","121.519443333333","24.9604133333333","6500600","新店區"
"231040","898-TW","2019/11/16 18:13:56","新北市新店區安華路28-1號","121.519305","24.9608233333333","6500600","新店區"
"231043","899-TW","2019/11/16 18:13:56","新北市新店區安華路28-1號","121.519168333333","24.9607916666667","6500600","新店區"
"241007","066-VK","2019/11/16 18:13:52","新北市八里區中華路三段19號","121.396765","25.14335","6500200","三重區"
"235066","003-UY","2019/11/16 18:13:38","新北市中和區中正路589巷1號","121.485835","24.9945016666667","6500300","中和區"
"235064","005-UY","2019/11/16 18:13:52","新北市中和區圓通路167巷20號","121.497878333333","24.994535","6500300","中和區"
"235063","006-UY","2019/11/16 18:13:51","新北市中和區中正路583號","121.4862","24.9944966666667","6500300","中和區"
"235056","096-UM","2019/11/16 18:13:53","新北市中和區新生街2號","121.483123333333","25.0047166666667","6500300","中和區"
"235039","097-UM","2019/11/16 18:13:56","新北市中和區中興街118巷8號","121.499991666667","24.9935583333333","6500300","中和區"
"235065","098-UM","2019/11/16 18:13:47","新北市中和區莊敬路49巷18號","121.501643333333","25.006155","6500300","中和區"
"235040","150-BY","2019/11/16 18:13:43","新北市中和區景安路77號","121.506575","24.9974333333333","6500300","中和區"
"235058","151-BY","2019/11/16 18:13:36","新北市中和區圓通路369巷35號","121.489156666667","24.98677","6500300","中和區"
"235055","183-VK","2019/11/16 18:13:50","新北市中和區新生街171號","121.48365","25.0008733333333","6500300","中和區"
"235072","301-VK","2019/11/16 18:13:44","新北市中和區錦和路85號","121.489983333333","24.995865","6500300","中和區"
"235043","352-BY","2019/11/16 18:13:42","新北市中和區景平路381號","121.503921666667","24.9933583333333","6500300","中和區"
"235042","KEA-2878","2019/11/16 18:13:46","新北市中和區景平路161-1號","121.512595","24.9924083333333","6500300","中和區"
"235069","4980-A6","2019/11/16 18:13:50","新北市中和區連城路211號","121.49446","24.9977866666667","6500300","中和區"
"235038","551-UM","2019/11/16 18:13:52","新北市中和區大智街30號","121.521393333333","24.9920383333333","6500300","中和區"
"235070","558-UM","2019/11/16 18:13:44","新北市中和區圓通路78號","121.499963333333","24.9970833333333","6500300","中和區"
"235045","565-BX","2019/11/16 18:13:46","新北市中和區復興路45號","121.504851666667","24.9899933333333","6500300","中和區"
"235060","KED-0823","2019/11/16 18:13:45","新北市中和區員山路403號","121.481065","25.003","6500300","中和區"
"235054","640-BX","2019/11/16 18:13:53","新北市中和區民享街86巷26號","121.473356666667","25.0006183333333","6500300","中和區"
"235047","732-UM","2019/11/16 18:13:40","新北市中和區中正路161巷2號","121.498538333333","24.99358","6500300","中和區"
"235062","800-TS","2019/11/16 18:13:46","新北市中和區中山路二段312巷33弄20號","121.494968333333","25.0042333333333","6500300","中和區"
"235057","801-TS","2019/11/16 18:13:46","新北市中和區民享街97巷19號","121.475466666667","24.9995866666667","6500300","中和區"
"235052","805-TS","2019/11/16 18:13:53","新北市中和區中正路169號","121.498145","24.9936466666667","6500300","中和區"
"235041","911-UM","2019/11/16 18:13:45","新北市中和區中正路571巷1弄9號","121.487111666667","24.99353","6500300","中和區"
"235051","157-BY","2019/11/16 18:13:55","新北市中和區捷運路6號","121.509981666667","24.98953","6500300","中和區"
"235037","AAC-213","2019/11/16 18:13:50","新北市中和區景德街89巷1號","121.516203333333","24.99138","6500300","中和區"
"226004","312-R5","2019/11/16 18:13:49","新北市平溪區薯榔里薯榔寮26-1號","121.714533333333","25.0196183333333","6502400","平溪區"
"228003","097-TW","2019/11/16 18:13:46","新北市貢寮區真理里美艷山街22-2號","121.927148333333","25.064725","6502600","貢寮區"
"228001","212-TW","2019/11/16 18:13:44","新北市貢寮區真理里新港街26巷55弄2-1號","121.927433333333","25.05283","6502600","貢寮區"
"228002","663-BX","2019/11/16 18:13:50","新北市貢寮區福連里馬崗街15號","122.002083333333","25.0136666666667","6502600","貢寮區"
"224006","676-BX","2019/11/16 18:13:45","新北市瑞芳區三爪子坑路124號","121.805995","25.1055333333333","6501200","瑞芳區"
"224007","285-BY","2019/11/16 18:13:57","新北市瑞芳區頂埔巷1弄2號","121.766033333333","25.102475","6501200","瑞芳區"
"224009","275-VK","2019/11/16 18:13:42","新北市瑞芳區山尖路49號","121.852346666667","25.1150033333333","6501200","瑞芳區"
"224008","273-VK","2019/11/16 18:13:37","新北市瑞芳區三爪子坑路1號","121.815323333333","25.1081133333333","6501200","瑞芳區"
"224005","271-BY","2019/11/16 18:13:44","新北市瑞芳區深澳路67號","121.818118333333","25.129765","6501200","瑞芳區"
"227001","642-TC","2019/11/16 18:13:37","新北市雙溪區三貂里政光路4號","121.851985","25.0627","6502500","雙溪區"
"227002","400-TW","2019/11/16 18:13:55","新北市雙溪區雙溪里太平路8號","121.86414","25.0351266666667","6502500","雙溪區"
"253005","032-BX","2019/11/16 18:13:44","新北市石門區中央路37-2號","121.568476666667","25.2953666666667","6502200","石門區"
"253006","295-VK","2019/11/16 18:13:43","新北市石門區老梅路52巷17號","121.546276666667","25.2886483333333","6502200","石門區"
"222001","KEA-2212","2019/11/16 18:13:48","新北市深坑區北深路二段115號","121.616928333333","25.0032216666667","6501800","深坑區"
"208002","KEA-2872","2019/11/16 18:13:51","新北市金山區半嶺1號","121.619011666667","25.2337","6502700","金山區"
"208003","665-BX","2019/11/16 18:13:49","新北市金山區民生路2號","121.649735","25.22499","6502700","金山區"
"251004","009-UM","2019/11/16 18:13:47","新北市淡水區民族路102號","121.462588333333","25.1353366666667","6501000","淡水區"
"251005","010-UM","2019/11/16 18:13:42","新北市淡水區水源街一段124號","121.447325","25.1716283333333","6501000","淡水區"
"251002","012-UM","2019/11/16 18:13:49","新北市淡水區鼻頭街18-5號","121.446798333333","25.1666966666667","6501000","淡水區"
"251015","KEA-2871","2019/11/16 18:13:42","新北市淡水區興福寮88巷1號","121.485376666667","25.1649533333333","6501000","淡水區"
"251016","180-VK","2019/11/16 18:13:58","新北市淡水區淡金路三段70巷1號","121.448336666667","25.2001266666667","6501000","淡水區"
"251008","181-VK","2019/11/16 18:13:58","新北市淡水區淡金路2號","121.457671666667","25.1591","6501000","淡水區"
"251013","182-VK","2019/11/16 18:13:51","新北市淡水區後寮7號","121.476176666667","25.1986266666667","6501000","淡水區"
"251010","413-VK","2019/11/16 18:13:40","新北市淡水區中正路二段52號","121.419368333333","25.18352","6501000","淡水區"
"251012","441-VK","2019/11/16 18:13:57","新北市淡水區北新路三段167號","121.489771666667","25.1906083333333","6501000","淡水區"
"251001","559-UM","2019/11/16 18:13:37","新北市淡水區自立路1巷31號","121.462353333333","25.129315","6501000","淡水區"
"251006","561-UM","2019/11/16 18:13:50","新北市淡水區新民街92號","121.438381666667","25.1767283333333","6501000","淡水區"
"251014","577-R6","2019/11/16 18:13:46","新北市淡水區北勢子8-3號","121.48443","25.223895","6501000","淡水區"
"251011","650-BX","2019/11/16 18:13:52","新北市淡水區三空泉9-2號","121.474103333333","25.16352","6501000","淡水區"
"251003","766-UM","2019/11/16 18:13:54","新北市淡水區北新路182巷58號","121.448503333333","25.17748","6501000","淡水區"
"207003","681-TV","2019/11/16 18:13:42","新北市萬里區野柳里港東路73號","121.688131666667","25.204895","6502800","萬里區"
"207004","291-VK","2019/11/16 18:13:44","新北市萬里區中幅里中福路116-1號","121.67558","25.16707","6502800","萬里區"
"252002","178-VK","2019/11/16 18:13:41","新北市三芝區中山路二段39號","121.50292","25.25508","6502100","三芝區"
"252003","249-BX","2019/11/16 18:13:55","新北市三芝區古庄里四棧橋20號","121.488893333333","25.2614133333333","6502100","三芝區"
"208001","170-UY","2019/11/16 18:13:41","新北市金山區磺港里磺港路96號","121.646565","25.2260083333333","6502700","金山區"
"237007","153-BY","2019/11/16 18:13:46","新北市三峽區中正路二段416-1號","121.364696666667","24.9081766666667","6500900","三峽區"
"237009","210-TH","2019/11/16 18:13:49","新北市三峽區大仁路55號","121.365326666667","24.937455","6500900","三峽區"
"237013","252-BX","2019/11/16 18:13:42","新北市三峽區長泰街78巷3號","121.376675","24.933605","6500900","三峽區"
"237012","275-BY","2019/11/16 18:13:55","新北市三峽區民生街1巷5-42號","121.378871666667","24.9353583333333","6500900","三峽區"
"237008","302-VK","2019/11/16 18:13:51","新北市三峽區白雞52-1號","121.38175","24.912005","6500900","三峽區"
"237014","433-BY","2019/11/16 18:13:50","新北市三峽區復興路110巷1弄21號","121.372221666667","24.938375","6500900","三峽區"
"237006","5529-G3","2019/11/16 18:13:48","新北市三峽區溪東路178巷13弄10號","121.406141666667","24.9322083333333","6500900","三峽區"
"237011","KEA-2596","2019/11/16 18:13:49","新北市三峽區介壽路三段22號","121.395923333333","24.9362833333333","6500900","三峽區"
"237015","649-BX","2019/11/16 18:13:57","新北市三峽區紫新路25巷6號","121.422758333333","24.9213083333333","6500900","三峽區"
"237010","706-TV","2019/11/16 18:13:56","新北市三峽區民族街131號","121.369166666667","24.9283383333333","6500900","三峽區"
"237004","756-BX","2019/11/16 18:13:50","新北市三峽區大埔路162號","121.370645","24.8980416666667","6500900","三峽區"
"237005","AKY-6261","2019/11/16 18:13:54","新北市三峽區忠孝街11號","121.370846666667","24.934405","6500900","三峽區"
"236042","KED-0685","2019/11/16 18:13:48","新北市土城區裕生路71-1號","121.446883333333","24.984525","6501300","土城區"
"233002","762-BX","2019/11/16 18:13:56","新北市烏來區天仁2號","121.541478333333","24.8846683333333","6502900","烏來區"
"236079","166-UM","2019/11/16 18:13:41","新北市土城區永安街84號","121.431545","24.9637716666667","6501300","土城區"
"236030","253-BX","2019/11/16 18:13:47","新北市土城區中華路二段2號","121.439446666667","24.979575","6501300","土城區"
"236026","269-VK","2019/11/16 18:13:45","新北市土城區承天路20號","121.439545","24.963405","6501300","土城區"
"236014","270-VK","2019/11/16 18:13:57","新北市土城區青雲路39巷7號","121.460308333333","24.9873833333333","6501300","土城區"
"236038","271-VK","2019/11/16 18:13:46","新北市土城區青雲路453號","121.458955","24.974605","6501300","土城區"
"236070","KEA-2877","2019/11/16 18:13:52","新北市土城區明德路一段128巷9號","121.463233333333","24.9790066666667","6501300","土城區"
"252001","KED-0821","2019/11/16 18:13:41","新北市三芝區中興街二段6號","121.498388333333","25.2565283333333","6502100","三芝區"
"236021","401-BY","2019/11/16 18:13:51","新北市土城區永豐路202巷7號","121.466328333333","24.9832416666667","6501300","土城區"
"236049","752-BX","2019/11/16 18:13:49","新北市土城區明德路一段365-1號","121.453553333333","24.97899","6501300","土城區"
"236059","912-UM","2019/11/16 18:13:57","新北市土城區中央路四段390號","121.41263","24.9543016666667","6501300","土城區"
"236063","915-UM","2019/11/16 18:13:43","新北市土城區金城路二段266號","121.458093333333","24.9839616666667","6501300","土城區"
"236055","AAC-216","2019/11/16 18:13:52","新北市土城區中華路二段92號","121.438238333333","24.9747183333333","6501300","土城區"
"242042","AAC-296","2019/11/16 18:13:47","新北市新莊區天祥街135巷13號","121.41374","25.0293066666667","6500500","新莊區"
"242061","986-R7","2019/11/16 18:13:47","新北市新莊區新樹路81號","121.437778333333","25.0275016666667","6500500","新莊區"
"242004","751-BX","2019/11/16 18:13:53","新北市新莊區中華路二段36-1號","121.453901666667","25.04542","6500500","新莊區"
"242025","705-TV","2019/11/16 18:13:48","新北市新莊區五工一路96號","121.460498333333","25.0678466666667","6500500","新莊區"
"242029","615-BX","2019/11/16 18:13:46","新北市新莊區幸福路858號","121.443853333333","25.0489933333333","6500500","新莊區"
"242027","613-BX","2019/11/16 18:13:39","新北市新莊區幸福路69號","121.457073333333","25.0493366666667","6500500","新莊區"
"242058","612-BX","2019/11/16 18:13:54","新北市新莊區中山路三段619號","121.412846666667","25.0252633333333","6500500","新莊區"
"242048","566-BX","2019/11/16 18:13:53","新北市新莊區富國路132號","121.422661666667","25.0250866666667","6500500","新莊區"
"242053","497-BY","2019/11/16 18:13:51","新北市新莊區光華街10號","121.428801666667","25.0107616666667","6500500","新莊區"
"242013","442-UM","2019/11/16 18:13:54","新北市新莊區瓊林南路61-87號","121.439178333333","25.0176983333333","6500500","新莊區"
"242002","441-UM","2019/11/16 18:13:43","新北市新莊區新莊路90號","121.456643333333","25.0362483333333","6500500","新莊區"
"242044","415-TV","2019/11/16 18:13:54","新北市新莊區雙鳳路135號","121.412926666667","25.027365","6500500","新莊區"
"242051","400-BY","2019/11/16 18:13:43","新北市新莊區民本街27巷15號","121.42908","25.019265","6500500","新莊區"
"242015","132-UY","2019/11/16 18:13:47","新北市新莊區中平路184巷10弄1號","121.445425","25.0480033333333","6500500","新莊區"
"242039","135-UY","2019/11/16 18:13:55","新北市新莊區民安西路40號","121.42724","25.0209433333333","6500500","新莊區"
"242056","172-VK","2019/11/16 18:13:56","新北市新莊區豐年街豐2巷54號","121.447981666667","25.03089","6500500","新莊區"
"242031","175-VK","2019/11/16 18:13:50","新北市新莊區新泰路277巷9號","121.445336666667","25.0401916666667","6500500","新莊區"
"242007","346-TH","2019/11/16 18:13:54","新北市新莊區中華路二段62號","121.454115","25.046195","6500500","新莊區"
"242021","347-TH","2019/11/16 18:13:49","新北市新莊區建興街71號","121.449873333333","25.0380966666667","6500500","新莊區"
"242036","348-TH","2019/11/16 18:13:45","新北市新莊區後港一路49巷3弄11號","121.425135","25.0266783333333","6500500","新莊區"
"242009","349-TH","2019/11/16 18:13:56","新北市新莊區昌平街41巷5號","121.454293333333","25.05242","6500500","新莊區"
"242034","350-TH","2019/11/16 18:13:53","新北市新莊區景德路237號","121.448716666667","25.0336666666667","6500500","新莊區"
"242019","351-TH","2019/11/16 18:13:59","新北市新莊區復興路一段10號","121.445693333333","25.0414833333333","6500500","新莊區"
"238015","755-BX","2019/11/16 18:13:45","新北市樹林區啟智街86巷18號","121.418141666667","24.991005","6500700","樹林區"
"238023","601-UM","2019/11/16 18:13:55","新北市樹林區三福街47巷10號","121.408041666667","25.0156733333333","6500700","樹林區"
"238019","599-UM","2019/11/16 18:13:47","新北市樹林區水源街40號","121.42555","24.9813883333333","6500700","樹林區"
"238018","KEA-2217","2019/11/16 18:13:43","新北市樹林區博愛一街10號","121.425218333333","24.99104","6500700","樹林區"
"238022","KEA-2213","2019/11/16 18:13:53","新北市樹林區太順街115-1號","121.414446666667","24.97682","6500700","樹林區"
"238025","303-VK","2019/11/16 18:13:54","新北市樹林區保安街一段327-3號","121.417546666667","24.998535","6500700","樹林區"
"238017","283-BY","2019/11/16 18:13:44","新北市樹林區保安街三段22號","121.41258","25.0112633333333","6500700","樹林區"
"238014","282-BY","2019/11/16 18:13:42","新北市樹林區大安路111巷2號","121.423033333333","24.9975416666667","6500700","樹林區"
"238020","268-VK","2019/11/16 18:13:45","新北市樹林區三龍街94巷30號","121.414355","25.017335","6500700","樹林區"
"238026","172-UY","2019/11/16 18:13:48","新北市樹林區育德街57號","121.391375","24.970115","6500700","樹林區"
"239007","AAC-297","2019/11/16 18:13:50","新北市鶯歌區育英街97號","121.347366666667","24.9513116666667","6500800","鶯歌區"
"239006","891-R6","2019/11/16 18:13:57","新北市鶯歌區鶯桃路365巷21號","121.332861666667","24.9628216666667","6500800","鶯歌區"
"239008","527-UM","2019/11/16 18:13:44","新北市鶯歌區國際一路14號","121.336153333333","24.976495","6500800","鶯歌區"
"239005","526-UM","2019/11/16 18:13:45","新北市鶯歌區鶯桃路668巷74-1號","121.33005","24.9718583333333","6500800","鶯歌區"
"239001","417-VK","2019/11/16 18:13:44","新北市鶯歌區中正三路153-1號","121.336535","24.9400116666667","6500800","鶯歌區"
"239003","360-BY","2019/11/16 18:13:53","新北市鶯歌區福安街58號","121.335591666667","24.9652666666667","6500800","鶯歌區"
"239002","359-BY","2019/11/16 18:13:52","新北市鶯歌區中山路311號","121.344198333333","24.95695","6500800","鶯歌區"
"221036","130-UY","2019/11/16 18:13:53","新北市汐止區大同路三段116號","121.672108333333","25.0767016666667","6501100","汐止區"
"221015","131-UY","2019/11/16 18:13:50","新北市汐止區長江街334號","121.666835","25.08176","6501100","汐止區"
"221010","269-BY","2019/11/16 18:13:47","新北市汐止區汐萬路二段275巷3弄1號","121.645213333333","25.0888083333333","6501100","汐止區"
"221012","278-VK","2019/11/16 18:13:44","新北市汐止區保一街47-2號","121.674533333333","25.0802416666667","6501100","汐止區"
"221023","279-VK","2019/11/16 18:13:54","新北市汐止區民族五街77號","121.627595","25.0700066666667","6501100","汐止區"
"221032","280-BY","2019/11/16 18:13:54","新北市汐止區橫科路12號","121.617873333333","25.0511966666667","6501100","汐止區"
"221027","281-BY","2019/11/16 18:13:39","新北市汐止區和平街6巷1弄2號","121.663391666667","25.0712266666667","6501100","汐止區"
"221029","298-VK","2019/11/16 18:13:55","新北市汐止區樟樹二路318號","121.641376666667","25.0699783333333","6501100","汐止區"
"221021","299-VK","2019/11/16 18:14:00","新北市汐止區龍安路18號","121.655586666667","25.0642766666667","6501100","汐止區"
"221031","353-TW","2019/11/16 18:13:39","新北市汐止區中興路179-3號","121.630543333333","25.0667766666667","6501100","汐止區"
"221035","622-UM","2019/11/16 18:13:54","新北市汐止區汐萬路一段115巷50號","121.652885","25.070035","6501100","汐止區"
"221025","623-UM","2019/11/16 18:13:58","新北市汐止區勤進路8號","121.659698333333","25.06162","6501100","汐止區"
"221038","646-BX","2019/11/16 18:13:49","新北市汐止區新興路1-2號","121.658725","25.0603733333333","6501100","汐止區"
"221033","647-BX","2019/11/16 18:13:39","新北市汐止區宜興街40巷22弄2號","121.622543333333","25.0410716666667","6501100","汐止區"
"221002","707-TV","2019/11/16 18:14:00","新北市汐止區福德一路195號","121.635533333333","25.0656166666667","6501100","汐止區"
"221018","753-BX","2019/11/16 18:13:40","新北市汐止區忠孝東路346號","121.665423333333","25.0698666666667","6501100","汐止區"
"220080","200-UY","2019/11/16 18:13:59","新北市板橋區華東街1-9號","121.448161666667","24.9948883333333","6500100","板橋區"
"220082","610-BX","2019/11/16 18:13:53","新北市板橋區華東街1-10號","121.448225","24.994975","6500100","板橋區"
"224002","257-TC","2019/11/16 18:13:59","新北市瑞芳區三爪子坑路149巷20號","121.811248333333","25.1065666666667","6501200","瑞芳區"
"242046","281-VK","2019/11/16 18:13:54","新北市新莊區福營路311號","121.42654","25.0289616666667","6500500","新莊區"
"242011","280-VK","2019/11/16 18:13:49","新北市新莊區中榮街47號","121.449535","25.052725","6500500","新莊區"
"220073","985-R7","2019/11/16 18:13:47","新北市板橋區華東街1-10號","121.44834","24.9949766666667","6500100","板橋區"
"235068","KEA-2873","2019/11/16 18:13:42","新北市中和區員山路36巷16-3號","121.485101666667","24.99128","6500300","中和區"
"235061","KEA-2875","2019/11/16 18:13:54","新北市中和區國光街215巷24弄1號","121.46706","25.0004133333333","6500300","中和區"
