"lineid","car","time","location","longitude","latitude","cityid","cityname"
"234081","298-R6","2019/11/16 18:29:49","新北市永和區環河東路二段92號","121.524488333333","25.010535","6500400","永和區"
"234007","KED-0605","2019/11/16 18:29:55","新北市永和區環河西路二段195號","121.502326666667","25.0111333333333","6500400","永和區"
"234042","862-TW","2019/11/16 18:29:41","新北市永和區福和路1號","121.526166666667","25.0097383333333","6500400","永和區"
"234026","9371-KE","2019/11/16 18:29:49","新北市永和區中山路一段98-2號","121.511551666667","25.01076","6500400","永和區"
"234011","9373-KE","2019/11/16 18:29:55","新北市永和區保安路116號","121.509273333333","25.0156733333333","6500400","永和區"
"249005","172-UM","2019/11/16 18:29:43","新北市八里區長坑口47-1號","121.389186666667","25.1339533333333","6502300","八里區"
"249001","173-UM","2019/11/16 18:29:41","新北市八里區龍米路一段156號","121.452796666667","25.125895","6502300","八里區"
"249004","303-UY","2019/11/16 18:29:52","新北市八里區忠孝路70號","121.42636","25.1603716666667","6502300","八里區"
"249002","305-UY","2019/11/16 18:29:46","新北市八里區龍形二街37號","121.450311666667","25.1328983333333","6502300","八里區"
"248014","025-BX","2019/11/16 18:29:52","新北市五股區成泰路一段105號","121.435536666667","25.0712516666667","6501500","五股區"
"248016","026-BX","2019/11/16 18:29:48","新北市五股區凌雲路一段83巷22弄2號","121.450055","25.1006433333333","6501500","五股區"
"248008","KED-0815","2019/11/16 18:29:51","新北市五股區四維路185巷42弄1號","121.463366666667","25.0768883333333","6501500","五股區"
"248020","KED-0813","2019/11/16 18:29:39","新北市五股區孝義路70-1號","121.452651666667","25.1133366666667","6501500","五股區"
"248012","247-BX","2019/11/16 18:29:49","新北市五股區御成路81號","121.441668333333","25.0931916666667","6501500","五股區"
"248010","272-BY","2019/11/16 18:29:43","新北市五股區明德路12巷30號","121.432861666667","25.0722733333333","6501500","五股區"
"248002","678-BX","2019/11/16 18:29:57","新北市五股區西雲路116-5號","121.444675","25.0935783333333","6501500","五股區"
"248004","682-TV","2019/11/16 18:29:51","新北市五股區工商路148-9號","121.433423333333","25.0872733333333","6501500","五股區"
"234077","969-R7","2019/11/16 18:29:46","新北市永和區福和路1號","121.526391666667","25.0097633333333","6500400","永和區"
"232011","375-UM","2019/11/16 18:29:40","新北市坪林區坪雙路一段41號","121.711708333333","24.94243","6502000","坪林區"
"244007","080-UY","2019/11/16 18:29:53","新北市林口區中湖62號","121.384358333333","25.101055","6501700","林口區"
"244019","402-UM","2019/11/16 18:29:49","新北市林口區麗園二街39巷15號","121.381025","25.0697316666667","6501700","林口區"
"244013","KEA-2802","2019/11/16 18:29:53","新北市林口區文化一路二段9號","121.380316666667","25.0770983333333","6501700","林口區"
"244023","483-VK","2019/11/16 18:29:40","新北市林口區仁愛路二段106巷11號","121.383235","25.0754583333333","6501700","林口區"
"244017","485-VK","2019/11/16 18:29:55","新北市林口區文化二路一段2-1號","121.36422","25.065995","6501700","林口區"
"244009","656-BX","2019/11/16 18:29:36","新北市林口區文林一街11巷41號","121.376681666667","25.0865016666667","6501700","林口區"
"244011","701-TV","2019/11/16 18:29:41","新北市林口區興林路17巷10號","121.390576666667","25.0769533333333","6501700","林口區"
"244025","837-TS","2019/11/16 18:29:42","新北市林口區南勢六街51號","121.356","25.0714783333333","6501700","林口區"
"244021","838-TS","2019/11/16 18:29:56","新北市林口區自強二街16號","121.39776","25.07819","6501700","林口區"
"222003","436-BY","2019/11/16 18:29:53","新北市深坑區翠谷街3號","121.627153333333","25.007515","6501800","深坑區"
"222002","659-BX","2019/11/16 18:29:51","新北市深坑區雲鄉路150號","121.623413333333","24.99792","6501800","深坑區"
"231055","0291-UT","2019/11/16 18:29:42","新北市新店區中正路128巷9弄2號","121.542473333333","24.971945","6500600","新店區"
"231060","106-UY","2019/11/16 18:29:47","新北市新店區安華路28-1號","121.519623333333","24.9608216666667","6500600","新店區"
"231051","107-UY","2019/11/16 18:29:53","新北市新店區安一路一段1-1號","121.519668333333","24.9610883333333","6500600","新店區"
"231065","110-UY","2019/11/16 18:29:45","新北市新店區安一路一段1-1號","121.519395","24.9611233333333","6500600","新店區"
"231054","260-TV","2019/11/16 18:29:54","新北市新店區安一路一段1-1號","121.519206666667","24.9611366666667","6500600","新店區"
"231042","268-BY","2019/11/16 18:29:40","新北市新店區安一路一段1-1號","121.519671666667","24.9613283333333","6500600","新店區"
"231064","278-BY","2019/11/16 18:29:50","新北市新店區安一路一段1-1號","121.51975","24.9611866666667","6500600","新店區"
"231050","AAD-862","2019/11/16 18:29:49","新北市新店區安華路28-1號","121.520033333333","24.9609533333333","6500600","新店區"
"231045","355-BY","2019/11/16 18:29:58","新北市新店區安華路28-1號","121.519215","24.9608083333333","6500600","新店區"
"231058","3713-VJ","2019/11/16 18:29:49","新北市新店區環河路19巷24號","121.537511666667","24.9602766666667","6500600","新店區"
"231056","4715-K9","2019/11/16 18:29:50","新北市新店區二十張路131號","121.535998333333","24.9790883333333","6500600","新店區"
"231067","4772-VM","2019/11/16 18:29:50","新北市新店區安華路3號","121.51883","24.9606183333333","6500600","新店區"
"231052","513-UM","2019/11/16 18:29:40","新北市新店區北宜路一段256號","121.545496666667","24.9528016666667","6500600","新店區"
"231063","616-UM","2019/11/16 18:29:44","新北市新店區安華路1-1號","121.519455","24.9603466666667","6500600","新店區"
"231048","KED-0819","2019/11/16 18:29:52","新北市新店區安一路一段1-1號","121.51978","24.9612266666667","6500600","新店區"
"231057","720-UM","2019/11/16 18:29:39","新北市新店區安一路一段1-1號","121.519688333333","24.9613733333333","6500600","新店區"
"231040","898-TW","2019/11/16 18:29:56","新北市新店區安華路28-1號","121.51948","24.96091","6500600","新店區"
"231043","899-TW","2019/11/16 18:29:56","新北市新店區安華路28-1號","121.519263333333","24.9608583333333","6500600","新店區"
"231066","AKT-0513","2019/11/16 18:29:45","新北市新店區安華路1-1號","121.519403333333","24.96033","6500600","新店區"
"241007","066-VK","2019/11/16 18:29:52","新北市五股區中興路一段140巷20號","121.465383333333","25.07549","6500200","三重區"
"235066","003-UY","2019/11/16 18:29:57","新北市中和區中山路二段121號","121.502766666667","25.0035516666667","6500300","中和區"
"235064","005-UY","2019/11/16 18:29:52","新北市中和區連城路103號","121.496441666667","24.9997233333333","6500300","中和區"
"235063","006-UY","2019/11/16 18:29:51","新北市中和區連城路399號","121.486291666667","24.9960983333333","6500300","中和區"
"235056","096-UM","2019/11/16 18:29:53","新北市中和區員山路611巷1號","121.477875","25.0112166666667","6500300","中和區"
"235039","097-UM","2019/11/16 18:29:56","新北市永和區安樂路78號","121.514541666667","24.9985183333333","6500300","中和區"
"235065","098-UM","2019/11/16 18:29:47","新北市中和區中山路二段64巷18號","121.503171666667","25.0058983333333","6500300","中和區"
"235040","150-BY","2019/11/16 18:29:43","新北市中和區安平路59號","121.509586666667","24.99508","6500300","中和區"
"235058","151-BY","2019/11/16 18:29:56","新北市中和區員山路7-3號","121.482641666667","24.98522","6500300","中和區"
"235055","183-VK","2019/11/16 18:29:50","新北市中和區中山路三段229巷61-3號","121.468831666667","25.005145","6500300","中和區"
"235067","255-BX","2019/11/16 18:29:42","新北市中和區新生街19號","121.48323","25.0041316666667","6500300","中和區"
"235044","293-VK","2019/11/16 18:29:40","新北市中和區復興路301巷2弄1號","121.501478333333","24.9898533333333","6500300","中和區"
"235072","301-VK","2019/11/16 18:29:44","新北市中和區連城路97號","121.496628333333","24.9999416666667","6500300","中和區"
"235043","352-BY","2019/11/16 18:29:42","新北市中和區景平路245號","121.5091","24.9928416666667","6500300","中和區"
"235042","KEA-2878","2019/11/16 18:29:46","新北市中和區自立路56巷19號","121.522655","24.9916066666667","6500300","中和區"
"235050","4979-A6","2019/11/16 18:29:45","新北市中和區景新街362巷5號","121.51198","24.9900616666667","6500300","中和區"
"235069","4980-A6","2019/11/16 18:29:50","新北市中和區連城路125號","121.496088333333","24.9992566666667","6500300","中和區"
"235038","551-UM","2019/11/16 18:29:53","新北市中和區自強路48號","121.520158333333","24.99497","6500300","中和區"
"235070","558-UM","2019/11/16 18:29:43","新北市中和區南華路71號","121.504756666667","24.99738","6500300","中和區"
"235045","565-BX","2019/11/16 18:29:46","新北市中和區南山路236巷55號","121.504695","24.9881916666667","6500300","中和區"
"235060","KED-0823","2019/11/16 18:29:54","新北市中和區中山路三段65號","121.476523333333","25.0056566666667","6500300","中和區"
"235054","640-BX","2019/11/16 18:29:53","新北市中和區民享街86巷29號","121.472928333333","25.0004133333333","6500300","中和區"
"235047","732-UM","2019/11/16 18:29:40","新北市中和區南山路479號","121.507831666667","24.9883166666667","6500300","中和區"
"235046","733-UM","2019/11/16 18:29:49","新北市中和區興南路一段85巷18號","121.510118333333","24.9882866666667","6500300","中和區"
"235062","800-TS","2019/11/16 18:29:46","新北市中和區中山路二段312巷33弄12號","121.494881666667","25.0038883333333","6500300","中和區"
"235057","801-TS","2019/11/16 18:29:53","新北市中和區員山路327巷9號","121.480708333333","25.001465","6500300","中和區"
"235052","805-TS","2019/11/16 18:29:52","新北市中和區興南路二段124號","121.504351666667","24.9836016666667","6500300","中和區"
"235048","896-TW","2019/11/16 18:29:54","新北市中和區中正路71號","121.501051666667","24.9933766666667","6500300","中和區"
"235041","911-UM","2019/11/16 18:29:45","新北市中和區宜安路150號","121.509353333333","24.9986683333333","6500300","中和區"
"235051","157-BY","2019/11/16 18:29:55","新北市中和區興南路二段114巷10弄10號","121.503915","24.9847066666667","6500300","中和區"
"235037","AAC-213","2019/11/16 18:29:50","新北市中和區景德街61號","121.517231666667","24.99145","6500300","中和區"
"235059","AAC-215","2019/11/16 18:29:52","新北市中和區員山路36巷16-2號","121.485286666667","24.991375","6500300","中和區"
"220065","072-UY","2019/11/16 18:29:48","新北市板橋區縣民大道一段92-1號","121.456165","25.0048066666667","6500100","板橋區"
"226004","312-R5","2019/11/16 18:29:49","新北市平溪區靜安路二段280號","121.728846666667","25.023065","6502400","平溪區"
"235049","251-BX","2019/11/16 18:29:41","新北市中和區景安路117號","121.505786666667","24.99646","6500300","中和區"
"228003","097-TW","2019/11/16 18:29:46","新北市貢寮區和美里和美街39號","121.912305","25.08935","6502600","貢寮區"
"228001","212-TW","2019/11/16 18:29:44","新北市貢寮區仁理村仁和路128號","121.923008333333","25.0512983333333","6502600","貢寮區"
"228002","663-BX","2019/11/16 18:29:50","新北市貢寮區福連里福連街27號","121.988338333333","25.012235","6502600","貢寮區"
"224010","AGQ-8101","2019/11/16 18:29:51","新北市瑞芳區街頂巷37號","121.844813333333","25.1073416666667","6501200","瑞芳區"
"224006","676-BX","2019/11/16 18:29:45","新北市瑞芳區明燈路二段27號","121.811258333333","25.10796","6501200","瑞芳區"
"224007","285-BY","2019/11/16 18:29:57","新北市瑞芳區大埔路有勝二村1號","121.764295","25.1004266666667","6501200","瑞芳區"
"224009","275-VK","2019/11/16 18:29:55","新北市瑞芳區新山路5號","121.855876666667","25.10855","6501200","瑞芳區"
"224008","273-VK","2019/11/16 18:29:57","新北市瑞芳區岳王路1巷39號","121.805716666667","25.1104783333333","6501200","瑞芳區"
"224005","271-BY","2019/11/16 18:29:44","新北市瑞芳區建基新村36號","121.812228333333","25.130185","6501200","瑞芳區"
"227001","642-TC","2019/11/16 18:29:58","新北市雙溪區牡丹里牡丹131號","121.850896666667","25.0592216666667","6502500","雙溪區"
"227002","400-TW","2019/11/16 18:29:55","新北市雙溪區魚行里坤溪35號","121.870368333333","25.03077","6502500","雙溪區"
"253005","032-BX","2019/11/16 18:29:43","新北市石門區老崩山10-6號","121.552635","25.2909766666667","6502200","石門區"
"253006","295-VK","2019/11/16 18:29:43","新北市石門區公地16號","121.545746666667","25.2902433333333","6502200","石門區"
"222001","KEA-2212","2019/11/16 18:29:48","新北市深坑區北深路一段210號","121.632716666667","25.0108516666667","6501800","深坑區"
"208002","KEA-2872","2019/11/16 18:29:50","新北市金山區磺港里青年路1號","121.63958","25.2256483333333","6502700","金山區"
"208003","665-BX","2019/11/16 18:29:53","新北市金山區中山路174-1號","121.63827","25.2211816666667","6502700","金山區"
"251004","009-UM","2019/11/16 18:29:48","新北市淡水區民族路31巷46號","121.462588333333","25.1364816666667","6501000","淡水區"
"251002","012-UM","2019/11/16 18:29:49","新北市淡水區竿蓁二街37號","121.453806666667","25.1629","6501000","淡水區"
"251015","KEA-2871","2019/11/16 18:29:42","新北市淡水區興福寮88巷216號","121.48594","25.1665833333333","6501000","淡水區"
"251016","180-VK","2019/11/16 18:29:58","新北市淡水區下圭柔山114號","121.445948333333","25.2112266666667","6501000","淡水區"
"251008","181-VK","2019/11/16 18:29:38","新北市淡水區北投子87-3號","121.468951666667","25.1785433333333","6501000","淡水區"
"251013","182-VK","2019/11/16 18:29:51","新北市淡水區椿子林19-8號","121.479975","25.2036266666667","6501000","淡水區"
"251010","413-VK","2019/11/16 18:30:00","新北市淡水區沙崙路181巷1號","121.424123333333","25.1842033333333","6501000","淡水區"
"251012","441-VK","2019/11/16 18:29:37","新北市淡水區北投子55號","121.457735","25.1821083333333","6501000","淡水區"
"251001","559-UM","2019/11/16 18:29:37","新北市淡水區自強路122巷1號","121.464451666667","25.133125","6501000","淡水區"
"251006","561-UM","2019/11/16 18:29:50","新北市淡水區新生街49號","121.440475","25.1749483333333","6501000","淡水區"
"251014","577-R6","2019/11/16 18:29:46","新北市淡水區南平20號","121.49434","25.2164533333333","6501000","淡水區"
"251011","650-BX","2019/11/16 18:29:52","新北市淡水區坪頂路26號","121.4567","25.1619166666667","6501000","淡水區"
"251003","766-UM","2019/11/16 18:29:54","新北市淡水區北新路169巷14號","121.44966","25.1801433333333","6501000","淡水區"
"207003","681-TV","2019/11/16 18:29:41","新北市萬里區野柳里港東路6號","121.686458333333","25.2030833333333","6502800","萬里區"
"207004","291-VK","2019/11/16 18:29:44","新北市萬里區中幅里中福路53號","121.681085","25.1726016666667","6502800","萬里區"
"252002","178-VK","2019/11/16 18:29:41","新北市三芝區中山路二段40號","121.503025","25.2551166666667","6502100","三芝區"
"252003","249-BX","2019/11/16 18:29:55","新北市三芝區後厝里北勢子45-33號","121.470303333333","25.251445","6502100","三芝區"
"208001","170-UY","2019/11/16 18:29:41","新北市金山區文化二路6號","121.63683","25.2245883333333","6502700","金山區"
"237007","153-BY","2019/11/16 18:29:46","新北市三峽區中正路三段70巷3號","121.356021666667","24.9043933333333","6500900","三峽區"
"237009","210-TH","2019/11/16 18:29:49","新北市三峽區民權街134號","121.368621666667","24.9319216666667","6500900","三峽區"
"237013","252-BX","2019/11/16 18:29:42","新北市三峽區永安街70號","121.376108333333","24.9301566666667","6500900","三峽區"
"237012","275-BY","2019/11/16 18:29:55","新北市三峽區三樹路170號","121.378636666667","24.9408266666667","6500900","三峽區"
"237008","302-VK","2019/11/16 18:29:51","新北市三峽區白雞68-317號","121.392148333333","24.9100166666667","6500900","三峽區"
"237014","433-BY","2019/11/16 18:29:50","新北市三峽區文化路109號","121.370581666667","24.9360766666667","6500900","三峽區"
"237006","5529-G3","2019/11/16 18:29:48","新北市三峽區溪東路473巷16號","121.41429","24.9287566666667","6500900","三峽區"
"237011","KEA-2596","2019/11/16 18:29:49","新北市三峽區溪東路222號","121.407825","24.9319516666667","6500900","三峽區"
"237015","649-BX","2019/11/16 18:29:37","新北市三峽區竹崙路144號","121.435031666667","24.9089216666667","6500900","三峽區"
"237010","706-TV","2019/11/16 18:29:42","新北市三峽區中山路184巷18號","121.364318333333","24.93661","6500900","三峽區"
"237004","756-BX","2019/11/16 18:29:50","新北市三峽區五寮81號","121.359595","24.8584966666667","6500900","三峽區"
"237005","AKY-6261","2019/11/16 18:29:54","新北市三峽區民族街5巷56號","121.36973","24.9320633333333","6500900","三峽區"
"236042","KED-0685","2019/11/16 18:29:48","新北市土城區學成路91巷7號","121.45029","24.987655","6501300","土城區"
"233002","762-BX","2019/11/16 18:29:56","新北市新店區新烏路三段72號","121.554096666667","24.9041383333333","6502900","烏來區"
"236079","166-UM","2019/11/16 18:29:52","新北市土城區大暖路55號","121.422375","24.9585983333333","6501300","土城區"
"236030","253-BX","2019/11/16 18:29:46","新北市土城區福仁街50巷16號","121.439346666667","24.975375","6501300","土城區"
"236026","269-VK","2019/11/16 18:29:45","新北市土城區南天母路135巷12號","121.44792","24.9544633333333","6501300","土城區"
"236014","270-VK","2019/11/16 18:29:57","新北市土城區青雲路39巷7號","121.460285","24.98736","6501300","土城區"
"236038","271-VK","2019/11/16 18:29:46","新北市土城區青雲路449號","121.458886666667","24.9750233333333","6501300","土城區"
"236070","KEA-2877","2019/11/16 18:29:52","新北市土城區永豐路348號","121.474596666667","24.9756416666667","6501300","土城區"
"252001","KED-0821","2019/11/16 18:29:41","新北市三芝區中興街二段2號","121.498416666667","25.2565816666667","6502100","三芝區"
"236021","401-BY","2019/11/16 18:29:51","新北市土城區永豐路202巷7號","121.466326666667","24.98314","6501300","土城區"
"236049","752-BX","2019/11/16 18:29:49","新北市土城區青雲路545號","121.458855","24.972475","6501300","土城區"
"236059","912-UM","2019/11/16 18:29:52","新北市土城區中央路四段56-5號","121.420145","24.9601683333333","6501300","土城區"
"236063","915-UM","2019/11/16 18:29:48","新北市土城區延壽路111巷1號","121.469113333333","24.99369","6501300","土城區"
"236055","AAC-216","2019/11/16 18:29:52","新北市土城區中華路一段221號","121.442253333333","24.984","6501300","土城區"
"242042","AAC-296","2019/11/16 18:29:47","新北市新莊區天祥街107巷18號","121.414428333333","25.0287833333333","6500500","新莊區"
"242061","986-R7","2019/11/16 18:29:47","新北市新莊區四維路11號","121.424073333333","25.0241383333333","6500500","新莊區"
"242027","613-BX","2019/11/16 18:29:39","新北市新莊區新泰路500號","121.442013333333","25.0463516666667","6500500","新莊區"
"242058","612-BX","2019/11/16 18:29:54","新北市新莊區中正路891-48號","121.41321","25.0225533333333","6500500","新莊區"
"242053","497-BY","2019/11/16 18:29:51","新北市新莊區樹新路120巷49弄1號","121.430243333333","24.9958416666667","6500500","新莊區"
"242002","441-UM","2019/11/16 18:29:43","新北市新莊區環河路462號","121.440166666667","25.0196283333333","6500500","新莊區"
"242044","415-TV","2019/11/16 18:29:54","新北市新莊區新北大道七段339號","121.412846666667","25.027635","6500500","新莊區"
"242056","172-VK","2019/11/16 18:29:54","新北市新莊區瓊泰路77巷16號","121.442571666667","25.0290816666667","6500500","新莊區"
"242021","347-TH","2019/11/16 18:29:49","新北市新莊區中正路219號","121.450783333333","25.0357866666667","6500500","新莊區"
"242009","349-TH","2019/11/16 18:29:56","新北市新莊區自信街2號","121.45315","25.048295","6500500","新莊區"
"238023","601-UM","2019/11/16 18:29:48","新北市樹林區三福街114號","121.406443333333","25.0163083333333","6500700","樹林區"
"238019","599-UM","2019/11/16 18:29:47","新北市樹林區國凱街112號","121.42196","24.9796433333333","6500700","樹林區"
"238024","5061-A6","2019/11/16 18:29:50","新北市樹林區後站街6巷7號","121.423988333333","24.9914183333333","6500700","樹林區"
"238018","KEA-2217","2019/11/16 18:29:43","新北市樹林區樹新路50巷5弄7號","121.429605","24.9969716666667","6500700","樹林區"
"238025","303-VK","2019/11/16 18:29:54","新北市樹林區保安街一段120號","121.423403333333","24.9949966666667","6500700","樹林區"
"238017","283-BY","2019/11/16 18:29:44","新北市樹林區光榮街79號","121.411975","25.0029883333333","6500700","樹林區"
"238014","282-BY","2019/11/16 18:29:42","新北市樹林區大安路111巷6號","121.423106666667","24.997495","6500700","樹林區"
"238020","268-VK","2019/11/16 18:29:42","桃園市龜山區宏慶街34巷12號","121.410486666667","25.0179783333333","6500700","樹林區"
"238026","172-UY","2019/11/16 18:29:48","新北市樹林區佳園路一段75巷196號","121.39704","24.970645","6500700","樹林區"
"239007","AAC-297","2019/11/16 18:29:50","新北市鶯歌區建國路158號","121.350516666667","24.9536283333333","6500800","鶯歌區"
"239006","891-R6","2019/11/16 18:29:57","新北市鶯歌區鶯桃路294-1號","121.334986666667","24.9602516666667","6500800","鶯歌區"
"239008","527-UM","2019/11/16 18:29:44","新北市鶯歌區朝陽街1號","121.336271666667","24.9765866666667","6500800","鶯歌區"
"239005","526-UM","2019/11/16 18:29:45","新北市鶯歌區鶯桃路668巷74-1號","121.330045","24.9718533333333","6500800","鶯歌區"
"239001","417-VK","2019/11/16 18:29:44","新北市鶯歌區中正三路福德巷9號","121.33975","24.9408216666667","6500800","鶯歌區"
"239003","360-BY","2019/11/16 18:29:53","新北市鶯歌區福安街58號","121.335561666667","24.9652216666667","6500800","鶯歌區"
"239002","359-BY","2019/11/16 18:29:59","新北市鶯歌區中山路117號","121.349978333333","24.9568516666667","6500800","鶯歌區"
"239004","193-VK","2019/11/16 18:29:40","新北市鶯歌區尖山路137巷1號","121.346995","24.948525","6500800","鶯歌區"
"221036","130-UY","2019/11/16 18:29:53","新北市汐止區大同路三段143號","121.669391666667","25.0776933333333","6501100","汐止區"
"221015","131-UY","2019/11/16 18:29:50","新北市汐止區鄉長路二段23巷15號","121.667786666667","25.0826933333333","6501100","汐止區"
"221010","269-BY","2019/11/16 18:29:47","新北市汐止區汐萬路35號","121.644166666667","25.091585","6501100","汐止區"
"221012","278-VK","2019/11/16 18:29:44","新北市汐止區保長路35巷10號","121.672901666667","25.07967","6501100","汐止區"
"221023","279-VK","2019/11/16 18:29:53","新北市汐止區康寧街474巷7-2號","121.632218333333","25.0679616666667","6501100","汐止區"
"221032","280-BY","2019/11/16 18:29:54","新北市汐止區民權街二段111號","121.618923333333","25.0469066666667","6501100","汐止區"
"221027","281-BY","2019/11/16 18:29:39","新北市汐止區和平街69號","121.66145","25.070645","6501100","汐止區"
"221029","298-VK","2019/11/16 18:29:55","新北市汐止區樟樹一路272-7號","121.642671666667","25.0688733333333","6501100","汐止區"
"221021","299-VK","2019/11/16 18:29:40","新北市汐止區新台五路一段148號","121.653391666667","25.061925","6501100","汐止區"
"221031","353-TW","2019/11/16 18:29:39","新北市汐止區大同路一段160-7號","121.635658333333","25.055225","6501100","汐止區"
"221035","622-UM","2019/11/16 18:29:54","新北市汐止區大同路二段187巷8弄3號","121.652603333333","25.065615","6501100","汐止區"
"221025","623-UM","2019/11/16 18:29:38","新北市汐止區仁愛路119巷2號","121.662711666667","25.0637466666667","6501100","汐止區"
"221038","646-BX","2019/11/16 18:29:49","新北市汐止區忠孝東路200-5號","121.661686666667","25.066155","6501100","汐止區"
"221033","647-BX","2019/11/16 18:29:59","新北市汐止區宜興街18號","121.621468333333","25.0416383333333","6501100","汐止區"
"221002","707-TV","2019/11/16 18:29:43","新北市汐止區福德一路212號","121.634445","25.0651983333333","6501100","汐止區"
"221018","753-BX","2019/11/16 18:30:00","新北市汐止區茄苳路88巷32號","121.667615","25.0699366666667","6501100","汐止區"
"220079","145-BY","2019/11/16 18:29:42","新北市板橋區華東街1-10號","121.448315","24.9950833333333","6500100","板橋區"
"220080","200-UY","2019/11/16 18:29:39","新北市板橋區華東街1-9號","121.448168333333","24.9948716666667","6500100","板橋區"
"220082","610-BX","2019/11/16 18:29:53","新北市板橋區華東街1-10號","121.448251666667","24.9949383333333","6500100","板橋區"
"224002","257-TC","2019/11/16 18:29:39","新北市瑞芳區三爪子坑路29巷35號","121.813788333333","25.1065933333333","6501200","瑞芳區"
"220056","276-BY","2019/11/16 18:29:38","新北市板橋區華東街1-9號","121.448091666667","24.99488","6500100","板橋區"
"220094","283-UM","2019/11/16 18:29:56","新北市板橋區民生路二段161巷1號","121.470246666667","25.0199366666667","6500100","板橋區"
"242046","281-VK","2019/11/16 18:29:58","新北市新莊區中正路801號","121.42132","25.0282866666667","6500500","新莊區"
"242011","280-VK","2019/11/16 18:29:49","新北市新莊區中信街74號","121.44817","25.0526483333333","6500500","新莊區"
"220035","560-BX","2019/11/16 18:29:58","新北市板橋區南雅西路二段145巷6號","121.451581666667","25.0118683333333","6500100","板橋區"
"220103","561-BX","2019/11/16 18:29:39","新北市板橋區民生路二段161巷1號","121.470253333333","25.0198783333333","6500100","板橋區"
"220057","686-BX","2019/11/16 18:29:51","新北市板橋區華東街1-9號","121.448178333333","24.9949933333333","6500100","板橋區"
"220054","741-BX","2019/11/16 18:29:51","新北市板橋區華東街1-9號","121.448116666667","24.9949266666667","6500100","板橋區"
"220055","827-TW","2019/11/16 18:29:51","新北市板橋區四川路二段241號","121.450591666667","24.993735","6500100","板橋區"
"220073","985-R7","2019/11/16 18:29:47","新北市板橋區四川路二段239號","121.450788333333","24.9939616666667","6500100","板橋區"
"220064","AAC-253","2019/11/16 18:29:56","新北市板橋區館前西路47號","121.457998333333","25.0067866666667","6500100","板橋區"
"235068","KEA-2873","2019/11/16 18:29:41","新北市中和區中正路273-5號","121.495616666667","24.9933166666667","6500300","中和區"
"235061","KEA-2875","2019/11/16 18:29:53","新北市中和區民享街88巷7號","121.474175","25.0005133333333","6500300","中和區"
