"lineid","car","time","location","longitude","latitude","cityid","cityname"
"234046","148-BY","2019/11/16 19:43:40","新北市永和區永亨路205號","121.526066666667","25.0026133333333","6500400","永和區"
"234081","298-R6","2019/11/16 19:43:49","新北市永和區林森路20巷28號","121.525585","25.00608","6500400","永和區"
"234038","336-UY","2019/11/16 19:43:49","新北市永和區環河東路四段20號","121.528581666667","24.9996233333333","6500400","永和區"
"234064","337-UY","2019/11/16 19:43:58","新北市永和區秀朗路一段192巷6弄12號","121.519006666667","25.0023066666667","6500400","永和區"
"234086","338-UY","2019/11/16 19:43:47","新北市永和區永亨路90號","121.52249","25.0052833333333","6500400","永和區"
"234070","552-UM","2019/11/16 19:43:53","新北市永和區永和路二段234號","121.515785","25.01446","6500400","永和區"
"234017","745-BX","2019/11/16 19:43:58","新北市永和區永和路二段425巷25號","121.514723333333","25.0176616666667","6500400","永和區"
"234030","746-BX","2019/11/16 19:43:52","新北市永和區民生路67巷53號","121.525486666667","24.9975733333333","6500400","永和區"
"234054","KEA-2590","2019/11/16 19:43:54","新北市永和區竹林路39巷28弄1號","121.519376666667","25.014835","6500400","永和區"
"234007","KED-0605","2019/11/16 19:43:55","新北市永和區中和路373號","121.508455","24.9997866666667","6500400","永和區"
"234013","KEA-2591","2019/11/16 19:43:39","新北市永和區仁愛路230號","121.508685","25.0118816666667","6500400","永和區"
"234061","AAD-866","2019/11/16 19:43:52","新北市永和區中正路446號","121.517351666667","25.0026983333333","6500400","永和區"
"234042","862-TW","2019/11/16 19:43:58","新北市永和區中和路305巷2弄1號","121.506596666667","25.0001016666667","6500400","永和區"
"234050","863-TW","2019/11/16 19:43:58","新北市永和區保安路2號","121.510858333333","25.0174683333333","6500400","永和區"
"234026","9371-KE","2019/11/16 19:43:49","新北市永和區雙和街8號","121.509756666667","25.00181","6500400","永和區"
"234011","9373-KE","2019/11/16 19:43:55","新北市永和區仁愛路306巷35弄2號","121.502065","25.008625","6500400","永和區"
"249004","303-UY","2019/11/16 19:43:53","新北市八里區中山路一段268巷5弄25號","121.414131666667","25.1609116666667","6502300","八里區"
"249002","305-UY","2019/11/16 19:43:46","新北市八里區頂寮二街33-1號","121.450338333333","25.1251733333333","6502300","八里區"
"249003","593-UM","2019/11/16 19:43:55","新北市八里區中華路二段532號","121.399086666667","25.1457416666667","6502300","八里區"
"248014","025-BX","2019/11/16 19:43:48","新北市五股區五福路32巷26號","121.435075","25.089735","6501500","五股區"
"248016","026-BX","2019/11/16 19:43:48","新北市五股區成泰路三段544-18號","121.45279","25.1034816666667","6501500","五股區"
"248008","KED-0815","2019/11/16 19:43:51","新北市五股區四維路116-2號","121.467841666667","25.0745916666667","6501500","五股區"
"248020","KED-0813","2019/11/16 19:43:39","新北市五股區中直路39號","121.41951","25.114375","6501500","五股區"
"248012","247-BX","2019/11/16 19:43:49","新北市五股區蓬萊路24號","121.433885","25.0799183333333","6501500","五股區"
"248010","272-BY","2019/11/16 19:43:43","新北市五股區登林路76-3號","121.430715","25.0694016666667","6501500","五股區"
"248002","678-BX","2019/11/16 19:43:37","新北市五股區成泰路三段577巷16號","121.45176","25.1027816666667","6501500","五股區"
"248004","682-TV","2019/11/16 19:43:46","新北市五股區成泰路二段78號","121.437428333333","25.0823033333333","6501500","五股區"
"234023","9380-KE","2019/11/16 19:43:55","新北市永和區保順路11號","121.50475","25.009525","6500400","永和區"
"234077","969-R7","2019/11/16 19:43:46","新北市永和區民權路23號","121.520253333333","24.9977916666667","6500400","永和區"
"234074","AAC-211","2019/11/16 19:43:49","新北市永和區竹林路213巷22號","121.521873333333","25.008915","6500400","永和區"
"234067","AAC-212","2019/11/16 19:43:48","新北市永和區永平路179號","121.510408333333","25.0091983333333","6500400","永和區"
"234003","AAC-295","2019/11/16 19:43:51","新北市永和區安樂路348號","121.514511666667","25.0064416666667","6500400","永和區"
"244023","483-VK","2019/11/16 19:43:40","新北市林口區文化北路二段266號","121.373071666667","25.0858333333333","6501700","林口區"
"243012","AAD-798","2019/11/16 19:43:54","新北市泰山區全興路237號","121.435398333333","25.0538666666667","6501600","泰山區"
"243010","297-R6","2019/11/16 19:21:42","新北市泰山區明志路二段3號","121.430141666667","25.0537366666667","6501600","泰山區"
"243016","421-VK","2019/11/16 19:43:47","新北市泰山區明志路三段488號","121.421045","25.031455","6501600","泰山區"
"243009","KEA-2215","2019/11/16 19:43:56","新北市泰山區美寧街69號","121.430931666667","25.0647266666667","6501600","泰山區"
"243011","KEA-2216","2019/11/16 19:43:45","新北市泰山區明志路三段196巷21弄24號","121.422618333333","25.0385683333333","6501600","泰山區"
"243015","680-BX","2019/11/16 19:43:50","新北市泰山區民權街80號","121.428223333333","25.049605","6501600","泰山區"
"222003","436-BY","2019/11/16 19:43:38","新北市深坑區深南路51-1號","121.621165","25.0099316666667","6501800","深坑區"
"222002","659-BX","2019/11/16 19:43:50","新北市深坑區北深路一段177號","121.632528333333","25.01082","6501800","深坑區"
"231061","002-UM","2019/11/16 19:43:42","新北市新店區安民街125號","121.516303333333","24.9687516666667","6500600","新店區"
"231044","046-UY","2019/11/16 19:43:51","新北市新店區順安街19號","121.540873333333","24.9855316666667","6500600","新店區"
"231060","106-UY","2019/11/16 19:43:47","新北市新店區安康路二段161號","121.510126666667","24.959305","6500600","新店區"
"231051","107-UY","2019/11/16 19:43:52","新北市新店區中央四街21號","121.529091666667","24.9741666666667","6500600","新店區"
"231049","108-UY","2019/11/16 19:43:55","新北市新店區建國路249號","121.53757","24.9825433333333","6500600","新店區"
"231065","110-UY","2019/11/16 19:43:45","新北市新店區安祥路109巷85弄7號","121.477965","24.9603533333333","6500600","新店區"
"231062","256-BX","2019/11/16 19:43:55","新北市新店區太平路25-1號","121.533868333333","24.9580333333333","6500600","新店區"
"231054","260-TV","2019/11/16 19:43:54","新北市新店區文中路40號","121.53971","24.9566183333333","6500600","新店區"
"231042","268-BY","2019/11/16 19:43:40","新北市新店區中興路一段202號","121.543666666667","24.9653433333333","6500600","新店區"
"231064","278-BY","2019/11/16 19:43:49","新北市新店區安和路二段115號","121.518643333333","24.9704","6500600","新店區"
"231050","AAD-862","2019/11/16 19:43:49","新北市新店區郵政路64號","121.555421666667","24.9515866666667","6500600","新店區"
"231045","355-BY","2019/11/16 19:43:38","新北市新店區北宜路二段106號","121.555676666667","24.9536733333333","6500600","新店區"
"231058","3713-VJ","2019/11/16 19:43:49","新北市新店區中正路102巷8弄2號","121.543328333333","24.9710466666667","6500600","新店區"
"231056","4715-K9","2019/11/16 19:43:50","新北市新店區民權路42巷59弄1-2號","121.538345","24.9837033333333","6500600","新店區"
"231067","4772-VM","2019/11/16 19:43:49","新北市新店區精忠路10-1號","121.532891666667","24.9592283333333","6500600","新店區"
"231052","513-UM","2019/11/16 19:44:00","新北市新店區新烏路三段135號","121.551375","24.90209","6500600","新店區"
"231063","616-UM","2019/11/16 19:43:44","新北市新店區達觀路10號","121.503526666667","24.9438566666667","6500600","新店區"
"231041","619-UM","2019/11/16 19:43:44","新北市新店區中正路500號","121.534243333333","24.9820416666667","6500600","新店區"
"231048","KED-0819","2019/11/16 19:43:52","新北市新店區五峰路63巷8弄14號","121.546926666667","24.96903","6500600","新店區"
"231046","719-UM","2019/11/16 19:43:58","新北市新店區三民路82號","121.534563333333","24.9726483333333","6500600","新店區"
"231057","720-UM","2019/11/16 19:43:38","新北市新店區百齡一路4號","121.55433","24.932275","6500600","新店區"
"231059","897-TW","2019/11/16 19:43:49","新北市新店區安和路三段47-1號","121.518021666667","24.9822633333333","6500600","新店區"
"231040","898-TW","2019/11/16 19:43:56","新北市新店區北新路一段96巷23號","121.543025","24.968825","6500600","新店區"
"231043","899-TW","2019/11/16 19:43:56","新北市新店區中正路213號","121.539835","24.9728666666667","6500600","新店區"
"231066","AKT-0513","2019/11/16 19:43:44","新北市新店區安康路三段195號","121.487913333333","24.9516883333333","6500600","新店區"
"241011","013-R5","2019/11/16 19:43:42","新北市三重區仁愛街20號","121.496741666667","25.0712433333333","6500200","三重區"
"241028","022-UY","2019/11/16 19:43:57","新北市三重區中正南路155號","121.493885","25.056315","6500200","三重區"
"241008","059-VK","2019/11/16 19:43:46","新北市三重區永福街111巷11號","121.47895","25.077655","6500200","三重區"
"241031","061-VK","2019/11/16 19:43:52","新北市三重區重新路四段101號","121.485845","25.0544466666667","6500200","三重區"
"241015","062-VK","2019/11/16 19:43:52","新北市三重區三和路一段28號","121.50314","25.0650883333333","6500200","三重區"
"241017","063-VK","2019/11/16 19:43:46","新北市三重區重陽路三段5巷8弄37號","121.49038","25.066385","6500200","三重區"
"241007","066-VK","2019/11/16 19:43:52","新北市三重區三和路四段127號","121.484806666667","25.0777983333333","6500200","三重區"
"241006","262-UM","2019/11/16 19:43:48","新北市三重區永福街202號","121.482538333333","25.0746366666667","6500200","三重區"
"241016","266-UM","2019/11/16 19:43:50","新北市三重區正義北路26號","121.497475","25.063175","6500200","三重區"
"241009","267-UM","2019/11/16 19:43:42","新北市三重區三和路四段400巷15號","121.48054","25.0792683333333","6500200","三重區"
"241032","269-UM","2019/11/16 19:43:58","新北市三重區重陽路一段60巷45號","121.484933333333","25.058265","6500200","三重區"
"241013","270-UM","2019/11/16 19:43:52","新北市三重區仁福街64巷34號","121.497468333333","25.0757583333333","6500200","三重區"
"241025","271-UM","2019/11/16 19:43:52","新北市三重區忠孝路三段52號","121.480688333333","25.065645","6500200","三重區"
"241030","KED-0822","2019/11/16 19:43:56","新北市三重區中正南路293號","121.492733333333","25.051895","6500200","三重區"
"241035","462-BY","2019/11/16 19:43:43","新北市三重區文化北路22-2號","121.499243333333","25.0642833333333","6500200","三重區"
"241004","475-VK","2019/11/16 19:43:51","新北市三重區五華街74號","121.493413333333","25.0819716666667","6500200","三重區"
"241020","478-VK","2019/11/16 19:43:47","新北市三重區三和路四段2號","121.491725","25.073735","6500200","三重區"
"241026","480-VK","2019/11/16 19:43:49","新北市三重區文化南路65巷13號","121.499691666667","25.0608666666667","6500200","三重區"
"241023","545-UM","2019/11/16 19:43:55","新北市三重區頂崁街168號","121.477613333333","25.0659166666667","6500200","三重區"
"241001","547-UM","2019/11/16 19:43:43","新北市三重區五華街38號","121.494345","25.0807633333333","6500200","三重區"
"241019","KEA-2593","2019/11/16 19:43:55","新北市三重區安慶街369號","121.487248333333","25.067825","6500200","三重區"
"241012","743-BX","2019/11/16 19:43:52","新北市三重區仁福街64巷11號","121.497745","25.0750466666667","6500200","三重區"
"241005","KED-0670","2019/11/16 19:43:45","新北市三重區碧華街294巷17號","121.488603333333","25.084055","6500200","三重區"
"241029","942-UM","2019/11/16 19:43:49","新北市三重區光明路117號","121.492195","25.0567833333333","6500200","三重區"
"235066","003-UY","2019/11/16 19:43:57","新北市中和區景新街57巷30號","121.504586666667","24.9993833333333","6500300","中和區"
"235056","096-UM","2019/11/16 19:43:53","新北市中和區中山路三段136巷39號","121.473943333333","25.0069633333333","6500300","中和區"
"235039","097-UM","2019/11/16 19:43:56","新北市中和區大勇街23號","121.51707","24.9928533333333","6500300","中和區"
"235065","098-UM","2019/11/16 19:43:47","新北市中和區福祥路117號","121.498775","25.0066533333333","6500300","中和區"
"235040","150-BY","2019/11/16 19:43:43","新北市中和區安平路31號","121.509356666667","24.994725","6500300","中和區"
"235058","151-BY","2019/11/16 19:43:56","新北市中和區員山路146巷11號","121.482038333333","24.9968116666667","6500300","中和區"
"235055","183-VK","2019/11/16 19:43:50","新北市中和區德光路24號","121.470925","25.0043966666667","6500300","中和區"
"235067","255-BX","2019/11/16 19:43:42","新北市中和區新生街186巷1弄26號","121.48338","24.99871","6500300","中和區"
"235044","293-VK","2019/11/16 19:43:59","新北市中和區南山路399巷10號","121.50702","24.9904316666667","6500300","中和區"
"235072","301-VK","2019/11/16 19:43:44","新北市中和區中正路432巷34號","121.490858333333","24.9958633333333","6500300","中和區"
"235043","352-BY","2019/11/16 19:43:42","新北市中和區華新街232巷8號","121.50583","24.9820233333333","6500300","中和區"
"235042","KEA-2878","2019/11/16 19:43:46","新北市中和區保健路2巷32號","121.506968333333","24.9974083333333","6500300","中和區"
"235038","551-UM","2019/11/16 19:43:51","新北市中和區自強路27巷5號","121.521005","24.9930766666667","6500300","中和區"
"235070","558-UM","2019/11/16 19:43:43","新北市中和區圓通路164號","121.497408333333","24.9948433333333","6500300","中和區"
"235054","640-BX","2019/11/16 19:43:53","新北市中和區莒光路11號","121.471898333333","25.0056966666667","6500300","中和區"
"235071","647-TV","2019/11/16 19:43:51","新北市中和區中山路二段441號","121.48466","25.0047666666667","6500300","中和區"
"235047","732-UM","2019/11/16 19:43:40","新北市中和區和平街3-2號","121.509791666667","24.9900266666667","6500300","中和區"
"235046","733-UM","2019/11/16 19:43:49","新北市中和區仁愛街88號","121.511436666667","24.9873933333333","6500300","中和區"
"235052","805-TS","2019/11/16 19:43:52","新北市中和區華新街192巷4-1號","121.506695","24.9825583333333","6500300","中和區"
"235048","896-TW","2019/11/16 19:43:54","新北市中和區興南路一段159號","121.508606666667","24.9871166666667","6500300","中和區"
"235053","900-TW","2019/11/16 19:43:56","新北市中和區國光街215巷11弄4號","121.466998333333","25.001215","6500300","中和區"
"235041","911-UM","2019/11/16 19:43:45","新北市中和區永貞路274-5號","121.513345","25.0038033333333","6500300","中和區"
"235051","157-BY","2019/11/16 19:43:55","新北市中和區中興街132巷6號","121.499293333333","24.9920866666667","6500300","中和區"
"235037","AAC-213","2019/11/16 19:43:50","新北市中和區自立路54號","121.52325","24.99206","6500300","中和區"
"235059","AAC-215","2019/11/16 19:43:51","新北市中和區圓通路305巷5弄2號","121.493551666667","24.99021","6500300","中和區"
"220065","072-UY","2019/11/16 19:43:48","新北市板橋區國泰街106號","121.466581666667","25.0064333333333","6500100","板橋區"
"220086","073-UY","2019/11/16 19:43:57","新北市板橋區中正路236巷11號","121.456403333333","25.0191516666667","6500100","板橋區"
"220106","075-UY","2019/11/16 19:43:46","新北市板橋區民治街71巷36號","121.480548333333","25.0327933333333","6500100","板橋區"
"220069","AAD-861","2019/11/16 19:43:47","新北市板橋區貴興路60號","121.456713333333","25.00305","6500100","板橋區"
"247008","500-BY","2019/11/16 19:43:58","新北市蘆洲區中山一路176號","121.474208333333","25.0811883333333","6501400","蘆洲區"
"247004","341-TH","2019/11/16 19:43:59","新北市蘆洲區中原路21巷7弄17號","121.461333333333","25.082795","6501400","蘆洲區"
"247002","001-UY","2019/11/16 19:43:39","新北市蘆洲區長榮路675號","121.460376666667","25.092005","6501400","蘆洲區"
"226004","312-R5","2019/11/16 19:43:49","新北市平溪區十分里十分街76號","121.776161666667","25.0419666666667","6502400","平溪區"
"235049","251-BX","2019/11/16 19:43:41","新北市中和區中興街7號","121.501283333333","24.9951266666667","6500300","中和區"
"228003","097-TW","2019/11/16 19:43:46","新北市貢寮區真理里美艷山街15-3號","121.923728333333","25.0679983333333","6502600","貢寮區"
"228001","212-TW","2019/11/16 19:43:43","新北市貢寮區真理里新港街67號","121.926445","25.05589","6502600","貢寮區"
"224010","AGQ-8101","2019/11/16 19:43:48","新北市瑞芳區基山街171號","121.843235","25.108085","6501200","瑞芳區"
"224008","273-VK","2019/11/16 19:43:57","新北市瑞芳區八分寮路21號","121.793116666667","25.08415","6501200","瑞芳區"
"227001","642-TC","2019/11/16 19:43:58","新北市雙溪區新基里中華路46號","121.865853333333","25.0375183333333","6502500","雙溪區"
"227002","400-TW","2019/11/16 19:43:54","新北市雙溪區雙溪里內挖路47號","121.863236666667","25.03669","6502500","雙溪區"
"222001","KEA-2212","2019/11/16 19:43:48","新北市深坑區北深路三段14號","121.609528333333","25.0008516666667","6501800","深坑區"
"208002","KEA-2872","2019/11/16 19:43:50","新北市金山區中華路368號","121.63328","25.2245816666667","6502700","金山區"
"208003","665-BX","2019/11/16 19:43:45","新北市金山區中正路145號","121.631933333333","25.2214283333333","6502700","金山區"
"251009","008-UM","2019/11/16 19:43:41","新北市淡水區中山北路一段198巷5號","121.445076666667","25.1793166666667","6501000","淡水區"
"251004","009-UM","2019/11/16 19:43:44","新北市淡水區民權路177巷53號","121.460441666667","25.1338616666667","6501000","淡水區"
"251005","010-UM","2019/11/16 19:43:41","新北市淡水區原德路71號","121.442375","25.1724366666667","6501000","淡水區"
"251002","012-UM","2019/11/16 19:43:49","新北市淡水區下圭柔山90-8號","121.4316","25.211175","6501000","淡水區"
"251015","KEA-2871","2019/11/16 19:43:42","新北市淡水區山子頂22號","121.491735","25.1877816666667","6501000","淡水區"
"251016","180-VK","2019/11/16 19:43:58","新北市淡水區下圭柔山121-12號","121.45507","25.2086816666667","6501000","淡水區"
"251008","181-VK","2019/11/16 19:43:39","新北市淡水區中正路一段21號","121.426426666667","25.1763566666667","6501000","淡水區"
"251013","182-VK","2019/11/16 19:43:51","新北市淡水區頂田寮11-3號","121.462941666667","25.2139016666667","6501000","淡水區"
"251010","413-VK","2019/11/16 19:44:00","新北市淡水區崁頂93-2號","121.427316666667","25.2024916666667","6501000","淡水區"
"251007","442-VK","2019/11/16 19:43:49","新北市淡水區中正東路一段111巷1號","121.453746666667","25.1601033333333","6501000","淡水區"
"251001","559-UM","2019/11/16 19:43:53","新北市淡水區中正東路二段85號","121.459223333333","25.153515","6501000","淡水區"
"251006","561-UM","2019/11/16 19:43:50","新北市淡水區中山北路一段207巷74號","121.44138","25.1793233333333","6501000","淡水區"
"251014","577-R6","2019/11/16 19:43:45","新北市淡水區小中寮3號","121.477618333333","25.2348216666667","6501000","淡水區"
"251011","650-BX","2019/11/16 19:44:00","新北市淡水區八勢路6號","121.462491666667","25.1503466666667","6501000","淡水區"
"207003","681-TV","2019/11/16 19:43:41","新北市萬里區大鵬里下社17-4號","121.648198333333","25.2177266666667","6502800","萬里區"
"207004","291-VK","2019/11/16 19:43:47","新北市萬里區萬里里瑪鋉路67號","121.688141666667","25.1762316666667","6502800","萬里區"
"252002","178-VK","2019/11/16 19:43:41","新北市三芝區三民街22號","121.504585","25.2586083333333","6502100","三芝區"
"208001","170-UY","2019/11/16 19:43:42","新北市金山區重和里六股林口15-1號","121.604718333333","25.221445","6502700","金山區"
"237007","153-BY","2019/11/16 19:43:46","新北市三峽區二鬮路136巷121號","121.356006666667","24.91045","6500900","三峽區"
"237009","210-TH","2019/11/16 19:43:49","新北市三峽區中園街91號","121.367873333333","24.9249616666667","6500900","三峽區"
"237013","252-BX","2019/11/16 19:43:42","新北市三峽區橫溪路10號","121.396071666667","24.9360633333333","6500900","三峽區"
"237012","275-BY","2019/11/16 19:43:55","新北市三峽區光明路39號","121.373745","24.9306516666667","6500900","三峽區"
"237008","302-VK","2019/11/16 19:43:51","新北市三峽區中正路一段292巷19弄11號","121.370695","24.92592","6500900","三峽區"
"237014","433-BY","2019/11/16 19:43:50","新北市三峽區嘉添109-11號","121.369283333333","24.9096733333333","6500900","三峽區"
"237006","5529-G3","2019/11/16 19:43:48","新北市三峽區中正路一段336巷15弄2號","121.369943333333","24.9249483333333","6500900","三峽區"
"237011","KEA-2596","2019/11/16 19:43:49","新北市三峽區中正路一段510號","121.369895","24.920295","6500900","三峽區"
"237015","649-BX","2019/11/16 19:43:57","新北市三峽區成福路17號","121.417023333333","24.9283783333333","6500900","三峽區"
"237010","706-TV","2019/11/16 19:43:42","新北市三峽區復興路19號","121.374023333333","24.936275","6500900","三峽區"
"237004","756-BX","2019/11/16 19:43:50","新北市三峽區金敏189號","121.39315","24.8736916666667","6500900","三峽區"
"237005","AKY-6261","2019/11/16 19:43:34","新北市三峽區文化路131號","121.369633333333","24.9360083333333","6500900","三峽區"
"236042","KED-0685","2019/11/16 19:43:48","新北市土城區裕民路285號","121.456133333333","24.9816566666667","6501300","土城區"
"236079","166-UM","2019/11/16 19:43:41","新北市土城區溪頭路57號","121.411621666667","24.9547116666667","6501300","土城區"
"236030","253-BX","2019/11/16 19:43:49","新北市土城區中央路一段318巷4弄12號","121.443133333333","24.9823733333333","6501300","土城區"
"236070","KEA-2877","2019/11/16 19:43:52","新北市土城區和平路4-4號","121.442686666667","24.9744","6501300","土城區"
"252001","KED-0821","2019/11/16 19:43:41","新北市三芝區公正街66號","121.499796666667","25.2574533333333","6502100","三芝區"
"236021","401-BY","2019/11/16 19:43:51","新北市土城區延吉街137巷2弄25號","121.470153333333","24.985465","6501300","土城區"
"236049","752-BX","2019/11/16 19:43:57","新北市土城區明德路一段192號","121.461941666667","24.9778866666667","6501300","土城區"
"236059","912-UM","2019/11/16 19:43:57","新北市土城區中央路一段275號","121.444663333333","24.9847766666667","6501300","土城區"
"236063","915-UM","2019/11/16 19:43:42","新北市土城區延平街35號","121.468023333333","24.99192","6501300","土城區"
"236055","AAC-216","2019/11/16 19:43:53","新北市土城區延和路57號","121.466616666667","24.9896983333333","6501300","土城區"
"242004","751-BX","2019/11/16 19:43:53","新北市新莊區復興路三段12號","121.460698333333","25.0444716666667","6500500","新莊區"
"242025","705-TV","2019/11/16 19:43:50","新北市新莊區中信街178號","121.448558333333","25.0584633333333","6500500","新莊區"
"242048","566-BX","2019/11/16 19:43:53","新北市新莊區後港一路4號","121.424556666667","25.0256616666667","6500500","新莊區"
"242013","442-UM","2019/11/16 19:43:45","新北市新莊區中泰街106號","121.448886666667","25.0466166666667","6500500","新莊區"
"242023","353-BY","2019/11/16 19:43:49","新北市新莊區復興路三段115號","121.464268333333","25.0445083333333","6500500","新莊區"
"242039","135-UY","2019/11/16 19:43:42","新北市新莊區民安路429巷12號","121.434058333333","25.0236133333333","6500500","新莊區"
"242017","173-VK","2019/11/16 19:43:42","新北市新莊區新泰路421-7號","121.442388333333","25.045055","6500500","新莊區"
"242031","175-VK","2019/11/16 19:43:50","新北市新莊區公園一路139號","121.446375","25.0382683333333","6500500","新莊區"
"242036","348-TH","2019/11/16 19:43:52","新北市新莊區建安街101巷2弄1號","121.426793333333","25.023935","6500500","新莊區"
"242009","349-TH","2019/11/16 19:43:56","新北市新莊區三和路12-21號","121.44216","25.0382883333333","6500500","新莊區"
"242034","350-TH","2019/11/16 19:43:45","新北市新莊區仁愛街17號","121.44416","25.0356","6500500","新莊區"
"242019","351-TH","2019/11/16 19:43:56","新北市新莊區新泰路357巷3弄1號","121.442376666667","25.0413833333333","6500500","新莊區"
"238015","755-BX","2019/11/16 19:43:53","新北市樹林區日新街99號","121.421606666667","24.9899816666667","6500700","樹林區"
"238023","601-UM","2019/11/16 19:43:48","新北市樹林區三福街122號","121.406033333333","25.0159533333333","6500700","樹林區"
"238019","599-UM","2019/11/16 19:43:47","新北市樹林區大同街22號","121.418161666667","24.9825633333333","6500700","樹林區"
"238024","5061-A6","2019/11/16 19:43:50","新北市樹林區山佳街29號","121.393613333333","24.9727766666667","6500700","樹林區"
"238022","KEA-2213","2019/11/16 19:43:46","新北市樹林區國凱街50巷7號","121.420565","24.9783716666667","6500700","樹林區"
"238021","KEA-2539","2019/11/16 19:43:39","新北市樹林區佳園路三段101巷38弄6號","121.391256666667","24.9504383333333","6500700","樹林區"
"238025","303-VK","2019/11/16 19:43:53","新北市樹林區中山路一段205號","121.421128333333","24.98742","6500700","樹林區"
"238017","283-BY","2019/11/16 19:43:44","新北市樹林區保安街二段169號","121.414885","25.0029266666667","6500700","樹林區"
"238014","282-BY","2019/11/16 19:43:42","新北市樹林區千歲街35號","121.425196666667","24.99595","6500700","樹林區"
"238020","268-VK","2019/11/16 19:43:42","新北市板橋區金門街215巷57弄40-2號","121.435028333333","24.9906083333333","6500700","樹林區"
"238026","172-UY","2019/11/16 19:43:48","新北市樹林區佳園路二段15巷19號","121.394395","24.9628983333333","6500700","樹林區"
"238016","169-UY","2019/11/16 19:43:43","新北市樹林區東和街35號","121.401798333333","24.982545","6500700","樹林區"
"239007","AAC-297","2019/11/16 19:43:49","新北市鶯歌區大湖路109巷1號","121.342311666667","24.9636616666667","6500800","鶯歌區"
"239006","891-R6","2019/11/16 19:43:56","新北市鶯歌區永昌街38號","121.34264","24.9497766666667","6500800","鶯歌區"
"239005","526-UM","2019/11/16 19:43:45","新北市鶯歌區中湖街307巷1號","121.347261666667","24.9778533333333","6500800","鶯歌區"
"239001","417-VK","2019/11/16 19:43:43","新北市鶯歌區鶯桃路21號","121.343818333333","24.9504183333333","6500800","鶯歌區"
"239003","360-BY","2019/11/16 19:43:53","新北市鶯歌區中正二路14號","121.351643333333","24.95178","6500800","鶯歌區"
"239002","359-BY","2019/11/16 19:43:39","新北市鶯歌區大湖路424號","121.342246666667","24.97287","6500800","鶯歌區"
"239004","193-VK","2019/11/16 19:43:55","新北市鶯歌區二甲路33-11號","121.339995","24.9380766666667","6500800","鶯歌區"
"221008","489-VK","2019/11/16 19:43:52","新北市汐止區康寧街61巷63號","121.620058333333","25.0677816666667","6501100","汐止區"
"221010","269-BY","2019/11/16 19:43:47","新北市汐止區汐萬路一段333巷23號","121.648433333333","25.07614","6501100","汐止區"
"221012","278-VK","2019/11/16 19:43:44","新北市汐止區大同路三段332號","121.679358333333","25.0711083333333","6501100","汐止區"
"221023","279-VK","2019/11/16 19:43:40","新北市汐止區中興路270號","121.62891","25.0688166666667","6501100","汐止區"
"221027","281-BY","2019/11/16 19:43:39","新北市汐止區忠孝東路9號","121.658246666667","25.0659283333333","6501100","汐止區"
"221029","298-VK","2019/11/16 19:43:55","新北市汐止區康寧街901號","121.651568333333","25.0750816666667","6501100","汐止區"
"221021","299-VK","2019/11/16 19:44:00","新北市汐止區莊敬街29巷5號","121.657195","25.06088","6501100","汐止區"
"221031","353-TW","2019/11/16 19:43:39","新北市汐止區康寧街901號","121.650756666667","25.0753016666667","6501100","汐止區"
"221025","623-UM","2019/11/16 19:43:58","新北市汐止區福安街20巷12號","121.662235","25.064765","6501100","汐止區"
"221038","646-BX","2019/11/16 19:43:43","新北市汐止區忠孝東路295號","121.664221666667","25.06884","6501100","汐止區"
"221033","647-BX","2019/11/16 19:43:39","新北市汐止區芳園街58號","121.625525","25.038695","6501100","汐止區"
"220079","145-BY","2019/11/16 19:43:42","新北市板橋區公館街86號","121.461293333333","25.0151766666667","6500100","板橋區"
"220080","200-UY","2019/11/16 19:43:59","新北市板橋區大觀路二段37巷256號","121.449995","25.0020066666667","6500100","板橋區"
"220082","610-BX","2019/11/16 19:43:53","新北市板橋區大觀路三段180巷30號","121.429826666667","24.9937033333333","6500100","板橋區"
"220101","245-BX","2019/11/16 19:43:46","新北市板橋區萬板路140號","121.475565","25.0228783333333","6500100","板橋區"
"224002","257-TC","2019/11/16 19:43:39","新北市瑞芳區三爪子坑路13巷211號","121.815901666667","25.1059983333333","6501200","瑞芳區"
"220091","267-BY","2019/11/16 19:43:47","新北市板橋區懷德街127巷13號","121.479198333333","25.0310733333333","6500100","板橋區"
"220056","276-BY","2019/11/16 19:43:38","新北市板橋區四川路一段485號","121.457401666667","24.997085","6500100","板橋區"
"220072","277-BY","2019/11/16 19:43:55","新北市板橋區金門街215-1號","121.43257","24.9899683333333","6500100","板橋區"
"220094","283-UM","2019/11/16 19:43:54","新北市板橋區陽明街277-1號","121.462083333333","25.0262316666667","6500100","板橋區"
"220071","283-VK","2019/11/16 19:43:40","新北市板橋區國慶路182巷28-1號","121.463126666667","24.9953016666667","6500100","板橋區"
"220053","285-VK","2019/11/16 19:43:59","新北市板橋區中山路二段60巷1弄10號","121.474651666667","25.0154833333333","6500100","板橋區"
"220083","286-VK","2019/11/16 19:43:45","新北市板橋區龍興街63巷35號","121.442031666667","25.0016466666667","6500100","板橋區"
"220081","287-VK","2019/11/16 19:44:00","新北市板橋區南雅南路一段106號","121.45491","25.0043383333333","6500100","板橋區"
"220090","288-VK","2019/11/16 19:43:45","新北市板橋區綠堤街33-4號","121.455746666667","25.0264983333333","6500100","板橋區"
"220061","293-UM","2019/11/16 19:43:46","新北市板橋區板新路226號","121.468415","25.0159983333333","6500100","板橋區"
"220084","296-UM","2019/11/16 19:43:52","新北市板橋區滿平二街10巷4號","121.425481666667","24.9867666666667","6500100","板橋區"
"220075","303-R5","2019/11/16 19:43:40","新北市板橋區中正路289巷21號","121.454766666667","25.0190533333333","6500100","板橋區"
"220062","305-R5","2019/11/16 19:43:44","新北市板橋區三民路二段29巷31弄3號","121.481471666667","25.017785","6500100","板橋區"
"220092","307-R5","2019/11/16 19:43:55","新北市板橋區新海路109巷1弄2號","121.460731666667","25.0223883333333","6500100","板橋區"
"220098","317-R6","2019/11/16 19:43:54","新北市板橋區四維路279巷63號","121.460613333333","25.02743","6500100","板橋區"
"220089","487-VK","2019/11/16 19:43:46","新北市板橋區互助街71號","121.46035","25.02619","6500100","板橋區"
"220088","491-VK","2019/11/16 19:43:38","新北市板橋區文聖街138號","121.478478333333","25.0279816666667","6500100","板橋區"
"220035","560-BX","2019/11/16 19:43:55","新北市板橋區新生街98巷6號","121.458646666667","25.021865","6500100","板橋區"
"220103","561-BX","2019/11/16 19:43:59","新北市板橋區文化路一段421巷9號","121.466991666667","25.0228583333333","6500100","板橋區"
"220063","609-BX","2019/11/16 19:43:59","新北市板橋區三民路一段89號","121.479518333333","25.02156","6500100","板橋區"
"220057","686-BX","2019/11/16 19:43:51","新北市板橋區四川路二段71號","121.453321666667","24.9950966666667","6500100","板橋區"
"220077","687-BX","2019/11/16 19:43:53","新北市板橋區僑中二街104巷1號","121.445935","25.0078166666667","6500100","板橋區"
"220093","689-BX","2019/11/16 19:43:38","新北市板橋區長江路三段120號","121.475166666667","25.0344983333333","6500100","板橋區"
"220054","741-BX","2019/11/16 19:43:51","新北市板橋區忠孝路239巷47號","121.467553333333","25.0036683333333","6500100","板橋區"
"220102","KEA-2699","2019/11/16 19:43:57","新北市板橋區仁化街42巷7號","121.475526666667","25.031315","6500100","板橋區"
"220055","827-TW","2019/11/16 19:43:56","新北市板橋區國慶路149巷13弄13號","121.460253333333","24.9970133333333","6500100","板橋區"
"220068","830-TW","2019/11/16 19:43:59","新北市板橋區中山路二段412巷29弄30號","121.484816666667","25.019955","6500100","板橋區"
"220067","831-TW","2019/11/16 19:43:45","新北市板橋區長安街138巷1弄292號","121.47496","25.0111016666667","6500100","板橋區"
"220074","895-R6","2019/11/16 19:43:52","新北市板橋區倉後街1-5號","121.455508333333","25.0090466666667","6500100","板橋區"
"220073","985-R7","2019/11/16 19:43:47","新北市板橋區國光路31巷32號","121.457781666667","25.0183916666667","6500100","板橋區"
"220097","AAC-210","2019/11/16 19:43:47","新北市板橋區光正街43號","121.46183","25.0172516666667","6500100","板橋區"
"220064","AAC-253","2019/11/16 19:43:55","新北市板橋區中山路一段137號","121.462586666667","25.0107416666667","6500100","板橋區"
"235068","KEA-2873","2019/11/16 19:43:41","新北市中和區莊敬路2號","121.499408333333","25.0041116666667","6500300","中和區"
"235061","KEA-2875","2019/11/16 19:43:47","新北市中和區員山路226巷9弄1號","121.481885","25.000445","6500300","中和區"
