"lineid","car","time","location","longitude","latitude","cityid","cityname"
"234046","148-BY","2019/11/16 20:13:40","新北市永和區永元路56號","121.522303333333","25.0012","6500400","永和區"
"234081","298-R6","2019/11/16 20:13:49","新北市永和區國中路109巷1弄2號","121.524101666667","25.0058216666667","6500400","永和區"
"234038","336-UY","2019/11/16 20:13:48","新北市永和區成功路一段93巷21弄2號","121.528371666667","25.0026416666667","6500400","永和區"
"234064","337-UY","2019/11/16 20:13:58","新北市永和區得和路249-4號","121.520871666667","24.9998916666667","6500400","永和區"
"234086","338-UY","2019/11/16 20:13:47","新北市永和區中正路659號","121.514798333333","25.0102116666667","6500400","永和區"
"234070","552-UM","2019/11/16 20:13:53","新北市永和區永亨路31號","121.519726666667","25.0062033333333","6500400","永和區"
"234017","745-BX","2019/11/16 20:13:59","新北市永和區文化路2號","121.515643333333","25.0149933333333","6500400","永和區"
"234030","746-BX","2019/11/16 20:13:49","新北市永和區民有街75巷14號","121.518278333333","24.996555","6500400","永和區"
"234054","KEA-2590","2019/11/16 20:13:54","新北市永和區永和路二段336號","121.516433333333","25.0166516666667","6500400","永和區"
"234007","KED-0605","2019/11/16 20:13:55","新北市永和區仁愛路306巷28號","121.502091666667","25.008795","6500400","永和區"
"234013","KEA-2591","2019/11/16 20:13:39","新北市永和區中山路一段214號","121.508316666667","25.00847","6500400","永和區"
"234061","AAD-866","2019/11/16 20:13:52","新北市永和區安樂路72巷7號","121.515215","24.99881","6500400","永和區"
"234042","862-TW","2019/11/16 20:13:57","新北市永和區雙和街32號","121.508946666667","25.002745","6500400","永和區"
"234050","863-TW","2019/11/16 20:13:58","新北市永和區環河西路二段83號","121.506696666667","25.015055","6500400","永和區"
"249005","172-UM","2019/11/16 20:13:42","新北市八里區下罟子4號","121.387621666667","25.141005","6502300","八里區"
"249001","173-UM","2019/11/16 20:14:00","新北市八里區中華路二段386號","121.40228","25.1470866666667","6502300","八里區"
"249004","303-UY","2019/11/16 20:13:50","新北市八里區中山路一段398巷51弄1號","121.410976666667","25.1588666666667","6502300","八里區"
"249002","305-UY","2019/11/16 20:13:46","新北市八里區龍米路一段76號","121.45571","25.1211833333333","6502300","八里區"
"249003","593-UM","2019/11/16 20:13:55","新北市八里區中山路二段447巷7號","121.396926666667","25.1455133333333","6502300","八里區"
"248016","026-BX","2019/11/16 20:13:48","新北市五股區凌雲路一段158巷50弄23號","121.447888333333","25.1043716666667","6501500","五股區"
"248008","KED-0815","2019/11/16 20:12:51","新北市五股區四維路1巷1號","121.467056666667","25.0699716666667","6501500","五股區"
"248012","247-BX","2019/11/16 20:13:49","新北市五股區六合街91號","121.430105","25.08978","6501500","五股區"
"248010","272-BY","2019/11/16 20:13:43","新北市五股區成泰路一段2-8號","121.434211666667","25.0672483333333","6501500","五股區"
"248002","678-BX","2019/11/16 20:13:57","新北市五股區成泰路三段243號","121.446461666667","25.093415","6501500","五股區"
"248004","682-TV","2019/11/16 20:13:46","新北市五股區成泰路一段70-1號","121.435543333333","25.0699016666667","6501500","五股區"
"234023","9380-KE","2019/11/16 20:13:55","新北市永和區復興街32巷6號","121.515911666667","25.0127483333333","6500400","永和區"
"234077","969-R7","2019/11/16 20:13:46","新北市永和區民享街12號","121.515323333333","24.99525","6500400","永和區"
"234074","AAC-211","2019/11/16 20:13:56","新北市永和區竹林路191巷5號","121.521036666667","25.0095983333333","6500400","永和區"
"234067","AAC-212","2019/11/16 20:14:00","新北市永和區保平路214巷1弄12號","121.509016666667","25.005825","6500400","永和區"
"234003","AAC-295","2019/11/16 20:13:56","新北市永和區自強街18巷1號","121.51527","25.00794","6500400","永和區"
"243012","AAD-798","2019/11/16 20:13:54","新北市泰山區楓江路46巷1號","121.43525","25.0622066666667","6501600","泰山區"
"243010","297-R6","2019/11/16 20:05:26","新北市泰山區中華街25號","121.427406666667","25.05191","6501600","泰山區"
"243014","KEA-2801","2019/11/16 20:14:00","新北市泰山區明志路一段30號","121.433553333333","25.0654416666667","6501600","泰山區"
"243016","421-VK","2019/11/16 20:13:47","新北市泰山區明志路三段204巷2號","121.423781666667","25.038255","6501600","泰山區"
"243009","KEA-2215","2019/11/16 20:13:56","新北市泰山區泰林路二段120號","121.434523333333","25.059305","6501600","泰山區"
"243011","KEA-2216","2019/11/16 20:13:39","新北市新莊區壽山路160巷21號","121.417403333333","25.031855","6501600","泰山區"
"243013","646-TV","2019/11/16 20:13:48","新北市泰山區明志路三段74巷8號","121.424506666667","25.04176","6501600","泰山區"
"243015","680-BX","2019/11/16 20:13:50","新北市泰山區明志路一段412號","121.430703333333","25.0567833333333","6501600","泰山區"
"222003","436-BY","2019/11/16 20:13:48","新北市深坑區埔新街99號","121.619176666667","25.0022816666667","6501800","深坑區"
"222002","659-BX","2019/11/16 20:13:50","新北市深坑區北深路三段158巷36號","121.60145","25.004735","6501800","深坑區"
"231061","002-UM","2019/11/16 20:13:42","新北市新店區安民街121巷10號","121.515791666667","24.969085","6500600","新店區"
"231055","0291-UT","2019/11/16 20:13:41","新北市新店區北新路一段297巷23號","121.540668333333","24.9679733333333","6500600","新店區"
"231044","046-UY","2019/11/16 20:13:51","新北市新店區寶慶街66號","121.542015","24.9869","6500600","新店區"
"231060","106-UY","2019/11/16 20:13:47","新北市新店區安康路三段456號","121.484316666667","24.9512066666667","6500600","新店區"
"231051","107-UY","2019/11/16 20:13:52","新北市新店區中央路216-1號","121.529845","24.9731566666667","6500600","新店區"
"231049","108-UY","2019/11/16 20:13:55","新北市新店區北新路二段59巷7號","121.542273333333","24.973455","6500600","新店區"
"231065","110-UY","2019/11/16 20:13:45","新北市新店區安祥路106巷200弄6號","121.474295","24.9602666666667","6500600","新店區"
"231068","187-VK","2019/11/16 20:13:59","新北市新店區中興路三段202號","121.543885","24.9820283333333","6500600","新店區"
"231062","256-BX","2019/11/16 20:13:47","新北市新店區安康路一段353號","121.519058333333","24.96402","6500600","新店區"
"231054","260-TV","2019/11/16 20:13:54","新北市新店區檳榔路80號","121.542838333333","24.9631916666667","6500600","新店區"
"231042","268-BY","2019/11/16 20:14:00","新北市新店區中興路二段100巷1號","121.547481666667","24.9715083333333","6500600","新店區"
"231064","278-BY","2019/11/16 20:13:49","新北市新店區安和路二段66號","121.51815","24.9678716666667","6500600","新店區"
"231050","AAD-862","2019/11/16 20:13:49","新北市新店區北新路一段90號","121.541896666667","24.9685066666667","6500600","新店區"
"231045","355-BY","2019/11/16 20:13:38","新北市新店區北宜路一段121-2號","121.540436666667","24.9537916666667","6500600","新店區"
"231058","3713-VJ","2019/11/16 20:13:49","新北市新店區薏仁坑路自強巷6號","121.496511666667","24.9584766666667","6500600","新店區"
"231056","4715-K9","2019/11/16 20:13:50","新北市新店區中正路328巷43號","121.537928333333","24.976325","6500600","新店區"
"231067","4772-VM","2019/11/16 20:13:50","新北市新店區溪洲路8巷60號","121.533356666667","24.962355","6500600","新店區"
"231052","513-UM","2019/11/16 20:13:40","新北市新店區新烏路三段38號","121.553695","24.9049933333333","6500600","新店區"
"231063","616-UM","2019/11/16 20:13:44","新北市新店區黎明路52巷9號","121.502066666667","24.948805","6500600","新店區"
"231041","619-UM","2019/11/16 20:13:44","新北市新店區民權路124號","121.53513","24.98288","6500600","新店區"
"231048","KED-0819","2019/11/16 20:13:52","新北市新店區寶橋路69-1號","121.545435","24.9750433333333","6500600","新店區"
"231057","720-UM","2019/11/16 20:13:39","新北市新店區花園一路二段30號","121.55262","24.9329316666667","6500600","新店區"
"231059","897-TW","2019/11/16 20:13:49","新北市新店區安德街53號","121.510995","24.9621383333333","6500600","新店區"
"231040","898-TW","2019/11/16 20:13:56","新北市新店區中正路108號","121.543076666667","24.97061","6500600","新店區"
"231043","899-TW","2019/11/16 20:13:56","新北市新店區建國路133號","121.539376666667","24.9782883333333","6500600","新店區"
"231066","AKT-0513","2019/11/16 20:13:44","新北市新店區安興路20號","121.51504","24.9659583333333","6500600","新店區"
"241011","013-R5","2019/11/16 20:13:42","新北市三重區龍濱路285號","121.501148333333","25.073325","6500200","三重區"
"241028","022-UY","2019/11/16 20:13:37","新北市三重區大同南路143-2號","121.496635","25.0573816666667","6500200","三重區"
"241008","059-VK","2019/11/16 20:13:46","新北市三重區永福街211巷2弄2號","121.479963333333","25.0741433333333","6500200","三重區"
"241031","061-VK","2019/11/16 20:13:52","新北市三重區三寧街25號","121.489658333333","25.0598533333333","6500200","三重區"
"241015","062-VK","2019/11/16 20:13:52","新北市三重區福德北路20號","121.502303333333","25.06464","6500200","三重區"
"241017","063-VK","2019/11/16 20:13:46","新北市三重區大智街108號","121.493176666667","25.0667133333333","6500200","三重區"
"241024","065-VK","2019/11/16 20:13:50","新北市三重區中正北路165巷29號","121.479431666667","25.0703466666667","6500200","三重區"
"241007","066-VK","2019/11/16 20:13:52","新北市三重區三和路四段117巷12號","121.485911666667","25.07777","6500200","三重區"
"241002","090-VK","2019/11/16 20:13:46","新北市三重區環河北路二段324號","121.498275","25.0834016666667","6500200","三重區"
"241003","091-VK","2019/11/16 20:13:56","新北市三重區富華街18號","121.489623333333","25.0824716666667","6500200","三重區"
"241006","262-UM","2019/11/16 20:13:48","新北市三重區車路頭街135-1號","121.484173333333","25.0761","6500200","三重區"
"241014","316-R6","2019/11/16 20:13:39","新北市三重區龍濱路163號","121.502738333333","25.0697283333333","6500200","三重區"
"241016","266-UM","2019/11/16 20:13:57","新北市三重區大同北路97-2號","121.494473333333","25.0635666666667","6500200","三重區"
"241009","267-UM","2019/11/16 20:13:43","新北市三重區三和路四段382巷129號","121.479605","25.078185","6500200","三重區"
"241018","268-UM","2019/11/16 20:13:40","新北市三重區正義北路195號","121.496156666667","25.06807","6500200","三重區"
"241032","269-UM","2019/11/16 20:13:38","新北市三重區捷運路19巷2弄1號","121.485165","25.0563566666667","6500200","三重區"
"241013","270-UM","2019/11/16 20:13:51","新北市三重區溪尾街1-1號","121.491798333333","25.07417","6500200","三重區"
"241025","271-UM","2019/11/16 20:13:54","新北市三重區三民街272巷2號","121.478883333333","25.0679683333333","6500200","三重區"
"241030","KED-0822","2019/11/16 20:13:56","新北市三重區集美街116號","121.488645","25.0537983333333","6500200","三重區"
"241035","462-BY","2019/11/16 20:13:43","新北市三重區正義北路33巷11號","121.498065","25.0637383333333","6500200","三重區"
"241004","475-VK","2019/11/16 20:13:51","新北市三重區自強路四段53號","121.49008","25.0782033333333","6500200","三重區"
"241020","478-VK","2019/11/16 20:13:48","新北市三重區三和路四段20巷16-2號","121.490406666667","25.0733283333333","6500200","三重區"
"241026","480-VK","2019/11/16 20:13:49","新北市三重區中央南路103號","121.501515","25.0603783333333","6500200","三重區"
"241023","545-UM","2019/11/16 20:13:55","新北市三重區頂崁街217巷4弄1號","121.477736666667","25.0677666666667","6500200","三重區"
"241001","547-UM","2019/11/16 20:13:42","新北市三重區自強路四段3巷25號","121.489786666667","25.0761883333333","6500200","三重區"
"241033","557-UM","2019/11/16 20:13:57","新北市三重區五谷王北街50巷1號","121.475955","25.0514633333333","6500200","三重區"
"241019","KEA-2593","2019/11/16 20:13:55","新北市三重區大智街139號","121.490673333333","25.07089","6500200","三重區"
"241012","743-BX","2019/11/16 20:13:52","新北市三重區河邊北街262號","121.501668333333","25.07645","6500200","三重區"
"241022","KED-0820","2019/11/16 20:13:46","新北市三重區中正北路28號","121.488173333333","25.0635733333333","6500200","三重區"
"241005","KED-0670","2019/11/16 20:13:45","新北市三重區碧華街293號","121.490488333333","25.0838783333333","6500200","三重區"
"241029","942-UM","2019/11/16 20:13:49","新北市三重區中寮街76號","121.493098333333","25.058215","6500200","三重區"
"235066","003-UY","2019/11/16 20:13:37","新北市中和區光華街59-1號","121.506381666667","25.0034383333333","6500300","中和區"
"235039","097-UM","2019/11/16 20:13:36","新北市永和區民有街73號","121.518108333333","24.9956783333333","6500300","中和區"
"235065","098-UM","2019/11/16 20:13:47","新北市中和區永和路128巷28號","121.497621666667","25.0068766666667","6500300","中和區"
"235040","150-BY","2019/11/16 20:13:43","新北市中和區保健路26巷21號","121.508638333333","24.9971383333333","6500300","中和區"
"235055","183-VK","2019/11/16 20:13:50","新北市五股區成洲一路23號","121.449925","25.0957233333333","6500300","中和區"
"247016","KEA-2869","2019/11/16 20:13:49","新北市蘆洲區光華路186巷38號","121.46491","25.0833283333333","6501400","蘆洲區"
"247010","KED-0682","2019/11/16 20:13:52","新北市蘆洲區信義路188巷2弄1號","121.479556666667","25.0844166666667","6501400","蘆洲區"
"235050","4979-A6","2019/11/16 20:13:45","新北市中和區安樂路1號","121.511563333333","24.99175","6500300","中和區"
"235069","4980-A6","2019/11/16 20:13:50","新北市中和區南山路127巷27弄1號","121.503323333333","24.997705","6500300","中和區"
"235037","AAC-213","2019/11/16 20:13:50","新北市中和區景平路372號","121.510708333333","24.9927833333333","6500300","中和區"
"235059","AAC-215","2019/11/16 20:14:00","新北市中和區圓通路367巷13弄29-9號","121.49327","24.988175","6500300","中和區"
"220065","072-UY","2019/11/16 20:13:48","新北市板橋區海山路27號","121.467661666667","25.0090433333333","6500100","板橋區"
"247006","893-R6","2019/11/16 20:13:56","新北市蘆洲區永安南路二段16巷17弄3號","121.467561666667","25.0778716666667","6501400","蘆洲區"
"247020","546-UM","2019/11/16 20:13:53","新北市蘆洲區民義街106巷1號","121.473965","25.090845","6501400","蘆洲區"
"247004","341-TH","2019/11/16 20:13:39","新北市蘆洲區長安街285巷23號","121.457423333333","25.0840883333333","6501400","蘆洲區"
"247024","057-VK","2019/11/16 20:13:45","新北市蘆洲區光明路116號","121.46369","25.0882116666667","6501400","蘆洲區"
"247014","056-VK","2019/11/16 20:13:42","新北市蘆洲區中山二路170號","121.470818333333","25.080835","6501400","蘆洲區"
"247022","007-UY","2019/11/16 20:13:54","新北市蘆洲區中正路198-1號","121.466873333333","25.0883966666667","6501400","蘆洲區"
"247002","001-UY","2019/11/16 20:13:59","新北市蘆洲區長安街313巷6弄1號","121.456618333333","25.0860916666667","6501400","蘆洲區"
"222001","KEA-2212","2019/11/16 20:13:48","新北市深坑區北深路三段213號","121.600425","25.0040433333333","6501800","深坑區"
"251009","008-UM","2019/11/16 20:13:55","新北市淡水區清水街1-5號","121.445285","25.1704133333333","6501000","淡水區"
"251004","009-UM","2019/11/16 20:13:44","新北市淡水區民族路29巷24-1號","121.461646666667","25.1367183333333","6501000","淡水區"
"251002","012-UM","2019/11/16 20:13:49","新北市淡水區中正路296號","121.437518333333","25.1721133333333","6501000","淡水區"
"251015","KEA-2871","2019/11/16 20:13:42","新北市淡水區北新路三段82號","121.48565","25.187965","6501000","淡水區"
"251016","180-VK","2019/11/16 20:13:38","新北市淡水區番子田20-2號","121.45778","25.2281666666667","6501000","淡水區"
"251008","181-VK","2019/11/16 20:13:58","新北市淡水區沙崙路152巷17弄1號","121.4242","25.182145","6501000","淡水區"
"251013","182-VK","2019/11/16 20:13:54","新北市淡水區奎柔山路752巷101號","121.474528333333","25.2037033333333","6501000","淡水區"
"251010","413-VK","2019/11/16 20:13:40","新北市淡水區濱海路三段601號","121.420936666667","25.1939616666667","6501000","淡水區"
"251012","441-VK","2019/11/16 20:13:57","新北市淡水區淡金路三段290號","121.448921666667","25.2075166666667","6501000","淡水區"
"251001","559-UM","2019/11/16 20:13:57","新北市淡水區淡金路二段15號","121.446315","25.1892233333333","6501000","淡水區"
"251006","561-UM","2019/11/16 20:13:50","新北市淡水區北新路141巷44號","121.44867","25.1794516666667","6501000","淡水區"
"251014","577-R6","2019/11/16 20:13:45","新北市淡水區石頭厝2-1號","121.458168333333","25.235735","6501000","淡水區"
"251011","650-BX","2019/11/16 20:13:40","新北市淡水區崁頂105號","121.433686666667","25.2039183333333","6501000","淡水區"
"251003","766-UM","2019/11/16 20:13:54","新北市淡水區中山北路一段229號","121.444435","25.1794983333333","6501000","淡水區"
"207003","681-TV","2019/11/16 20:13:48","新北市萬里區大鵬里萬里加投132-1號","121.644831666667","25.2141133333333","6502800","萬里區"
"207004","291-VK","2019/11/16 20:13:44","新北市萬里區北基里大勇路8號","121.681575","25.176255","6502800","萬里區"
"252002","178-VK","2019/11/16 20:13:41","新北市三芝區利民街2號","121.50318","25.2591933333333","6502100","三芝區"
"237006","5529-G3","2019/11/16 20:13:48","新北市三峽區嘉添155號","121.369023333333","24.91181","6500900","三峽區"
"236030","253-BX","2019/11/16 20:13:46","新北市土城區學成路167號","121.448091666667","24.9890616666667","6501300","土城區"
"236026","269-VK","2019/11/16 20:13:45","新北市土城區裕生路83巷23號","121.447886666667","24.9840216666667","6501300","土城區"
"236014","270-VK","2019/11/16 20:13:57","新北市土城區廣明街63巷21號","121.454168333333","24.9932766666667","6501300","土城區"
"236038","271-VK","2019/11/16 20:13:50","新北市土城區延吉街286號","121.464951666667","24.98424","6501300","土城區"
"247012","KED-0683","2019/11/16 20:13:41","新北市蘆洲區中興街15巷22號","121.480228333333","25.0877983333333","6501400","蘆洲區"
"236070","KEA-2877","2019/11/16 20:13:52","新北市土城區大安路37-1號","121.432686666667","24.9661883333333","6501300","土城區"
"252001","KED-0821","2019/11/16 20:13:41","新北市三芝區中山路一段9巷2號","121.500181666667","25.2586083333333","6502100","三芝區"
"236021","401-BY","2019/11/16 20:13:50","新北市土城區延吉街5巷1號","121.471961666667","24.98936","6501300","土城區"
"236059","912-UM","2019/11/16 20:13:57","新北市土城區中央路三段62號","121.436766666667","24.9673666666667","6501300","土城區"
"236063","915-UM","2019/11/16 20:13:42","新北市土城區金城路三段33巷39號","121.464746666667","24.9875466666667","6501300","土城區"
"242042","AAC-296","2019/11/16 20:13:54","新北市新莊區青山路一段81號","121.40562","25.0285883333333","6500500","新莊區"
"242061","986-R7","2019/11/16 20:13:46","新北市新莊區瓊林路瓊英巷4弄2號","121.443631666667","25.0274566666667","6500500","新莊區"
"242004","751-BX","2019/11/16 20:13:53","新北市新莊區頭前路2巷6號","121.46851","25.052865","6500500","新莊區"
"242025","705-TV","2019/11/16 20:13:50","新北市新莊區五工路68巷27號","121.458935","25.0646616666667","6500500","新莊區"
"242029","615-BX","2019/11/16 20:13:45","新北市新莊區中原路319號","121.446571666667","25.05434","6500500","新莊區"
"242027","613-BX","2019/11/16 20:13:38","新北市新莊區立信三街12巷12號","121.444136666667","25.0510183333333","6500500","新莊區"
"242058","612-BX","2019/11/16 20:13:43","新北市新莊區八德街169號","121.423311666667","25.0190733333333","6500500","新莊區"
"242048","566-BX","2019/11/16 20:13:53","新北市新莊區四維路152巷34號","121.42192","25.022365","6500500","新莊區"
"242053","497-BY","2019/11/16 20:13:51","新北市新莊區民安西路308號","121.42641","25.0120333333333","6500500","新莊區"
"242013","442-UM","2019/11/16 20:13:45","新北市新莊區幸福路710巷6弄2號","121.450068333333","25.0495816666667","6500500","新莊區"
"242002","441-UM","2019/11/16 20:13:43","新北市三重區重新路五段646-1號","121.468113333333","25.044165","6500500","新莊區"
"242044","415-TV","2019/11/16 20:13:56","桃園市龜山區萬壽路一段21巷8號","121.410523333333","25.0203633333333","6500500","新莊區"
"242051","400-BY","2019/11/16 20:13:44","新北市新莊區民安西路196巷3號","121.425683333333","25.0154083333333","6500500","新莊區"
"242023","353-BY","2019/11/16 20:13:56","新北市新莊區化成路694號","121.465868333333","25.0563783333333","6500500","新莊區"
"242015","132-UY","2019/11/16 20:13:51","新北市新莊區中和街46號","121.448221666667","25.0442833333333","6500500","新莊區"
"242039","135-UY","2019/11/16 20:13:56","新北市新莊區龍安路461號","121.424758333333","25.0184233333333","6500500","新莊區"
"242056","172-VK","2019/11/16 20:13:54","新北市新莊區豐年街28巷1弄11號","121.446131666667","25.0318516666667","6500500","新莊區"
"242017","173-VK","2019/11/16 20:13:46","新北市新莊區中港路397號","121.451886666667","25.0468583333333","6500500","新莊區"
"242031","175-VK","2019/11/16 20:13:50","新北市新莊區中正路455-3號","121.442468333333","25.0340366666667","6500500","新莊區"
"242007","346-TH","2019/11/16 20:13:42","新北市新莊區福壽街164巷19號","121.45927","25.0528833333333","6500500","新莊區"
"242021","347-TH","2019/11/16 20:13:48","新北市新莊區建中街26號","121.449138333333","25.0375083333333","6500500","新莊區"
"242036","348-TH","2019/11/16 20:13:52","新北市新莊區建安街9巷5號","121.429105","25.0267083333333","6500500","新莊區"
"242009","349-TH","2019/11/16 20:13:56","新北市新莊區昌平街16號","121.454876666667","25.0527683333333","6500500","新莊區"
"242034","350-TH","2019/11/16 20:13:47","新北市新莊區中正路318巷11號","121.446216666667","25.0357066666667","6500500","新莊區"
"242019","351-TH","2019/11/16 20:13:56","新北市新莊區博愛路4巷2號","121.456461666667","25.04302","6500500","新莊區"
"221008","489-VK","2019/11/16 20:13:52","台北市內湖區康樂街201巷47號","121.622831666667","25.0769833333333","6501100","汐止區"
"221036","130-UY","2019/11/16 20:13:53","新北市汐止區新台五路二段13號","121.66232","25.06611","6501100","汐止區"
"221015","131-UY","2019/11/16 20:13:50","新北市汐止區建成路37巷1號","121.663661666667","25.0728433333333","6501100","汐止區"
"221010","269-BY","2019/11/16 20:13:47","新北市汐止區連峰街225巷26號","121.644046666667","25.0810666666667","6501100","汐止區"
"221012","278-VK","2019/11/16 20:13:44","新北市汐止區大同路三段274號","121.677765","25.0714","6501100","汐止區"
"221023","279-VK","2019/11/16 20:13:40","新北市汐止區明峰街298巷1-1號","121.625165","25.068075","6501100","汐止區"
"221032","280-BY","2019/11/16 20:13:54","新北市汐止區弘道街9巷2弄2號","121.617025","25.0488466666667","6501100","汐止區"
"221029","298-VK","2019/11/16 20:13:55","新北市汐止區樟樹一路99巷2弄10號","121.641195","25.064115","6501100","汐止區"
"221021","299-VK","2019/11/16 20:13:40","新北市汐止區莊敬街126號","121.655001666667","25.0610183333333","6501100","汐止區"
"221031","353-TW","2019/11/16 20:13:39","新北市汐止區中興路214巷12號","121.631493333333","25.0666033333333","6501100","汐止區"
"221035","622-UM","2019/11/16 20:13:54","新北市汐止區長江街43號","121.65578","25.0713","6501100","汐止區"
"221025","623-UM","2019/11/16 20:13:58","新北市汐止區新台五路一段154號","121.653936666667","25.0624233333333","6501100","汐止區"
"221038","646-BX","2019/11/16 20:13:43","新北市汐止區忠孝東路476-1號","121.666121666667","25.07359","6501100","汐止區"
"221033","647-BX","2019/11/16 20:13:39","新北市汐止區東勢街201巷104號","121.633553333333","25.0429166666667","6501100","汐止區"
"221018","753-BX","2019/11/16 20:13:44","新北市汐止區茄苳路303號","121.673403333333","25.067065","6501100","汐止區"
"220079","145-BY","2019/11/16 20:13:55","新北市板橋區民權路202巷9弄40號","121.459666666667","25.0161633333333","6500100","板橋區"
"220080","200-UY","2019/11/16 20:13:39","新北市板橋區大觀路二段181號","121.44495","25.0000483333333","6500100","板橋區"
"224002","257-TC","2019/11/16 20:13:39","新北市瑞芳區三爪子坑路335號","121.818933333333","25.1049383333333","6501200","瑞芳區"
"220083","286-VK","2019/11/16 20:13:46","新北市板橋區僑中二街90巷5號","121.446058333333","25.0091483333333","6500100","板橋區"
"220081","287-VK","2019/11/16 20:13:40","新北市板橋區大觀路一段28巷104號","121.45009","25.01109","6500100","板橋區"
"220061","293-UM","2019/11/16 20:13:46","新北市板橋區忠孝路3號","121.459805","25.0019","6500100","板橋區"
"242046","281-VK","2019/11/16 20:13:49","新北市新莊區裕民街108號","121.418228333333","25.0230133333333","6500500","新莊區"
"220075","303-R5","2019/11/16 20:13:40","新北市板橋區幸福路70巷19號","121.460213333333","25.02061","6500100","板橋區"
"242011","280-VK","2019/11/16 20:13:49","新北市新莊區幸福路710巷7弄2號","121.449695","25.0501066666667","6500500","新莊區"
"220035","560-BX","2019/11/16 20:13:55","新北市板橋區新生街53巷1弄1號","121.45732","25.0211833333333","6500100","板橋區"
"220103","561-BX","2019/11/16 20:13:58","新北市板橋區漢生東路33巷42號","121.466105","25.0176916666667","6500100","板橋區"
"220077","687-BX","2019/11/16 20:13:57","新北市板橋區僑中一街124巷18弄1號","121.446166666667","25.0138666666667","6500100","板橋區"
"220054","741-BX","2019/11/16 20:13:54","新北市板橋區忠孝路忠義巷9弄82-2號","121.46504","25.0054516666667","6500100","板橋區"
"220055","827-TW","2019/11/16 20:13:51","新北市板橋區仁愛路88號","121.460973333333","24.99961","6500100","板橋區"
"220074","895-R6","2019/11/16 20:13:51","新北市板橋區明德街20號","121.460053333333","25.0107183333333","6500100","板橋區"
"220064","AAC-253","2019/11/16 20:13:56","新北市板橋區漢生東路193巷7-1號","121.470335","25.01185","6500100","板橋區"
"235068","KEA-2873","2019/11/16 20:13:41","新北市中和區勝利路35巷1弄5號","121.499151666667","25.0075083333333","6500300","中和區"
