"lineid","car","time","location","longitude","latitude","cityid","cityname"
"249003","593-UM","2019/11/16 21:13:55","新北市八里區博物館路9號","121.415395","25.16414","6502300","八里區"
"231061","002-UM","2019/11/16 21:13:43","新北市新店區安和路三段77號","121.517535","24.983455","6500600","新店區"
"231060","106-UY","2019/11/16 21:13:47","新北市新店區安康路二段454號","121.494416666667","24.9542333333333","6500600","新店區"
"231051","107-UY","2019/11/16 21:13:52","新北市新店區中正路694巷15號","121.535341666667","24.990715","6500600","新店區"
"231062","256-BX","2019/11/16 21:13:48","新北市新店區雙城路80號","121.492361666667","24.9489733333333","6500600","新店區"
"231042","268-BY","2019/11/16 21:13:40","新北市新店區車子路10-4號","121.5049","24.954545","6500600","新店區"
"231050","AAD-862","2019/11/16 21:13:49","新北市新店區華興街6號","121.538036666667","24.9698916666667","6500600","新店區"
"231063","616-UM","2019/11/16 21:13:44","新北市新店區玫瑰路57巷42號","121.49716","24.9463666666667","6500600","新店區"
"231059","897-TW","2019/11/16 21:13:49","新北市新店區僑義路28號","121.500588333333","24.9497533333333","6500600","新店區"
"231040","898-TW","2019/11/16 21:13:56","新北市新店區北新路一段123號","121.53937","24.9626266666667","6500600","新店區"
"241011","013-R5","2019/11/16 21:13:42","新北市三重區龍濱路114號","121.502146666667","25.0701816666667","6500200","三重區"
"241028","022-UY","2019/11/16 21:13:37","新北市三重區同安街110號","121.494368333333","25.0563383333333","6500200","三重區"
"241008","059-VK","2019/11/16 21:13:46","新北市三重區自強路一段64號","121.497248333333","25.0666283333333","6500200","三重區"
"241031","061-VK","2019/11/16 21:13:52","新北市三重區重新路五段408巷19號","121.47574","25.0455483333333","6500200","三重區"
"241015","062-VK","2019/11/16 21:13:52","新北市三重區河邊北街23號","121.504298333333","25.0653633333333","6500200","三重區"
"241017","063-VK","2019/11/16 21:13:46","新北市三重區大同北路132巷6號","121.49254","25.06476","6500200","三重區"
"241024","065-VK","2019/11/16 21:13:50","新北市三重區力行路一段160號","121.482328333333","25.0710683333333","6500200","三重區"
"241007","066-VK","2019/11/16 21:13:52","新北市三重區車路頭街135-1號","121.484241666667","25.0759716666667","6500200","三重區"
"241002","090-VK","2019/11/16 21:13:46","新北市三重區五華街19號","121.49487","25.0803966666667","6500200","三重區"
"241003","091-VK","2019/11/16 21:13:56","新北市三重區仁義街228巷1號","121.494835","25.084785","6500200","三重區"
"241006","262-UM","2019/11/16 21:13:48","新北市三重區新北大道一段178-1號","121.482833333333","25.0616116666667","6500200","三重區"
"241014","316-R6","2019/11/16 21:13:39","新北市三重區長安街82-1號","121.501386666667","25.06772","6500200","三重區"
"241016","266-UM","2019/11/16 21:13:57","新北市三重區大智街12號","121.495323333333","25.06444","6500200","三重區"
"241009","267-UM","2019/11/16 21:13:42","新北市三重區忠孝路三段45號","121.481133333333","25.06671","6500200","三重區"
"241018","268-UM","2019/11/16 21:14:00","新北市三重區忠孝路二段53號","121.485328333333","25.0707466666667","6500200","三重區"
"241032","269-UM","2019/11/16 21:13:58","新北市三重區中興北街134-1號","121.468983333333","25.055885","6500200","三重區"
"241013","270-UM","2019/11/16 21:13:51","新北市三重區仁愛街81-1號","121.495883333333","25.07315","6500200","三重區"
"241025","271-UM","2019/11/16 21:13:52","新北市三重區中正北路208巷8號","121.482306666667","25.0670066666667","6500200","三重區"
"241030","KED-0822","2019/11/16 21:14:01","新北市三重區五谷王北街20巷15弄1號","121.475216666667","25.0484883333333","6500200","三重區"
"241004","475-VK","2019/11/16 21:13:51","新北市三重區仁愛街423-1號","121.490421666667","25.0814466666667","6500200","三重區"
"241026","480-VK","2019/11/16 21:13:49","新北市三重區新北大道一段9號","121.489253333333","25.06139","6500200","三重區"
"241023","545-UM","2019/11/16 21:13:55","新北市三重區中正北路176巷27號","121.482675","25.0659383333333","6500200","三重區"
"241001","547-UM","2019/11/16 21:13:42","新北市三重區福隆路97號","121.492353333333","25.0783233333333","6500200","三重區"
"241033","557-UM","2019/11/16 21:13:57","新北市三重區光復路二段126巷6號","121.47074","25.05878","6500200","三重區"
"241019","KEA-2593","2019/11/16 21:13:55","新北市三重區重陽路三段7-3號","121.489128333333","25.0666416666667","6500200","三重區"
"241012","743-BX","2019/11/16 21:13:52","新北市三重區龍濱路269號","121.501346666667","25.0729016666667","6500200","三重區"
"241022","KED-0820","2019/11/16 21:13:46","新北市三重區中正北路64巷24號","121.48601","25.0636883333333","6500200","三重區"
"241005","KED-0670","2019/11/16 21:13:45","新北市三重區仁華街116-1號","121.485866666667","25.0830333333333","6500200","三重區"
"241029","942-UM","2019/11/16 21:13:49","新北市三重區正義南路111號","121.498246666667","25.0585216666667","6500200","三重區"
"235055","183-VK","2019/11/16 21:13:50","新北市中和區員山路36巷13號","121.484338333333","24.9907183333333","6500300","中和區"
"247010","KED-0682","2019/11/16 21:13:44","新北市蘆洲區鷺江街19號","121.478978333333","25.082445","6501400","蘆洲區"
"247006","893-R6","2019/11/16 21:13:56","新北市蘆洲區長安街25號","121.46399","25.079175","6501400","蘆洲區"
"247020","546-UM","2019/11/16 21:13:53","新北市蘆洲區民族路436巷5號","121.472898333333","25.092895","6501400","蘆洲區"
"247008","500-BY","2019/11/16 21:13:58","新北市蘆洲區民生街45號","121.475088333333","25.07888","6501400","蘆洲區"
"247004","341-TH","2019/11/16 21:13:59","新北市蘆洲區永安南路二段316號","121.457125","25.0827","6501400","蘆洲區"
"247024","057-VK","2019/11/16 21:13:45","新北市蘆洲區長興路50巷1號","121.463803333333","25.0837766666667","6501400","蘆洲區"
"247014","056-VK","2019/11/16 21:13:42","新北市蘆洲區保和街17號","121.471041666667","25.086455","6501400","蘆洲區"
"247018","053-VK","2019/11/16 21:13:54","新北市蘆洲區復興路111-5號","121.476575","25.0884216666667","6501400","蘆洲區"
"247022","007-UY","2019/11/16 21:13:54","新北市蘆洲區三民路202號","121.46914","25.0889316666667","6501400","蘆洲區"
"247002","001-UY","2019/11/16 21:13:58","新北市蘆洲區永樂街38巷40號","121.458481666667","25.09014","6501400","蘆洲區"
"251009","008-UM","2019/11/16 21:13:51","新北市淡水區民族路112巷66號","121.462006666667","25.13434","6501000","淡水區"
"251004","009-UM","2019/11/16 21:13:44","新北市淡水區民族路33號","121.462303333333","25.1358183333333","6501000","淡水區"
"251005","010-UM","2019/11/16 21:13:41","新北市淡水區仁愛街7號","121.446058333333","25.1704533333333","6501000","淡水區"
"251002","012-UM","2019/11/16 21:13:49","新北市淡水區學府路172巷21號","121.448316666667","25.174905","6501000","淡水區"
"251015","KEA-2871","2019/11/16 21:13:42","新北市淡水區淡金路四段542巷83弄12號","121.45594","25.2267033333333","6501000","淡水區"
"251016","180-VK","2019/11/16 21:13:38","新北市淡水區前洲子28號","121.441056666667","25.2192283333333","6501000","淡水區"
"251008","181-VK","2019/11/16 21:13:58","新北市淡水區北投子78-7號","121.458051666667","25.1789333333333","6501000","淡水區"
"251013","182-VK","2019/11/16 21:13:51","新北市淡水區行忠路330號","121.460671666667","25.1998883333333","6501000","淡水區"
"251010","413-VK","2019/11/16 21:13:40","新北市淡水區中正路一段63巷1弄1號","121.423678333333","25.1775066666667","6501000","淡水區"
"251012","441-VK","2019/11/16 21:13:57","新北市淡水區淡金路五段37號","121.453811666667","25.2331716666667","6501000","淡水區"
"251001","559-UM","2019/11/16 21:13:57","新北市淡水區中山北路二段381巷101號","121.443263333333","25.1867","6501000","淡水區"
"251014","577-R6","2019/11/16 21:13:45","新北市淡水區六塊厝2-1號","121.450141666667","25.2404683333333","6501000","淡水區"
"251011","650-BX","2019/11/16 21:13:40","新北市淡水區新民街120巷45弄2號","121.438451666667","25.1797333333333","6501000","淡水區"
"251003","766-UM","2019/11/16 21:13:54","新北市淡水區新春街96號","121.4391","25.1824416666667","6501000","淡水區"
"247012","KED-0683","2019/11/16 21:14:01","新北市蘆洲區民族路236巷6號","121.480238333333","25.08858","6501400","蘆洲區"
