"lineid","car","time","location","longitude","latitude","cityid","cityname"
"232005","291-BY","2019/09/09 08:59:27","新北市坪林區魚堀9-5號","121.705006666667","24.9057333333333","6502000","坪林區"
"244006","080-UY","2019/09/09 08:59:32","新北市林口區林口路113巷57號","121.387851666667","25.07974","6501700","林口區"
"244018","402-UM","2019/09/09 08:59:27","新北市林口區文化一路一段126號","121.37533","25.0724516666667","6501700","林口區"
"244012","KEA-2802","2019/09/09 08:59:28","新北市林口區中正路512號","121.381748333333","25.07744","6501700","林口區"
"244022","483-VK","2019/09/09 08:59:31","新北市林口區隆林街101巷6號","121.385071666667","25.0745366666667","6501700","林口區"
"244016","485-VK","2019/09/09 08:59:23","新北市林口區八德路20巷1號","121.368271666667","25.0671683333333","6501700","林口區"
"244008","656-BX","2019/09/09 08:59:31","新北市林口區文化二路二段166號","121.380326666667","25.08345","6501700","林口區"
"244010","701-TV","2019/09/09 08:59:44","新北市林口區興林路15號","121.390005","25.0769916666667","6501700","林口區"
"244024","837-TS","2019/09/09 08:59:26","新北市林口區南勢街280號","121.357543333333","25.0763516666667","6501700","林口區"
"244020","838-TS","2019/09/09 08:59:44","新北市林口區工六路56號","121.39936","25.0780983333333","6501700","林口區"
"222004","289-BY","2019/09/09 08:59:23","新北市深坑區風格街31巷2號","121.62774","25.0168133333333","6501800","深坑區"
"231007","189-VK","2019/09/09 08:59:28","新北市新店區平廣路二段265巷9號","121.498015","24.902135","6500600","新店區"
"231008","192-VK","2019/09/09 08:59:27","新北市新店區廣興路60巷27號","121.541246666667","24.915855","6500600","新店區"
"226005","5620-A6","2019/09/09 08:59:24","新北市平溪區十分里十分街168號","121.778628333333","25.0434333333333","6502400","平溪區"
"226001","7418-A5","2019/09/09 08:49:44","新北市平溪區東勢里番仔坑16號","121.755181666667","24.991325","6502400","平溪區"
"226003","AGD-0702","2019/09/09 08:59:28","新北市平溪區十分里十分街238號","121.778105","25.0440833333333","6502400","平溪區"
"223003","205-TH","2019/09/09 08:59:39","新北市石碇區北宜路六段水底寮巷18號","121.662166666667","24.9413","6501900","石碇區"
"223008","406-TH","2019/09/09 08:59:41","新北市石碇區光明路13號","121.6793","25.0334616666667","6501900","石碇區"
"223001","592-UM","2019/09/09 08:59:30","新北市石碇區北宜路六段水底寮巷25號","121.666295","24.94351","6501900","石碇區"
"223004","660-BX","2019/09/09 08:59:37","新北市石碇區崩山24-5號","121.679148333333","24.9695566666667","6501900","石碇區"
"223007","661-BX","2019/09/09 08:59:41","新北市石碇區碇南路二段鹿窟巷2號","121.673378333333","25.03016","6501900","石碇區"
"223005","677-TV","2019/09/09 08:59:24","新北市石碇區崩山43-2號","121.680816666667","24.9663316666667","6501900","石碇區"
"227003","282-VK","2019/09/09 08:59:39","新北市雙溪區泰平里泰平57號","121.827668333333","24.9747816666667","6502500","雙溪區"
"252004","249-BX","2019/09/09 08:59:41","新北市三芝區興華里田心子31號","121.488865","25.20044","6502100","三芝區"
"252006","AAC-283","2019/09/09 08:59:45","新北市三芝區古庄里山豬堀7號","121.49427","25.2557333333333","6502100","三芝區"
"237014","760-BX","2019/09/09 08:58:41","新北市三峽區詩朗18-2號","121.374715","24.8527766666667","6500900","三峽區"
"242040","AAC-296","2019/09/09 08:59:35","新北市新莊區青山路一段8-1號","121.411695","25.027525","6500500","新莊區"
"242059","986-R7","2019/09/09 08:59:41","新北市新莊區民安路192號","121.425573333333","25.0234916666667","6500500","新莊區"
"242003","751-BX","2019/09/09 08:59:37","新北市新莊區化成路63巷6號","121.46481","25.0458216666667","6500500","新莊區"
"242028","615-BX","2019/09/09 08:59:37","新北市新莊區中原路193號","121.451958333333","25.0542533333333","6500500","新莊區"
"242026","613-BX","2019/09/09 08:59:29","新北市新莊區立信三街75號","121.443998333333","25.0511833333333","6500500","新莊區"
"242057","612-BX","2019/09/09 08:59:28","新北市新莊區八德街10號","121.425325","25.0226766666667","6500500","新莊區"
"242047","566-BX","2019/09/09 08:59:33","新北市新莊區民安路207巷17號","121.4268","25.0230283333333","6500500","新莊區"
"242052","442-UM","2019/09/09 08:59:42","新北市新莊區西盛街395巷36號","121.428856666667","25.012175","6500500","新莊區"
"242001","441-UM","2019/09/09 08:59:30","新北市新莊區中正路121-1號","121.459866666667","25.03856","6500500","新莊區"
"242006","440-UM","2019/09/09 08:59:38","新北市新莊區福壽街94巷4號","121.458595","25.0499633333333","6500500","新莊區"
"242043","415-TV","2019/09/09 08:59:31","新北市新莊區中正路新旺巷2號","121.415571666667","25.0235566666667","6500500","新莊區"
"242012","413-TV","2019/09/09 08:59:34","新北市新莊區中平路270巷31號","121.446596666667","25.0503266666667","6500500","新莊區"
"242049","400-BY","2019/09/09 08:59:42","新北市新莊區民安西路252巷21號","121.425313333333","25.0134583333333","6500500","新莊區"
"242024","362-BY","2019/09/09 08:59:34","新北市新莊區五工一路88號","121.461185","25.0674216666667","6500500","新莊區"
"242022","353-BY","2019/09/09 08:59:39","新北市新莊區化成路694號","121.465836666667","25.0562833333333","6500500","新莊區"
"242038","135-UY","2019/09/09 08:59:34","新北市新莊區民安路304號","121.428336666667","25.0218333333333","6500500","新莊區"
"242055","172-VK","2019/09/09 08:59:43","新北市新莊區瓊泰路176號","121.44327","25.0331816666667","6500500","新莊區"
"242016","173-VK","2019/09/09 08:59:23","新北市新莊區中港三街7號","121.451128333333","25.046445","6500500","新莊區"
"242030","175-VK","2019/09/09 08:59:38","新北市新莊區新泰路213巷14號","121.446115","25.0387133333333","6500500","新莊區"
"242020","KED-0687","2019/09/09 08:59:23","新北市新莊區中正路206號","121.44936","25.0354866666667","6500500","新莊區"
"242014","346-TH","2019/09/09 08:59:41","新北市新莊區中平路26巷44號","121.446811666667","25.0432816666667","6500500","新莊區"
"242035","348-TH","2019/09/09 08:59:40","新北市新莊區建安街41巷2號","121.428881666667","25.0254366666667","6500500","新莊區"
"242008","349-TH","2019/09/09 08:59:37","新北市新莊區昌隆街74號","121.455483333333","25.0507666666667","6500500","新莊區"
"242033","350-TH","2019/09/09 08:59:37","新北市新莊區中正路316號","121.446295","25.0350533333333","6500500","新莊區"
"242018","351-TH","2019/09/09 08:59:34","新北市新莊區復興路二段191號","121.459218333333","25.04447","6500500","新莊區"
"233003","KEA-2870","2019/09/09 08:59:24","新北市烏來區屯鹿51-1號","121.495178333333","24.79519","6502900","烏來區"
"241031","281-UM","2019/09/09 08:59:42","新北市板橋區重慶路247-1號","121.46359","25.0005633333333","6500200","三重區"
"242045","281-VK","2019/09/09 08:59:37","新北市新莊區民安路17號","121.423026666667","25.0279833333333","6500500","新莊區"
"242010","280-VK","2019/09/09 08:59:41","新北市新莊區中信街37巷2弄11號","121.44975","25.0504366666667","6500500","新莊區"
