"lineid","car","time","location","longitude","latitude","cityid","cityname"
"244022","483-VK","2019/09/09 10:29:31","新北市林口區仁愛路二段700號","121.369251666667","25.080805","6501700","林口區"
"231008","192-VK","2019/09/09 10:28:47","新北市新店區成功路141號","121.533171666667","24.892245","6500600","新店區"
"227003","282-VK","2019/09/09 10:08:59","新北市雙溪區泰平里灣潭路35-1號","121.812896666667","24.9291033333333","6502500","雙溪區"
"237014","760-BX","2019/09/09 10:29:20","新北市三峽區中山路459巷135號","121.349018333333","24.933275","6500900","三峽區"
"233003","KEA-2870","2019/09/09 10:29:32","新北市新店區新烏路三段258號","121.550293333333","24.9005566666667","6502900","烏來區"
"241031","281-UM","2019/09/09 10:29:22","新北市板橋區大觀路二段435-10號","121.446075","24.9943233333333","6500200","三重區"
