"lineid","car","time","location","longitude","latitude","cityid","cityname"
"244022","483-VK","2019/09/09 10:49:31","新北市林口區文林五街9-1號","121.372325","25.0847783333333","6501700","林口區"
"231007","189-VK","2019/09/09 10:49:34","新北市新店區新潭路三段86號","121.503813333333","24.9098283333333","6500600","新店區"
"231008","192-VK","2019/09/09 10:49:27","新北市新店區新烏路二段405號","121.551465","24.9094716666667","6500600","新店區"
"227003","282-VK","2019/09/09 10:49:20","新北市雙溪區泰平里溪尾寮46號","121.8219","24.967995","6502500","雙溪區"
"241031","281-UM","2019/09/09 10:30:03","新北市板橋區大觀路二段435-10號","121.446076666667","24.9943266666667","6500200","三重區"
