"lineid","car","time","location","longitude","latitude","cityid","cityname"
"234044","148-BY","2019/09/09 13:29:26","新北市永和區秀朗路二段190號","121.526426666667","25.000675","6500400","永和區"
"234078","298-R6","2019/09/09 13:29:34","新北市永和區林森路4號","121.526685","25.00574","6500400","永和區"
"234036","336-UY","2019/09/09 13:29:18","新北市永和區民樂街28號","121.527466666667","25.0015116666667","6500400","永和區"
"234062","337-UY","2019/09/09 13:29:25","新北市永和區得和路243巷20號","121.520696666667","25.0009466666667","6500400","永和區"
"234084","338-UY","2019/09/09 13:29:31","新北市永和區永元路124號","121.522918333333","25.00286","6500400","永和區"
"234068","552-UM","2019/09/09 13:29:24","新北市永和區警光街12號","121.519751666667","25.00957","6500400","永和區"
"234015","745-BX","2019/09/09 13:29:34","新北市永和區環河西路一段51巷2號","121.513796666667","25.0182516666667","6500400","永和區"
"234028","746-BX","2019/09/09 13:29:31","新北市永和區民權路56號","121.520026666667","24.998165","6500400","永和區"
"234052","KEA-2590","2019/09/09 13:29:20","新北市永和區復興街21號","121.516115","25.01307","6500400","永和區"
"234005","KED-0605","2019/09/09 13:29:27","新北市永和區中山路一段242號","121.507856666667","25.0080366666667","6500400","永和區"
"234060","AAD-866","2019/09/09 13:29:31","新北市永和區中正路471號","121.517056666667","25.0061533333333","6500400","永和區"
"234040","862-TW","2019/09/09 13:29:36","新北市永和區中和路519巷7號","121.510753333333","25.00299","6500400","永和區"
"234048","863-TW","2019/09/09 13:29:20","新北市永和區信義路120號","121.512355","25.0146516666667","6500400","永和區"
"234025","9371-KE","2019/09/09 13:29:29","新北市永和區中山路一段17巷4弄12號","121.51327","25.0101983333333","6500400","永和區"
"234010","9373-KE","2019/09/09 13:29:19","新北市永和區仁愛路141巷5弄2號","121.511746666667","25.0119783333333","6500400","永和區"
"248013","025-BX","2019/09/09 13:29:19","新北市五股區成泰路一段207號","121.435163333333","25.076785","6501500","五股區"
"248015","026-BX","2019/09/09 13:29:24","新北市五股區凌雲路一段83巷8號","121.450506666667","25.101055","6501500","五股區"
"248005","077-UY","2019/09/09 13:29:30","新北市五股區中興路一段40號","121.468273333333","25.0726266666667","6501500","五股區"
"248007","KED-0815","2019/09/09 13:29:24","新北市五股區中興路二段78-5號","121.461636666667","25.07855","6501500","五股區"
"248019","KED-0813","2019/09/09 13:29:30","新北市五股區孝義路70號","121.453715","25.113295","6501500","五股區"
"248011","247-BX","2019/09/09 13:29:22","新北市五股區御成路2號","121.441916666667","25.0908066666667","6501500","五股區"
"248003","677-BX","2019/09/09 13:29:32","新北市五股區民義路一段165號","121.432788333333","25.0877916666667","6501500","五股區"
"248001","678-BX","2019/09/09 13:29:28","新北市五股區西雲路165號","121.446326666667","25.094475","6501500","五股區"
"248009","682-TV","2019/09/09 13:29:14","新北市五股區水碓路10號","121.433888333333","25.072255","6501500","五股區"
"234022","9380-KE","2019/09/09 13:29:30","新北市永和區竹林路91巷45號","121.521431666667","25.012925","6500400","永和區"
"234076","969-R7","2019/09/09 13:29:26","新北市永和區智光街37號","121.517835","24.9987283333333","6500400","永和區"
"234072","AAC-211","2019/09/09 13:29:30","新北市永和區永和路二段234號","121.515726666667","25.0144983333333","6500400","永和區"
"234066","AAC-212","2019/09/09 13:29:30","新北市永和區保平路174巷2號","121.510873333333","25.0067533333333","6500400","永和區"
"234001","AAC-295","2019/09/09 13:29:28","新北市永和區保福路一段47巷15號","121.511986666667","25.00908","6500400","永和區"
"244001","248-BX","2019/09/09 13:29:34","新北市林口區寶斗厝坑39號","121.335515","25.1189183333333","6501700","林口區"
"231030","002-UM","2019/09/09 13:29:28","新北市新店區安華路28-1號","121.51956","24.9608933333333","6500600","新店區"
"231024","0291-UT","2019/09/09 13:29:16","新北市新店區中正路128巷15號","121.542638333333","24.9723633333333","6500600","新店區"
"231027","0293-UT","2019/09/09 13:29:19","新北市新店區環河路19巷3弄2號","121.537715","24.9610266666667","6500600","新店區"
"231005","046-UY","2019/09/09 13:29:31","新北市新店區環河路1-2號","121.538175","24.961635","6500600","新店區"
"231029","047-UY","2019/09/09 13:29:23","新北市新店區安忠路205巷8號","121.510191666667","24.95552","6500600","新店區"
"231018","107-UY","2019/09/09 13:29:30","新北市新店區中央路181-3號","121.535945","24.9689866666667","6500600","新店區"
"231013","108-UY","2019/09/09 13:29:17","新北市新店區環河路114巷4-1號","121.537003333333","24.9648216666667","6500600","新店區"
"231036","110-UY","2019/09/09 13:29:15","新北市新店區安祥路225號","121.476968333333","24.9558616666667","6500600","新店區"
"231031","256-BX","2019/09/09 13:29:21","新北市新店區安忠路91巷3號","121.511681666667","24.956455","6500600","新店區"
"231023","260-TV","2019/09/09 13:29:15","新北市新店區新店路13號","121.54025","24.9528783333333","6500600","新店區"
"231003","268-BY","2019/09/09 13:29:33","新北市新店區中興路一段264號","121.544783333333","24.967195","6500600","新店區"
"231035","278-BY","2019/09/09 13:29:27","新北市新店區安一路一段1-1號","121.519765","24.9618666666667","6500600","新店區"
"231014","AAD-862","2019/09/09 13:29:30","新北市新店區新烏路一段5號","121.547351666667","24.9517566666667","6500600","新店區"
"231006","355-BY","2019/09/09 13:29:29","新北市新店區安華路28-1號","121.519311666667","24.96098","6500600","新店區"
"231038","3712-VJ","2019/09/09 13:29:28","新北市新店區安華路30巷1號","121.519555","24.95926","6500600","新店區"
"231025","4715-K9","2019/09/09 13:29:15","新北市新店區中央五街37號","121.528573333333","24.9750866666667","6500600","新店區"
"231019","515-UM","2019/09/09 13:29:24","新北市新店區永興路88-1號","121.543998333333","24.9337366666667","6500600","新店區"
"231034","616-UM","2019/09/09 13:29:24","新北市新店區安華路28-1號","121.519463333333","24.9605483333333","6500600","新店區"
"231001","617-UM","2019/09/09 13:29:26","新北市新店區力行路15號","121.537068333333","24.965275","6500600","新店區"
"231002","618-UM","2019/09/09 13:29:25","","121.531685","24.9608383333333","6500600","新店區"
"231011","KED-0819","2019/09/09 13:29:26","新北市新店區北新路一段136號","121.54236","24.9701116666667","6500600","新店區"
"231010","719-UM","2019/09/09 13:29:28","新北市新店區自由街22號","121.535036666667","24.9746233333333","6500600","新店區"
"231026","720-UM","2019/09/09 13:29:30","新北市新店區安一路一段1-1號","121.519448333333","24.9613783333333","6500600","新店區"
"231028","897-TW","2019/09/09 13:29:28","新北市新店區安華路28-1號","121.519566666667","24.9608366666667","6500600","新店區"
"231004","899-TW","2019/09/09 13:29:27","新北市新店區安一路一段1-1號","121.519693333333","24.9617466666667","6500600","新店區"
"231037","AKT-0513","2019/09/09 13:29:32","新北市新店區薏仁坑路25號","121.496416666667","24.9600233333333","6500600","新店區"
"235030","003-UY","2019/09/09 13:29:20","新北市中和區中山路二段120號","121.502801666667","25.00374","6500300","中和區"
"235027","006-UY","2019/09/09 13:29:23","新北市中和區連城路347巷2弄1號","121.488176666667","24.9957666666667","6500300","中和區"
"235020","096-UM","2019/09/09 13:29:32","新北市中和區員山路466巷21弄24號","121.480983333333","25.00723","6500300","中和區"
"235003","097-UM","2019/09/09 13:29:25","新北市中和區大勇街25巷1號","121.517215","24.9931816666667","6500300","中和區"
"235029","098-UM","2019/09/09 13:29:26","新北市中和區莊敬路49巷20弄14號","121.502426666667","25.0059533333333","6500300","中和區"
"235004","150-BY","2019/09/09 13:29:31","新北市中和區安平路59號","121.50974","24.9951383333333","6500300","中和區"
"235022","151-BY","2019/09/09 13:29:25","新北市中和區圓通路369巷72號","121.490121666667","24.9821916666667","6500300","中和區"
"235019","183-VK","2019/09/09 13:29:20","新北市中和區莒光路120巷38號","121.471585","25.0013766666667","6500300","中和區"
"235002","185-VK","2019/09/09 13:29:19","新北市中和區自立路141巷18號","121.523098333333","24.99349","6500300","中和區"
"235013","186-VK","2019/09/09 13:29:21","新北市中和區景安路80號","121.505706666667","24.996275","6500300","中和區"
"235031","255-BX","2019/09/09 13:29:28","新北市中和區新生街242巷11弄1號","121.482963333333","24.9975983333333","6500300","中和區"
"235008","293-VK","2019/09/09 13:29:24","新北市中和區復興路303號","121.501465","24.99027","6500300","中和區"
"235036","301-VK","2019/09/09 13:29:23","新北市中和區連城路168-3號","121.493631666667","24.9973583333333","6500300","中和區"
"235007","352-BY","2019/09/09 13:29:27","新北市中和區景平路235號","121.510155","24.992785","6500300","中和區"
"235006","KEA-2878","2019/09/09 13:29:30","新北市中和區秀朗路三段179號","121.524501666667","24.990865","6500300","中和區"
"247009","KED-0682","2019/09/09 13:29:21","新北市五股區中興路三段163號","121.449136666667","25.0806916666667","6501400","蘆洲區"
"235014","4979-A6","2019/09/09 13:29:14","新北市中和區景新街362巷5號","121.511956666667","24.9901066666667","6500300","中和區"
"235033","4980-A6","2019/09/09 13:29:28","","121.49712","24.9985816666667","6500300","中和區"
"235034","558-UM","2019/09/09 13:29:29","新北市中和區安和路159號","121.505983333333","24.9973016666667","6500300","中和區"
"235009","565-BX","2019/09/09 13:29:28","新北市中和區南山路236巷24弄56號","121.504245","24.9887233333333","6500300","中和區"
"235024","KED-0823","2019/09/09 13:29:29","新北市中和區中山路三段96號","121.47739","25.0056333333333","6500300","中和區"
"235018","640-BX","2019/09/09 13:29:31","新北市中和區民享街32巷26號","121.472533333333","25.0031833333333","6500300","中和區"
"235011","732-UM","2019/09/09 13:29:18","新北市中和區南山路282號","121.507921666667","24.98783","6500300","中和區"
"235035","783-BX","2019/09/09 13:29:22","新北市中和區中板路2號","121.484781666667","25.01174","6500300","中和區"
"235021","801-TS","2019/09/09 13:29:29","新北市中和區員山路327巷15號","121.480615","25.001535","6500300","中和區"
"235005","802-TS","2019/09/09 13:29:22","新北市中和區中和路324巷6弄1號","121.509791666667","25.000575","6500300","中和區"
"235052","805-TS","2019/09/09 13:29:20","新北市中和區興南路二段133號","121.50518","24.9841266666667","6500300","中和區"
"235012","896-TW","2019/09/09 13:29:26","新北市中和區建一路245號","121.488176666667","24.99698","6500300","中和區"
"235017","900-TW","2019/09/09 13:29:24","新北市中和區連城路607號","121.478006666667","24.9932433333333","6500300","中和區"
"235028","911-UM","2019/09/09 13:29:31","新北市中和區連城路103號","121.496323333333","24.9995983333333","6500300","中和區"
"235015","157-BY","2019/09/09 13:29:16","新北市中和區興南路二段142巷20弄6號","121.502593333333","24.9845083333333","6500300","中和區"
"235001","AAC-213","2019/09/09 13:29:32","新北市中和區景德街52號","121.517553333333","24.99155","6500300","中和區"
"235023","AAC-215","2019/09/09 13:29:23","新北市中和區員山路36巷16-3號","121.485145","24.9911533333333","6500300","中和區"
"220013","072-UY","2019/09/09 13:29:26","新北市板橋區四川路二段140巷20號","121.449083333333","24.9934866666667","6500100","板橋區"
"220034","073-UY","2019/09/09 13:29:24","新北市板橋區華東街1-10號","121.448245","24.9950583333333","6500100","板橋區"
"220017","AAD-861","2019/09/09 13:29:28","新北市板橋區華東街1-10號","121.44862","24.9950016666667","6500100","板橋區"
"220016","120-SR","2019/09/09 13:29:20","新北市板橋區民生路二段120號","121.470658333333","25.01944","6500100","板橋區"
"247021","007-UY","2019/09/09 13:29:28","新北市五股區中興路三段163號","121.449098333333","25.0807133333333","6501400","蘆洲區"
"247007","002-UY","2019/09/09 13:29:30","新北市五股區中興路三段5號","121.44884","25.0796016666667","6501400","蘆洲區"
"253003","6232-TK","2019/09/09 13:29:26","新北市石門區內石門45-1號","121.572051666667","25.26518","6502200","石門區"
"253004","6251-TK","2019/09/09 13:29:31","新北市石門區竹子湖11號","121.617923333333","25.2581083333333","6502200","石門區"
"253002","637-UY","2019/09/09 13:29:26","新北市石門區九芎林6-3號","121.561098333333","25.267005","6502200","石門區"
"253001","KEC-0718","2019/09/09 13:29:23","新北市石門區白沙灣別墅38號","121.509001666667","25.27884","6502200","石門區"
"207002","749-BX","2019/09/09 13:29:26","新北市萬里區崁腳里崁腳路166號","121.645018333333","25.15585","6502800","萬里區"
"207001","662-BX","2019/09/09 13:29:35","新北市萬里區龜吼里翡翠路17號","121.683326666667","25.1880283333333","6502800","萬里區"
"252005","AAC-283","2019/09/09 13:29:37","新北市三芝區圓山里八連溪頭5-1號","121.525928333333","25.22206","6502100","三芝區"
"221029","298-VK","2019/09/09 13:29:15","新北市汐止區南陽街120巷2-1號","121.62421","25.060555","6501100","汐止區"
"220027","145-BY","2019/09/09 13:29:19","新北市板橋區華東街1-10號","121.44833","24.9950766666667","6500100","板橋區"
"220030","610-BX","2019/09/09 13:29:28","新北市板橋區華東街1-10號","121.448233333333","24.9949683333333","6500100","板橋區"
"220004","276-BY","2019/09/09 13:29:32","新北市板橋區華東街1-9號","121.448221666667","24.9949383333333","6500100","板橋區"
"241031","281-UM","2019/09/09 13:29:14","新北市板橋區信義路150巷38號","121.457298333333","24.991895","6500200","三重區"
"220043","283-UM","2019/09/09 13:29:29","","121.469968333333","25.0199116666667","6500100","板橋區"
"220031","286-VK","2019/09/09 13:29:36","新北市板橋區華東街1-10號","121.448366666667","24.995085","6500100","板橋區"
"220029","287-VK","2019/09/09 13:29:16","新北市板橋區華東街1-10號","121.448226666667","24.9949966666667","6500100","板橋區"
"220009","293-UM","2019/09/09 13:29:30","新北市板橋區民生路二段120號","121.470558333333","25.0196433333333","6500100","板橋區"
"220032","296-UM","2019/09/09 13:29:27","新北市板橋區華東街1-9號","121.448133333333","24.994965","6500100","板橋區"
"220023","303-R5","2019/09/09 13:29:20","新北市板橋區華東街1-10號","121.448255","24.994945","6500100","板橋區"
"220104","560-BX","2019/09/09 13:29:15","新北市板橋區南雅東路49號","121.45373","25.0072616666667","6500100","板橋區"
"220005","686-BX","2019/09/09 13:29:23","新北市板橋區華東街11號","121.45131","24.99834","6500100","板橋區"
"220025","687-BX","2019/09/09 13:29:20","新北市板橋區板城路421號","121.448018333333","24.99635","6500100","板橋區"
"220002","741-BX","2019/09/09 13:29:18","新北市板橋區華東街1-9號","121.448195","24.99489","6500100","板橋區"
"220051","KEA-2699","2019/09/09 13:29:24","新北市板橋區民生路二段188號","121.470373333333","25.02067","6500100","板橋區"
"220003","827-TW","2019/09/09 13:29:29","新北市板橋區華東街1-9號","121.448216666667","24.99494","6500100","板橋區"
"220022","895-R6","2019/09/09 13:29:25","新北市板橋區南雅南路二段146號","121.451616666667","24.9961533333333","6500100","板橋區"
"220021","985-R7","2019/09/09 13:29:32","新北市板橋區四川路二段橋頭6號","121.448191666667","24.993635","6500100","板橋區"
"220046","AAC-210","2019/09/09 13:29:20","新北市板橋區民生路二段56-6號","121.471193333333","25.0187316666667","6500100","板橋區"
"220012","AAC-253","2019/09/09 13:29:32","新北市板橋區南雅南路二段120-8號","121.452248333333","24.999585","6500100","板橋區"
"235032","KEA-2873","2019/09/09 13:29:08","新北市中和區中正路211巷13弄2號","121.497221666667","24.992925","6500300","中和區"
"235025","KEA-2875","2019/09/09 13:29:18","新北市中和區民享街90巷8號","121.474283333333","25.0002966666667","6500300","中和區"
"235026","KEA-2876","2019/09/09 13:29:32","新北市中和區中山路二段312巷6號","121.495655","25.0027716666667","6500300","中和區"
