"lineid","car","time","location","longitude","latitude","cityid","cityname"
"234044","148-BY","2019/09/09 14:09:22","新北市永和區得和路417號","121.52593","24.999145","6500400","永和區"
"234078","298-R6","2019/09/09 14:09:35","新北市永和區國中路109巷5弄2號","121.523621666667","25.00517","6500400","永和區"
"234036","336-UY","2019/09/09 14:09:18","新北市永和區成功路一段110號","121.526825","25.002645","6500400","永和區"
"234062","337-UY","2019/09/09 14:09:33","新北市永和區永利路97號","121.521803333333","25.003125","6500400","永和區"
"234084","338-UY","2019/09/09 14:09:21","新北市永和區中正路616巷1號","121.517196666667","25.0077966666667","6500400","永和區"
"234068","552-UM","2019/09/09 14:09:24","新北市永和區福和路183巷1號","121.520003333333","25.007375","6500400","永和區"
"234015","745-BX","2019/09/09 14:09:32","新北市永和區文化路72號","121.51424","25.0151933333333","6500400","永和區"
"234028","746-BX","2019/09/09 14:09:23","新北市永和區民生路22巷15號","121.521635","24.9971066666667","6500400","永和區"
"234052","KEA-2590","2019/09/09 14:09:26","新北市永和區博愛街32巷1號","121.518843333333","25.01584","6500400","永和區"
"234005","KED-0605","2019/09/09 14:09:27","新北市永和區中和路373號","121.508425","24.99976","6500400","永和區"
"234012","KEA-2591","2019/09/09 14:09:20","新北市永和區仁愛路295號","121.505176666667","25.0093066666667","6500400","永和區"
"234060","AAD-866","2019/09/09 14:09:31","新北市中和區安平路222號","121.514071666667","25.00005","6500400","永和區"
"234040","862-TW","2019/09/09 14:09:16","新北市永和區雙和街64巷19號","121.509656666667","25.0033933333333","6500400","永和區"
"234048","863-TW","2019/09/09 14:09:33","新北市永和區環河西路二段31號","121.50745","25.0157133333333","6500400","永和區"
"234025","9371-KE","2019/09/09 14:09:29","新北市永和區安樂路425號","121.5144","25.00414","6500400","永和區"
"248013","025-BX","2019/09/09 14:09:19","新北市五股區民義路一段107巷32號","121.432465","25.084645","6501500","五股區"
"248015","026-BX","2019/09/09 14:09:24","新北市五股區成泰路三段543巷19號","121.450566666667","25.1024283333333","6501500","五股區"
"248007","KED-0815","2019/09/09 14:09:24","新北市五股區中興路一段118巷21號","121.465925","25.0744883333333","6501500","五股區"
"248019","KED-0813","2019/09/09 14:02:32","新北市五股區凌雲路三段59-6號","121.424988333333","25.1250033333333","6501500","五股區"
"248011","247-BX","2019/09/09 14:09:37","新北市五股區中興路四段48巷16號","121.43844","25.0833416666667","6501500","五股區"
"248003","677-BX","2019/09/09 14:09:36","新北市五股區五福路8號","121.434371666667","25.0884566666667","6501500","五股區"
"248001","678-BX","2019/09/09 14:09:28","新北市五股區成泰路三段577巷98號","121.449176666667","25.1040833333333","6501500","五股區"
"248009","682-TV","2019/09/09 14:09:14","新北市五股區水碓一路23號","121.43057","25.071295","6501500","五股區"
"234022","9380-KE","2019/09/09 14:09:30","新北市永和區博愛街32巷12號","121.518791666667","25.015295","6500400","永和區"
"234076","969-R7","2019/09/09 14:09:26","新北市永和區民有街75巷10弄33號","121.519356666667","24.996075","6500400","永和區"
"234072","AAC-211","2019/09/09 14:09:30","新北市永和區竹林路201巷24弄8號","121.522465","25.0096433333333","6500400","永和區"
"234066","AAC-212","2019/09/09 14:09:30","新北市永和區保平路214巷1弄12號","121.509053333333","25.0058266666667","6500400","永和區"
"234001","AAC-295","2019/09/09 14:09:28","新北市永和區中正路680巷1號","121.51685","25.0094416666667","6500400","永和區"
"244001","248-BX","2019/09/09 14:09:34","新北市林口區太平里180號","121.36669","25.1339433333333","6501700","林口區"
"243004","AAD-798","2019/09/09 14:09:27","新北市泰山區辭修路10-11號","121.429631666667","25.05806","6501600","泰山區"
"243002","297-R6","2019/09/09 14:08:54","新北市泰山區明志路一段483巷1弄6號","121.431175","25.0555066666667","6501600","泰山區"
"243006","KEA-2801","2019/09/09 14:09:27","新北市泰山區泰林路二段462號","121.425883333333","25.0641733333333","6501600","泰山區"
"243008","421-VK","2019/09/09 14:09:27","新北市泰山區明志路二段343號","121.425531666667","25.044465","6501600","泰山區"
"243001","KEA-2215","2019/09/09 14:09:13","新北市泰山區楓樹街15巷3-1號","121.434893333333","25.063065","6501600","泰山區"
"243003","KEA-2216","2019/09/09 14:09:24","新北市泰山區明志路二段327號","121.42577","25.0449566666667","6501600","泰山區"
"243005","646-TV","2019/09/09 14:09:20","新北市泰山區台麗街16巷12號","121.424263333333","25.0376233333333","6501600","泰山區"
"243007","680-BX","2019/09/09 14:09:18","新北市泰山區明志路一段384號","121.430756666667","25.057415","6501600","泰山區"
"231030","002-UM","2019/09/09 14:09:28","新北市新店區安興路7-1號","121.514991666667","24.9685366666667","6500600","新店區"
"231024","0291-UT","2019/09/09 14:09:16","新北市新店區新生街13巷42號","121.538898333333","24.9665616666667","6500600","新店區"
"231027","0293-UT","2019/09/09 14:09:19","新北市新店區北宜路一段7號","121.53834","24.9582833333333","6500600","新店區"
"231005","046-UY","2019/09/09 14:09:31","新北市新店區中興路三段297號","121.542208333333","24.9852133333333","6500600","新店區"
"231029","047-UY","2019/09/09 14:09:23","新北市新店區安康路二段139號","121.51179","24.9603866666667","6500600","新店區"
"231018","107-UY","2019/09/09 14:09:29","新北市新店區中央路131號","121.530358333333","24.9738683333333","6500600","新店區"
"231013","108-UY","2019/09/09 14:09:17","新北市新店區二十張路1巷6弄5號","121.540193333333","24.98178","6500600","新店區"
"231036","110-UY","2019/09/09 14:09:15","新北市新店區安祥路109巷1弄67號","121.478288333333","24.9606966666667","6500600","新店區"
"231031","256-BX","2019/09/09 14:09:31","新北市新店區太平路6號","121.534338333333","24.9577133333333","6500600","新店區"
"231023","260-TV","2019/09/09 14:09:35","新北市新店區文中路35巷12號","121.539805","24.9567683333333","6500600","新店區"
"231003","268-BY","2019/09/09 14:09:33","新北市新店區中興路一段139號","121.542215","24.9637216666667","6500600","新店區"
"231035","278-BY","2019/09/09 14:09:26","新北市新店區安和路二段115號","121.518708333333","24.97041","6500600","新店區"
"231014","AAD-862","2019/09/09 14:09:26","新北市新店區郵政路1巷6號","121.557305","24.9521183333333","6500600","新店區"
"231006","355-BY","2019/09/09 14:09:29","新北市新店區北宜路二段207號","121.553106666667","24.9533166666667","6500600","新店區"
"231038","3712-VJ","2019/09/09 14:09:28","新北市新店區溪洲路93號","121.533035","24.96113","6500600","新店區"
"231025","4715-K9","2019/09/09 14:09:35","新北市新店區自立街17號","121.537743333333","24.9793166666667","6500600","新店區"
"231019","515-UM","2019/09/09 14:09:24","新北市新店區屈尺路58號","121.54738","24.9226933333333","6500600","新店區"
"231034","616-UM","2019/09/09 14:09:27","新北市新店區車子路16號","121.505018333333","24.9537383333333","6500600","新店區"
"231001","617-UM","2019/09/09 14:09:26","新北市新店區中華路147號","121.538138333333","24.97044","6500600","新店區"
"231002","618-UM","2019/09/09 14:09:25","新北市新店區中正路505號","121.533605","24.9847083333333","6500600","新店區"
"231011","KED-0819","2019/09/09 14:09:26","新北市新店區中興路一段273號","121.545245","24.9681833333333","6500600","新店區"
"231026","720-UM","2019/09/09 14:09:30","新北市新店區中央路133巷4號","121.530603333333","24.9737316666667","6500600","新店區"
"231028","897-TW","2019/09/09 14:09:28","新北市新店區安和路三段97號","121.517846666667","24.9842983333333","6500600","新店區"
"231004","899-TW","2019/09/09 14:09:27","新北市新店區北新路二段198號","121.542998333333","24.9765933333333","6500600","新店區"
"231037","AKT-0513","2019/09/09 14:09:32","新北市新店區安康路三段165巷2弄8號","121.489241666667","24.95135","6500600","新店區"
"235030","003-UY","2019/09/09 14:09:20","新北市中和區廣福路59號","121.502691666667","25.00117","6500300","中和區"
"235027","006-UY","2019/09/09 14:09:23","新北市中和區連城路249巷4號","121.493623333333","24.9968366666667","6500300","中和區"
"235020","096-UM","2019/09/09 14:09:21","新北市中和區中正路1173號","121.481005","25.0096166666667","6500300","中和區"
"235003","097-UM","2019/09/09 14:09:25","新北市中和區秀峰街119巷2弄1號","121.519893333333","24.990415","6500300","中和區"
"235029","098-UM","2019/09/09 14:09:26","新北市中和區中山路二段136巷13號","121.501565","25.0039966666667","6500300","中和區"
"235004","150-BY","2019/09/09 14:09:31","新北市中和區宜安路121號","121.510056666667","24.9979016666667","6500300","中和區"
"235022","151-BY","2019/09/09 14:09:25","新北市中和區連城路523巷9弄28號","121.48227","24.9945633333333","6500300","中和區"
"235019","183-VK","2019/09/09 14:09:20","新北市中和區中山路三段207號","121.472055","25.00645","6500300","中和區"
"235002","185-VK","2019/09/09 14:09:19","新北市中和區大仁街10巷27弄3號","121.519148333333","24.9927283333333","6500300","中和區"
"235013","186-VK","2019/09/09 14:09:21","新北市中和區景新街212號","121.506963333333","24.9952183333333","6500300","中和區"
"235031","255-BX","2019/09/09 14:09:28","新北市中和區連城路280號","121.48442","24.9963283333333","6500300","中和區"
"235008","293-VK","2019/09/09 14:09:23","新北市中和區中興街212號","121.499685","24.9900833333333","6500300","中和區"
"235036","301-VK","2019/09/09 14:09:23","新北市中和區中山路二段231號","121.498258333333","25.00253","6500300","中和區"
"235007","352-BY","2019/09/09 14:09:27","新北市中和區景平路288號","121.513378333333","24.9927483333333","6500300","中和區"
"235006","KEA-2878","2019/09/09 14:09:30","新北市中和區自強路15巷2號","121.520576666667","24.993365","6500300","中和區"
"247015","KEA-2869","2019/09/09 14:09:17","新北市蘆洲區光華路46巷38號","121.467831666667","25.08427","6501400","蘆洲區"
"247009","KED-0682","2019/09/09 14:09:21","新北市蘆洲區信義路172號","121.479235","25.08391","6501400","蘆洲區"
"235014","4979-A6","2019/09/09 14:09:14","新北市中和區復興路249巷11弄3-1號","121.503633333333","24.9897266666667","6500300","中和區"
"235033","4980-A6","2019/09/09 14:09:28","新北市中和區中山路二段146-1號","121.50176","25.0029033333333","6500300","中和區"
"235034","558-UM","2019/09/09 14:09:29","新北市中和區連城路10號","121.498981666667","25.00232","6500300","中和區"
"235009","565-BX","2019/09/09 14:09:28","新北市中和區景新街467巷15弄11號","121.513708333333","24.9887683333333","6500300","中和區"
"235024","KED-0823","2019/09/09 14:09:29","新北市中和區員山路266巷31號","121.48248","25.0018716666667","6500300","中和區"
"235018","640-BX","2019/09/09 14:09:31","新北市中和區國光街112巷16弄2號","121.469743333333","25.001385","6500300","中和區"
"235011","732-UM","2019/09/09 14:09:34","新北市中和區興南路一段58號","121.510838333333","24.9905183333333","6500300","中和區"
"235010","733-UM","2019/09/09 14:09:17","新北市中和區華新街134號","121.508173333333","24.9825766666667","6500300","中和區"
"235035","783-BX","2019/09/09 14:09:22","新北市中和區中山路二段476號","121.488176666667","25.00508","6500300","中和區"
"235021","801-TS","2019/09/09 14:09:29","新北市中和區員山路423巷12弄1號","121.480433333333","25.003195","6500300","中和區"
"235005","802-TS","2019/09/09 14:09:22","新北市中和區宜安路118巷14號","121.510658333333","24.9985433333333","6500300","中和區"
"235016","805-TS","2019/09/09 14:09:20","新北市中和區興南路二段261巷6-30號","121.503031666667","24.98009","6500300","中和區"
"235012","896-TW","2019/09/09 14:09:25","新北市中和區工專路165-3號","121.508835","24.9791483333333","6500300","中和區"
"235017","900-TW","2019/09/09 14:09:27","新北市中和區華安街19巷7號","121.467146666667","24.99795","6500300","中和區"
"235028","911-UM","2019/09/09 14:09:31","新北市中和區泰和街43號","121.49904","24.9995","6500300","中和區"
"235015","157-BY","2019/09/09 14:09:36","新北市中和區興南路一段102號","121.50972","24.9890433333333","6500300","中和區"
"235001","AAC-213","2019/09/09 14:09:32","新北市中和區秀朗路三段50巷12弄6號","121.524068333333","24.9952916666667","6500300","中和區"
"235023","AAC-215","2019/09/09 14:09:23","新北市中和區圓通路294巷15號","121.488766666667","24.990205","6500300","中和區"
"220013","072-UY","2019/09/09 14:09:26","新北市板橋區民族路247巷5弄50號","121.470425","25.0085366666667","6500100","板橋區"
"220034","073-UY","2019/09/09 14:09:28","新北市板橋區中正路236巷6號","121.45603","25.01902","6500100","板橋區"
"220105","075-UY","2019/09/09 14:09:16","新北市板橋區雙十路三段87號","121.470108333333","25.0326233333333","6500100","板橋區"
"220017","AAD-861","2019/09/09 14:09:28","新北市板橋區華興街21巷23號","121.458838333333","25.00366","6500100","板橋區"
"220016","120-SR","2019/09/09 14:09:13","新北市板橋區翠華街6巷17號","121.481035","25.0242983333333","6500100","板橋區"
"247005","893-R6","2019/09/09 14:09:29","新北市蘆洲區九芎街62號","121.46693","25.0790683333333","6501400","蘆洲區"
"247019","546-UM","2019/09/09 14:09:24","新北市蘆洲區仁愛街36巷18號","121.47278","25.0935183333333","6501400","蘆洲區"
"247017","500-BY","2019/09/09 14:09:31","新北市蘆洲區復興路111-5號","121.476696666667","25.088425","6501400","蘆洲區"
"247011","337-TH","2019/09/09 14:09:26","新北市蘆洲區信義路345號","121.477725","25.0871316666667","6501400","蘆洲區"
"247003","336-TH","2019/09/09 14:09:29","新北市蘆洲區長安街183號","121.460571666667","25.0816783333333","6501400","蘆洲區"
"247023","057-VK","2019/09/09 14:09:34","新北市蘆洲區光榮路112號","121.464408333333","25.08934","6501400","蘆洲區"
"247013","056-VK","2019/09/09 14:09:13","新北市蘆洲區忠孝路70號","121.471576666667","25.0853716666667","6501400","蘆洲區"
"247021","007-UY","2019/09/09 14:09:28","新北市蘆洲區三民路157-1號","121.470795","25.086615","6501400","蘆洲區"
"247007","002-UY","2019/09/09 14:09:32","新北市蘆洲區中山一路276號","121.471621666667","25.079275","6501400","蘆洲區"
"247001","001-UY","2019/09/09 14:09:19","新北市蘆洲區永平街49號","121.457905","25.0912416666667","6501400","蘆洲區"
"253003","6232-TK","2019/09/09 14:09:26","新北市石門區尖子鹿45號","121.582698333333","25.2692","6502200","石門區"
"253004","6251-TK","2019/09/09 14:09:31","新北市石門區小坑50號","121.597661666667","25.2587216666667","6502200","石門區"
"253002","637-UY","2019/09/09 14:07:26","新北市石門區七股56號","121.55302","25.2559933333333","6502200","石門區"
"253001","KEC-0718","2019/09/09 14:09:23","新北市石門區八甲70-3號","121.530963333333","25.26959","6502200","石門區"
"207002","749-BX","2019/09/09 14:09:06","新北市萬里區溪底里瑞泉路3號","121.610535","25.14455","6502800","萬里區"
"207001","662-BX","2019/09/09 14:09:15","新北市萬里區磺潭里清水18號","121.63787","25.197695","6502800","萬里區"
"252005","AAC-283","2019/09/09 14:09:17","新北市三芝區橫山里橫山34號","121.543956666667","25.2582483333333","6502100","三芝區"
"236040","KED-0685","2019/09/09 14:09:33","新北市土城區城林路6巷80號","121.438585","24.979585","6501300","土城區"
"236029","253-BX","2019/09/09 14:09:33","新北市土城區城林路6巷80號","121.438416666667","24.9797933333333","6501300","土城區"
"236024","269-VK","2019/09/09 14:09:26","新北市土城區承天路26號","121.439545","24.96319","6501300","土城區"
"236012","270-VK","2019/09/09 14:09:28","新北市土城區青雲路39巷7號","121.46034","24.98758","6501300","土城區"
"236032","271-VK","2019/09/09 14:09:17","新北市土城區青雲路449號","121.458995","24.9748733333333","6501300","土城區"
"236064","KEA-2877","2019/09/09 14:09:33","新北市土城區明德路一段375-1號","121.45498","24.97813","6501300","土城區"
"236016","401-BY","2019/09/09 14:09:29","新北市土城區員福街34號","121.441105","24.9788183333333","6501300","土城區"
"236057","912-UM","2019/09/09 14:09:35","新北市土城區中央路四段208號","121.415775","24.9574083333333","6501300","土城區"
"236045","913-UM","2019/09/09 14:09:24","新北市土城區明德路一段365-1號","121.45355","24.9790383333333","6501300","土城區"
"236060","915-UM","2019/09/09 14:09:29","新北市土城區金城路二段374號","121.46286","24.9854533333333","6501300","土城區"
"236054","AAC-216","2019/09/09 14:09:25","新北市土城區中華路二段92號","121.438225","24.9747833333333","6501300","土城區"
"221029","298-VK","2019/09/09 14:09:15","新北市汐止區福德二路18號","121.635146666667","25.068245","6501100","汐止區"
"220027","145-BY","2019/09/09 14:09:19","新北市板橋區大智街29號","121.45485","25.0151683333333","6500100","板橋區"
"220028","200-UY","2019/09/09 14:09:19","新北市板橋區大觀路二段153巷46弄60號","121.449408333333","25.000325","6500100","板橋區"
"220030","610-BX","2019/09/09 14:09:28","新北市板橋區溪北路52號","121.427433333333","24.9898383333333","6500100","板橋區"
"220050","245-BX","2019/09/09 14:09:22","新北市板橋區雙十路二段76巷2號","121.475151666667","25.02795","6500100","板橋區"
"220004","276-BY","2019/09/09 14:09:32","新北市板橋區信義路74巷2弄2號","121.457221666667","24.9932233333333","6500100","板橋區"
"220020","277-BY","2019/09/09 14:09:25","新北市板橋區金門街369巷13號","121.428861666667","24.98454","6500100","板橋區"
"241031","281-UM","2019/09/09 13:47:38","新北市板橋區大觀路二段435-10號","121.446038333333","24.9943333333333","6500200","三重區"
"220043","283-UM","2019/09/09 14:09:29","新北市板橋區吳鳳路19巷16號","121.466791666667","25.0307083333333","6500100","板橋區"
"220019","283-VK","2019/09/09 14:09:32","新北市板橋區重慶路245巷52弄2號","121.465418333333","25.00061","6500100","板橋區"
"220001","285-VK","2019/09/09 14:09:28","新北市板橋區懷仁街22號","121.476268333333","25.0197433333333","6500100","板橋區"
"220031","286-VK","2019/09/09 14:09:16","新北市板橋區大觀路二段174巷176弄15號","121.442878333333","25.0032683333333","6500100","板橋區"
"220029","287-VK","2019/09/09 14:09:37","新北市板橋區南雅西路二段156巷7號","121.452256666667","25.0134","6500100","板橋區"
"220009","293-UM","2019/09/09 14:09:31","新北市板橋區中山路二段318巷20弄2號","121.480475","25.0187916666667","6500100","板橋區"
"220010","295-UM","2019/09/09 14:09:32","新北市板橋區三民路二段居仁巷2號","121.479358333333","25.01317","6500100","板橋區"
"220032","296-UM","2019/09/09 14:09:27","新北市板橋區篤行路一段16號","121.43138","24.9954316666667","6500100","板橋區"
"220023","303-R5","2019/09/09 14:09:19","新北市板橋區大仁街112號","121.45283","25.01583","6500100","板橋區"
"220041","307-R5","2019/09/09 14:09:17","新北市板橋區松江街70號","121.468588333333","25.0277566666667","6500100","板橋區"
"220047","317-R6","2019/09/09 14:09:32","新北市板橋區四維路112巷33號","121.465313333333","25.0258116666667","6500100","板橋區"
"220038","487-VK","2019/09/09 14:09:24","新北市板橋區文化路一段309-1號","121.466061666667","25.0200016666667","6500100","板橋區"
"220037","491-VK","2019/09/09 14:09:23","新北市板橋區文化路二段182巷9弄9號","121.472493333333","25.0270183333333","6500100","板橋區"
"220104","560-BX","2019/09/09 14:09:28","新北市板橋區中正路379巷11號","121.453116666667","25.021925","6500100","板橋區"
"220052","561-BX","2019/09/09 14:09:17","新北市板橋區文化路一段214號","121.466551666667","25.0201983333333","6500100","板橋區"
"220011","609-BX","2019/09/09 14:09:32","新北市板橋區三民路二段202-6號","121.479046666667","25.0144316666667","6500100","板橋區"
"220040","637-BX","2019/09/09 14:09:20","新北市板橋區文聖街204號","121.48027","25.02584","6500100","板橋區"
"220005","686-BX","2019/09/09 14:09:23","新北市板橋區國慶路182巷18號","121.463053333333","24.995935","6500100","板橋區"
"220025","687-BX","2019/09/09 14:09:20","新北市板橋區僑中二街152-1號","121.444368333333","25.00436","6500100","板橋區"
"220002","741-BX","2019/09/09 14:09:18","新北市板橋區實踐路30號","121.463516666667","25.0072116666667","6500100","板橋區"
"220051","KEA-2699","2019/09/09 14:09:25","新北市板橋區文聖街188號","121.479446666667","25.0266283333333","6500100","板橋區"
"220003","827-TW","2019/09/09 14:09:29","","121.466113333333","25.0117233333333","6500100","板橋區"
"220014","829-TW","2019/09/09 14:09:26","新北市板橋區民享街116巷2弄5號","121.477661666667","25.01556","6500100","板橋區"
"220039","831-TW","2019/09/09 14:09:29","新北市板橋區長江路一段106巷13弄13號","121.460593333333","25.02935","6500100","板橋區"
"220022","895-R6","2019/09/09 14:09:25","新北市板橋區林園街44號","121.45369","25.0103516666667","6500100","板橋區"
"220021","985-R7","2019/09/09 14:09:32","新北市板橋區中正路149號","121.456563333333","25.0158233333333","6500100","板橋區"
"220046","AAC-210","2019/09/09 14:09:37","新北市板橋區幸福路58號","121.461081666667","25.0202366666667","6500100","板橋區"
"220012","AAC-253","2019/09/09 14:09:32","新北市板橋區板新路202號","121.46908","25.0160566666667","6500100","板橋區"
"235032","KEA-2873","2019/09/09 14:09:08","新北市中和區景平路493巷2弄12號","121.499166666667","24.9971366666667","6500300","中和區"
"235025","KEA-2875","2019/09/09 14:09:21","新北市中和區連城路456巷11號","121.478486666667","24.9952916666667","6500300","中和區"
"235026","KEA-2876","2019/09/09 14:09:32","新北市中和區中山路二段466號","121.488448333333","25.0045783333333","6500300","中和區"
