"lineid","car","time","location","longitude","latitude","cityid","cityname"
"234068","552-UM","2019/09/09 14:59:24","新北市八里區下罟子17號","121.379763333333","25.1431433333333","6500400","永和區"
"234025","9371-KE","2019/09/09 14:59:29","新北市永和區水源街21巷17號","121.511698333333","25.0038883333333","6500400","永和區"
"248013","025-BX","2019/09/09 14:59:19","新北市五股區成泰路二段149號","121.439031666667","25.0856816666667","6501500","五股區"
"248015","026-BX","2019/09/09 14:59:33","新北市五股區凌雲路一段158巷39弄2號","121.446856666667","25.1037633333333","6501500","五股區"
"248007","KED-0815","2019/09/09 14:59:24","新北市五股區四維路140號","121.468188333333","25.0753083333333","6501500","五股區"
"248019","KED-0813","2019/09/09 14:59:19","新北市五股區中直路51-1號","121.419706666667","25.1161033333333","6501500","五股區"
"248011","247-BX","2019/09/09 14:59:37","新北市五股區民義路一段206號","121.43048","25.0889783333333","6501500","五股區"
"248003","677-BX","2019/09/09 14:59:32","新北市五股區成泰路一段149-2號","121.435418333333","25.0733866666667","6501500","五股區"
"248001","678-BX","2019/09/09 14:59:30","新北市五股區成泰路三段83號","121.44384","25.089945","6501500","五股區"
"248009","682-TV","2019/09/09 14:59:14","新北市五股區成泰路一段7巷18號","121.433151666667","25.0667866666667","6501500","五股區"
"244001","248-BX","2019/09/09 14:59:34","新北市林口區竹林路267號","121.389483333333","25.080895","6501700","林口區"
"243004","AAD-798","2019/09/09 14:59:27","新北市泰山區楓江路91號","121.437411666667","25.0636666666667","6501600","泰山區"
"243006","KEA-2801","2019/09/09 14:59:27","新北市泰山區泰林路二段575號","121.422256666667","25.06349","6501600","泰山區"
"243008","421-VK","2019/09/09 14:59:27","新北市泰山區新生路53-1號","121.42831","25.0449233333333","6501600","泰山區"
"243001","KEA-2215","2019/09/09 14:59:33","新北市泰山區泰林路二段286號","121.431213333333","25.0625866666667","6501600","泰山區"
"243003","KEA-2216","2019/09/09 14:59:24","新北市新莊區壽山路160巷1號","121.416915","25.0310716666667","6501600","泰山區"
"243005","646-TV","2019/09/09 14:59:29","新北市泰山區中央路5巷17弄6號","121.42728","25.0436183333333","6501600","泰山區"
"243007","680-BX","2019/09/09 14:59:17","新北市泰山區仁德路105號","121.433093333333","25.0562933333333","6501600","泰山區"
"231030","002-UM","2019/09/09 14:59:28","新北市新店區安民街301號","121.517591666667","24.973715","6500600","新店區"
"231024","0291-UT","2019/09/09 14:59:36","新北市新店區力行路12號","121.539373333333","24.964625","6500600","新店區"
"231005","046-UY","2019/09/09 14:59:31","新北市新店區復興路44-5號","121.538291666667","24.98675","6500600","新店區"
"231029","047-UY","2019/09/09 14:59:23","新北市新店區錦秀路11巷1號","121.479788333333","24.9447983333333","6500600","新店區"
"231018","107-UY","2019/09/09 14:59:29","新北市新店區中央路192號","121.530883333333","24.9746716666667","6500600","新店區"
"231013","108-UY","2019/09/09 14:59:17","新北市新店區光明街177號","121.539655","24.96281","6500600","新店區"
"231036","110-UY","2019/09/09 14:59:35","新北市新店區安祥路102巷19號","121.48469","24.9646016666667","6500600","新店區"
"231039","187-VK","2019/09/09 14:59:34","新北市新店區寶中路45-3號","121.545188333333","24.978865","6500600","新店區"
"231031","256-BX","2019/09/09 14:59:20","新北市新店區安泰路18號","121.485616666667","24.9490516666667","6500600","新店區"
"231023","260-TV","2019/09/09 14:59:15","新北市新店區檳榔路150號","121.5443","24.9614","6500600","新店區"
"231003","268-BY","2019/09/09 14:59:33","新北市新店區中興路二段89號","121.547151666667","24.97124","6500600","新店區"
"231035","278-BY","2019/09/09 14:59:27","新北市新店區安和路二段240號","121.516593333333","24.9782266666667","6500600","新店區"
"231014","AAD-862","2019/09/09 14:59:26","新北市新店區北宜路三段214-1號","121.590366666667","24.9523916666667","6500600","新店區"
"231006","355-BY","2019/09/09 14:59:29","新北市新店區北宜路一段69號","121.538451666667","24.9563833333333","6500600","新店區"
"231038","3712-VJ","2019/09/09 14:59:28","新北市新店區安華路28-1號","121.519713333333","24.960785","6500600","新店區"
"231025","4715-K9","2019/09/09 14:59:35","新北市新店區大同街14號","121.539495","24.97996","6500600","新店區"
"231019","515-UM","2019/09/09 14:59:24","新北市新店區新烏路二段304號","121.549083333333","24.9122416666667","6500600","新店區"
"231034","616-UM","2019/09/09 14:59:24","新北市新店區玫瑰路4-1號","121.493566666667","24.9513983333333","6500600","新店區"
"231001","617-UM","2019/09/09 14:59:26","新北市新店區中正路261號","121.53876","24.9735983333333","6500600","新店區"
"231002","618-UM","2019/09/09 14:59:25","新北市新店區民權路85號","121.538098333333","24.9827616666667","6500600","新店區"
"231011","KED-0819","2019/09/09 14:59:26","新北市新店區寶橋路132號","121.54745","24.9760083333333","6500600","新店區"
"231026","720-UM","2019/09/09 14:59:34","新北市新店區中正路136號","121.541966666667","24.971485","6500600","新店區"
"231028","897-TW","2019/09/09 14:59:28","新北市新店區安德街173號","121.5087","24.958975","6500600","新店區"
"231004","899-TW","2019/09/09 14:59:27","新北市新店區民族路28號","121.540671666667","24.97882","6500600","新店區"
"235030","003-UY","2019/09/09 14:59:20","新北市中和區光華街33號","121.505046666667","25.00387","6500300","中和區"
"235020","096-UM","2019/09/09 14:59:22","新北市中和區中山路三段176號","121.472718333333","25.0064183333333","6500300","中和區"
"235003","097-UM","2019/09/09 14:59:25","新北市中和區安樂路217巷56號","121.513023333333","24.9976666666667","6500300","中和區"
"235029","098-UM","2019/09/09 14:59:26","新北市中和區永和路73號","121.496523333333","25.0065666666667","6500300","中和區"
"235004","150-BY","2019/09/09 14:59:31","新北市中和區保健路42-3號","121.509353333333","24.997205","6500300","中和區"
"235019","183-VK","2019/09/09 14:59:20","新北市中和區中山路二段449號","121.484013333333","25.0049583333333","6500300","中和區"
"235008","293-VK","2019/09/09 14:59:28","新北市中和區中正路69號","121.501151666667","24.9934333333333","6500300","中和區"
"235007","352-BY","2019/09/09 14:59:27","新北市中和區興南路二段108號","121.504673333333","24.9839933333333","6500300","中和區"
"235006","KEA-2878","2019/09/09 14:59:30","新北市新店區薏仁坑路自強巷1號","121.49771","24.957695","6500300","中和區"
"235014","4979-A6","2019/09/09 14:59:34","新北市中和區景平路241巷27號","121.508905","24.992335","6500300","中和區"
"235033","4980-A6","2019/09/09 14:59:28","新北市中和區南山路37巷3弄9號","121.502618333333","24.9989016666667","6500300","中和區"
"235034","558-UM","2019/09/09 14:59:29","新北市中和區圓通路151號","121.498271666667","24.9956816666667","6500300","中和區"
"235010","733-UM","2019/09/09 14:59:17","新北市中和區忠孝街31巷45號","121.509748333333","24.9853483333333","6500300","中和區"
"235035","783-BX","2019/09/09 14:59:22","新北市中和區建康路8號","121.486673333333","25.0002183333333","6500300","中和區"
"235012","896-TW","2019/09/09 14:59:25","新北市中和區華新街88號","121.508456666667","24.9832866666667","6500300","中和區"
"235015","157-BY","2019/09/09 14:59:16","新北市中和區景安路220巷4弄1號","121.50337","24.9909983333333","6500300","中和區"
"235001","AAC-213","2019/09/09 14:59:32","新北市中和區自強路56號","121.520155","24.9946216666667","6500300","中和區"
"235023","AAC-215","2019/09/09 14:59:22","新北市中和區圓通路365號","121.491395","24.9897216666667","6500300","中和區"
"220013","072-UY","2019/09/09 14:59:33","新北市板橋區民族路278號","121.469946666667","25.006905","6500100","板橋區"
"220034","073-UY","2019/09/09 14:59:29","新北市板橋區林園街1號","121.453791666667","25.0091966666667","6500100","板橋區"
"220105","075-UY","2019/09/09 14:59:16","新北市板橋區懷德街78巷21號","121.477815","25.031285","6500100","板橋區"
"220017","AAD-861","2019/09/09 14:59:31","新北市板橋區大明街25巷4弄2號","121.457923333333","25.00209","6500100","板橋區"
"220016","120-SR","2019/09/09 14:59:31","新北市板橋區中山路二段398號","121.482578333333","25.0207466666667","6500100","板橋區"
"253004","6251-TK","2019/09/09 14:59:31","新北市石門區茂林社區78號","121.592213333333","25.269825","6502200","石門區"
"253002","637-UY","2019/09/09 14:59:26","新北市石門區楓林47號","121.542778333333","25.2785883333333","6502200","石門區"
"253001","KEC-0718","2019/09/09 14:59:23","新北市石門區大溪墘2-4號","121.549015","25.289505","6502200","石門區"
"207002","749-BX","2019/09/09 14:59:26","新北市萬里區崁腳里崁腳路73號","121.647566666667","25.1596183333333","6502800","萬里區"
"207001","662-BX","2019/09/09 14:59:15","新北市萬里區雙興里麗水路3-2號","121.653108333333","25.181085","6502800","萬里區"
"236040","KED-0685","2019/09/09 14:59:33","新北市土城區學府路一段189巷15號","121.452598333333","24.9845116666667","6501300","土城區"
"236029","253-BX","2019/09/09 14:59:33","新北市土城區福仁街69號","121.439476666667","24.9744716666667","6501300","土城區"
"236024","269-VK","2019/09/09 14:59:26","新北市土城區中正路55號","121.444248333333","24.9755766666667","6501300","土城區"
"236012","270-VK","2019/09/09 14:59:28","新北市土城區永豐路31巷2號","121.462863333333","24.9880516666667","6501300","土城區"
"236032","271-VK","2019/09/09 14:59:17","新北市土城區清水路169號","121.459223333333","24.98154","6501300","土城區"
"236064","KEA-2877","2019/09/09 14:59:33","新北市土城區裕生路85號","121.446775","24.984025","6501300","土城區"
"236016","401-BY","2019/09/09 14:59:30","新北市土城區延吉街168巷9號","121.468125","24.985825","6501300","土城區"
"236057","912-UM","2019/09/09 14:59:19","新北市土城區金城路二段232號","121.456603333333","24.9828916666667","6501300","土城區"
"236045","913-UM","2019/09/09 14:59:27","新北市土城區青雲路322巷2弄2號","121.45852","24.97719","6501300","土城區"
"236060","915-UM","2019/09/09 14:59:29","新北市土城區延和路88巷9號","121.466851666667","24.9888833333333","6501300","土城區"
"236054","AAC-216","2019/09/09 14:59:25","新北市土城區學成路168號","121.448025","24.9890183333333","6501300","土城區"
"238010","601-UM","2019/09/09 14:59:28","新北市樹林區中洲街30巷13弄35號","121.398263333333","24.9722983333333","6500700","樹林區"
"238006","599-UM","2019/09/09 14:59:26","新北市樹林區育德街78號","121.387536666667","24.9684366666667","6500700","樹林區"
"238005","KEA-2217","2019/09/09 14:59:31","新北市樹林區育德街121巷7號","121.388888333333","24.9681283333333","6500700","樹林區"
"238008","KEA-2539","2019/09/09 14:59:20","新北市樹林區育德街78-1號","121.387855","24.9680433333333","6500700","樹林區"
"238001","282-BY","2019/09/09 14:59:33","新北市樹林區育德街78-1號","121.3877","24.9681616666667","6500700","樹林區"
"221029","298-VK","2019/09/09 14:59:15","新北市汐止區康寧街753巷2弄20號","121.640285","25.073965","6501100","汐止區"
"220027","145-BY","2019/09/09 14:59:35","新北市板橋區民權路202巷13弄25號","121.45864","25.0163033333333","6500100","板橋區"
"220028","200-UY","2019/09/09 14:59:19","新北市板橋區大觀路二段69巷30號","121.447466666667","25.001955","6500100","板橋區"
"220030","610-BX","2019/09/09 14:59:34","新北市板橋區大觀路三段160巷36號","121.42999","24.994085","6500100","板橋區"
"220050","245-BX","2019/09/09 14:59:22","新北市板橋區縣民大道三段61號","121.474773333333","25.0212816666667","6500100","板橋區"
"220004","276-BY","2019/09/09 14:59:32","新北市板橋區信義路7號","121.457135","24.996935","6500100","板橋區"
"220020","277-BY","2019/09/09 14:59:25","新北市板橋區金門街153號","121.43283","24.9904883333333","6500100","板橋區"
"220043","283-UM","2019/09/09 14:59:28","新北市板橋區陽明街16號","121.466565","25.021655","6500100","板橋區"
"220019","283-VK","2019/09/09 14:59:32","新北市板橋區五權街69號","121.464923333333","24.9932416666667","6500100","板橋區"
"220001","285-VK","2019/09/09 14:59:31","新北市板橋區中山路二段60巷1弄23號","121.475073333333","25.0157733333333","6500100","板橋區"
"220031","286-VK","2019/09/09 14:59:16","新北市板橋區僑中二街40號","121.445173333333","25.01085","6500100","板橋區"
"220029","287-VK","2019/09/09 14:59:16","新北市板橋區大觀路一段28巷107-1號","121.449886666667","25.0122083333333","6500100","板橋區"
"220009","293-UM","2019/09/09 14:59:31","新北市板橋區中山路二段18號","121.472346666667","25.0150483333333","6500100","板橋區"
"220010","295-UM","2019/09/09 14:59:32","新北市板橋區中山路二段光榮巷30弄15號","121.484486666667","25.02029","6500100","板橋區"
"220032","296-UM","2019/09/09 14:59:27","新北市板橋區溪崑二街103巷13號","121.427188333333","24.9887283333333","6500100","板橋區"
"220034","297-UM","2019/09/09 14:44:33","新北市板橋區華東街1-10號","121.448405","24.9948883333333","6500100","板橋區"
"220023","303-R5","2019/09/09 14:59:20","新北市板橋區大勇街1巷2號","121.45511","25.0174466666667","6500100","板橋區"
"220041","307-R5","2019/09/09 14:59:17","新北市板橋區文化路一段39號","121.460411666667","25.0132483333333","6500100","板橋區"
"220047","317-R6","2019/09/09 14:59:11","新北市板橋區四維路269巷94弄13號","121.459315","25.0268466666667","6500100","板橋區"
"220038","487-VK","2019/09/09 14:59:18","新北市板橋區互助街65號","121.460535","25.026315","6500100","板橋區"
"220037","491-VK","2019/09/09 14:59:23","新北市板橋區仁化街86號","121.476298333333","25.0318316666667","6500100","板橋區"
"220104","560-BX","2019/09/09 14:59:19","新北市板橋區金華街21巷4號","121.456183333333","25.0207383333333","6500100","板橋區"
"220052","561-BX","2019/09/09 14:59:17","新北市板橋區漢生東路23巷9號","121.465395","25.0175283333333","6500100","板橋區"
"220011","609-BX","2019/09/09 14:59:32","新北市板橋區中山路二段505巷23號","121.482051666667","25.0219683333333","6500100","板橋區"
"220040","637-BX","2019/09/09 14:59:31","新北市板橋區懷德街174巷12號","121.478838333333","25.0294933333333","6500100","板橋區"
"220005","686-BX","2019/09/09 14:59:34","新北市板橋區德興街23號","121.453473333333","24.9940766666667","6500100","板橋區"
"220025","687-BX","2019/09/09 14:59:20","新北市板橋區僑中二街116巷1號","121.445605","25.0061883333333","6500100","板橋區"
"220002","741-BX","2019/09/09 14:59:18","新北市板橋區實踐路93巷10號","121.464526666667","25.0054183333333","6500100","板橋區"
"220051","KEA-2699","2019/09/09 14:59:24","新北市板橋區莒光路133巷5號","121.472711666667","25.024445","6500100","板橋區"
"220003","827-TW","2019/09/09 14:59:29","新北市板橋區仁愛路86巷22-1號","121.460843333333","24.998625","6500100","板橋區"
"220014","829-TW","2019/09/09 14:59:26","新北市板橋區漢生東路185號","121.469818333333","25.01171","6500100","板橋區"
"220022","895-R6","2019/09/09 14:59:25","新北市板橋區文化路一段46巷23號","121.46043","25.01152","6500100","板橋區"
"220021","985-R7","2019/09/09 14:59:32","新北市板橋區南雅西路二段164號","121.451701666667","25.01367","6500100","板橋區"
"220046","AAC-210","2019/09/09 14:59:32","新北市板橋區光正街60號","121.46172","25.0181283333333","6500100","板橋區"
"220012","AAC-253","2019/09/09 14:59:32","新北市板橋區實踐路47號","121.463735","25.0067416666667","6500100","板橋區"
"235026","KEA-2876","2019/09/09 14:59:32","新北市新店區車子路18-1號","121.506141666667","24.9544366666667","6500300","中和區"
