"lineid","car","time","location","longitude","latitude","cityid","cityname"
"248007","KED-0815","2019/09/09 15:09:24","新北市五股區四維路30巷24號","121.46814","25.0715283333333","6501500","五股區"
"248019","KED-0813","2019/09/09 15:09:28","新北市五股區凌雲路三段24巷24號","121.435305","25.1044783333333","6501500","五股區"
"248003","677-BX","2019/09/09 15:09:32","新北市五股區中興路四段25號","121.438738333333","25.0826766666667","6501500","五股區"
"244001","248-BX","2019/09/09 15:09:14","新北市林口區竹林路265號","121.38959","25.0808","6501700","林口區"
"243004","AAD-798","2019/09/09 15:09:27","新北市泰山區文化街42號","121.43518","25.0635","6501600","泰山區"
"243008","421-VK","2019/09/09 15:09:27","新北市泰山區文程路36-1號","121.429458333333","25.0487316666667","6501600","泰山區"
"243001","KEA-2215","2019/09/09 15:09:33","新北市泰山區忠孝街14-1號","121.427608333333","25.06496","6501600","泰山區"
"243003","KEA-2216","2019/09/09 15:09:24","新北市泰山區新北大道六段313巷3號","121.423986666667","25.033425","6501600","泰山區"
"243007","680-BX","2019/09/09 15:09:17","新北市泰山區泰林路二段69號","121.435163333333","25.05838","6501600","泰山區"
"231030","002-UM","2019/09/09 15:09:28","新北市新店區安興路69號","121.515866666667","24.9751766666667","6500600","新店區"
"231024","0291-UT","2019/09/09 15:09:16","新北市新店區中華路42巷40號","121.541441666667","24.9692766666667","6500600","新店區"
"231005","046-UY","2019/09/09 15:09:31","新北市新店區北新路三段126號","121.541586666667","24.98173","6500600","新店區"
"231029","047-UY","2019/09/09 15:09:23","新北市新店區錦秀路1-1號","121.479041666667","24.94564","6500600","新店區"
"231018","107-UY","2019/09/09 15:09:29","新北市新店區中央七街97號","121.526261666667","24.9773016666667","6500600","新店區"
"231036","110-UY","2019/09/09 15:09:32","新北市新店區安祥路104巷10號","121.481275","24.963135","6500600","新店區"
"231039","187-VK","2019/09/09 15:09:34","新北市新店區寶安街4巷2號","121.54229","24.9809683333333","6500600","新店區"
"231031","256-BX","2019/09/09 15:09:20","新北市新店區安泰路60巷55弄1號","121.4842","24.945545","6500600","新店區"
"231023","260-TV","2019/09/09 15:09:35","新北市新店區檳榔路109號","121.54441","24.9615483333333","6500600","新店區"
"231003","268-BY","2019/09/09 15:09:36","新北市新店區寶橋路210號","121.550965","24.9785216666667","6500600","新店區"
"231035","278-BY","2019/09/09 15:09:35","新北市新店區安和路三段140號","121.516131666667","24.9860966666667","6500600","新店區"
"231014","AAD-862","2019/09/09 15:09:26","新北市新店區銀河路75號","121.578948333333","24.9585233333333","6500600","新店區"
"231006","355-BY","2019/09/09 15:09:29","新北市新店區新坡一街72號","121.548898333333","24.96457","6500600","新店區"
"231038","3712-VJ","2019/09/09 15:09:28","新北市新店區安華路28-1號","121.519973333333","24.9609533333333","6500600","新店區"
"231025","4715-K9","2019/09/09 15:09:15","新北市新店區民權路107-2號","121.536413333333","24.9821383333333","6500600","新店區"
"231019","515-UM","2019/09/09 15:09:24","新北市新店區永福路42號","121.555171666667","24.9279083333333","6500600","新店區"
"231034","616-UM","2019/09/09 15:09:24","新北市新店區玫瑰路4-1號","121.493583333333","24.9514016666667","6500600","新店區"
"231001","617-UM","2019/09/09 15:09:26","新北市新店區中正路268號","121.539","24.9735533333333","6500600","新店區"
"231002","618-UM","2019/09/09 15:09:32","新北市新店區中正路545號","121.533736666667","24.9876466666667","6500600","新店區"
"231011","KED-0819","2019/09/09 15:09:26","新北市新店區寶元路一段61號","121.542173333333","24.985845","6500600","新店區"
"231026","720-UM","2019/09/09 15:09:34","新北市新店區建興街9巷2號","121.53979","24.976385","6500600","新店區"
"231028","897-TW","2019/09/09 15:09:28","新北市新店區安豐路56-3號","121.499523333333","24.95469","6500600","新店區"
"231004","899-TW","2019/09/09 15:09:27","新北市新店區建國路35巷2號","121.54042","24.9745333333333","6500600","新店區"
"231037","AKT-0513","2019/09/09 15:09:32","新北市新店區安民街319號","121.51746","24.97434","6500600","新店區"
"235030","003-UY","2019/09/09 15:09:19","新北市中和區保平路300號","121.507808333333","25.00455","6500300","中和區"
"235029","098-UM","2019/09/09 15:09:26","新北市中和區福美路310號","121.496815","25.00478","6500300","中和區"
"235019","183-VK","2019/09/09 15:09:20","新北市三重區後埔街61號","121.479615","25.0488333333333","6500300","中和區"
"235007","352-BY","2019/09/09 15:09:27","新北市中和區興南路二段159巷18號","121.505258333333","24.98302","6500300","中和區"
"235014","4979-A6","2019/09/09 15:09:14","新北市中和區安樂路41號","121.5119","24.993185","6500300","中和區"
"235033","4980-A6","2019/09/09 15:09:28","新北市中和區景新街64巷7弄6號","121.504178333333","24.9985766666667","6500300","中和區"
"235034","558-UM","2019/09/09 15:09:29","新北市中和區中正路366號","121.493368333333","24.994125","6500300","中和區"
"235035","783-BX","2019/09/09 15:09:22","新北市中和區建三路7號","121.486131666667","25.0037283333333","6500300","中和區"
"235012","896-TW","2019/09/09 15:09:25","新北市中和區興南路一段61號","121.510315","24.9897","6500300","中和區"
"235023","AAC-215","2019/09/09 15:09:22","新北市中和區圓通路335巷33弄11號","121.493143333333","24.9892383333333","6500300","中和區"
"220013","072-UY","2019/09/09 15:09:28","新北市板橋區民族路69巷1號","121.465396666667","25.0089133333333","6500100","板橋區"
"220017","AAD-861","2019/09/09 15:09:28","新北市板橋區南雅南路二段1-1號","121.454791666667","25.003855","6500100","板橋區"
"253004","6251-TK","2019/09/09 15:09:31","新北市石門區茂林社區1-1號","121.591688333333","25.27181","6502200","石門區"
"253002","637-UY","2019/09/09 15:09:26","新北市石門區楓林28-2號","121.54212","25.2891166666667","6502200","石門區"
"207002","749-BX","2019/09/09 15:09:26","新北市萬里區崁腳里崁腳路42號","121.651591666667","25.1611066666667","6502800","萬里區"
"207001","662-BX","2019/09/09 15:09:35","新北市萬里區雙興里麗水路8號","121.647743333333","25.1886766666667","6502800","萬里區"
"236040","KED-0685","2019/09/09 15:09:33","新北市土城區裕民路257-3號","121.454806666667","24.9828183333333","6501300","土城區"
"236029","253-BX","2019/09/09 15:09:34","新北市土城區福祥街24號","121.440993333333","24.9803016666667","6501300","土城區"
"236024","269-VK","2019/09/09 15:09:36","新北市土城區中央路二段177巷3弄2號","121.443043333333","24.97615","6501300","土城區"
"236012","270-VK","2019/09/09 15:09:28","新北市土城區學府路一段23巷42號","121.4572","24.9868183333333","6501300","土城區"
"236064","KEA-2877","2019/09/09 15:09:33","新北市土城區學成路146號","121.448798333333","24.9895683333333","6501300","土城區"
"236016","401-BY","2019/09/09 15:09:29","新北市土城區延峰街27巷2號","121.469355","24.9852533333333","6501300","土城區"
"236057","912-UM","2019/09/09 15:09:15","新北市土城區金城路一段131號","121.444836666667","24.9737966666667","6501300","土城區"
"236045","913-UM","2019/09/09 15:09:24","新北市土城區清水路140號","121.45863","24.9814833333333","6501300","土城區"
"236060","915-UM","2019/09/09 15:09:29","新北市土城區延平街64號","121.467898333333","24.9927283333333","6501300","土城區"
"236054","AAC-216","2019/09/09 15:09:25","新北市土城區學府路一段276號","121.450185","24.9833666666667","6501300","土城區"
"238002","755-BX","2019/09/09 15:09:22","新北市樹林區中山路三段125-11號","121.398656666667","24.973865","6500700","樹林區"
"238010","601-UM","2019/09/09 15:09:28","新北市樹林區保安街一段195號","121.420796666667","24.995975","6500700","樹林區"
"238006","599-UM","2019/09/09 15:09:26","新北市樹林區八德街311號","121.42155","24.9773833333333","6500700","樹林區"
"238005","KEA-2217","2019/09/09 15:09:31","新北市板橋區大觀路三段59巷57號","121.435211666667","24.9940166666667","6500700","樹林區"
"238008","KEA-2539","2019/09/09 15:09:20","新北市樹林區西圳街一段165巷20弄11號","121.395628333333","24.9601833333333","6500700","樹林區"
"238012","303-VK","2019/09/09 15:09:19","新北市樹林區中山路二段235號","121.402406666667","24.97608","6500700","樹林區"
"238004","283-BY","2019/09/09 15:09:26","新北市樹林區中山路三段125-11號","121.398661666667","24.9739966666667","6500700","樹林區"
"238001","282-BY","2019/09/09 15:09:13","新北市樹林區中華路190-6號","121.410293333333","24.980565","6500700","樹林區"
"238007","268-VK","2019/09/09 15:09:22","新北市樹林區大安路493號","121.414423333333","24.9869566666667","6500700","樹林區"
"238013","172-UY","2019/09/09 15:09:31","新北市樹林區東順街123-2號","121.406641666667","24.9750366666667","6500700","樹林區"
"238003","169-UY","2019/09/09 15:09:15","新北市樹林區中山路二段10號","121.417566666667","24.9850266666667","6500700","樹林區"
"221029","298-VK","2019/09/09 15:09:35","新北市汐止區長江街39巷26-1號","121.655506666667","25.0748216666667","6501100","汐止區"
"220027","145-BY","2019/09/09 15:09:23","新北市板橋區復興街114號","121.460431666667","25.017795","6500100","板橋區"
"220028","200-UY","2019/09/09 15:09:19","新北市板橋區大觀路二段163巷32號","121.446673333333","24.9999166666667","6500100","板橋區"
"220030","610-BX","2019/09/09 15:09:28","新北市板橋區溪崑二街36號","121.428358333333","24.99102","6500100","板橋區"
"220050","245-BX","2019/09/09 15:09:22","新北市板橋區萬板路328號","121.478333333333","25.02539","6500100","板橋區"
"220004","276-BY","2019/09/09 15:09:32","新北市板橋區四川路二段99巷4弄2號","121.452895","24.9941516666667","6500100","板橋區"
"220020","277-BY","2019/09/09 15:09:25","新北市板橋區金門街109巷35號","121.434246666667","24.9914816666667","6500100","板橋區"
"220001","285-VK","2019/09/09 15:09:28","新北市板橋區永豐街111號","121.474146666667","25.0194933333333","6500100","板橋區"
"220031","286-VK","2019/09/09 15:09:36","新北市板橋區僑中二街90巷14號","121.445633333333","25.00935","6500100","板橋區"
"220029","287-VK","2019/09/09 15:09:16","新北市板橋區僑中一街124巷20弄17號","121.446893333333","25.014055","6500100","板橋區"
"220009","293-UM","2019/09/09 15:09:31","新北市板橋區四川路一段274巷4號","121.458211666667","25.001425","6500100","板橋區"
"220010","295-UM","2019/09/09 15:09:32","新北市板橋區中山路二段402號","121.48272","25.0207666666667","6500100","板橋區"
"220032","296-UM","2019/09/09 15:09:27","新北市板橋區溪崑二街112巷8號","121.426101666667","24.9888266666667","6500100","板橋區"
"220034","297-UM","2019/09/09 14:44:33","新北市板橋區華東街1-10號","121.448405","24.9948883333333","6500100","板橋區"
"220023","303-R5","2019/09/09 15:09:27","新北市板橋區金華街10巷48弄34號","121.45819","25.020045","6500100","板橋區"
"220038","487-VK","2019/09/09 15:09:18","新北市板橋區四維路186號","121.464286666667","25.0268183333333","6500100","板橋區"
"220037","491-VK","2019/09/09 15:09:23","新北市板橋區懷德街127巷1號","121.47886","25.03084","6500100","板橋區"
"220052","561-BX","2019/09/09 15:09:16","新北市板橋區漢生東路73巷28號","121.467281666667","25.0169533333333","6500100","板橋區"
"220011","609-BX","2019/09/09 15:09:32","新北市板橋區中山路二段332號","121.481281666667","25.0197916666667","6500100","板橋區"
"220005","686-BX","2019/09/09 15:09:37","新北市板橋區四川路二段245巷25號","121.451343333333","24.9929983333333","6500100","板橋區"
"220025","687-BX","2019/09/09 15:09:20","新北市板橋區僑中一街102巷3弄20號","121.445925","25.0124466666667","6500100","板橋區"
"220002","741-BX","2019/09/09 15:09:18","新北市板橋區實踐路93巷19號","121.46494","25.00553","6500100","板橋區"
"220051","KEA-2699","2019/09/09 15:09:24","新北市板橋區萬板路812-1號","121.483515","25.0277483333333","6500100","板橋區"
"220003","827-TW","2019/09/09 15:09:29","新北市板橋區國慶路270號","121.463235","24.9984983333333","6500100","板橋區"
"220014","829-TW","2019/09/09 15:09:26","新北市板橋區中山路一段206巷66弄2號","121.471983333333","25.0131933333333","6500100","板橋區"
"220022","895-R6","2019/09/09 15:09:25","新北市板橋區明德街4號","121.459815","25.0101716666667","6500100","板橋區"
"220012","AAC-253","2019/09/09 15:09:32","新北市板橋區民族路213號","121.469366666667","25.0073","6500100","板橋區"
