"lineid","car","time","location","longitude","latitude","cityid","cityname"
"249005","172-UM","2019/09/09 17:09:25","新北市八里區華富山8號","121.420903333333","25.1414266666667","6502300","八里區"
"249001","173-UM","2019/09/09 17:09:17","新北市八里區中華路二段249-5號","121.40419","25.1486133333333","6502300","八里區"
"249004","303-UY","2019/09/09 17:09:29","新北市八里區忠孝路201號","121.4221","25.1608733333333","6502300","八里區"
"249002","305-UY","2019/09/09 17:09:27","新北市八里區龍米路二段153巷1號","121.441136666667","25.1508316666667","6502300","八里區"
"249003","593-UM","2019/09/09 17:09:36","新北市八里區中山路二段393號","121.398098333333","25.1467416666667","6502300","八里區"
"244007","080-UY","2019/09/09 17:09:33","新北市林口區菁埔26-68號","121.376628333333","25.095195","6501700","林口區"
"244019","402-UM","2019/09/09 17:09:30","新北市林口區仁愛路二段190號","121.380533333333","25.07383","6501700","林口區"
"244013","KEA-2802","2019/09/09 17:09:23","新北市林口區粉寮69號","121.404828333333","25.0908516666667","6501700","林口區"
"244017","485-VK","2019/09/09 17:09:15","新北市林口區粉寮69號","121.405076666667","25.0908216666667","6501700","林口區"
"244009","656-BX","2019/09/09 17:09:17","新北市林口區文化二路二段308號","121.382581666667","25.088135","6501700","林口區"
"244025","837-TS","2019/09/09 17:09:19","新北市林口區林口路158號","121.387831666667","25.0822633333333","6501700","林口區"
"244021","838-TS","2019/09/09 17:09:26","新北市林口區粉寮路56-6號","121.406871666667","25.0884766666667","6501700","林口區"
"231046","719-UM","2019/09/09 17:07:47","新北市新店區灣潭路15-2號","121.542455","24.9434333333333","6500600","新店區"
"241011","013-R5","2019/09/09 17:09:19","新北市三重區龍濱路285號","121.501056666667","25.0733383333333","6500200","三重區"
"241028","022-UY","2019/09/09 17:09:14","新北市三重區重新路三段110號","121.492333333333","25.0602883333333","6500200","三重區"
"241008","059-VK","2019/09/09 17:09:29","新北市三重區力行路二段136巷2號","121.481973333333","25.07563","6500200","三重區"
"241013","060-VK","2019/09/09 17:09:35","新北市三重區仁昌街6號","121.496053333333","25.0739316666667","6500200","三重區"
"241015","062-VK","2019/09/09 17:09:24","新北市三重區長生街4號","121.499033333333","25.06632","6500200","三重區"
"241017","063-VK","2019/09/09 17:09:33","新北市三重區中正北路25巷2號","121.493208333333","25.0626816666667","6500200","三重區"
"241024","065-VK","2019/09/09 17:09:31","新北市三重區大勇街82巷26弄19-2號","121.478658333333","25.0721116666667","6500200","三重區"
"241007","066-VK","2019/09/09 17:09:33","新北市三重區三和路四段163巷12號","121.48395","25.0788566666667","6500200","三重區"
"241003","091-VK","2019/09/09 17:09:21","新北市三重區富福街108號","121.493406666667","25.08557","6500200","三重區"
"241002","742-BX","2019/09/09 17:09:22","新北市三重區仁義街211巷50號","121.497976666667","25.082725","6500200","三重區"
"241006","262-UM","2019/09/09 17:09:34","新北市三重區三和路四段264巷2弄13號","121.48515","25.0767883333333","6500200","三重區"
"241009","267-UM","2019/09/09 17:09:28","新北市三重區三和路四段231巷23號","121.481938333333","25.08009","6500200","三重區"
"241018","268-UM","2019/09/09 17:09:24","新北市三重區大智街158號","121.491946666667","25.06887","6500200","三重區"
"241032","269-UM","2019/09/09 17:09:26","新北市三重區三陽路13巷1號","121.486058333333","25.0595","6500200","三重區"
"241025","271-UM","2019/09/09 17:09:34","新北市三重區中正北路560巷11號","121.470888333333","25.07156","6500200","三重區"
"241030","KED-0822","2019/09/09 17:09:17","新北市三重區集成路49號","121.489308333333","25.0528116666667","6500200","三重區"
"241004","475-VK","2019/09/09 17:09:28","新北市三重區五華街122巷4號","121.491736666667","25.083085","6500200","三重區"
"241020","478-VK","2019/09/09 17:09:32","新北市三重區後竹圍街175巷3號","121.485846666667","25.0722283333333","6500200","三重區"
"241026","480-VK","2019/09/09 17:09:29","新北市三重區重新路一段51-2號","121.501868333333","25.0638516666667","6500200","三重區"
"241014","543-UM","2019/09/09 17:09:22","新北市三重區龍濱路191號","121.501991666667","25.0712433333333","6500200","三重區"
"241023","545-UM","2019/09/09 17:09:36","新北市三重區忠孝路三段84巷5號","121.480246666667","25.0644383333333","6500200","三重區"
"241001","547-UM","2019/09/09 17:09:31","新北市三重區仁愛街255巷81號","121.49498","25.079355","6500200","三重區"
"241019","KEA-2593","2019/09/09 17:09:23","新北市三重區自強路二段74巷25號","121.487726666667","25.069625","6500200","三重區"
"241005","AAD-863","2019/09/09 17:09:27","新北市三重區永安北路二段25巷27號","121.482813333333","25.081875","6500200","三重區"
"241022","KED-0820","2019/09/09 17:09:22","新北市三重區三民街97巷2弄8號","121.484983333333","25.0639516666667","6500200","三重區"
"241016","887-TS","2019/09/09 17:09:27","新北市三重區大同北路140號","121.492598333333","25.0649766666667","6500200","三重區"
"241012","941-UM","2019/09/09 17:09:31","新北市三重區仁壽街215號","121.50068","25.0746633333333","6500200","三重區"
"241029","942-UM","2019/09/09 17:09:29","新北市三重區重安街60號","121.491068333333","25.05739","6500200","三重區"
"241033","AAC-255","2019/09/09 17:09:28","新北市三重區中興北街271號","121.469091666667","25.0605666666667","6500200","三重區"
"247016","KEA-2869","2019/09/09 17:09:16","新北市蘆洲區光華路73巷15號","121.468278333333","25.0822866666667","6501400","蘆洲區"
"247010","KED-0682","2019/09/09 17:09:28","新北市蘆洲區民族路12號","121.475831666667","25.08404","6501400","蘆洲區"
"235054","640-BX","2019/09/09 16:50:48","新北市中和區員山路36巷16-2號","121.485323333333","24.991545","6500300","中和區"
"235064","911-UM","2019/09/09 16:51:24","新北市中和區員山路36巷16-3號","121.485046666667","24.9913316666667","6500300","中和區"
"235015","157-BY","2019/09/09 17:09:33","新北市中和區員山路36巷13號","121.484135","24.9908633333333","6500300","中和區"
"247006","893-R6","2019/09/09 17:09:28","新北市蘆洲區長安街102巷26號","121.462773333333","25.0820733333333","6501400","蘆洲區"
"247020","546-UM","2019/09/09 17:09:28","新北市蘆洲區仁愛街62巷10號","121.471913333333","25.0942016666667","6501400","蘆洲區"
"247018","500-BY","2019/09/09 17:09:29","新北市蘆洲區復興路146號","121.477056666667","25.087675","6501400","蘆洲區"
"247012","337-TH","2019/09/09 17:09:20","新北市蘆洲區信義路280巷3號","121.478063333333","25.087445","6501400","蘆洲區"
"247004","336-TH","2019/09/09 17:09:14","新北市蘆洲區長安街191號","121.46024","25.081925","6501400","蘆洲區"
"247024","057-VK","2019/09/09 17:09:21","新北市蘆洲區長興路25號","121.4637","25.0833983333333","6501400","蘆洲區"
"247014","056-VK","2019/09/09 17:09:20","新北市蘆洲區得勝街30號","121.473493333333","25.0840266666667","6501400","蘆洲區"
"247022","007-UY","2019/09/09 17:09:34","新北市蘆洲區水湳街91號","121.470273333333","25.0901566666667","6501400","蘆洲區"
"247008","002-UY","2019/09/09 17:09:25","新北市蘆洲區信義路30巷15號","121.47451","25.0787683333333","6501400","蘆洲區"
"247002","001-UY","2019/09/09 17:09:28","新北市蘆洲區永樂街45-1號","121.456973333333","25.0885466666667","6501400","蘆洲區"
"228003","097-TW","2019/09/09 17:09:34","新北市貢寮區福隆里東興街31-1號","121.952316666667","25.020645","6502600","貢寮區"
"228002","663-BX","2019/09/09 17:09:40","新北市貢寮區龍崗里泮宮路1號","121.907616666667","25.0184","6502600","貢寮區"
"228001","670-TC","2019/09/09 17:09:33","新北市貢寮區龍門里復興街46-1號","121.928261666667","25.02912","6502600","貢寮區"
"224006","676-BX","2019/09/09 17:09:15","新北市瑞芳區大寮路106號","121.781516666667","25.0978933333333","6501200","瑞芳區"
"224007","285-BY","2019/09/09 17:09:19","新北市瑞芳區粗坑口路86巷4號","121.760755","25.0990633333333","6501200","瑞芳區"
"224009","275-VK","2019/09/09 17:09:04","新北市瑞芳區濱二路30號","121.84119","25.11509","6501200","瑞芳區"
"224008","273-VK","2019/09/09 17:09:24","新北市瑞芳區九芎橋路43號","121.832571666667","25.0944","6501200","瑞芳區"
"224005","271-BY","2019/09/09 17:09:18","新北市瑞芳區鼻頭路101號","121.915885","25.1238083333333","6501200","瑞芳區"
"227001","642-TC","2019/09/09 17:08:34","新北市雙溪區三貂里定福路22-1號","121.85156","25.0729533333333","6502500","雙溪區"
"227002","400-TW","2019/09/09 17:09:23","新北市雙溪區上林里內平林12號","121.837195","25.02981","6502500","雙溪區"
"251009","008-UM","2019/09/09 17:09:17","新北市淡水區中正路一段87巷1號","121.42163","25.179025","6501000","淡水區"
"251004","009-UM","2019/09/09 17:09:29","新北市淡水區中正東路二段88巷15號","121.459071666667","25.150505","6501000","淡水區"
"251015","KEA-2871","2019/09/09 17:09:28","新北市淡水區學府路102巷34號","121.452321666667","25.171805","6501000","淡水區"
"251016","179-VK","2019/09/09 17:09:31","新北市淡水區社厝坑3-6號","121.47478","25.1880066666667","6501000","淡水區"
"251008","181-VK","2019/09/09 17:09:34","新北市淡水區樹梅坑17號","121.471048333333","25.1437483333333","6501000","淡水區"
"251013","182-VK","2019/09/09 17:09:31","新北市淡水區大埤頭6號","121.482811666667","25.197425","6501000","淡水區"
"251010","413-VK","2019/09/09 17:09:32","新北市淡水區中正路二段31號","121.419451666667","25.181495","6501000","淡水區"
"251012","441-VK","2019/09/09 17:09:32","新北市淡水區中山北路一段96號","121.442515","25.176345","6501000","淡水區"
"251007","442-VK","2019/09/09 17:09:26","新北市淡水區中正東路二段145號","121.45961","25.147165","6501000","淡水區"
"251005","443-VK","2019/09/09 17:09:17","新北市淡水區鄧公路19-1號","121.450276666667","25.16993","6501000","淡水區"
"251006","561-UM","2019/09/09 17:09:33","新北市淡水區真理街6號","121.438418333333","25.1744866666667","6501000","淡水區"
"251014","577-R6","2019/09/09 17:09:28","新北市淡水區八里堆7-5號","121.460443333333","25.2253166666667","6501000","淡水區"
"251011","650-BX","2019/09/09 17:09:34","新北市淡水區坪頂路51巷2號","121.458035","25.1626216666667","6501000","淡水區"
"252002","178-VK","2019/09/09 17:09:29","新北市三芝區忠孝街1-18號","121.505618333333","25.2537466666667","6502100","三芝區"
"252001","292-VK","2019/09/09 17:09:20","新北市三芝區埔頭里埔頭15號","121.495091666667","25.2601933333333","6502100","三芝區"
"237011","078-UY","2019/09/09 17:09:21","新北市三峽區中山路459巷135號","121.348953333333","24.9331716666667","6500900","三峽區"
"233002","762-BX","2019/09/09 17:09:27","","121.548365","24.8539916666667","6502900","烏來區"
"242042","AAC-296","2019/09/09 17:09:35","新北市新莊區新泰路255巷83號","121.442173333333","25.0390833333333","6500500","新莊區"
"242004","751-BX","2019/09/09 17:09:23","新北市新莊區新泰路255巷83號","121.442318333333","25.0386366666667","6500500","新莊區"
"242029","615-BX","2019/09/09 17:09:18","新北市新莊區新泰路357巷3弄57號","121.442088333333","25.0393","6500500","新莊區"
"242027","613-BX","2019/09/09 17:09:23","新北市新莊區新泰路255巷83號","121.442328333333","25.0392533333333","6500500","新莊區"
"242058","612-BX","2019/09/09 17:09:30","新北市新莊區新泰路255巷83號","121.442323333333","25.039235","6500500","新莊區"
"242048","566-BX","2019/09/09 17:09:24","新北市泰山區新北大道五段408號","121.4327","25.0445283333333","6500500","新莊區"
"242053","442-UM","2019/09/09 17:09:19","新北市新莊區新泰路401巷28-1號","121.442396666667","25.0439966666667","6500500","新莊區"
"242007","440-UM","2019/09/09 17:09:18","新北市新莊區新泰路255巷83號","121.442315","25.038635","6500500","新莊區"
"242044","415-TV","2019/09/09 17:09:27","新北市新莊區中正路481號","121.441311666667","25.0338266666667","6500500","新莊區"
"242013","413-TV","2019/09/09 17:09:25","新北市新莊區新泰路357巷3弄57號","121.441986666667","25.0395316666667","6500500","新莊區"
"242050","400-BY","2019/09/09 17:09:20","新北市泰山區磚雅厝3號","121.442103333333","25.0417033333333","6500500","新莊區"
"242025","362-BY","2019/09/09 17:09:19","新北市新莊區新泰路357巷3弄57號","121.442035","25.0390416666667","6500500","新莊區"
"242023","353-BY","2019/09/09 17:09:34","新北市新莊區新泰路357巷3弄57號","121.442078333333","25.0392183333333","6500500","新莊區"
"242039","135-UY","2019/09/09 17:09:17","新北市新莊區新泰路413巷22號","121.442411666667","25.0444983333333","6500500","新莊區"
"242017","173-VK","2019/09/09 17:09:19","新北市新莊區三和路12-21號","121.442033333333","25.03873","6500500","新莊區"
"242031","175-VK","2019/09/09 17:09:26","新北市新莊區三和路12-21號","121.441891666667","25.0386916666667","6500500","新莊區"
"242021","KED-0687","2019/09/09 17:09:17","新北市新莊區三和路12-21號","121.442265","25.0380183333333","6500500","新莊區"
"242036","348-TH","2019/09/09 17:09:18","新北市新莊區新泰路413巷25號","121.442465","25.0442283333333","6500500","新莊區"
"242034","350-TH","2019/09/09 17:09:19","新北市新莊區三和路12-21號","121.442071666667","25.03798","6500500","新莊區"
"242019","351-TH","2019/09/09 17:09:37","新北市新莊區新泰路357巷3弄57號","121.441963333333","25.0395016666667","6500500","新莊區"
"238018","KEA-2217","2019/09/09 17:09:29","新北市樹林區水源街81號","121.426445","24.9789783333333","6500700","樹林區"
"238022","KEA-2213","2019/09/09 17:09:34","新北市樹林區國凱街150號","121.424048333333","24.9806766666667","6500700","樹林區"
"238021","KEA-2539","2019/09/09 17:09:34","新北市樹林區八德街828-2號","121.394103333333","24.9672033333333","6500700","樹林區"
"238025","303-VK","2019/09/09 17:09:18","新北市樹林區中正路22-1號","121.427876666667","24.9993183333333","6500700","樹林區"
"238017","283-BY","2019/09/09 17:09:33","新北市樹林區光武街2-1號","121.415186666667","25.0039783333333","6500700","樹林區"
"238014","282-BY","2019/09/09 17:09:33","新北市樹林區中正路22-1號","121.427668333333","24.9995283333333","6500700","樹林區"
"238026","172-UY","2019/09/09 17:09:31","新北市樹林區中山路三段214號","121.379785","24.967635","6500700","樹林區"
"239007","AAC-297","2019/09/09 17:09:18","新北市鶯歌區中正一路6號","121.352508333333","24.9530083333333","6500800","鶯歌區"
"239006","891-R6","2019/09/09 17:09:15","新北市鶯歌區八德路2巷41號","121.336633333333","24.9466283333333","6500800","鶯歌區"
"239008","527-UM","2019/09/09 17:09:24","新北市鶯歌區尖山路103號","121.348221666667","24.9491933333333","6500800","鶯歌區"
"239005","526-UM","2019/09/09 17:09:26","新北市鶯歌區德昌二街43號","121.33337","24.9586183333333","6500800","鶯歌區"
"239001","417-VK","2019/09/09 17:09:27","新北市鶯歌區尖山路142號","121.346588333333","24.94887","6500800","鶯歌區"
"239003","360-BY","2019/09/09 17:09:34","新北市鶯歌區八德路16號","121.330743333333","24.95543","6500800","鶯歌區"
"239002","359-BY","2019/09/09 17:09:25","新北市鶯歌區建國路173號","121.35002","24.9533833333333","6500800","鶯歌區"
"239004","193-VK","2019/09/09 17:09:19","新北市鶯歌區文化路324巷3弄1號","121.349671666667","24.9451666666667","6500800","鶯歌區"
"233001","KEA-2870","2019/09/09 17:09:25","新北市烏來區環山路39號","121.549363333333","24.8637916666667","6502900","烏來區"
"242046","281-VK","2019/09/09 17:09:30","新北市新莊區新泰路357巷3弄49號","121.441938333333","25.04006","6500500","新莊區"
"242011","280-VK","2019/09/09 17:09:27","新北市新莊區三和路12-21號","121.441991666667","25.038335","6500500","新莊區"
"235062","KEA-2876","2019/09/09 16:44:38","新北市中和區員山路36巷16-3號","121.485078333333","24.9914233333333","6500300","中和區"
