"lineid","car","time","location","longitude","latitude","cityid","cityname"
"249005","172-UM","2019/09/09 17:19:25","新北市五股區民義路二段130號","121.407611666667","25.121775","6502300","八里區"
"249001","173-UM","2019/09/09 17:19:17","新北市八里區中華路二段165巷3號","121.407676666667","25.1508266666667","6502300","八里區"
"249004","303-UY","2019/09/09 17:19:29","新北市八里區忠七街6號","121.421223333333","25.16008","6502300","八里區"
"249002","305-UY","2019/09/09 17:19:27","新北市八里區龍米路二段117巷16號","121.445296666667","25.1429583333333","6502300","八里區"
"249003","593-UM","2019/09/09 17:19:15","新北市八里區中山路二段459號","121.396265","25.1454016666667","6502300","八里區"
"244007","080-UY","2019/09/09 17:19:33","新北市林口區湖北里1鄰7號","121.39038","25.09222","6501700","林口區"
"244019","402-UM","2019/09/09 17:19:30","新北市林口區文化二路一段340號","121.372835","25.0751916666667","6501700","林口區"
"244013","KEA-2802","2019/09/09 17:19:23","新北市林口區粉寮69號","121.404783333333","25.0908233333333","6501700","林口區"
"244023","483-VK","2019/09/09 17:19:16","新北市林口區隆林街46號","121.387666666667","25.0754316666667","6501700","林口區"
"244017","485-VK","2019/09/09 17:19:35","新北市林口區粉寮路一段77-1號","121.397073333333","25.0792066666667","6501700","林口區"
"244009","656-BX","2019/09/09 17:19:17","新北市林口區中湖40-9號","121.383143333333","25.0912966666667","6501700","林口區"
"244011","701-TV","2019/09/09 17:19:28","新北市林口區仁愛路一段246號","121.395603333333","25.0758333333333","6501700","林口區"
"244025","837-TS","2019/09/09 17:19:19","新北市林口區仁愛二路63號","121.368578333333","25.0753766666667","6501700","林口區"
"244021","838-TS","2019/09/09 17:19:26","新北市林口區粉寮路二段457-9號","121.404615","25.0982116666667","6501700","林口區"
"231046","719-UM","2019/09/09 17:19:27","新北市新店區直潭七街60號","121.532236666667","24.9399933333333","6500600","新店區"
"241011","013-R5","2019/09/09 17:19:19","新北市三重區龍濱路191號","121.501901666667","25.0713016666667","6500200","三重區"
"241028","022-UY","2019/09/09 17:19:35","新北市三重區仁化街120號","121.49446","25.0581033333333","6500200","三重區"
"241008","059-VK","2019/09/09 17:19:29","新北市三重區永福街72巷37號","121.480201666667","25.0763266666667","6500200","三重區"
"241013","060-VK","2019/09/09 17:19:35","新北市三重區三和路三段107巷11號","121.494726666667","25.0729566666667","6500200","三重區"
"241015","062-VK","2019/09/09 17:19:24","新北市三重區三和路二段1號","121.50175","25.0664066666667","6500200","三重區"
"241017","063-VK","2019/09/09 17:19:13","新北市三重區大同北路91號","121.494803333333","25.0636033333333","6500200","三重區"
"241024","065-VK","2019/09/09 17:19:31","新北市三重區中正北路193巷11弄32號","121.47814","25.07051","6500200","三重區"
"241007","066-VK","2019/09/09 17:19:33","新北市三重區三和路四段145巷7號","121.484555","25.0783533333333","6500200","三重區"
"241003","091-VK","2019/09/09 17:19:21","新北市三重區五華街146號","121.491193333333","25.0839816666667","6500200","三重區"
"241002","742-BX","2019/09/09 17:19:22","新北市三重區五華街35巷23號","121.495161666667","25.0812633333333","6500200","三重區"
"241006","262-UM","2019/09/09 17:19:30","新北市三重區車路頭街140號","121.484093333333","25.0756","6500200","三重區"
"241009","267-UM","2019/09/09 17:19:28","新北市三重區三和路四段143-1號","121.4843","25.078325","6500200","三重區"
"241018","268-UM","2019/09/09 17:19:24","新北市三重區安慶街124號","121.494958333333","25.06885","6500200","三重區"
"241032","269-UM","2019/09/09 17:19:26","新北市三重區興華街142號","121.482956666667","25.059885","6500200","三重區"
"241025","271-UM","2019/09/09 17:19:34","新北市三重區中正北路354號","121.477561666667","25.06944","6500200","三重區"
"241030","KED-0822","2019/09/09 17:19:17","新北市三重區成功路73巷11號","121.489468333333","25.051955","6500200","三重區"
"241004","475-VK","2019/09/09 17:19:28","新北市三重區仁義街286號","121.493476666667","25.0860066666667","6500200","三重區"
"241020","478-VK","2019/09/09 17:19:32","新北市三重區自強路三段7巷44號","121.488363333333","25.0723366666667","6500200","三重區"
"241026","480-VK","2019/09/09 17:19:29","新北市三重區正義南路10號","121.498238333333","25.0615066666667","6500200","三重區"
"241014","543-UM","2019/09/09 17:19:22","新北市三重區長榮路3號","121.500166666667","25.0684466666667","6500200","三重區"
"241023","545-UM","2019/09/09 17:19:36","新北市三重區忠孝路三段50巷56號","121.48241","25.065065","6500200","三重區"
"241001","547-UM","2019/09/09 17:19:31","新北市三重區碧華街297號","121.490551666667","25.08396","6500200","三重區"
"241019","KEA-2593","2019/09/09 17:19:23","新北市三重區自強路二段74巷23號","121.48797","25.0697383333333","6500200","三重區"
"241005","AAD-863","2019/09/09 17:19:27","新北市三重區永安北路二段5巷29號","121.482535","25.0811816666667","6500200","三重區"
"241022","KED-0820","2019/09/09 17:19:22","新北市三重區重陽路二段34巷7號","121.486598333333","25.06324","6500200","三重區"
"241016","887-TS","2019/09/09 17:19:27","新北市三重區大同北路54巷1號","121.494276666667","25.063575","6500200","三重區"
"241012","941-UM","2019/09/09 17:19:31","新北市三重區龍門路274巷49號","121.501056666667","25.07564","6500200","三重區"
"241029","942-UM","2019/09/09 17:19:29","新北市三重區重新路四段26號","121.488165","25.0575033333333","6500200","三重區"
"241033","AAC-255","2019/09/09 17:19:28","新北市三重區中興北街136巷12號","121.468211666667","25.0558033333333","6500200","三重區"
"247016","KEA-2869","2019/09/09 17:19:16","新北市蘆洲區和平路188巷26號","121.467013333333","25.081915","6501400","蘆洲區"
"247010","KED-0682","2019/09/09 17:19:28","新北市蘆洲區中山一路120巷7弄32號","121.47723","25.0822066666667","6501400","蘆洲區"
"235054","640-BX","2019/09/09 16:50:48","新北市中和區員山路36巷16-2號","121.485323333333","24.991545","6500300","中和區"
"235064","911-UM","2019/09/09 17:19:23","新北市中和區員山路36巷16-3號","121.485101666667","24.9912316666667","6500300","中和區"
"235015","157-BY","2019/09/09 17:19:33","新北市中和區員山路36巷13號","121.48416","24.990875","6500300","中和區"
"247006","893-R6","2019/09/09 17:19:28","新北市蘆洲區長安街73巷9號","121.462318333333","25.0795716666667","6501400","蘆洲區"
"247020","546-UM","2019/09/09 17:19:28","新北市蘆洲區仁愛街31號","121.472233333333","25.092755","6501400","蘆洲區"
"247018","500-BY","2019/09/09 17:19:21","新北市蘆洲區民權路82巷5弄11號","121.47464","25.0884683333333","6501400","蘆洲區"
"247012","337-TH","2019/09/09 17:19:20","新北市蘆洲區信義路319巷10弄13號","121.477346666667","25.0864416666667","6501400","蘆洲區"
"247004","336-TH","2019/09/09 17:19:14","新北市蘆洲區中原路56號","121.459","25.0823216666667","6501400","蘆洲區"
"247024","057-VK","2019/09/09 17:19:16","新北市蘆洲區長榮路378號","121.459826666667","25.0871416666667","6501400","蘆洲區"
"247014","056-VK","2019/09/09 17:19:20","新北市蘆洲區得勝街100號","121.471323333333","25.0830033333333","6501400","蘆洲區"
"247022","007-UY","2019/09/09 17:19:34","新北市蘆洲區水湳街70號","121.470475","25.0897916666667","6501400","蘆洲區"
"247008","002-UY","2019/09/09 17:19:25","新北市蘆洲區信義路34巷122-1號","121.475713333333","25.0767616666667","6501400","蘆洲區"
"247002","001-UY","2019/09/09 17:19:28","新北市蘆洲區永樂街38巷33弄7號","121.45781","25.08947","6501400","蘆洲區"
"228003","097-TW","2019/09/09 17:19:14","新北市貢寮區福隆里東興街92-3號","121.946465","25.01696","6502600","貢寮區"
"228002","663-BX","2019/09/09 17:19:20","新北市貢寮區雙玉里下雙溪街19號","121.918615","25.01053","6502600","貢寮區"
"228001","670-TC","2019/09/09 17:19:33","新北市貢寮區仁理村尖山腳街18-3號","121.925515","25.04835","6502600","貢寮區"
"224006","676-BX","2019/09/09 17:19:35","新北市瑞芳區大寮路2-2號","121.785685","25.1016566666667","6501200","瑞芳區"
"224009","275-VK","2019/09/09 17:19:24","新北市瑞芳區石崁巷49號","121.837775","25.1096866666667","6501200","瑞芳區"
"224008","273-VK","2019/09/09 17:19:24","新北市瑞芳區侯硐路38號","121.825575","25.0827183333333","6501200","瑞芳區"
"224005","271-BY","2019/09/09 17:19:18","新北市瑞芳區鼻頭路247號","121.912636666667","25.1238216666667","6501200","瑞芳區"
"227001","642-TC","2019/09/09 17:19:34","新北市雙溪區三貂里十三層5號","121.850601666667","25.0649033333333","6502500","雙溪區"
"227002","400-TW","2019/09/09 17:19:23","新北市雙溪區平林里梅竹蹊5號","121.86238","25.0353583333333","6502500","雙溪區"
"251009","008-UM","2019/09/09 17:19:17","新北市淡水區三民街22號","121.439071666667","25.1717616666667","6501000","淡水區"
"251004","009-UM","2019/09/09 17:09:29","新北市淡水區中正東路二段88巷15號","121.459071666667","25.150505","6501000","淡水區"
"251002","012-UM","2019/09/09 17:19:18","新北市淡水區中正路二段31號","121.419396666667","25.1816866666667","6501000","淡水區"
"251015","KEA-2871","2019/09/09 17:19:28","新北市淡水區樹林口20-1號","121.478786666667","25.1697533333333","6501000","淡水區"
"251016","179-VK","2019/09/09 17:19:31","新北市淡水區鄒厝崙7號","121.47033","25.18912","6501000","淡水區"
"251008","181-VK","2019/09/09 17:19:33","新北市淡水區大同路293號","121.467815","25.1424333333333","6501000","淡水區"
"251013","182-VK","2019/09/09 17:19:31","新北市淡水區破瓦厝子3-3號","121.472508333333","25.1967666666667","6501000","淡水區"
"251010","413-VK","2019/09/09 17:19:32","新北市淡水區沙崙路14號","121.42104","25.181095","6501000","淡水區"
"251012","441-VK","2019/09/09 17:19:32","新北市淡水區中山北路一段156號","121.444141666667","25.1779183333333","6501000","淡水區"
"251007","442-VK","2019/09/09 17:19:26","新北市淡水區民生路54號","121.461938333333","25.13794","6501000","淡水區"
"251005","443-VK","2019/09/09 17:19:37","新北市淡水區鄧公路19號","121.451416666667","25.169985","6501000","淡水區"
"251006","561-UM","2019/09/09 17:19:33","新北市淡水區中山路189號","121.441233333333","25.17447","6501000","淡水區"
"251014","577-R6","2019/09/09 17:19:28","新北市淡水區公埔子5-1號","121.465095","25.226685","6501000","淡水區"
"251011","650-BX","2019/09/09 17:19:14","新北市淡水區坪頂路55-1號","121.458658333333","25.1627766666667","6501000","淡水區"
"251003","673-BX","2019/09/09 17:19:28","新北市淡水區中正路一段87巷1號","121.42141","25.1795366666667","6501000","淡水區"
"207003","550-UM","2019/09/09 17:19:24","新北市萬里區萬里里獅頭路23號","121.693265","25.1782916666667","6502800","萬里區"
"252002","178-VK","2019/09/09 17:19:29","新北市三芝區忠孝街1-14號","121.505521666667","25.2539216666667","6502100","三芝區"
"252001","292-VK","2019/09/09 17:19:20","新北市三芝區長安街119號","121.49804","25.259665","6502100","三芝區"
"237011","078-UY","2019/09/09 17:19:21","新北市三峽區中山路459巷135號","121.34895","24.9331416666667","6500900","三峽區"
"233002","762-BX","2019/09/09 17:19:27","","121.548585","24.8608183333333","6502900","烏來區"
"242042","AAC-296","2019/09/09 17:19:15","新北市新莊區新樹路52-5號","121.437285","25.0270916666667","6500500","新莊區"
"242060","986-R7","2019/09/09 17:19:31","新北市新莊區新泰路357巷3弄57號","121.442421666667","25.039395","6500500","新莊區"
"242004","751-BX","2019/09/09 17:19:23","新北市新莊區新泰路488號","121.442466666667","25.0457816666667","6500500","新莊區"
"242029","615-BX","2019/09/09 17:19:18","新北市新莊區幸福路615號","121.451965","25.0491216666667","6500500","新莊區"
"242027","613-BX","2019/09/09 17:19:23","新北市新莊區中港路351號","121.452053333333","25.0457633333333","6500500","新莊區"
"242058","612-BX","2019/09/09 17:19:30","新北市新莊區新泰路255巷83號","121.442355","25.039195","6500500","新莊區"
"242048","566-BX","2019/09/09 17:19:24","新北市新莊區新北大道七段852號","121.413841666667","25.02343","6500500","新莊區"
"242053","442-UM","2019/09/09 17:19:20","新北市新莊區環河路636-1號","121.436725","25.010775","6500500","新莊區"
"242002","441-UM","2019/09/09 17:19:20","新北市新莊區環漢路三段1號","121.442266666667","25.0243183333333","6500500","新莊區"
"242007","440-UM","2019/09/09 17:19:18","新北市新莊區中平路81巷2號","121.444753333333","25.04532","6500500","新莊區"
"242044","415-TV","2019/09/09 17:19:27","新北市新莊區富國路101-1號","121.421361666667","25.0255116666667","6500500","新莊區"
"242013","413-TV","2019/09/09 17:19:26","新北市新莊區中和街61號","121.447545","25.0469766666667","6500500","新莊區"
"242050","400-BY","2019/09/09 17:19:20","新北市新莊區瓊林路63號","121.439006666667","25.0206683333333","6500500","新莊區"
"242025","362-BY","2019/09/09 17:19:19","新北市新莊區中平路82巷2號","121.4449","25.0448383333333","6500500","新莊區"
"242023","353-BY","2019/09/09 17:19:34","新北市新莊區中平路84號","121.444846666667","25.04489","6500500","新莊區"
"242039","135-UY","2019/09/09 17:19:36","新北市新莊區新樹路223號","121.435281666667","25.0230083333333","6500500","新莊區"
"242017","173-VK","2019/09/09 17:19:19","新北市新莊區三和路12-21號","121.442048333333","25.0387566666667","6500500","新莊區"
"242031","175-VK","2019/09/09 17:19:26","新北市新莊區新泰路417-2號","121.44319","25.0447366666667","6500500","新莊區"
"242021","KED-0687","2019/09/09 17:19:17","新北市新莊區新泰路210號","121.446693333333","25.0386316666667","6500500","新莊區"
"242015","346-TH","2019/09/09 17:19:35","新北市新莊區新泰路271號","121.445728333333","25.04029","6500500","新莊區"
"242036","348-TH","2019/09/09 17:19:18","新北市新莊區新樹路225號","121.43527","25.0228666666667","6500500","新莊區"
"242009","349-TH","2019/09/09 17:19:28","新北市新莊區新泰路488號","121.442626666667","25.045825","6500500","新莊區"
"242034","350-TH","2019/09/09 17:19:20","新北市新莊區瓊林路21-1號","121.445828333333","25.02872","6500500","新莊區"
"242019","351-TH","2019/09/09 17:19:17","新北市新莊區新泰路279號","121.445615","25.0404","6500500","新莊區"
"238023","601-UM","2019/09/09 17:19:28","新北市樹林區中正路433-1號","121.414978333333","25.00799","6500700","樹林區"
"238019","599-UM","2019/09/09 17:19:26","新北市樹林區八德街263-1號","121.419396666667","24.9735433333333","6500700","樹林區"
"238024","5061-A6","2019/09/09 17:19:18","新北市樹林區樹新路79巷11號","121.427116666667","24.99562","6500700","樹林區"
"238018","KEA-2217","2019/09/09 17:19:29","新北市樹林區樹中街61巷25號","121.422056666667","24.9853983333333","6500700","樹林區"
"238022","KEA-2213","2019/09/09 17:19:34","新北市樹林區仁愛街74號","121.424325","24.9831133333333","6500700","樹林區"
"238021","KEA-2539","2019/09/09 17:19:34","新北市樹林區西圳街一段54號","121.400896666667","24.9620116666667","6500700","樹林區"
"238025","303-VK","2019/09/09 17:19:18","新北市樹林區保安二街157號","121.422256666667","24.9956066666667","6500700","樹林區"
"238017","283-BY","2019/09/09 17:19:25","新北市樹林區光武街32-2號","121.416575","25.0062216666667","6500700","樹林區"
"238014","282-BY","2019/09/09 17:19:33","新北市樹林區長壽街23-7號","121.42091","24.99478","6500700","樹林區"
"238026","172-UY","2019/09/09 17:19:31","新北市樹林區東順街123-3號","121.40639","24.974825","6500700","樹林區"
"238016","169-UY","2019/09/09 17:19:15","新北市樹林區八德街1號","121.417566666667","24.9849733333333","6500700","樹林區"
"239007","AAC-297","2019/09/09 17:19:18","新北市鶯歌區行政路3號","121.35097","24.95537","6500800","鶯歌區"
"239006","891-R6","2019/09/09 17:19:24","新北市鶯歌區福昌街17號","121.33293","24.960865","6500800","鶯歌區"
"239008","527-UM","2019/09/09 17:19:24","新北市鶯歌區國華路1-3號","121.343353333333","24.9569883333333","6500800","鶯歌區"
"239005","526-UM","2019/09/09 17:19:26","新北市鶯歌區福德四街13號","121.329553333333","24.9677466666667","6500800","鶯歌區"
"239001","417-VK","2019/09/09 17:19:27","新北市鶯歌區尖山路173巷1號","121.344966666667","24.9474283333333","6500800","鶯歌區"
"239003","360-BY","2019/09/09 17:19:28","新北市鶯歌區德昌二街59號","121.333386666667","24.9583833333333","6500800","鶯歌區"
"239002","359-BY","2019/09/09 17:19:25","新北市鶯歌區建國路262號","121.347481666667","24.95346","6500800","鶯歌區"
"239004","193-VK","2019/09/09 17:19:19","新北市鶯歌區文化路417-5號","121.352838333333","24.9487733333333","6500800","鶯歌區"
"233001","KEA-2870","2019/09/09 17:19:25","新北市烏來區溫泉街99號","121.551626666667","24.85654","6502900","烏來區"
"242046","281-VK","2019/09/09 17:19:30","新北市新莊區新樹路65-5號","121.43945","25.030815","6500500","新莊區"
"242011","280-VK","2019/09/09 17:19:27","新北市新莊區新泰路486號","121.442473333333","25.045715","6500500","新莊區"
"235062","KEA-2876","2019/09/09 17:19:06","新北市中和區員山路36巷16-3號","121.485045","24.99143","6500300","中和區"
