"lineid","car","time","location","longitude","latitude","cityid","cityname"
"234046","148-BY","2019/09/09 18:39:15","新北市永和區永元路68號","121.522563333333","25.0015666666667","6500400","永和區"
"234081","298-R6","2019/09/09 18:39:21","新北市永和區林森路77號","121.52391","25.0039633333333","6500400","永和區"
"234038","336-UY","2019/09/09 18:39:18","新北市永和區福和路1號","121.526578333333","25.0099533333333","6500400","永和區"
"234086","338-UY","2019/09/09 18:39:28","新北市中和區安樂路69號","121.51236","24.9938216666667","6500400","永和區"
"234017","745-BX","2019/09/09 18:39:22","新北市永和區福和路1號","121.52545","25.0095233333333","6500400","永和區"
"234030","746-BX","2019/09/09 18:39:24","新北市永和區成功路一段45號","121.527051666667","25.00424","6500400","永和區"
"234007","KED-0605","2019/09/09 18:39:27","新北市永和區文化路168號","121.512108333333","25.0154066666667","6500400","永和區"
"234013","KEA-2591","2019/09/09 18:39:20","新北市永和區信義路69號","121.512725","25.0128416666667","6500400","永和區"
"234061","AAD-866","2019/09/09 18:39:22","新北市永和區福和路1號","121.525095","25.0089983333333","6500400","永和區"
"234042","862-TW","2019/09/09 18:39:20","新北市永和區中和路545號","121.511625","25.00332","6500400","永和區"
"234026","9371-KE","2019/09/09 18:39:31","","121.513241666667","25.006215","6500400","永和區"
"234011","9373-KE","2019/09/09 18:39:23","新北市永和區文化路9巷28號","121.515253333333","25.01433","6500400","永和區"
"249005","172-UM","2019/09/09 18:39:25","新北市八里區中華路三段232號","121.388541666667","25.124795","6502300","八里區"
"249001","173-UM","2019/09/09 18:39:17","新北市八里區龍米路一段378號","121.451516666667","25.131715","6502300","八里區"
"249004","303-UY","2019/09/09 18:39:29","新北市八里區忠孝路51號","121.428191666667","25.1601116666667","6502300","八里區"
"249002","305-UY","2019/09/09 18:39:27","新北市八里區龍形一街12巷10號","121.449906666667","25.1308316666667","6502300","八里區"
"249003","593-UM","2019/09/09 18:35:44","新北市八里區博物館路10-1號","121.415101666667","25.1639783333333","6502300","八里區"
"248014","025-BX","2019/09/09 18:39:19","新北市五股區成泰路一段231-32號","121.435063333333","25.0779316666667","6501500","五股區"
"248016","026-BX","2019/09/09 18:39:17","","121.448966666667","25.10169","6501500","五股區"
"248008","KED-0815","2019/09/09 18:39:34","","121.46505","25.074655","6501500","五股區"
"248018","KED-0813","2019/09/09 18:39:33","","121.405921666667","25.1075666666667","6501500","五股區"
"248012","247-BX","2019/09/09 18:39:31","新北市五股區成泰路三段2巷1-20號","121.441221666667","25.086625","6501500","五股區"
"248004","677-BX","2019/09/09 18:39:36","","121.421","25.09634","6501500","五股區"
"248002","678-BX","2019/09/09 18:39:18","新北市五股區西雲路205號","121.448566666667","25.096505","6501500","五股區"
"248010","682-TV","2019/09/09 18:39:26","新北市五股區水碓一路92號","121.431765","25.0736133333333","6501500","五股區"
"234023","9380-KE","2019/09/09 18:39:25","新北市永和區福和路76巷5弄7號","121.522428333333","25.0082883333333","6500400","永和區"
"234077","969-R7","2019/09/09 18:39:22","新北市永和區中正路370號","121.517665","25.0008483333333","6500400","永和區"
"234003","AAC-295","2019/09/09 18:39:19","","121.526105","25.0091583333333","6500400","永和區"
"232011","375-UM","2019/09/09 18:39:23","新北市坪林區坪雙路一段41號","121.711706666667","24.94241","6502000","坪林區"
"244007","080-UY","2019/09/09 18:39:13","新北市林口區太平里5-15號","121.380555","25.11394","6501700","林口區"
"244019","402-UM","2019/09/09 18:39:29","新北市林口區麗園二街38巷19號","121.380338333333","25.06853","6501700","林口區"
"244013","KEA-2802","2019/09/09 18:39:23","新北市林口區麗園路2巷33號","121.37505","25.07095","6501700","林口區"
"244023","483-VK","2019/09/09 18:39:36","新北市林口區仁愛路二段138巷20號","121.382506666667","25.0752516666667","6501700","林口區"
"244017","485-VK","2019/09/09 18:39:35","新北市林口區文化二路一段68巷2號","121.366068333333","25.0687316666667","6501700","林口區"
"244009","656-BX","2019/09/09 18:39:37","新北市林口區竹林路320巷6-1號","121.391181666667","25.0819933333333","6501700","林口區"
"244011","701-TV","2019/09/09 18:39:28","新北市林口區新寮1-70號","121.392315","25.0766466666667","6501700","林口區"
"244025","837-TS","2019/09/09 18:39:19","新北市林口區南勢三街31號","121.358358333333","25.078175","6501700","林口區"
"244021","838-TS","2019/09/09 18:39:26","新北市林口區工六路12號","121.397986666667","25.07909","6501700","林口區"
"243010","297-R6","2019/09/09 18:39:18","新北市泰山區仁愛路132號","121.434115","25.0558116666667","6501600","泰山區"
"243011","KEA-2216","2019/09/09 18:39:26","新北市泰山區黎明路33號","121.421756666667","25.060635","6501600","泰山區"
"243015","680-BX","2019/09/09 18:39:30","新北市泰山區憲訓路4號","121.428865","25.0637966666667","6501600","泰山區"
"222003","436-BY","2019/09/09 18:39:22","新北市深坑區翠谷街8巷2號","121.62697","25.0082","6501800","深坑區"
"222002","659-BX","2019/09/09 18:39:21","新北市深坑區文山路一段62巷25號","121.621771666667","25.0008666666667","6501800","深坑區"
"231061","002-UM","2019/09/09 18:39:34","新北市新店區安華路28-1號","121.519795","24.9608666666667","6500600","新店區"
"231055","0291-UT","2019/09/09 18:39:29","新北市新店區華興街30號","121.537338333333","24.969075","6500600","新店區"
"231058","0293-UT","2019/09/09 18:39:19","新北市新店區新店後街24號","121.537961666667","24.9532816666667","6500600","新店區"
"231044","046-UY","2019/09/09 18:39:21","新北市新店區安康路一段355-10號","121.520311666667","24.963805","6500600","新店區"
"231060","047-UY","2019/09/09 18:39:23","新北市新店區安華路1-1號","121.519365","24.96046","6500600","新店區"
"231065","110-UY","2019/09/09 18:39:33","新北市新店區安一路一段1-1號","121.519503333333","24.9611216666667","6500600","新店區"
"231062","256-BX","2019/09/09 18:39:35","新北市新店區安一路一段1-1號","121.519655","24.9611866666667","6500600","新店區"
"231054","260-TV","2019/09/09 18:39:23","新北市新店區安一路一段1-1號","121.519323333333","24.9610083333333","6500600","新店區"
"231042","268-BY","2019/09/09 18:39:19","新北市新店區中正路62號","121.544278333333","24.9700766666667","6500600","新店區"
"231064","278-BY","2019/09/09 18:39:24","新北市新店區安一路一段1-1號","121.519705","24.961095","6500600","新店區"
"231050","AAD-862","2019/09/09 18:39:14","新北市新店區安華路28-1號","121.519718333333","24.9610116666667","6500600","新店區"
"231045","355-BY","2019/09/09 18:39:31","新北市新店區安華路28-1號","121.519236666667","24.960855","6500600","新店區"
"231056","4715-K9","2019/09/09 18:39:25","新北市新店區自立街18號","121.53879","24.978265","6500600","新店區"
"231067","4772-VM","2019/09/09 18:39:24","新北市新店區安華路28-1號","121.519273333333","24.96067","6500600","新店區"
"231052","515-UM","2019/09/09 18:39:23","新北市新店區新烏路一段105巷6號","121.546015","24.9409783333333","6500600","新店區"
"231063","616-UM","2019/09/09 18:39:22","新北市新店區安華路1-1號","121.519426666667","24.960445","6500600","新店區"
"231040","617-UM","2019/09/09 18:39:18","新北市新店區安華路28-1號","121.519338333333","24.96085","6500600","新店區"
"231041","618-UM","2019/09/09 18:39:36","新北市新店區安華路28-1號","121.519576666667","24.9607883333333","6500600","新店區"
"231047","KED-0819","2019/09/09 18:39:35","新北市新店區安一路一段1-1號","121.51982","24.961135","6500600","新店區"
"231051","718-UY","2019/09/09 18:39:20","新北市新店區中央路177-3號","121.535351666667","24.96938","6500600","新店區"
"231046","719-UM","2019/09/09 18:39:27","新北市新店區直潭二街1號","121.535426666667","24.943165","6500600","新店區"
"231057","720-UM","2019/09/09 18:39:26","新北市新店區北宜路一段250號","121.545293333333","24.95289","6500600","新店區"
"231059","897-TW","2019/09/09 18:39:26","新北市新店區安華路28-1號","121.519656666667","24.96079","6500600","新店區"
"231043","899-TW","2019/09/09 18:39:27","新北市新店區安華路28-1號","121.519248333333","24.960845","6500600","新店區"
"231066","AKT-0513","2019/09/09 18:39:20","新北市新店區安華路1-1號","121.519491666667","24.9604866666667","6500600","新店區"
"235066","003-UY","2019/09/09 18:39:19","新北市中和區水源路33號","121.504293333333","25.0035666666667","6500300","中和區"
"235063","006-UY","2019/09/09 18:39:25","新北市中和區連城路315號","121.489326666667","24.9963216666667","6500300","中和區"
"235056","096-UM","2019/09/09 18:39:31","新北市中和區員山路611巷1號","121.477858333333","25.0112533333333","6500300","中和區"
"235039","097-UM","2019/09/09 18:39:29","新北市中和區宜安路18巷11號","121.513891666667","24.996235","6500300","中和區"
"235065","098-UM","2019/09/09 18:39:26","新北市中和區莊敬路33巷38弄1號","121.500553333333","25.006555","6500300","中和區"
"235040","150-BY","2019/09/09 18:39:22","新北市中和區安平路59號","121.509543333333","24.9950716666667","6500300","中和區"
"235058","151-BY","2019/09/09 18:39:25","新北市中和區連城路428巷13號","121.479815","24.99556","6500300","中和區"
"235055","183-VK","2019/09/09 18:39:25","新北市中和區民生街23號","121.47061","25.0054966666667","6500300","中和區"
"235038","185-VK","2019/09/09 18:39:31","新北市中和區大勇街60巷4號","121.518435","24.9947283333333","6500300","中和區"
"235049","186-VK","2019/09/09 18:39:26","新北市中和區明義街38號","121.503755","24.9954583333333","6500300","中和區"
"235067","255-BX","2019/09/09 18:39:35","新北市中和區新生街39巷15號","121.48367","25.003325","6500300","中和區"
"235044","293-VK","2019/09/09 18:39:25","新北市中和區復興路280巷7號","121.502245","24.9911016666667","6500300","中和區"
"235072","301-VK","2019/09/09 18:39:23","新北市中和區連城路89巷1號","121.496695","25.0000533333333","6500300","中和區"
"235043","352-BY","2019/09/09 18:39:26","新北市中和區景平路71-6號","121.518383333333","24.9917783333333","6500300","中和區"
"235042","KEA-2878","2019/09/09 18:39:23","新北市中和區成功路97巷5弄11號","121.526478333333","24.9920783333333","6500300","中和區"
"235050","4979-A6","2019/09/09 18:39:33","新北市中和區忠孝街160號","121.512655","24.9877333333333","6500300","中和區"
"235069","4980-A6","2019/09/09 18:39:27","新北市中和區連城路99巷58號","121.497133333333","24.9984683333333","6500300","中和區"
"235070","558-UM","2019/09/09 18:39:28","新北市中和區圓通路29號","121.501176666667","24.9977366666667","6500300","中和區"
"235045","565-BX","2019/09/09 18:39:19","新北市中和區復興路3號","121.506273333333","24.9895116666667","6500300","中和區"
"235060","KED-0823","2019/09/09 18:39:29","新北市中和區中山路三段124號","121.474286666667","25.0061883333333","6500300","中和區"
"235054","640-BX","2019/09/09 18:39:31","新北市中和區自治街30號","121.47492","25.0032783333333","6500300","中和區"
"235047","732-UM","2019/09/09 18:39:25","新北市中和區興南路二段7號","121.508006666667","24.9862166666667","6500300","中和區"
"235046","733-UM","2019/09/09 18:39:32","新北市中和區忠孝街99-3號","121.51207","24.986195","6500300","中和區"
"235057","801-TS","2019/09/09 18:39:34","新北市中和區民安街25巷11號","121.480503333333","25.00031","6500300","中和區"
"235041","802-TS","2019/09/09 18:39:30","新北市中和區中安街178巷13弄1號","121.510263333333","24.99872","6500300","中和區"
"235052","805-TS","2019/09/09 18:39:13","新北市中和區興南路三段90號","121.490936666667","24.9739366666667","6500300","中和區"
"235048","896-TW","2019/09/09 18:39:21","新北市中和區南山路250巷1號","121.507611666667","24.98915","6500300","中和區"
"235053","900-TW","2019/09/09 18:39:19","新北市中和區民德路266號","121.468028333333","24.996625","6500300","中和區"
"235064","911-UM","2019/09/09 18:39:23","新北市中和區連城路110號","121.496216666667","24.9996516666667","6500300","中和區"
"235051","157-BY","2019/09/09 18:39:14","新北市中和區興南路二段159巷31號","121.505558333333","24.982755","6500300","中和區"
"235037","AAC-213","2019/09/09 18:39:19","新北市中和區秀朗路三段128巷11號","121.524478333333","24.99328","6500300","中和區"
"235059","AAC-215","2019/09/09 18:39:18","新北市中和區錦和路354巷15號","121.489775","24.9915483333333","6500300","中和區"
"220065","072-UY","2019/09/09 18:39:20","新北市板橋區實踐路102號","121.464093333333","25.0048116666667","6500100","板橋區"
"220106","075-UY","2019/09/09 18:39:27","新北市板橋區民生路二段161巷3號","121.470106666667","25.019765","6500100","板橋區"
"220069","AAD-861","2019/09/09 18:39:24","新北市板橋區南雅南路二段9號","121.454403333333","25.002795","6500100","板橋區"
"220068","120-SR","2019/09/09 18:39:28","新北市板橋區民生路二段120號","121.470598333333","25.0195933333333","6500100","板橋區"
"226004","312-R5","2019/09/09 18:39:30","新北市平溪區石底里公園街18-3號","121.733573333333","25.0255633333333","6502400","平溪區"
"228003","097-TW","2019/09/09 18:39:14","新北市貢寮區和美里龍洞街46號","121.913603333333","25.11234","6502600","貢寮區"
"228002","663-BX","2019/09/09 18:39:20","新北市貢寮區福隆里桂安街2號","121.96333","25.0211866666667","6502600","貢寮區"
"228001","670-TC","2019/09/09 18:39:32","新北市貢寮區仁理村仁和路106巷5號","121.924603333333","25.0510583333333","6502600","貢寮區"
"224010","AGQ-8101","2019/09/09 18:39:30","新北市瑞芳區街頂巷6-1號","121.84535","25.1092866666667","6501200","瑞芳區"
"224006","676-BX","2019/09/09 18:39:35","新北市瑞芳區明燈路三段59-2號","121.805801666667","25.10822","6501200","瑞芳區"
"224002","639-TC","2019/09/09 18:39:21","新北市瑞芳區國中新村18號","121.817205","25.1073283333333","6501200","瑞芳區"
"224007","285-BY","2019/09/09 18:39:19","新北市瑞芳區大埔路83號","121.763788333333","25.1015533333333","6501200","瑞芳區"
"224009","275-VK","2019/09/09 18:39:23","新北市瑞芳區祈堂路2號","121.859428333333","25.111225","6501200","瑞芳區"
"224008","273-VK","2019/09/09 18:39:24","新北市瑞芳區瑞芳街1號","121.806873333333","25.1100083333333","6501200","瑞芳區"
"224005","271-BY","2019/09/09 18:39:18","新北市瑞芳區瑞濱路34-5號","121.819105","25.1195566666667","6501200","瑞芳區"
"227001","642-TC","2019/09/09 18:39:32","新北市雙溪區牡丹里牡丹136號","121.850621666667","25.0592233333333","6502500","雙溪區"
"227002","400-TW","2019/09/09 18:39:31","新北市雙溪區魚行里坤溪3-5號","121.876141666667","25.0209033333333","6502500","雙溪區"
"253005","032-BX","2019/09/09 18:39:13","新北市石門區石門街29號","121.566155","25.290715","6502200","石門區"
"253006","295-VK","2019/09/09 18:39:33","新北市石門區楓林28-5號","121.542558333333","25.2897716666667","6502200","石門區"
"222001","KEA-2212","2019/09/09 18:39:32","新北市深坑區北深路一段84號","121.636253333333","25.0107216666667","6501800","深坑區"
"208002","KEA-2872","2019/09/09 18:39:22","新北市金山區忠孝一路21-1號","121.638556666667","25.2191216666667","6502700","金山區"
"208003","665-BX","2019/09/09 18:39:15","新北市金山區中山路276-3號","121.63502","25.2243083333333","6502700","金山區"
"251004","009-UM","2019/09/09 18:39:16","新北市淡水區大同路2號","121.46156","25.1407916666667","6501000","淡水區"
"251002","012-UM","2019/09/09 18:39:18","新北市淡水區中正東路一段3巷14弄1號","121.450925","25.1641116666667","6501000","淡水區"
"251015","KEA-2871","2019/09/09 18:39:27","新北市淡水區興福寮66巷313號","121.485111666667","25.1616766666667","6501000","淡水區"
"251016","179-VK","2019/09/09 18:39:31","新北市淡水區下圭柔山79號","121.440666666667","25.2049316666667","6501000","淡水區"
"251008","181-VK","2019/09/09 18:39:33","新北市淡水區北投子62號","121.4566","25.1799016666667","6501000","淡水區"
"251013","182-VK","2019/09/09 18:39:31","新北市淡水區奎柔山路1262號","121.482628333333","25.20639","6501000","淡水區"
"251010","413-VK","2019/09/09 18:39:32","新北市淡水區沙崙路124號","121.423343333333","25.18287","6501000","淡水區"
"251012","441-VK","2019/09/09 18:39:32","新北市淡水區北新路121號","121.44895","25.1786766666667","6501000","淡水區"
"251001","559-UM","2019/09/09 18:39:19","新北市淡水區自強路168號","121.46565","25.13399","6501000","淡水區"
"251006","561-UM","2019/09/09 18:39:13","新北市淡水區新市二路四段128號","121.443186666667","25.1925566666667","6501000","淡水區"
"251014","577-R6","2019/09/09 18:39:28","新北市淡水區崙頂12-8號","121.495573333333","25.21721","6501000","淡水區"
"251011","650-BX","2019/09/09 18:39:34","新北市淡水區中正東路79號","121.447675","25.167265","6501000","淡水區"
"251003","673-BX","2019/09/09 18:39:28","新北市淡水區北新路69巷26號","121.446771666667","25.1800866666667","6501000","淡水區"
"207003","550-UM","2019/09/09 18:39:24","新北市萬里區野柳里港東路162-2號","121.690091666667","25.203985","6502800","萬里區"
"207004","291-VK","2019/09/09 18:39:36","新北市萬里區萬里里獅頭路7號","121.692008333333","25.1783966666667","6502800","萬里區"
"252002","178-VK","2019/09/09 18:39:29","新北市三芝區民生街58號","121.503545","25.2556966666667","6502100","三芝區"
"252003","249-BX","2019/09/09 18:39:26","新北市三芝區後厝里土地公坑54-16號","121.465993333333","25.2496266666667","6502100","三芝區"
"252001","292-VK","2019/09/09 18:39:20","新北市三芝區中興街二段242號","121.501595","25.253145","6502100","三芝區"
"208001","170-UY","2019/09/09 18:39:27","新北市金山區文化三路7號","121.635208333333","25.2248383333333","6502700","金山區"
"237004","KEA-2597","2019/09/09 18:39:29","新北市三峽區插角67-5號","121.405863333333","24.8712566666667","6500900","三峽區"
"237007","153-BY","2019/09/09 18:39:19","新北市三峽區柑樹路2巷3號","121.362335","24.9057466666667","6500900","三峽區"
"237009","210-TH","2019/09/09 18:39:35","新北市三峽區弘園街77號","121.365968333333","24.9266733333333","6500900","三峽區"
"237013","252-BX","2019/09/09 18:39:15","新北市三峽區光明路69巷25號","121.376545","24.9291283333333","6500900","三峽區"
"237012","275-BY","2019/09/09 18:39:20","新北市三峽區三樹路330號","121.381811666667","24.94407","6500900","三峽區"
"237008","302-VK","2019/09/09 18:39:17","新北市三峽區白雞57-8號","121.38961","24.9120233333333","6500900","三峽區"
"237014","433-BY","2019/09/09 18:39:31","新北市三峽區復興路465-1號","121.361581666667","24.9385683333333","6500900","三峽區"
"237006","5529-G3","2019/09/09 18:39:24","新北市三峽區溪東路473巷30號","121.41497","24.9289766666667","6500900","三峽區"
"237015","649-BX","2019/09/09 18:39:35","新北市三峽區竹崙路53號","121.43098","24.9220633333333","6500900","三峽區"
"237011","078-UY","2019/09/09 18:39:21","新北市三峽區溪東路323號","121.410515","24.9302616666667","6500900","三峽區"
"237010","706-TV","2019/09/09 18:39:30","新北市三峽區復興路485號","121.361316666667","24.93842","6500900","三峽區"
"237005","AKY-6261","2019/09/09 18:39:34","新北市三峽區民生街104巷2號","121.373631666667","24.93588","6500900","三峽區"
"236042","KED-0685","2019/09/09 18:39:17","新北市土城區學成路108巷6號","121.450123333333","24.9894966666667","6501300","土城區"
"236030","253-BX","2019/09/09 18:39:20","新北市土城區福仁街58號","121.439506666667","24.9747","6501300","土城區"
"236026","269-VK","2019/09/09 18:39:35","新北市土城區金城路一段62號","121.442653333333","24.9709383333333","6501300","土城區"
"236014","270-VK","2019/09/09 18:39:26","新北市土城區清水路207巷23號","121.459881666667","24.982535","6501300","土城區"
"236039","271-VK","2019/09/09 18:39:18","新北市土城區明德路一段238號","121.460155","24.9773066666667","6501300","土城區"
"236069","KEA-2877","2019/09/09 18:39:17","新北市土城區永豐路157巷29弄1號","121.468681666667","24.981445","6501300","土城區"
"236020","401-BY","2019/09/09 18:39:20","新北市土城區延吉街270號","121.465736666667","24.9845216666667","6501300","土城區"
"236059","912-UM","2019/09/09 18:39:21","新北市土城區中央路三段155號","121.43203","24.9653566666667","6501300","土城區"
"236048","913-UM","2019/09/09 18:39:32","新北市土城區金城路二段360-2號","121.462081666667","24.985365","6501300","土城區"
"236063","915-UM","2019/09/09 18:39:35","新北市土城區延壽路55巷7弄6號","121.469643333333","24.9916266666667","6501300","土城區"
"236055","AAC-216","2019/09/09 18:39:29","新北市土城區裕民路42號","121.448196666667","24.988315","6501300","土城區"
"242042","AAC-296","2019/09/09 18:39:15","新北市新莊區中正路694巷138號","121.41574","25.0300883333333","6500500","新莊區"
"242060","986-R7","2019/09/09 18:39:31","新北市新莊區民安路195號","121.426133333333","25.0226283333333","6500500","新莊區"
"242058","612-BX","2019/09/09 18:39:30","新北市新莊區中正路887-17號","121.41614","25.0241566666667","6500500","新莊區"
"242044","415-TV","2019/09/09 18:39:27","新北市新莊區中正路新旺巷27號","121.416145","25.022935","6500500","新莊區"
"238023","601-UM","2019/09/09 18:39:28","新北市樹林區三福街114號","121.406443333333","25.0163016666667","6500700","樹林區"
"238018","KEA-2217","2019/09/09 18:39:29","新北市樹林區鎮前街72號","121.425568333333","24.9922033333333","6500700","樹林區"
"238022","KEA-2213","2019/09/09 18:39:34","新北市樹林區中華路393號","121.411383333333","24.9804466666667","6500700","樹林區"
"238017","283-BY","2019/09/09 18:39:25","新北市樹林區光榮街77號","121.412171666667","25.0031116666667","6500700","樹林區"
"238020","268-VK","2019/09/09 18:39:21","新北市樹林區俊安街24巷10弄6號","121.419076666667","25.0137766666667","6500700","樹林區"
"238026","172-UY","2019/09/09 18:39:31","新北市樹林區育德街78-1號","121.38754","24.96812","6500700","樹林區"
"238016","169-UY","2019/09/09 18:39:34","新北市樹林區中山路一段412號","121.417418333333","24.9851666666667","6500700","樹林區"
"239007","AAC-297","2019/09/09 18:39:18","新北市鶯歌區中正一路320號","121.35692","24.95681","6500800","鶯歌區"
"239008","527-UM","2019/09/09 18:39:24","新北市鶯歌區國際一路179號","121.33624","24.97652","6500800","鶯歌區"
"239005","526-UM","2019/09/09 18:39:25","新北市鶯歌區鶯桃路668巷73號","121.329926666667","24.9717933333333","6500800","鶯歌區"
"239001","417-VK","2019/09/09 18:39:27","新北市鶯歌區國中街171-1號","121.337708333333","24.938845","6500800","鶯歌區"
"239003","360-BY","2019/09/09 18:39:28","新北市鶯歌區福安街58號","121.335608333333","24.9651916666667","6500800","鶯歌區"
"239004","193-VK","2019/09/09 18:39:19","新北市鶯歌區尖山路206號","121.34338","24.947475","6500800","鶯歌區"
"221036","130-UY","2019/09/09 18:39:17","新北市汐止區長興街一段6號","121.66962","25.0785083333333","6501100","汐止區"
"221015","131-UY","2019/09/09 18:39:30","新北市汐止區鄉長路二段23巷18號","121.66773","25.0831166666667","6501100","汐止區"
"221010","269-BY","2019/09/09 18:39:23","新北市汐止區瑞松街10號","121.645175","25.10483","6501100","汐止區"
"221012","278-VK","2019/09/09 18:39:16","新北市汐止區保長路51巷1號","121.673296666667","25.078865","6501100","汐止區"
"221032","280-BY","2019/09/09 18:39:32","新北市汐止區福山街60巷1號","121.617748333333","25.04663","6501100","汐止區"
"221029","298-VK","2019/09/09 18:39:20","新北市汐止區樟樹一路133巷1號","121.642148333333","25.06518","6501100","汐止區"
"221021","299-VK","2019/09/09 18:39:26","新北市汐止區復興路29號","121.65642","25.0634433333333","6501100","汐止區"
"221031","353-TW","2019/09/09 18:39:18","新北市汐止區光復街7巷33號","121.640481666667","25.059775","6501100","汐止區"
"221035","622-UM","2019/09/09 18:39:34","新北市汐止區大同路二段169巷22弄1號","121.65116","25.0650183333333","6501100","汐止區"
"221025","623-UM","2019/09/09 18:39:35","新北市汐止區福安街22巷10號","121.662711666667","25.0643716666667","6501100","汐止區"
"221033","647-BX","2019/09/09 18:39:23","新北市汐止區宜興街1號","121.620825","25.0411933333333","6501100","汐止區"
"221002","707-TV","2019/09/09 18:39:18","新北市汐止區中興路8號","121.637293333333","25.0592066666667","6501100","汐止區"
"221018","753-BX","2019/09/09 18:38:21","新北市汐止區茄苳路225巷2號","121.671015","25.0687166666667","6501100","汐止區"
"220079","145-BY","2019/09/09 18:39:22","新北市板橋區大觀路一段61號","121.44733","25.00541","6500100","板橋區"
"220080","200-UY","2019/09/09 18:39:25","新北市板橋區大觀路二段435-10號","121.44546","24.994595","6500100","板橋區"
"220082","610-BX","2019/09/09 18:39:28","新北市板橋區大觀路三段59巷17弄6-1號","121.437","24.9954033333333","6500100","板橋區"
"220101","245-BX","2019/09/09 18:39:23","新北市板橋區民生路二段161巷3號","121.469986666667","25.0197533333333","6500100","板橋區"
"220056","276-BY","2019/09/09 18:39:17","新北市板橋區四川路一段55號","121.459631666667","25.0062933333333","6500100","板橋區"
"220072","277-BY","2019/09/09 18:39:31","新北市板橋區大觀路二段443-2號","121.438463333333","24.9952566666667","6500100","板橋區"
"220071","283-VK","2019/09/09 18:39:29","新北市板橋區四川路二段105號","121.451723333333","24.9944166666667","6500100","板橋區"
"220083","286-VK","2019/09/09 18:39:27","新北市板橋區大觀路二段153巷39弄1號","121.447016666667","25.000515","6500100","板橋區"
"220081","287-VK","2019/09/09 18:39:21","新北市板橋區大觀路二段101巷4號","121.446421666667","25.0015516666667","6500100","板橋區"
"220061","293-UM","2019/09/09 18:39:21","新北市板橋區民生路二段120號","121.470301666667","25.0198766666667","6500100","板橋區"
"220084","296-UM","2019/09/09 18:39:28","新北市板橋區大觀路二段275號","121.442721666667","24.9990133333333","6500100","板橋區"
"220075","303-R5","2019/09/09 18:39:24","新北市板橋區華東街11號","121.450696666667","24.9977966666667","6500100","板橋區"
"220092","307-R5","2019/09/09 18:39:31","新北市板橋區民生路二段89-4號","121.471336666667","25.0180783333333","6500100","板橋區"
"220089","487-VK","2019/09/09 18:39:19","新北市板橋區民生路二段188號","121.470191666667","25.0202133333333","6500100","板橋區"
"220088","491-VK","2019/09/09 18:39:36","新北市板橋區民生路二段179號","121.4697","25.02035","6500100","板橋區"
"220035","560-BX","2019/09/09 18:39:22","新北市板橋區南雅西路二段145巷6號","121.451601666667","25.011865","6500100","板橋區"
"220103","561-BX","2019/09/09 18:39:17","新北市板橋區民生路二段89-4號","121.47137","25.0180133333333","6500100","板橋區"
"220063","609-BX","2019/09/09 18:39:20","新北市板橋區民生路二段161巷1號","121.469941666667","25.0199883333333","6500100","板橋區"
"220057","686-BX","2019/09/09 18:39:31","新北市板橋區館前東路1號","121.45944","25.0071566666667","6500100","板橋區"
"220077","687-BX","2019/09/09 18:39:31","新北市板橋區板城路421號","121.448008333333","24.9962083333333","6500100","板橋區"
"220054","741-BX","2019/09/09 18:39:33","新北市板橋區華東街11號","121.451461666667","24.99843","6500100","板橋區"
"220102","KEA-2699","2019/09/09 18:39:34","新北市板橋區民生路二段120號","121.47046","25.0200633333333","6500100","板橋區"
"220055","827-TW","2019/09/09 18:39:22","新北市板橋區忠孝路40號","121.460443333333","25.001865","6500100","板橋區"
"220074","895-R6","2019/09/09 18:39:36","新北市板橋區南雅南路二段134號","121.452013333333","24.99659","6500100","板橋區"
"220073","985-R7","2019/09/09 18:39:19","新北市板橋區四川路二段41號","121.454091666667","24.9954733333333","6500100","板橋區"
"220097","AAC-210","2019/09/09 18:39:22","新北市板橋區民生路二段120號","121.470345","25.01979","6500100","板橋區"
"220064","AAC-253","2019/09/09 18:39:17","新北市板橋區民生路二段36-1號","121.472171666667","25.0167533333333","6500100","板橋區"
"235068","KEA-2873","2019/09/09 18:39:15","新北市中和區中正路213號","121.497051666667","24.9937116666667","6500300","中和區"
"235061","KEA-2875","2019/09/09 18:39:13","新北市中和區民享街88巷2號","121.474568333333","25.0007066666667","6500300","中和區"
"235062","KEA-2876","2019/09/09 18:39:26","新北市中和區景平路703巷1號","121.496245","25.0034766666667","6500300","中和區"
