"lineid","car","time","location","longitude","latitude","cityid","cityname"
"251004","009-UM","2019/09/09 22:10:01","新北市淡水區民族路33號","121.462288333333","25.1358316666667","6501000","淡水區"
"251008","181-VK","2019/09/09 22:09:53","新北市淡水區學府路104號","121.449911666667","25.171805","6501000","淡水區"
"251010","413-VK","2019/09/09 22:09:52","新北市淡水區沙崙路198號","121.424455","25.1837216666667","6501000","淡水區"
"251007","442-VK","2019/09/09 22:09:46","新北市淡水區北新路180號","121.449468333333","25.178635","6501000","淡水區"
"251005","443-VK","2019/09/09 22:09:56","新北市淡水區鄧公路19號","121.45145","25.1699733333333","6501000","淡水區"
"251011","650-BX","2019/09/09 22:10:03","新北市淡水區水碓街7號","121.44316","25.177095","6501000","淡水區"
