"lineid","car","time","location","longitude","latitude","cityid","cityname"
"251004","009-UM","2019/09/09 22:30:01","新北市淡水區民族路33號","121.462308333333","25.13581","6501000","淡水區"
"251008","181-VK","2019/09/09 22:29:53","新北市淡水區學府路104號","121.449858333333","25.1717616666667","6501000","淡水區"
"251010","413-VK","2019/09/09 22:29:56","新北市淡水區沙崙路331號","121.427518333333","25.187445","6501000","淡水區"
"251007","442-VK","2019/09/09 22:30:06","新北市淡水區北新路180號","121.449465","25.1786133333333","6501000","淡水區"
"251011","650-BX","2019/09/09 22:30:03","新北市淡水區水碓街7號","121.443195","25.177105","6501000","淡水區"
