"lineid","car","time","location","longitude","latitude","cityid","cityname"
"234044","148-BY","2019/08/09 13:09:31","新北市永和區永元路18巷9號","121.523188333333","25.00025","6500400","永和區"
"234078","298-R6","2019/08/09 13:09:25","新北市永和區國中路150號","121.522681666667","25.00676","6500400","永和區"
"234036","336-UY","2019/08/09 13:09:22","新北市永和區民樂街71巷1號","121.5274","24.99753","6500400","永和區"
"234062","337-UY","2019/08/09 13:09:36","新北市永和區秀朗路二段25號","121.521163333333","25.00257","6500400","永和區"
"234084","338-UY","2019/08/09 13:09:24","新北市永和區永貞路94號","121.519316666667","25.00452","6500400","永和區"
"234068","552-UM","2019/08/09 13:09:31","新北市永和區豫溪街95巷7號","121.518265","25.01048","6500400","永和區"
"234015","745-BX","2019/08/09 13:09:27","新北市永和區文化路90巷14號","121.513876666667","25.0158466666667","6500400","永和區"
"234028","746-BX","2019/08/09 13:09:33","新北市永和區民生路21號","121.52293","24.9989583333333","6500400","永和區"
"234052","KEA-2590","2019/08/09 13:09:39","新北市永和區竹林路82號","121.519286666667","25.0126516666667","6500400","永和區"
"234005","KED-0605","2019/08/09 13:09:41","新北市永和區中山路一段195號","121.509085","25.0088783333333","6500400","永和區"
"234013","KEA-2591","2019/08/09 13:09:27","新北市永和區保福路二段50號","121.510953333333","25.0121633333333","6500400","永和區"
"234060","AAD-866","2019/08/09 13:09:41","新北市永和區自由街33號","121.514371666667","25.00619","6500400","永和區"
"234040","862-TW","2019/08/09 13:09:31","新北市永和區永貞路334號","121.511238333333","25.0055166666667","6500400","永和區"
"234048","863-TW","2019/08/09 13:09:33","新北市永和區保福路二段94巷17號","121.510886666667","25.0138383333333","6500400","永和區"
"234025","9371-KE","2019/08/09 13:09:33","新北市永和區秀朗路一段10巷19號","121.513428333333","25.0061766666667","6500400","永和區"
"234010","9373-KE","2019/08/09 13:09:34","新北市永和區文化路124號","121.51308","25.0153816666667","6500400","永和區"
"248019","KED-0813","2019/08/09 13:09:38","新北市五股區成洲五路56號","121.45343","25.1018266666667","6501500","五股區"
"234022","9380-KE","2019/08/09 13:09:29","新北市永和區中興街10巷25號","121.51614","25.0111066666667","6500400","永和區"
"234076","969-R7","2019/08/09 13:09:35","新北市永和區民光街2號","121.515146666667","24.9964333333333","6500400","永和區"
"234072","AAC-211","2019/08/09 13:09:39","新北市永和區竹林路199-1號","121.52068","25.0091183333333","6500400","永和區"
"234066","AAC-212","2019/08/09 13:09:37","新北市永和區永和路一段93號","121.51341","25.0075566666667","6500400","永和區"
"234001","AAC-295","2019/08/09 13:09:31","新北市永和區永和路二段8號","121.514636666667","25.0101716666667","6500400","永和區"
"231004","001-UM","2019/08/09 13:09:37","新北市新店區安華路28-1號","121.519568333333","24.96093","6500600","新店區"
"231030","002-UM","2019/08/09 13:09:38","新北市新店區安華路28-1號","121.519821666667","24.9606183333333","6500600","新店區"
"231005","046-UY","2019/08/09 13:09:29","新北市新店區安華路28-1號","121.519251666667","24.9607433333333","6500600","新店區"
"231029","106-UY","2019/08/09 13:09:22","新北市新店區安華路28-1號","121.519625","24.9607066666667","6500600","新店區"
"231018","107-UY","2019/08/09 13:09:41","新北市新店區安一路一段1-1號","121.519423333333","24.9613316666667","6500600","新店區"
"231032","256-BX","2019/08/09 13:09:26","新北市新店區安一路一段1-1號","121.519593333333","24.9611133333333","6500600","新店區"
"231023","260-TV","2019/08/09 13:09:23","新北市新店區安一路一段1-1號","121.519335","24.9611783333333","6500600","新店區"
"231003","268-BY","2019/08/09 13:09:28","新北市新店區北新路一段303號","121.54142","24.967555","6500600","新店區"
"231016","AAD-862","2019/08/09 13:09:30","新北市新店區安華路28-1號","121.52","24.9609866666667","6500600","新店區"
"231006","355-BY","2019/08/09 13:09:30","新北市新店區安華路28-1號","121.519031666667","24.96093","6500600","新店區"
"231024","4716-K9","2019/08/09 13:09:25","新北市新店區安華路28-1號","121.51978","24.9605066666667","6500600","新店區"
"231025","4715-K9","2019/08/09 13:09:25","新北市新店區安華路28-1號","121.519333333333","24.960615","6500600","新店區"
"231002","619-UM","2019/08/09 13:09:36","新北市新店區安華路1-1號","121.519821666667","24.960385","6500600","新店區"
"231034","641-BX","2019/08/09 13:09:26","新北市新店區安華路28-1號","121.519573333333","24.9605316666667","6500600","新店區"
"231012","KED-0819","2019/08/09 13:09:30","新北市新店區安一路一段1-1號","121.520031666667","24.9611616666667","6500600","新店區"
"231036","718-UY","2019/08/09 13:09:24","新北市新店區安華路16號","121.516715","24.9579866666667","6500600","新店區"
"231010","719-UM","2019/08/09 13:09:30","新北市新店區安一路一段1-1號","121.519458333333","24.9612533333333","6500600","新店區"
"231026","720-UM","2019/08/09 13:09:27","新北市新店區安一路一段1-1號","121.518991666667","24.9613566666667","6500600","新店區"
"231028","897-TW","2019/08/09 13:09:35","新北市新店區安華路28-1號","121.51945","24.9608483333333","6500600","新店區"
"231001","898-TW","2019/08/09 13:09:40","新北市新店區安華路28-1號","121.519523333333","24.9608716666667","6500600","新店區"
"231037","AKT-0513","2019/08/09 13:09:38","新北市新店區安華路1-1號","121.519508333333","24.9604866666667","6500600","新店區"
"235028","005-UY","2019/08/09 13:09:22","新北市中和區中正路218-4號","121.49642","24.9940866666667","6500300","中和區"
"235027","006-UY","2019/08/09 13:09:23","新北市中和區員山路36巷16-3號","121.484965","24.9912916666667","6500300","中和區"
"235020","096-UM","2019/08/09 13:09:39","新北市中和區員山路36巷16-3號","121.484821666667","24.9911933333333","6500300","中和區"
"235003","097-UM","2019/08/09 13:09:28","新北市中和區中正路395號","121.489728333333","24.993545","6500300","中和區"
"235029","098-UM","2019/08/09 13:09:21","新北市中和區福祥路2號","121.499648333333","25.00296","6500300","中和區"
"235004","150-BY","2019/08/09 13:09:23","新北市中和區中正路637巷52弄1號","121.485506666667","24.9935916666667","6500300","中和區"
"235022","151-BY","2019/08/09 13:09:32","新北市中和區圓通路367巷58號","121.492251666667","24.9847066666667","6500300","中和區"
"235019","183-VK","2019/08/09 13:09:38","新北市土城區金城路三段283號","121.473395","24.9908116666667","6500300","中和區"
"235002","185-VK","2019/08/09 13:09:27","新北市中和區大智街35號","121.520613333333","24.991905","6500300","中和區"
"235031","255-BX","2019/08/09 13:09:25","新北市中和區新生街169號","121.4837","25.000905","6500300","中和區"
"235036","301-VK","2019/08/09 13:09:30","新北市中和區中正路508號","121.488556666667","24.9944116666667","6500300","中和區"
"235006","KEA-2878","2019/08/09 13:09:35","新北市中和區景平路353號","121.504748333333","24.9933233333333","6500300","中和區"
"235033","4980-A6","2019/08/09 13:09:24","新北市中和區中正路521號","121.488256666667","24.9935033333333","6500300","中和區"
"235034","558-UM","2019/08/09 13:09:25","新北市中和區中正路206號","121.497231666667","24.994335","6500300","中和區"
"235009","565-BX","2019/08/09 13:09:36","新北市中和區復興路81號","121.503601666667","24.98997","6500300","中和區"
"235024","KED-0823","2019/08/09 13:09:29","新北市中和區員山路168號","121.481306666667","24.9998233333333","6500300","中和區"
"235011","732-UM","2019/08/09 13:09:24","新北市中和區中正路637巷52弄1號","121.485435","24.9933966666667","6500300","中和區"
"235035","783-BX","2019/08/09 13:09:43","新北市中和區中山路二段478號","121.487976666667","25.004985","6500300","中和區"
"235026","800-TS","2019/08/09 13:09:31","新北市中和區景平路782-2號","121.495973333333","25.0054466666667","6500300","中和區"
"235021","801-TS","2019/08/09 13:09:31","新北市中和區員山路128號","121.481136666667","24.99611","6500300","中和區"
"235005","802-TS","2019/08/09 13:09:33","新北市中和區錦和路350-1號","121.490495","24.9935983333333","6500300","中和區"
"235016","805-TS","2019/08/09 13:09:24","新北市中和區圓通路141巷48弄15號","121.498136666667","24.9939883333333","6500300","中和區"
"235012","896-TW","2019/08/09 13:09:39","新北市中和區員山路36巷16-2號","121.485231666667","24.9915666666667","6500300","中和區"
"235017","900-TW","2019/08/09 13:09:40","新北市中和區員山路36巷16-2號","121.485236666667","24.9915","6500300","中和區"
"235015","157-BY","2019/08/09 13:09:27","新北市中和區捷運路102號","121.505605","24.9914733333333","6500300","中和區"
"235001","AAC-213","2019/08/09 13:09:23","新北市中和區景德街52號","121.51765","24.991595","6500300","中和區"
"247011","056-VK","2019/08/09 13:09:28","新北市五股區中興路三段163號","121.449145","25.0809783333333","6501400","蘆洲區"
"247005","002-UY","2019/08/09 13:09:01","新北市五股區中興路三段163號","121.449276666667","25.0805233333333","6501400","蘆洲區"
"207002","749-BX","2019/08/09 13:09:26","新北市萬里區溪底里香員林路7號","121.632716666667","25.1647933333333","6502800","萬里區"
"207001","662-BX","2019/08/09 13:09:23","新北市萬里區萬里里獅頭路23號","121.693393333333","25.1781916666667","6502800","萬里區"
"221029","298-VK","2019/08/09 13:09:31","新北市汐止區中興路183巷1-2號","121.628833333333","25.0666466666667","6501100","汐止區"
"220030","610-BX","2019/08/09 13:09:25","新北市板橋區華東街1-10號","121.448255","24.9949366666667","6500100","板橋區"
"220021","985-R7","2019/08/09 13:09:25","新北市板橋區華東街1-10號","121.448315","24.994995","6500100","板橋區"
"235032","KEA-2873","2019/08/09 13:09:34","新北市中和區員山路36巷16-3號","121.484971666667","24.9912716666667","6500300","中和區"
"235025","KEA-2875","2019/08/09 13:09:29","新北市中和區民德路266號","121.468055","24.9966333333333","6500300","中和區"
