"lineid","car","time","location","longitude","latitude","cityid","cityname"
"234044","148-BY","2019/08/09 13:19:31","新北市永和區得和路373巷6弄1號","121.524768333333","24.9997266666667","6500400","永和區"
"234078","298-R6","2019/08/09 13:19:25","新北市永和區福和路26號","121.523995","25.0083466666667","6500400","永和區"
"234036","336-UY","2019/08/09 13:19:22","新北市永和區民樂街55巷2號","121.527461666667","24.9983683333333","6500400","永和區"
"234062","337-UY","2019/08/09 13:19:36","新北市永和區永元路17巷6弄2號","121.521333333333","25.0007066666667","6500400","永和區"
"234084","338-UY","2019/08/09 13:19:37","新北市永和區永利路85-1號","121.521448333333","25.0033116666667","6500400","永和區"
"234068","552-UM","2019/08/09 13:19:36","新北市永和區豫溪街45號","121.51694","25.00991","6500400","永和區"
"234015","745-BX","2019/08/09 13:19:28","新北市永和區文化路192巷14弄21號","121.511775","25.0169233333333","6500400","永和區"
"234028","746-BX","2019/08/09 13:19:33","新北市永和區厚德街61-1號","121.525485","24.9986183333333","6500400","永和區"
"234052","KEA-2590","2019/08/09 13:19:39","新北市永和區中興街23號","121.516015","25.01195","6500400","永和區"
"234005","KED-0605","2019/08/09 13:19:41","新北市永和區保平路268巷51弄12號","121.506243333333","25.00638","6500400","永和區"
"234013","KEA-2591","2019/08/09 13:19:31","新北市永和區信義路16號","121.514166666667","25.0122383333333","6500400","永和區"
"234060","AAD-866","2019/08/09 13:19:36","新北市永和區中正路381號","121.517126666667","25.00371","6500400","永和區"
"234040","862-TW","2019/08/09 13:19:35","新北市永和區保平路151巷15號","121.510508333333","25.0051616666667","6500400","永和區"
"234048","863-TW","2019/08/09 13:19:33","新北市永和區仁愛路104巷2號","121.512145","25.0132683333333","6500400","永和區"
"234025","9371-KE","2019/08/09 13:19:33","新北市永和區豫溪街42巷14號","121.515378333333","25.009245","6500400","永和區"
"234010","9373-KE","2019/08/09 13:19:39","新北市永和區文化路90巷32弄10號","121.51365","25.016495","6500400","永和區"
"248019","KED-0813","2019/08/09 13:19:38","新北市五股區孝義路32-5號","121.453518333333","25.1093283333333","6501500","五股區"
"234022","9380-KE","2019/08/09 13:19:25","新北市永和區竹林路101號","121.519775","25.0120183333333","6500400","永和區"
"234076","969-R7","2019/08/09 13:19:35","新北市永和區民有街100號","121.51782","24.9956533333333","6500400","永和區"
"234072","AAC-211","2019/08/09 13:19:23","新北市永和區竹林路36號","121.517373333333","25.0145183333333","6500400","永和區"
"234066","AAC-212","2019/08/09 13:19:36","新北市永和區保平路50巷8弄1號","121.51101","25.0075966666667","6500400","永和區"
"234001","AAC-295","2019/08/09 13:19:33","新北市永和區保福路一段92號","121.51212","25.0103966666667","6500400","永和區"
"231004","001-UM","2019/08/09 13:19:37","新北市新店區安華路28-1號","121.519503333333","24.9609516666667","6500600","新店區"
"231030","002-UM","2019/08/09 13:19:38","新北市新店區安華路28-1號","121.51962","24.96088","6500600","新店區"
"231027","0293-UT","2019/08/09 13:19:39","新北市新店區安康路一段166號","121.52588","24.9630633333333","6500600","新店區"
"231005","046-UY","2019/08/09 13:19:29","新北市新店區安華路28-1號","121.519458333333","24.9606016666667","6500600","新店區"
"231029","106-UY","2019/08/09 13:19:42","新北市新店區安華路28-1號","121.519758333333","24.9607566666667","6500600","新店區"
"231018","107-UY","2019/08/09 13:19:20","新北市新店區安康路一段35-1號","121.532143333333","24.96057","6500600","新店區"
"231032","256-BX","2019/08/09 13:19:26","新北市新店區安一路一段1-1號","121.51975","24.96108","6500600","新店區"
"231023","260-TV","2019/08/09 13:19:23","新北市新店區安一路一段1-1號","121.519251666667","24.9612566666667","6500600","新店區"
"231003","268-BY","2019/08/09 13:19:28","新北市新店區中正路80號","121.543783333333","24.9702766666667","6500600","新店區"
"231016","AAD-862","2019/08/09 13:19:31","新北市新店區安一路一段1-1號","121.519641666667","24.9613083333333","6500600","新店區"
"231006","355-BY","2019/08/09 13:19:30","新北市新店區安華路28-1號","121.519023333333","24.9608583333333","6500600","新店區"
"231038","3712-VJ","2019/08/09 13:19:26","新北市新店區安華路28-1號","121.519131666667","24.96064","6500600","新店區"
"231024","4716-K9","2019/08/09 13:19:25","新北市新店區安華路28-1號","121.519705","24.9610366666667","6500600","新店區"
"231025","4715-K9","2019/08/09 13:19:25","新北市新店區中央五街12號","121.529688333333","24.97419","6500600","新店區"
"231022","512-UM","2019/08/09 13:19:38","新北市新店區安康路一段142號","121.52651","24.9628733333333","6500600","新店區"
"231002","619-UM","2019/08/09 13:19:36","新北市新店區安華路28-1號","121.519665","24.9605366666667","6500600","新店區"
"231034","641-BX","2019/08/09 13:19:26","新北市新店區安華路28-1號","121.519586666667","24.9605533333333","6500600","新店區"
"231012","KED-0819","2019/08/09 13:19:30","新北市新店區安一路一段1-1號","121.519791666667","24.9611683333333","6500600","新店區"
"231036","718-UY","2019/08/09 13:19:24","新北市新店區建業路15號","121.482655","24.952645","6500600","新店區"
"231010","719-UM","2019/08/09 13:19:30","新北市新店區安康路一段167號","121.527201666667","24.9625116666667","6500600","新店區"
"231026","720-UM","2019/08/09 13:19:27","新北市新店區安一路一段1-1號","121.519098333333","24.96138","6500600","新店區"
"231028","897-TW","2019/08/09 13:19:35","新北市新店區安華路28-1號","121.519543333333","24.960705","6500600","新店區"
"231001","898-TW","2019/08/09 13:19:20","新北市新店區安華路28-1號","121.5194","24.9609833333333","6500600","新店區"
"231037","AKT-0513","2019/08/09 13:19:38","新北市新店區安忠路205巷8號","121.510056666667","24.955435","6500600","新店區"
"235030","003-UY","2019/08/09 13:19:38","新北市中和區中山路二段121號","121.502756666667","25.0035766666667","6500300","中和區"
"235028","005-UY","2019/08/09 13:19:22","新北市中和區連城路139巷63號","121.496943333333","24.997095","6500300","中和區"
"235027","006-UY","2019/08/09 13:19:23","新北市中和區中正路589巷1號","121.485896666667","24.99444","6500300","中和區"
"235020","096-UM","2019/08/09 13:19:39","新北市中和區新生街287號","121.48383","24.99752","6500300","中和區"
"235003","097-UM","2019/08/09 13:19:28","新北市中和區安平路38號","121.509891666667","24.9950133333333","6500300","中和區"
"235029","098-UM","2019/08/09 13:19:41","新北市中和區莊敬路49巷20弄24號","121.502875","25.005865","6500300","中和區"
"235004","150-BY","2019/08/09 13:19:23","新北市中和區景新街269號","121.509048333333","24.9938416666667","6500300","中和區"
"235022","151-BY","2019/08/09 13:19:32","新北市中和區圓通路369巷165號","121.490475","24.9822283333333","6500300","中和區"
"235019","183-VK","2019/08/09 13:19:33","新北市中和區莒光路163號","121.47275","25.0002583333333","6500300","中和區"
"235002","185-VK","2019/08/09 13:19:29","新北市中和區秀朗路三段128巷13號","121.524481666667","24.9934316666667","6500300","中和區"
"235013","186-VK","2019/08/09 13:19:39","新北市中和區中正路271號","121.495786666667","24.993715","6500300","中和區"
"235031","255-BX","2019/08/09 13:19:25","新北市中和區員山路148巷43號","121.482605","24.9971366666667","6500300","中和區"
"235036","301-VK","2019/08/09 13:19:30","新北市中和區中正路432巷34號","121.490896666667","24.9958583333333","6500300","中和區"
"235006","KEA-2878","2019/08/09 13:19:35","新北市中和區大仁街20巷25弄26號","121.519466666667","24.9935816666667","6500300","中和區"
"235014","4979-A6","2019/08/09 13:19:33","新北市中和區捷運路100-1號","121.506131666667","24.9913266666667","6500300","中和區"
"235033","4980-A6","2019/08/09 13:19:24","新北市中和區圓通路208號","121.49607","24.9939883333333","6500300","中和區"
"235034","558-UM","2019/08/09 13:19:25","新北市中和區景平路445號","121.500768333333","24.9961616666667","6500300","中和區"
"235009","565-BX","2019/08/09 13:19:34","新北市中和區復興路13號","121.505908333333","24.989715","6500300","中和區"
"235024","KED-0823","2019/08/09 13:19:30","新北市中和區員山路477巷1號","121.480141666667","25.0050933333333","6500300","中和區"
"235018","640-BX","2019/08/09 13:19:40","新北市中和區民享街112號","121.474558333333","24.999275","6500300","中和區"
"235011","732-UM","2019/08/09 13:19:24","新北市中和區南山路493號","121.507991666667","24.9878766666667","6500300","中和區"
"235010","733-UM","2019/08/09 13:19:26","新北市中和區員山路36巷16-3號","121.484666666667","24.991345","6500300","中和區"
"235035","783-BX","2019/08/09 13:19:22","新北市中和區立德街200巷56號","121.485963333333","25.0108266666667","6500300","中和區"
"235026","800-TS","2019/08/09 13:19:31","新北市中和區景平路675號","121.496638333333","25.0028533333333","6500300","中和區"
"235021","801-TS","2019/08/09 13:19:32","新北市中和區民安街43號","121.479868333333","25.0002833333333","6500300","中和區"
"235005","802-TS","2019/08/09 13:19:33","新北市永和區中和路373號","121.508315","24.9998016666667","6500300","中和區"
"235016","805-TS","2019/08/09 13:19:24","新北市中和區興南路二段133號","121.505223333333","24.9841783333333","6500300","中和區"
"235012","896-TW","2019/08/09 13:19:39","新北市中和區員山路36巷16-2號","121.485276666667","24.9915566666667","6500300","中和區"
"235017","900-TW","2019/08/09 13:19:20","新北市中和區員山路36巷16-2號","121.48528","24.9915333333333","6500300","中和區"
"235015","157-BY","2019/08/09 13:19:27","新北市中和區忠孝街72號","121.511991666667","24.9841","6500300","中和區"
"235001","AAC-213","2019/08/09 13:19:23","新北市中和區景德街95-2號","121.515468333333","24.9911016666667","6500300","中和區"
"220017","AAD-861","2019/08/09 13:19:32","新北市板橋區華東街1-10號","121.448353333333","24.9951366666667","6500100","板橋區"
"247011","056-VK","2019/08/09 13:19:28","新北市五股區中興路三段2巷10號","121.449123333333","25.0811216666667","6501400","蘆洲區"
"247005","002-UY","2019/08/09 13:19:31","新北市五股區中興路三段163號","121.449233333333","25.080645","6501400","蘆洲區"
"207002","749-BX","2019/08/09 13:19:26","新北市萬里區崁腳里內崁路10-1號","121.641563333333","25.159435","6502800","萬里區"
"207001","662-BX","2019/08/09 13:19:23","新北市萬里區龜吼里翡翠路17號","121.68322","25.1876583333333","6502800","萬里區"
"221029","298-VK","2019/08/09 13:19:31","新北市汐止區南陽街117號","121.62421","25.0605966666667","6501100","汐止區"
"220030","610-BX","2019/08/09 13:19:25","新北市板橋區華東街1-10號","121.44826","24.994925","6500100","板橋區"
"220104","560-BX","2019/08/09 13:19:28","新北市板橋區南雅南路二段40號","121.45405","25.0025416666667","6500100","板橋區"
"220021","985-R7","2019/08/09 13:19:25","新北市板橋區華東街1-10號","121.448306666667","24.9949366666667","6500100","板橋區"
"235032","KEA-2873","2019/08/09 13:19:34","新北市中和區錦和路350-1號","121.490288333333","24.993545","6500300","中和區"
"235025","KEA-2875","2019/08/09 13:19:29","新北市中和區民享街116號","121.474478333333","24.9989466666667","6500300","中和區"
