"lineid","car","time","location","longitude","latitude","cityid","cityname"
"234044","148-BY","2019/08/09 13:39:31","新北市永和區永利路165號","121.525093333333","25.0034033333333","6500400","永和區"
"234078","298-R6","2019/08/09 13:39:38","新北市永和區國中路104巷8弄23號","121.525503333333","25.006225","6500400","永和區"
"234036","336-UY","2019/08/09 13:39:42","新北市永和區民樂街23號","121.527651666667","25.00195","6500400","永和區"
"234062","337-UY","2019/08/09 13:39:36","新北市永和區秀朗路二段24巷43號","121.52009","25.00183","6500400","永和區"
"234084","338-UY","2019/08/09 13:39:24","新北市永和區永亨路61號","121.521055","25.0061","6500400","永和區"
"234068","552-UM","2019/08/09 13:39:31","新北市永和區永和路二段233號","121.515538333333","25.0142416666667","6500400","永和區"
"234015","745-BX","2019/08/09 13:39:27","新北市永和區永和路二段425巷54號","121.51411","25.0175316666667","6500400","永和區"
"234028","746-BX","2019/08/09 13:39:33","新北市永和區民權路31號","121.520241666667","24.9977283333333","6500400","永和區"
"234052","KEA-2590","2019/08/09 13:39:19","新北市永和區竹林路39巷26號","121.519041666667","25.0146516666667","6500400","永和區"
"234005","KED-0605","2019/08/09 13:39:41","新北市永和區永和路一段93號","121.513415","25.007385","6500400","永和區"
"234013","KEA-2591","2019/08/09 13:39:27","新北市永和區永平路234號","121.508696666667","25.0109283333333","6500400","永和區"
"234060","AAD-866","2019/08/09 13:39:22","新北市永和區中正路446號","121.517473333333","25.002885","6500400","永和區"
"234040","862-TW","2019/08/09 13:39:31","新北市永和區永貞路265號","121.51182","25.0046483333333","6500400","永和區"
"234048","863-TW","2019/08/09 13:39:39","新北市永和區保安路2號","121.510863333333","25.0173533333333","6500400","永和區"
"234025","9371-KE","2019/08/09 13:39:33","新北市永和區自由街54號","121.513686666667","25.0059916666667","6500400","永和區"
"234010","9373-KE","2019/08/09 13:39:34","新北市永和區保福路二段95號","121.510523333333","25.0129483333333","6500400","永和區"
"248019","KED-0813","2019/08/09 13:39:39","新北市五股區孝義路92號","121.447093333333","25.1187716666667","6501500","五股區"
"234022","9380-KE","2019/08/09 13:39:25","新北市永和區中正路702巷18號","121.516451666667","25.0106016666667","6500400","永和區"
"234076","969-R7","2019/08/09 13:39:36","新北市永和區民權路26號","121.520321666667","24.9991666666667","6500400","永和區"
"234072","AAC-211","2019/08/09 13:39:40","新北市永和區竹林路213巷24號","121.52201","25.0088733333333","6500400","永和區"
"234066","AAC-212","2019/08/09 13:39:36","新北市永和區中山路一段193號","121.509261666667","25.0089383333333","6500400","永和區"
"234001","AAC-295","2019/08/09 13:39:31","新北市永和區永和路一段136號","121.51402","25.007935","6500400","永和區"
"231004","001-UM","2019/08/09 13:39:37","新北市新店區北新路二段18號","121.542796666667","24.9713416666667","6500600","新店區"
"231030","002-UM","2019/08/09 13:39:38","新北市新店區安康路一段319號","121.522148333333","24.9636916666667","6500600","新店區"
"231027","0293-UT","2019/08/09 13:39:39","新北市新店區國校路68號","121.53863","24.9531266666667","6500600","新店區"
"231005","046-UY","2019/08/09 13:39:29","新北市新店區寶中路72號","121.547811666667","24.9805933333333","6500600","新店區"
"231029","106-UY","2019/08/09 13:39:22","新北市新店區車子路1-1號","121.50463","24.957905","6500600","新店區"
"231018","107-UY","2019/08/09 13:39:41","新北市新店區中正路347號","121.535378333333","24.9757633333333","6500600","新店區"
"231013","108-UY","2019/08/09 13:39:25","新北市新店區中正路454-5號","121.534466666667","24.979075","6500600","新店區"
"231032","256-BX","2019/08/09 13:39:26","新北市新店區莒光路61巷1號","121.523826666667","24.958425","6500600","新店區"
"231023","260-TV","2019/08/09 13:39:23","新北市新店區新店路203號","121.53711","24.9564616666667","6500600","新店區"
"231003","268-BY","2019/08/09 13:39:28","新北市新店區中正路7號","121.545713333333","24.9692683333333","6500600","新店區"
"231035","278-BY","2019/08/09 13:39:40","新北市新店區安忠路102巷2號","121.51081","24.9564083333333","6500600","新店區"
"231016","AAD-862","2019/08/09 13:39:31","新北市新店區竹林路2巷29弄7號","121.55041","24.9502833333333","6500600","新店區"
"231006","355-BY","2019/08/09 13:39:30","新北市新店區北宜路一段88號","121.538855","24.955745","6500600","新店區"
"231038","3712-VJ","2019/08/09 13:39:26","新北市新店區安華路30巷1號","121.519656666667","24.95933","6500600","新店區"
"231024","4716-K9","2019/08/09 13:39:25","新北市新店區華興街38巷5號","121.537065","24.9692533333333","6500600","新店區"
"231025","4715-K9","2019/08/09 13:39:25","新北市新店區中央五街38號","121.528481666667","24.9748833333333","6500600","新店區"
"231022","512-UM","2019/08/09 13:39:38","新北市新店區新烏路一段130號","121.54432","24.9338533333333","6500600","新店區"
"231002","619-UM","2019/08/09 13:39:36","新北市新店區中央一街45號","121.527018333333","24.9738666666667","6500600","新店區"
"231034","641-BX","2019/08/09 13:39:26","新北市新店區車子路134號","121.505216666667","24.94941","6500600","新店區"
"231012","KED-0819","2019/08/09 13:39:30","新北市新店區德正街27巷36號","121.545695","24.9714783333333","6500600","新店區"
"231036","718-UY","2019/08/09 13:39:24","新北市新店區安祥路147巷37號","121.47651","24.9566216666667","6500600","新店區"
"231010","719-UM","2019/08/09 13:39:10","新北市新店區平等街13號","121.536898333333","24.9740533333333","6500600","新店區"
"231026","720-UM","2019/08/09 13:39:27","新北市新店區光明街9號","121.538215","24.9594316666667","6500600","新店區"
"231028","897-TW","2019/08/09 13:39:35","新北市新店區安和路一段52巷2-1號","121.517668333333","24.9663116666667","6500600","新店區"
"231001","898-TW","2019/08/09 13:39:40","新北市新店區中央路45號","121.532821666667","24.9775583333333","6500600","新店區"
"231037","AKT-0513","2019/08/09 13:39:38","新北市新店區安康路三段355巷2號","121.484445","24.95034","6500600","新店區"
"235030","003-UY","2019/08/09 13:39:38","新北市中和區光華街48號","121.505111666667","25.0035716666667","6500300","中和區"
"235028","005-UY","2019/08/09 13:39:22","新北市中和區泰和街44巷3號","121.498663333333","25.000185","6500300","中和區"
"235027","006-UY","2019/08/09 13:39:23","新北市中和區連城路305號","121.489686666667","24.9962766666667","6500300","中和區"
"235020","096-UM","2019/08/09 13:39:39","新北市中和區中正路1180號","121.48131","25.0098816666667","6500300","中和區"
"235003","097-UM","2019/08/09 13:39:30","新北市中和區景平路278巷16弄8號","121.514166666667","24.9935033333333","6500300","中和區"
"235029","098-UM","2019/08/09 13:39:41","新北市中和區莊敬路33巷25號","121.500583333333","25.00722","6500300","中和區"
"235004","150-BY","2019/08/09 13:39:23","新北市中和區安平路59號","121.509551666667","24.9951716666667","6500300","中和區"
"235022","151-BY","2019/08/09 13:39:32","新北市中和區連城路532巷12號","121.474901666667","24.99245","6500300","中和區"
"235019","183-VK","2019/08/09 13:39:33","新北市中和區民生街85巷5弄2號","121.469261666667","25.0040433333333","6500300","中和區"
"235002","185-VK","2019/08/09 13:39:29","新北市中和區立人街28號","121.518613333333","24.9941216666667","6500300","中和區"
"235013","186-VK","2019/08/09 13:39:39","新北市中和區景安路132巷35號","121.503781666667","24.9944533333333","6500300","中和區"
"235031","255-BX","2019/08/09 13:39:25","新北市中和區新生街264號","121.483538333333","24.997215","6500300","中和區"
"235008","293-VK","2019/08/09 13:39:22","新北市中和區復興路280巷29號","121.501646666667","24.9917533333333","6500300","中和區"
"235036","301-VK","2019/08/09 13:39:30","新北市中和區中山路二段139號","121.502081666667","25.0028883333333","6500300","中和區"
"235006","KEA-2878","2019/08/09 13:39:35","新北市中和區秀朗路三段135巷7弄1號","121.525463333333","24.9920333333333","6500300","中和區"
"235014","4979-A6","2019/08/09 13:39:33","新北市中和區景新街496巷28弄8號","121.513128333333","24.9858733333333","6500300","中和區"
"235033","4980-A6","2019/08/09 13:39:24","新北市中和區連城路65巷12號","121.498018333333","25.00069","6500300","中和區"
"235034","558-UM","2019/08/09 13:39:25","新北市中和區南山路41號","121.502048333333","24.9985883333333","6500300","中和區"
"235009","565-BX","2019/08/09 13:39:36","新北市中和區南山路218號","121.5063","24.9904033333333","6500300","中和區"
"235024","KED-0823","2019/08/09 13:39:32","新北市中和區中山路三段136號","121.473878333333","25.0061883333333","6500300","中和區"
"235018","640-BX","2019/08/09 13:39:40","新北市中和區民享街63號","121.474238333333","25.0023183333333","6500300","中和區"
"235011","732-UM","2019/08/09 13:39:24","新北市中和區南山路320巷13號","121.507506666667","24.9863416666667","6500300","中和區"
"235010","733-UM","2019/08/09 13:39:26","新北市中和區忠孝街126-1號","121.512113333333","24.9863066666667","6500300","中和區"
"235035","783-BX","2019/08/09 13:39:22","新北市中和區立德街26巷5弄17號","121.489721666667","25.007865","6500300","中和區"
"235026","800-TS","2019/08/09 13:39:31","新北市中和區中山路二段340巷63號","121.492708333333","25.0048316666667","6500300","中和區"
"235021","801-TS","2019/08/09 13:39:32","新北市中和區民利街25號","121.480173333333","24.9989883333333","6500300","中和區"
"235005","802-TS","2019/08/09 13:39:33","新北市中和區永貞路249巷18號","121.512461666667","25.0036183333333","6500300","中和區"
"235016","805-TS","2019/08/09 13:39:04","新北市中和區興南路三段83號","121.491663333333","24.9738316666667","6500300","中和區"
"235012","896-TW","2019/08/09 13:39:39","新北市中和區中正路71號","121.501045","24.9933333333333","6500300","中和區"
"235017","900-TW","2019/08/09 13:39:40","新北市中和區華福街2巷1號","121.46525","24.996865","6500300","中和區"
"235015","157-BY","2019/08/09 13:39:27","新北市中和區華新街143巷106弄30號","121.506108333333","24.97876","6500300","中和區"
"235001","AAC-213","2019/08/09 13:39:23","新北市中和區秀朗路三段128巷2號","121.524688333333","24.9923766666667","6500300","中和區"
"235023","AAC-215","2019/08/09 13:39:25","新北市中和區中正路395號","121.489426666667","24.9935233333333","6500300","中和區"
"220013","072-UY","2019/08/09 13:39:31","新北市板橋區成都街103號","121.463526666667","25.0053033333333","6500100","板橋區"
"220034","073-UY","2019/08/09 13:39:28","新北市板橋區華東街1-10號","121.448246666667","24.99505","6500100","板橋區"
"220105","075-UY","2019/08/09 13:39:24","新北市板橋區民生路二段161巷9號","121.470341666667","25.0195366666667","6500100","板橋區"
"220017","AAD-861","2019/08/09 13:39:32","新北市板橋區華興街91巷4號","121.456651666667","25.00532","6500100","板橋區"
"247011","056-VK","2019/08/09 13:39:28","新北市五股區中興路三段163號","121.449173333333","25.0807366666667","6501400","蘆洲區"
"247005","002-UY","2019/08/09 13:39:31","新北市五股區工商路8號","121.440491666667","25.0823533333333","6501400","蘆洲區"
"207002","749-BX","2019/08/09 13:39:26","新北市萬里區崁腳里崁腳路166號","121.645208333333","25.1560716666667","6502800","萬里區"
"207001","662-BX","2019/08/09 13:39:23","新北市萬里區大鵬里萬里加投29號","121.64782","25.2062766666667","6502800","萬里區"
"236029","253-BX","2019/08/09 13:39:26","新北市土城區城林路6巷80號","121.438573333333","24.9797983333333","6501300","土城區"
"236032","271-VK","2019/08/09 13:39:35","新北市土城區城林路6巷80號","121.438405","24.97976","6501300","土城區"
"247009","KED-0683","2019/08/09 13:39:35","新北市五股區中興路三段163號","121.448446666667","25.081115","6501400","蘆洲區"
"236057","912-UM","2019/08/09 13:39:40","新北市土城區城林路6巷80號","121.438618333333","24.9797383333333","6501300","土城區"
"221029","298-VK","2019/08/09 13:39:30","新北市汐止區福德一路226巷1號","121.633615","25.0655116666667","6501100","汐止區"
"220027","145-BY","2019/08/09 13:39:27","新北市板橋區大觀路一段79號","121.447015","25.0042183333333","6500100","板橋區"
"220030","610-BX","2019/08/09 13:39:25","新北市板橋區大觀路二段443-2號","121.43984","24.9951183333333","6500100","板橋區"
"220032","256-TC","2019/08/09 13:39:24","新北市板橋區大觀路二段179巷34號","121.446235","24.9993883333333","6500100","板橋區"
"220004","276-BY","2019/08/09 13:39:38","新北市板橋區四川路一段57號","121.45969","25.00617","6500100","板橋區"
"220020","277-BY","2019/08/09 13:39:32","新北市板橋區大觀路二段443-2號","121.439555","24.99517","6500100","板橋區"
"220019","283-VK","2019/08/09 13:39:36","新北市板橋區四川路二段14號","121.456165","24.996265","6500100","板橋區"
"220043","285-UM","2019/08/09 13:39:25","新北市板橋區民生路二段161巷3號","121.470265","25.0198533333333","6500100","板橋區"
"220031","286-VK","2019/08/09 13:39:25","新北市板橋區板城路271號","121.450085","24.9979083333333","6500100","板橋區"
"220029","287-VK","2019/08/09 13:39:25","新北市板橋區板城路421號","121.447958333333","24.9964366666667","6500100","板橋區"
"220039","288-VK","2019/08/09 13:39:39","新北市板橋區民生路二段120號","121.470463333333","25.0195366666667","6500100","板橋區"
"220010","295-UM","2019/08/09 13:39:38","新北市板橋區民生路二段161巷3號","121.470263333333","25.019805","6500100","板橋區"
"220023","303-R5","2019/08/09 13:39:27","新北市板橋區華東街1-8號","121.44774","24.9948","6500100","板橋區"
"220041","307-R5","2019/08/09 13:39:22","新北市板橋區民生路二段89-4號","121.471571666667","25.0184","6500100","板橋區"
"220038","487-VK","2019/08/09 13:39:28","新北市板橋區民生路二段161巷1號","121.469918333333","25.0198616666667","6500100","板橋區"
"220037","491-VK","2019/08/09 13:39:25","新北市板橋區民生路二段161巷1號","121.469981666667","25.01995","6500100","板橋區"
"220104","560-BX","2019/08/09 13:39:28","新北市板橋區南雅西路二段145巷10號","121.451548333333","25.0118833333333","6500100","板橋區"
"220052","561-BX","2019/08/09 13:39:38","新北市板橋區民生路二段89-4號","121.47148","25.0179933333333","6500100","板橋區"
"220028","568-UM","2019/08/09 13:39:29","新北市板橋區大觀路二段265巷7-7號","121.444146666667","24.9946633333333","6500100","板橋區"
"220003","630-UY","2019/08/09 13:39:40","新北市板橋區忠孝路108-1號","121.462251666667","25.002145","6500100","板橋區"
"220005","686-BX","2019/08/09 13:39:43","新北市板橋區館前西路4-1號","121.459085","25.0071333333333","6500100","板橋區"
"220025","687-BX","2019/08/09 13:39:28","新北市板橋區大觀路三段261號","121.429286666667","24.9921433333333","6500100","板橋區"
"220042","689-BX","2019/08/09 13:39:21","新北市板橋區民生路二段161巷1號","121.4701","25.0201233333333","6500100","板橋區"
"220051","KEA-2699","2019/08/09 13:39:28","新北市板橋區民生路二段161巷1號","121.470171666667","25.01987","6500100","板橋區"
"220022","895-R6","2019/08/09 13:39:30","新北市板橋區南雅南路一段8號","121.455766666667","25.00631","6500100","板橋區"
"220021","985-R7","2019/08/09 13:39:25","新北市板橋區貴興路114號","121.455103333333","25.0021066666667","6500100","板橋區"
"220046","AAC-210","2019/08/09 13:39:25","新北市板橋區民生路二段161巷5號","121.470191666667","25.019735","6500100","板橋區"
"220012","AAC-253","2019/08/09 13:39:29","新北市板橋區民生路二段36-1號","121.472058333333","25.0168316666667","6500100","板橋區"
"235032","KEA-2873","2019/08/09 13:39:34","新北市中和區圓通路289號","121.495121666667","24.9926233333333","6500300","中和區"
"235025","KEA-2875","2019/08/09 13:39:33","新北市中和區民享街41號","121.474018333333","25.0029483333333","6500300","中和區"
