"lineid","car","time","location","longitude","latitude","cityid","cityname"
"234078","298-R6","2019/08/09 14:29:25","新北市永和區永亨路70號","121.520925","25.00565","6500400","永和區"
"234036","336-UY","2019/08/09 14:29:22","新北市永和區民樂街31巷10弄12號","121.528925","25.000855","6500400","永和區"
"234062","337-UY","2019/08/09 14:29:35","新北市永和區中正路433號","121.517078333333","25.00504","6500400","永和區"
"234068","552-UM","2019/08/09 14:29:31","新北市永和區永亨路7號","121.519366666667","25.0057083333333","6500400","永和區"
"234052","KEA-2590","2019/08/09 14:29:39","新北市永和區光復街60巷31號","121.518253333333","25.01727","6500400","永和區"
"234060","AAD-866","2019/08/09 14:29:41","新北市永和區秀朗路一段108巷8號","121.516428333333","25.0038","6500400","永和區"
"234040","862-TW","2019/08/09 14:29:31","新北市永和區安樂路348號","121.514495","25.0064116666667","6500400","永和區"
"234048","863-TW","2019/08/09 14:29:37","新北市永和區保安路73號","121.508831666667","25.0151083333333","6500400","永和區"
"234025","9371-KE","2019/08/09 14:29:38","新北市中和區安平路220號","121.51384","25.00009","6500400","永和區"
"248019","KED-0813","2019/08/09 14:29:39","新北市五股區凌雲路三段69號","121.425425","25.1249683333333","6501500","五股區"
"234072","AAC-211","2019/08/09 14:29:40","新北市永和區竹林路119巷7號","121.520505","25.0115016666667","6500400","永和區"
"234001","AAC-295","2019/08/09 14:29:39","新北市永和區大新街47號","121.515631666667","25.00844","6500400","永和區"
"231004","001-UM","2019/08/09 14:29:37","新北市新店區中正路263-2號","121.538455","24.9737216666667","6500600","新店區"
"231030","002-UM","2019/08/09 14:29:38","新北市新店區安民街74號","121.516565","24.9668066666667","6500600","新店區"
"231027","0293-UT","2019/08/09 14:29:39","新北市新店區北新路二段228巷13號","121.543433333333","24.97711","6500600","新店區"
"231005","046-UY","2019/08/09 14:29:40","新北市新店區復興路16號","121.539653333333","24.9868283333333","6500600","新店區"
"231029","106-UY","2019/08/09 14:29:42","新北市新店區安康路二段406號","121.496798333333","24.9553633333333","6500600","新店區"
"231018","107-UY","2019/08/09 14:29:40","新北市新店區中央三街17號","121.52904","24.9737183333333","6500600","新店區"
"231013","108-UY","2019/08/09 14:29:25","新北市新店區民權路88-5號","121.536421666667","24.983395","6500600","新店區"
"231032","256-BX","2019/08/09 14:29:26","新北市新店區安業街67巷34號","121.52032","24.9749666666667","6500600","新店區"
"231023","260-TV","2019/08/09 14:29:23","新北市新店區北新路一段209號","121.540486666667","24.9650216666667","6500600","新店區"
"231003","268-BY","2019/08/09 14:27:28","新北市新店區中興路一段268-2號","121.545291666667","24.967705","6500600","新店區"
"231035","278-BY","2019/08/09 14:29:40","新北市新店區安光路10-1號","121.513746666667","24.9641783333333","6500600","新店區"
"231016","AAD-862","2019/08/09 14:29:30","新北市新店區北宜路三段187號","121.587986666667","24.9523233333333","6500600","新店區"
"231006","355-BY","2019/08/09 14:29:30","新北市新店區北宜路二段204號","121.559206666667","24.9543383333333","6500600","新店區"
"231038","3712-VJ","2019/08/09 14:29:26","新北市新店區安康路一段32號","121.531683333333","24.9610933333333","6500600","新店區"
"231022","512-UM","2019/08/09 14:29:38","新北市新店區桂山路100巷11號","121.565365","24.8971133333333","6500600","新店區"
"231002","619-UM","2019/08/09 14:29:36","新北市新店區中正路347號","121.535426666667","24.9758783333333","6500600","新店區"
"231034","641-BX","2019/08/09 14:29:26","新北市新店區車子路11號","121.502965","24.9517266666667","6500600","新店區"
"231012","KED-0819","2019/08/09 14:29:30","新北市新店區寶橋路75號","121.545606666667","24.9751166666667","6500600","新店區"
"231036","718-UY","2019/08/09 14:29:24","新北市新店區安祥路109巷92號","121.478263333333","24.9594733333333","6500600","新店區"
"231028","897-TW","2019/08/09 14:29:34","新北市新店區安和路一段15號","121.516821666667","24.964155","6500600","新店區"
"231001","898-TW","2019/08/09 14:29:40","新北市新店區中正路75巷71號","121.543206666667","24.96879","6500600","新店區"
"231037","AKT-0513","2019/08/09 14:29:38","新北市新店區車子路12號","121.50476","24.95419","6500600","新店區"
"235030","003-UY","2019/08/09 14:29:38","新北市中和區景新街48號","121.503878333333","24.9992066666667","6500300","中和區"
"235027","006-UY","2019/08/09 14:29:23","新北市中和區連勝街148號","121.494086666667","24.9971433333333","6500300","中和區"
"235020","096-UM","2019/08/09 14:29:39","新北市中和區員山路581巷2弄7-2號","121.477701666667","25.00958","6500300","中和區"
"235003","097-UM","2019/08/09 14:29:28","新北市中和區景平路310號","121.512425","24.992875","6500300","中和區"
"235029","098-UM","2019/08/09 14:29:40","新北市中和區福祥路90巷7弄7號","121.499416666667","25.0061733333333","6500300","中和區"
"235004","150-BY","2019/08/09 14:29:23","新北市中和區安樂路83號","121.51268","24.9944466666667","6500300","中和區"
"235019","183-VK","2019/08/09 14:29:39","新北市中和區民生街12巷1號","121.470511666667","25.0055833333333","6500300","中和區"
"235002","185-VK","2019/08/09 14:29:26","新北市中和區自立路20巷10號","121.521726666667","24.9933266666667","6500300","中和區"
"235013","186-VK","2019/08/09 14:29:39","新北市中和區安平路24號","121.50932","24.9943483333333","6500300","中和區"
"235031","255-BX","2019/08/09 14:29:41","新北市中和區員山路150巷2弄47號","121.482158333333","24.9974516666667","6500300","中和區"
"235008","293-VK","2019/08/09 14:29:42","新北市中和區捷運路135號","121.506993333333","24.99093","6500300","中和區"
"235036","301-VK","2019/08/09 14:29:30","新北市中和區中山路二段3巷22弄42號","121.505711666667","25.0038633333333","6500300","中和區"
"235007","352-BY","2019/08/09 14:29:42","新北市中和區景平路448-3號","121.506201666667","24.9934583333333","6500300","中和區"
"235006","KEA-2878","2019/08/09 14:29:35","新北市中和區中和路262巷33號","121.509588333333","24.9994616666667","6500300","中和區"
"247007","KED-0682","2019/08/09 14:29:26","新北市蘆洲區民生街47號","121.475055","25.0788716666667","6501400","蘆洲區"
"235034","558-UM","2019/08/09 14:29:25","新北市中和區連勝街42號","121.497976666667","24.9975066666667","6500300","中和區"
"235009","565-BX","2019/08/09 14:29:34","新北市中和區安樂路1號","121.511595","24.991855","6500300","中和區"
"235024","KED-0823","2019/08/09 14:29:29","新北市中和區中山路二段523巷30號","121.481753333333","25.003755","6500300","中和區"
"235018","640-BX","2019/08/09 14:29:40","新北市中和區民享街65號","121.474135","25.0022966666667","6500300","中和區"
"235011","732-UM","2019/08/09 14:29:24","新北市中和區景平路329巷2弄5號","121.505535","24.99291","6500300","中和區"
"235010","733-UM","2019/08/09 14:29:26","新北市中和區忠孝街37巷52號","121.511111666667","24.984855","6500300","中和區"
"235035","783-BX","2019/08/09 14:29:42","新北市中和區連城路346號","121.482616666667","24.99567","6500300","中和區"
"235026","800-TS","2019/08/09 14:29:31","新北市中和區中山路二段330號","121.49452","25.0023366666667","6500300","中和區"
"235021","801-TS","2019/08/09 14:29:31","新北市中和區員山路184號","121.481393333333","25.0002766666667","6500300","中和區"
"235005","802-TS","2019/08/09 14:29:33","新北市中和區宜安路147號","121.509225","24.99871","6500300","中和區"
"235016","805-TS","2019/08/09 14:29:44","新北市中和區華新街143巷72號","121.506413333333","24.9791333333333","6500300","中和區"
"235012","896-TW","2019/08/09 14:29:39","新北市中和區忠孝街112號","121.512165","24.9852933333333","6500300","中和區"
"235017","900-TW","2019/08/09 14:29:40","新北市中和區民德路143號","121.468843333333","25.0004183333333","6500300","中和區"
"235018","911-UM","2019/08/09 14:29:25","新北市中和區國光街112巷20弄5號","121.470646666667","25.0018866666667","6500300","中和區"
"235015","157-BY","2019/08/09 14:29:27","新北市中和區景安路208巷33號","121.502426666667","24.9924916666667","6500300","中和區"
"235001","AAC-213","2019/08/09 14:29:43","新北市中和區秀朗路三段50巷2號","121.525896666667","24.995505","6500300","中和區"
"235023","AAC-215","2019/08/09 14:29:30","新北市中和區圓通路303號","121.493585","24.9909466666667","6500300","中和區"
"220013","072-UY","2019/08/09 14:29:31","新北市板橋區實踐路93巷77號","121.467188333333","25.0053216666667","6500100","板橋區"
"220034","073-UY","2019/08/09 14:29:28","新北市板橋區中正路250巷53號","121.457765","25.0197416666667","6500100","板橋區"
"220105","075-UY","2019/08/09 14:29:45","新北市板橋區民治街26巷6號","121.477635","25.0339033333333","6500100","板橋區"
"220017","AAD-861","2019/08/09 14:29:38","新北市板橋區貴興路106巷12號","121.455111666667","25.0031833333333","6500100","板橋區"
"247003","893-R6","2019/08/09 14:29:27","新北市蘆洲區長安街196號","121.458736666667","25.0839133333333","6501400","蘆洲區"
"247017","546-UM","2019/08/09 14:29:22","新北市蘆洲區民族路314巷1號","121.47717","25.09021","6501400","蘆洲區"
"247023","337-TH","2019/08/09 14:29:25","新北市蘆洲區中正路263巷2號","121.467315","25.0875633333333","6501400","蘆洲區"
"247001","336-TH","2019/08/09 14:29:34","新北市蘆洲區環堤大道174號","121.456243333333","25.08991","6501400","蘆洲區"
"247011","056-VK","2019/08/09 14:29:42","新北市蘆洲區中興街163號","121.482046666667","25.0897283333333","6501400","蘆洲區"
"247015","053-VK","2019/08/09 14:29:35","新北市蘆洲區中正路185巷78弄21號","121.465428333333","25.0851366666667","6501400","蘆洲區"
"247019","007-UY","2019/08/09 14:29:40","新北市蘆洲區水湳街106號","121.46954","25.093005","6501400","蘆洲區"
"247005","002-UY","2019/08/09 14:29:31","新北市蘆洲區長安街79號","121.462476666667","25.0801066666667","6501400","蘆洲區"
"207002","749-BX","2019/08/09 14:29:26","新北市萬里區溪底里瑞泉路4號","121.609358333333","25.1451083333333","6502800","萬里區"
"207001","662-BX","2019/08/09 14:29:42","新北市萬里區磺潭里清水18-5號","121.639575","25.1992866666667","6502800","萬里區"
"236040","KED-0685","2019/08/09 14:29:41","新北市土城區學成路91巷10號","121.450728333333","24.98805","6501300","土城區"
"236077","166-UM","2019/08/09 14:29:40","新北市土城區大暖路10號","121.423458333333","24.9603733333333","6501300","土城區"
"236029","253-BX","2019/08/09 14:29:28","新北市土城區順風路8號","121.440145","24.9762266666667","6501300","土城區"
"236024","269-VK","2019/08/09 14:29:21","新北市土城區承天路18號","121.439461666667","24.963495","6501300","土城區"
"236013","270-VK","2019/08/09 14:29:25","新北市土城區青雲路39巷7號","121.460298333333","24.9874016666667","6501300","土城區"
"236032","271-VK","2019/08/09 14:29:15","新北市土城區青雲路451巷4號","121.459421666667","24.974695","6501300","土城區"
"247009","KED-0683","2019/08/09 14:29:35","新北市蘆洲區信義路180號","121.479218333333","25.0841133333333","6501400","蘆洲區"
"236067","KEA-2877","2019/08/09 14:29:39","新北市土城區永豐路255巷27弄23號","121.476236666667","24.9731166666667","6501300","土城區"
"236016","401-BY","2019/08/09 14:29:35","新北市土城區永豐路202巷14號","121.466191666667","24.9834516666667","6501300","土城區"
"236057","912-UM","2019/08/09 14:29:40","新北市土城區中央路四段10號","121.42169","24.9612933333333","6501300","土城區"
"236045","913-UM","2019/08/09 14:29:28","新北市土城區明德路一段182號","121.462295","24.978115","6501300","土城區"
"236060","915-UM","2019/08/09 14:29:41","新北市土城區延壽路16弄1號","121.468723333333","24.991775","6501300","土城區"
"236054","AAC-216","2019/08/09 14:29:31","新北市土城區中華路一段247號","121.440801666667","24.9814616666667","6501300","土城區"
"220027","145-BY","2019/08/09 14:29:27","新北市板橋區公館街27號","121.461035","25.0152383333333","6500100","板橋區"
"220030","610-BX","2019/08/09 14:29:41","新北市板橋區金門街256號","121.43021","24.9868166666667","6500100","板橋區"
"220050","245-BX","2019/08/09 14:29:38","新北市板橋區莒光路200巷26號","121.473146666667","25.0221883333333","6500100","板橋區"
"220032","256-TC","2019/08/09 14:29:24","新北市板橋區篤行路三段玉平巷76弄16號","121.42745","24.9859833333333","6500100","板橋區"
"220040","267-BY","2019/08/09 14:29:40","新北市板橋區文聖街149巷25號","121.479491666667","25.0286133333333","6500100","板橋區"
"220004","276-BY","2019/08/09 14:29:38","新北市板橋區信義路83號","121.457926666667","24.99433","6500100","板橋區"
"220020","277-BY","2019/08/09 14:29:32","新北市板橋區金門街253巷17弄27號","121.4335","24.9890766666667","6500100","板橋區"
"220019","283-VK","2019/08/09 14:29:36","新北市板橋區忠孝路24巷36號","121.460245","25.0007433333333","6500100","板橋區"
"220043","285-UM","2019/08/09 14:29:25","新北市板橋區銘傳街58號","121.468763333333","25.03083","6500100","板橋區"
"220001","285-VK","2019/08/09 14:29:35","新北市板橋區富山街71巷10-3號","121.476711666667","25.0215533333333","6500100","板橋區"
"220031","286-VK","2019/08/09 14:29:25","新北市板橋區龍興街71巷39號","121.442158333333","25.0024666666667","6500100","板橋區"
"220029","287-VK","2019/08/09 14:29:25","新北市板橋區大觀路一段75巷43號","121.44913","25.0041133333333","6500100","板橋區"
"220039","288-VK","2019/08/09 14:29:39","新北市板橋區裕民街151號","121.458548333333","25.02708","6500100","板橋區"
"220009","293-UM","2019/08/09 14:29:28","新北市板橋區中山路一段265巷36弄2號","121.469146666667","25.0150566666667","6500100","板橋區"
"220010","295-UM","2019/08/09 14:29:42","新北市板橋區三民路二段81巷3號","121.479721666667","25.0168116666667","6500100","板橋區"
"220023","303-R5","2019/08/09 14:29:27","新北市板橋區南雅西路一段37號","121.453858333333","25.004605","6500100","板橋區"
"220041","307-R5","2019/08/09 14:29:42","新北市板橋區四維路103巷32號","121.46438","25.024","6500100","板橋區"
"220098","317-R6","2019/08/09 14:29:29","新北市板橋區四維路266巷2弄25-1號","121.464093333333","25.0280916666667","6500100","板橋區"
"220038","487-VK","2019/08/09 14:29:28","新北市板橋區龍泉街139號","121.457808333333","25.02401","6500100","板橋區"
"220037","491-VK","2019/08/09 14:29:25","新北市板橋區文化路二段556號","121.47622","25.0342483333333","6500100","板橋區"
"220104","560-BX","2019/08/09 14:29:28","新北市板橋區中正路431號","121.454218333333","25.02322","6500100","板橋區"
"220052","561-BX","2019/08/09 14:29:38","新北市板橋區陽明街29巷1弄24號","121.464101666667","25.0221016666667","6500100","板橋區"
"220028","568-UM","2019/08/09 14:29:33","新北市板橋區大觀路二段37巷182號","121.449686666667","25.0021383333333","6500100","板橋區"
"220011","609-BX","2019/08/09 14:29:30","新北市板橋區萬安街27巷22號","121.483906666667","25.0229233333333","6500100","板橋區"
"220003","630-UY","2019/08/09 14:29:40","新北市板橋區重慶路239號","121.463086666667","25.0007516666667","6500100","板橋區"
"220005","686-BX","2019/08/09 14:29:43","新北市板橋區廣和街60號","121.461966666667","24.9939166666667","6500100","板橋區"
"220025","687-BX","2019/08/09 14:29:28","新北市板橋區大觀路二段29號","121.446755","25.003145","6500100","板橋區"
"220042","689-BX","2019/08/09 14:29:21","新北市板橋區長江路一段141號","121.460665","25.0303216666667","6500100","板橋區"
"220002","741-BX","2019/08/09 14:29:31","新北市板橋區光明街3號","121.460248333333","25.0025283333333","6500100","板橋區"
"220051","KEA-2699","2019/08/09 14:29:28","新北市板橋區雙十路二段70巷14號","121.475595","25.0284166666667","6500100","板橋區"
"220014","829-TW","2019/08/09 14:29:24","新北市板橋區漢生東路299巷21-1號","121.472771666667","25.00888","6500100","板橋區"
"220016","831-TW","2019/08/09 14:29:39","新北市板橋區中山路二段597號","121.484963333333","25.0222133333333","6500100","板橋區"
"220022","895-R6","2019/08/09 14:29:30","新北市板橋區北門街25號","121.45665","25.0112383333333","6500100","板橋區"
"220021","985-R7","2019/08/09 14:29:37","新北市板橋區中正路360巷59號","121.456605","25.02287","6500100","板橋區"
"220046","AAC-210","2019/08/09 14:29:26","新北市板橋區文化路一段285巷1號","121.464455","25.0188866666667","6500100","板橋區"
"220012","AAC-253","2019/08/09 14:29:29","新北市板橋區民權路45號","121.462081666667","25.011305","6500100","板橋區"
"235032","KEA-2873","2019/08/09 14:29:34","新北市中和區福美路301巷16號","121.497536666667","25.0042383333333","6500300","中和區"
"235025","KEA-2875","2019/08/09 14:29:29","新北市中和區員山路226巷9弄2號","121.481941666667","25.000335","6500300","中和區"
