"lineid","car","time","location","longitude","latitude","cityid","cityname"
"249005","172-UM","2019/08/09 16:59:39","新北市八里區渡船頭3-7號","121.434315","25.1530366666667","6502300","八里區"
"249001","173-UM","2019/08/09 16:59:42","新北市八里區中山路三段109號","121.390256666667","25.1419633333333","6502300","八里區"
"249004","303-UY","2019/08/09 16:59:35","新北市八里區忠孝路488-1號","121.414035","25.1616716666667","6502300","八里區"
"249002","305-UY","2019/08/09 16:59:35","新北市八里區牛寮埔19-1號","121.431688333333","25.1428283333333","6502300","八里區"
"249003","593-UM","2019/08/09 16:59:26","新北市八里區中山路二段289號","121.401536666667","25.1486483333333","6502300","八里區"
"244007","080-UY","2019/08/09 16:59:29","新北市林口區中湖43-5號","121.381781666667","25.0923633333333","6501700","林口區"
"244017","485-VK","2019/08/09 16:59:41","新北市林口區粉寮69號","121.405041666667","25.0908266666667","6501700","林口區"
"244009","656-BX","2019/08/09 16:59:28","新北市林口區中山路2-2號","121.396793333333","25.078695","6501700","林口區"
"244025","837-TS","2019/08/09 16:59:31","新北市林口區中山路2號","121.396745","25.0783883333333","6501700","林口區"
"244021","838-TS","2019/08/09 16:59:35","新北市林口區粉寮32號","121.403276666667","25.0866016666667","6501700","林口區"
"231046","719-UM","2019/08/09 16:58:11","新北市新店區永業路105號","121.52863","24.9485183333333","6500600","新店區"
"241011","013-R5","2019/08/09 16:59:31","新北市三重區公園街11號","121.499436666667","25.0727916666667","6500200","三重區"
"241028","022-UY","2019/08/09 16:59:33","新北市三重區中正南路70號","121.49426","25.059385","6500200","三重區"
"241008","059-VK","2019/08/09 16:59:44","新北市三重區永福街179巷15號","121.478365","25.0749316666667","6500200","三重區"
"241022","060-VK","2019/08/09 16:59:27","新北市三重區重陽路二段24巷10號","121.486121666667","25.062695","6500200","三重區"
"241031","061-VK","2019/08/09 16:59:30","新北市三重區過圳街7巷16號","121.489886666667","25.05947","6500200","三重區"
"241015","062-VK","2019/08/09 16:59:27","新北市三重區長安街53號","121.500431666667","25.06716","6500200","三重區"
"241017","063-VK","2019/08/09 16:59:30","新北市三重區國隆路10號","121.493171666667","25.06382","6500200","三重區"
"241024","065-VK","2019/08/09 16:59:37","新北市三重區大勇街82巷33號","121.479598333333","25.0723416666667","6500200","三重區"
"241003","091-VK","2019/08/09 16:59:31","新北市三重區五華街141巷58號","121.493346666667","25.086545","6500200","三重區"
"241002","742-BX","2019/08/09 16:59:39","新北市三重區仁義街225巷9號","121.497005","25.08237","6500200","三重區"
"241006","262-UM","2019/08/09 16:59:29","新北市三重區車路頭街117巷46號","121.485315","25.07573","6500200","三重區"
"241009","267-UM","2019/08/09 16:59:43","新北市三重區仁美街108巷20號","121.484886666667","25.080515","6500200","三重區"
"241018","268-UM","2019/08/09 16:59:38","新北市三重區六張街126巷2弄29號","121.492845","25.0694766666667","6500200","三重區"
"241032","269-UM","2019/08/09 16:59:42","新北市三重區三陽路13巷4號","121.485981666667","25.0589616666667","6500200","三重區"
"241013","270-UM","2019/08/09 16:59:29","新北市三重區仁和街42-1號","121.49693","25.0736933333333","6500200","三重區"
"241025","271-UM","2019/08/09 16:59:43","新北市三重區中正北路510號","121.472625","25.0716116666667","6500200","三重區"
"241007","398-BY","2019/08/09 16:59:32","新北市三重區溪尾街182號","121.48842","25.080715","6500200","三重區"
"241030","KED-0822","2019/08/09 16:59:31","新北市三重區昌隆街57號","121.491086666667","25.0511533333333","6500200","三重區"
"241004","475-VK","2019/08/09 16:59:38","新北市三重區五華街98巷25號","121.491465","25.081765","6500200","三重區"
"241020","478-VK","2019/08/09 16:59:28","新北市三重區國道路一段1號","121.486461666667","25.0735066666667","6500200","三重區"
"241026","480-VK","2019/08/09 16:59:35","新北市三重區光興街37號","121.499505","25.0602366666667","6500200","三重區"
"241014","543-UM","2019/08/09 16:59:45","新北市三重區介壽路191號","121.50153","25.0706866666667","6500200","三重區"
"241023","545-UM","2019/08/09 16:59:27","新北市三重區忠孝路三段84巷5號","121.48019","25.0644333333333","6500200","三重區"
"241001","547-UM","2019/08/09 16:59:37","新北市三重區仁愛街245巷14號","121.493903333333","25.078255","6500200","三重區"
"241019","KEA-2593","2019/08/09 16:59:29","新北市三重區三張街104號","121.487925","25.0699066666667","6500200","三重區"
"241005","AAD-863","2019/08/09 16:59:28","新北市三重區仁華街5號","121.483491666667","25.08144","6500200","三重區"
"241016","887-TS","2019/08/09 16:59:38","新北市三重區大智街12號","121.495271666667","25.064485","6500200","三重區"
"241012","941-UM","2019/08/09 16:59:32","新北市三重區仁壽街179號","121.500075","25.0744116666667","6500200","三重區"
"241029","942-UM","2019/08/09 16:59:46","新北市三重區環河南路220-8號","121.493323333333","25.05279","6500200","三重區"
"241033","AAC-255","2019/08/09 16:59:30","新北市三重區新北大道二段65號","121.469086666667","25.0609566666667","6500200","三重區"
"247014","KEA-2869","2019/08/09 16:59:32","新北市蘆洲區三民路1號","121.475791666667","25.08167","6501400","蘆洲區"
"247008","KED-0682","2019/08/09 16:59:32","新北市蘆洲區信義路52號","121.475195","25.0796616666667","6501400","蘆洲區"
"235054","911-UM","2019/08/09 16:59:45","新北市中和區員山路36巷16-2號","121.485338333333","24.9917116666667","6500300","中和區"
"247004","893-R6","2019/08/09 16:59:41","新北市蘆洲區長安街110號","121.46089","25.0814816666667","6501400","蘆洲區"
"247018","546-UM","2019/08/09 16:59:39","新北市蘆洲區民族路227巷20號","121.476893333333","25.0892116666667","6501400","蘆洲區"
"247024","337-TH","2019/08/09 16:59:42","新北市蘆洲區長興路202號","121.460571666667","25.0874266666667","6501400","蘆洲區"
"247022","057-VK","2019/08/09 16:59:24","新北市蘆洲區三民路128巷85號","121.468373333333","25.0924233333333","6501400","蘆洲區"
"247012","056-VK","2019/08/09 16:59:29","新北市蘆洲區信義路296號","121.477631666667","25.0875016666667","6501400","蘆洲區"
"247016","053-VK","2019/08/09 16:59:34","新北市蘆洲區正和街7號","121.470348333333","25.0825916666667","6501400","蘆洲區"
"247020","007-UY","2019/08/09 16:59:31","新北市蘆洲區民族路422巷35號","121.473478333333","25.0936233333333","6501400","蘆洲區"
"247006","002-UY","2019/08/09 16:59:33","新北市蘆洲區長安街99巷31號","121.460726666667","25.079765","6501400","蘆洲區"
"228001","212-TW","2019/08/09 16:59:42","新北市貢寮區貢寮里朝陽街1-2號","121.912285","25.02126","6502600","貢寮區"
"228002","663-BX","2019/08/09 16:59:37","新北市貢寮區貢寮里朝陽街142號","121.907186666667","25.0225616666667","6502600","貢寮區"
"228003","828-UM","2019/08/09 16:59:38","新北市貢寮區福隆里興隆街13-5號","121.944161666667","25.0165366666667","6502600","貢寮區"
"224006","676-BX","2019/08/09 16:59:46","新北市瑞芳區大寮路356-1號","121.785043333333","25.1032783333333","6501200","瑞芳區"
"224007","285-BY","2019/08/09 16:59:42","新北市瑞芳區粗坑口路96號","121.760391666667","25.0992516666667","6501200","瑞芳區"
"224009","275-VK","2019/08/09 16:59:28","新北市瑞芳區明燈路一段1號","121.826581666667","25.1093283333333","6501200","瑞芳區"
"224008","273-VK","2019/08/09 16:59:41","新北市瑞芳區明燈路一段257號","121.817325","25.1083","6501200","瑞芳區"
"224005","271-BY","2019/08/09 16:59:36","新北市瑞芳區鼻頭路185號","121.915585","25.1232316666667","6501200","瑞芳區"
"227002","642-TC","2019/08/09 16:59:34","新北市雙溪區上林里內平林107號","121.82678","25.0271566666667","6502500","雙溪區"
"227001","400-TW","2019/08/09 16:59:33","新北市雙溪區三貂里定福路27號","121.851616666667","25.07424","6502500","雙溪區"
"251009","008-UM","2019/08/09 16:59:38","新北市淡水區中正路二段31號","121.419475","25.1815333333333","6501000","淡水區"
"251004","009-UM","2019/08/09 16:59:44","新北市淡水區中山路18-1號","121.444435","25.1694466666667","6501000","淡水區"
"251008","181-VK","2019/08/09 16:59:24","新北市淡水區樹梅坑9號","121.4728","25.1426916666667","6501000","淡水區"
"251012","441-VK","2019/08/09 16:59:40","新北市淡水區中正路二段31號","121.419116666667","25.1821466666667","6501000","淡水區"
"251007","442-VK","2019/08/09 16:59:36","新北市淡水區中正東路一段111巷1號","121.453765","25.1599216666667","6501000","淡水區"
"251005","443-VK","2019/08/09 16:59:39","新北市淡水區學府路8號","121.447446666667","25.1678633333333","6501000","淡水區"
"251006","561-UM","2019/08/09 16:59:41","新北市淡水區中正路32巷5號","121.430598333333","25.1752983333333","6501000","淡水區"
"251011","650-BX","2019/08/09 16:59:29","新北市淡水區坪頂路50號","121.457916666667","25.1625766666667","6501000","淡水區"
"252002","178-VK","2019/08/09 16:59:38","新北市三芝區忠孝街116號","121.505961666667","25.257495","6502100","三芝區"
"233002","762-BX","2019/08/09 16:59:30","新北市烏來區環山路60號","121.54826","24.8645583333333","6502900","烏來區"
"247010","KED-0683","2019/08/09 16:59:35","新北市蘆洲區信義路172號","121.479223333333","25.0839466666667","6501400","蘆洲區"
"252001","KED-0821","2019/08/09 16:59:37","新北市三芝區淡金路二段47-2號","121.503713333333","25.2607016666667","6502100","三芝區"
"242002","751-BX","2019/08/09 16:59:30","新北市新莊區新泰路255巷83號","121.442241666667","25.0387016666667","6500500","新莊區"
"242027","613-BX","2019/08/09 16:59:41","新北市新莊區新泰路357巷3弄57號","121.442198333333","25.0391933333333","6500500","新莊區"
"242025","362-BY","2019/08/09 16:59:32","新北市新莊區新泰路357巷3弄57號","121.441963333333","25.039075","6500500","新莊區"
"242023","353-BY","2019/08/09 16:59:43","新北市新莊區新泰路357巷3弄57號","121.441865","25.0391516666667","6500500","新莊區"
"242037","135-UY","2019/08/09 16:59:33","新北市新莊區三和路12-21號","121.44194","25.038815","6500500","新莊區"
"242015","173-VK","2019/08/09 16:59:30","新北市新莊區三和路12-21號","121.441775","25.0386483333333","6500500","新莊區"
"242021","175-VK","2019/08/09 16:59:32","新北市新莊區三和路12-21號","121.441911666667","25.0386166666667","6500500","新莊區"
"242019","KED-0687","2019/08/09 16:59:29","新北市新莊區三和路12-21號","121.442266666667","25.0380533333333","6500500","新莊區"
"242039","346-TH","2019/08/09 16:59:45","新北市新莊區三和路12-21號","121.441898333333","25.0382","6500500","新莊區"
"242034","348-TH","2019/08/09 16:59:38","新北市新莊區三和路12-21號","121.44188","25.038795","6500500","新莊區"
"242017","351-TH","2019/08/09 16:59:43","新北市新莊區新泰路357巷3弄57號","121.441926666667","25.0395233333333","6500500","新莊區"
"238023","601-UM","2019/08/09 16:59:32","新北市樹林區八德街682號","121.396238333333","24.9689533333333","6500700","樹林區"
"238018","KEA-2217","2019/08/09 16:59:27","新北市樹林區育德街78-1號","121.3881","24.96811","6500700","樹林區"
"238017","283-BY","2019/08/09 16:59:29","新北市樹林區八德街682號","121.39622","24.9689916666667","6500700","樹林區"
"238014","282-BY","2019/08/09 16:59:42","新北市樹林區中山路三段204號","121.386841666667","24.9681466666667","6500700","樹林區"
"239007","AAC-297","2019/08/09 16:59:32","新北市鶯歌區二甲路13-16號","121.344953333333","24.9352716666667","6500800","鶯歌區"
"239006","891-R6","2019/08/09 16:59:29","新北市鶯歌區二甲路13-16號","121.345196666667","24.9352316666667","6500800","鶯歌區"
"239008","527-UM","2019/08/09 16:59:36","新北市鶯歌區二甲路13-16號","121.34509","24.9351366666667","6500800","鶯歌區"
"239001","417-VK","2019/08/09 16:59:30","新北市鶯歌區二甲路12-2號","121.345781666667","24.9351966666667","6500800","鶯歌區"
"239003","360-BY","2019/08/09 16:59:29","新北市鶯歌區二甲路12-2號","121.345791666667","24.9350766666667","6500800","鶯歌區"
"239004","193-VK","2019/08/09 16:59:42","新北市鶯歌區二甲路13-16號","121.345143333333","24.9354066666667","6500800","鶯歌區"
"233001","KEA-2870","2019/08/09 16:59:44","新北市烏來區西羅岸路29號","121.54741","24.8663983333333","6502900","烏來區"
"242044","281-VK","2019/08/09 16:59:27","新北市新莊區三和路12-21號","121.442066666667","25.0384416666667","6500500","新莊區"
"242009","280-VK","2019/08/09 16:59:43","新北市新莊區三和路12-21號","121.442035","25.0381366666667","6500500","新莊區"
