"lineid","car","time","location","longitude","latitude","cityid","cityname"
"234086","338-UY","2019/08/09 18:19:41","新北市永和區福和路1號","121.52638","25.0098216666667","6500400","永和區"
"234007","KED-0605","2019/08/09 18:19:37","新北市永和區仁愛路295號","121.504783333333","25.0089916666667","6500400","永和區"
"234026","9371-KE","2019/08/09 18:19:33","新北市永和區豫溪街42巷16號","121.515391666667","25.009165","6500400","永和區"
"234011","9373-KE","2019/08/09 18:19:35","新北市永和區保安路13號","121.510395","25.01689","6500400","永和區"
"249005","172-UM","2019/08/09 18:19:39","新北市八里區荖阡坑路15-28號","121.400406666667","25.140315","6502300","八里區"
"249001","173-UM","2019/08/09 18:19:42","新北市八里區龍米路一段178號","121.452031666667","25.1275616666667","6502300","八里區"
"249004","303-UY","2019/08/09 18:19:35","新北市八里區龍米路二段236-2號","121.43154","25.1589616666667","6502300","八里區"
"249002","305-UY","2019/08/09 18:19:35","新北市八里區龍形二街35號","121.450493333333","25.1327816666667","6502300","八里區"
"249003","593-UM","2019/08/09 18:19:46","新北市八里區博物館路10-1號","121.4151","25.1639716666667","6502300","八里區"
"248016","026-BX","2019/08/09 18:19:27","新北市五股區成泰路三段477巷18號","121.449905","25.0988816666667","6501500","五股區"
"248006","077-UY","2019/08/09 18:19:45","新北市五股區四維路91號","121.466916666667","25.0730666666667","6501500","五股區"
"248008","KED-0815","2019/08/09 18:19:29","新北市五股區更洲路32巷8弄14號","121.45924","25.0796016666667","6501500","五股區"
"248018","KED-0813","2019/08/09 18:19:46","新北市五股區御史路205-1號","121.430928333333","25.100975","6501500","五股區"
"248012","247-BX","2019/08/09 18:19:31","新北市五股區御史路1巷101弄2號","121.441008333333","25.0912433333333","6501500","五股區"
"248014","261-SL","2019/08/09 18:19:46","新北市五股區自強路59號","121.433206666667","25.073185","6501500","五股區"
"248010","272-BY","2019/08/09 18:19:38","新北市五股區成泰路一段139巷2弄2號","121.4351","25.0728983333333","6501500","五股區"
"248004","677-BX","2019/08/09 18:19:30","新北市五股區成泰路二段149號","121.4392","25.0856","6501500","五股區"
"248002","678-BX","2019/08/09 18:19:48","新北市五股區成泰路三段101-1號","121.444203333333","25.0902566666667","6501500","五股區"
"244007","080-UY","2019/08/09 18:19:29","新北市林口區湖北里10鄰18號","121.387651666667","25.0978383333333","6501700","林口區"
"244023","402-UM","2019/08/09 18:19:29","新北市林口區東湖路153巷13號","121.382468333333","25.0727216666667","6501700","林口區"
"244013","KEA-2802","2019/08/09 18:19:28","新北市林口區中山路267號","121.385226666667","25.0795616666667","6501700","林口區"
"244017","485-VK","2019/08/09 18:19:41","新北市林口區八德路76號","121.365258333333","25.0657116666667","6501700","林口區"
"244009","656-BX","2019/08/09 18:19:48","新北市林口區文林一街20號","121.376951666667","25.0858566666667","6501700","林口區"
"244011","657-BX","2019/08/09 18:19:41","新北市林口區中原街6號","121.392846666667","25.077515","6501700","林口區"
"244025","837-TS","2019/08/09 18:19:31","新北市林口區南勢二街85巷1號","121.355903333333","25.0695766666667","6501700","林口區"
"244021","838-TS","2019/08/09 18:19:35","新北市林口區自強三街3號","121.397315","25.0780216666667","6501700","林口區"
"243015","680-BX","2019/08/09 18:19:43","新北市泰山區黎明路25號","121.421778333333","25.0608766666667","6501600","泰山區"
"222003","436-BY","2019/08/09 18:19:47","新北市深坑區旺耽路67號","121.626253333333","25.0029866666667","6501800","深坑區"
"222002","659-BX","2019/08/09 18:19:37","新北市深坑區雲鄉路2號","121.620883333333","24.9999916666667","6501800","深坑區"
"231043","001-UM","2019/08/09 18:19:29","新北市新店區安華路28-1號","121.519591666667","24.9608333333333","6500600","新店區"
"231061","002-UM","2019/08/09 18:19:34","新北市新店區安華路28-1號","121.519821666667","24.9607966666667","6500600","新店區"
"231058","0293-UT","2019/08/09 18:19:27","新北市新店區安康路一段355號","121.51978","24.9630233333333","6500600","新店區"
"231044","046-UY","2019/08/09 18:19:37","新北市新店區安華路1-1號","121.519213333333","24.9603566666667","6500600","新店區"
"231060","106-UY","2019/08/09 18:19:48","新北市新店區安華路28-1號","121.51974","24.9608283333333","6500600","新店區"
"231051","107-UY","2019/08/09 18:19:28","新北市新店區安一路一段1-1號","121.519368333333","24.9611133333333","6500600","新店區"
"231042","268-BY","2019/08/09 18:19:43","新北市新店區安一路一段1-1號","121.519721666667","24.9613116666667","6500600","新店區"
"231050","AAD-862","2019/08/09 18:19:38","新北市新店區安華路28-1號","121.519883333333","24.96099","6500600","新店區"
"231045","355-BY","2019/08/09 18:19:40","新北市新店區安華路28-1號","121.51903","24.960945","6500600","新店區"
"231055","4716-K9","2019/08/09 18:19:32","新北市新店區安康路一段9-2號","121.533943333333","24.9605883333333","6500600","新店區"
"231056","4715-K9","2019/08/09 18:19:33","新北市新店區中央路2號","121.533856666667","24.9787683333333","6500600","新店區"
"231053","513-UM","2019/08/09 18:19:35","新北市新店區安康路一段17號","121.533186666667","24.9603716666667","6500600","新店區"
"231063","641-BX","2019/08/09 18:19:29","新北市新店區安華路28-1號","121.519661666667","24.9605266666667","6500600","新店區"
"231048","KED-0819","2019/08/09 18:19:30","新北市新店區安一路一段1-1號","121.519675","24.9612466666667","6500600","新店區"
"231057","720-UM","2019/08/09 18:19:40","新北市新店區安一路一段1-1號","121.519115","24.9611833333333","6500600","新店區"
"231040","898-TW","2019/08/09 18:19:33","新北市新店區安華路28-1號","121.519495","24.9607733333333","6500600","新店區"
"235066","003-UY","2019/08/09 18:19:37","新北市中和區中山路二段120號","121.502731666667","25.0036766666667","6500300","中和區"
"235064","005-UY","2019/08/09 18:19:45","新北市中和區圓通路143號","121.498893333333","24.9954516666667","6500300","中和區"
"235063","006-UY","2019/08/09 18:19:29","新北市中和區中正路508號","121.488525","24.9946433333333","6500300","中和區"
"235056","096-UM","2019/08/09 18:19:35","新北市中和區新民街12號","121.482478333333","25.00584","6500300","中和區"
"235039","097-UM","2019/08/09 18:19:24","新北市中和區宜安路60號","121.511655","24.9970233333333","6500300","中和區"
"235065","098-UM","2019/08/09 18:19:40","新北市中和區莊敬路49巷18號","121.501616666667","25.00609","6500300","中和區"
"235040","150-BY","2019/08/09 18:19:32","新北市中和區景平路406號","121.508826666667","24.993095","6500300","中和區"
"235058","151-BY","2019/08/09 18:19:45","新北市中和區圓通路369巷35號","121.489438333333","24.9866533333333","6500300","中和區"
"235055","183-VK","2019/08/09 18:19:34","新北市中和區莒光路123號","121.472546666667","25.00213","6500300","中和區"
"235038","185-VK","2019/08/09 18:09:25","新北市中和區景平路114號","121.51966","24.9917866666667","6500300","中和區"
"235049","186-VK","2019/08/09 18:19:35","新北市中和區錦和路350-1號","121.490463333333","24.99353","6500300","中和區"
"235072","301-VK","2019/08/09 18:19:29","新北市中和區連城路237-1號","121.493773333333","24.9973233333333","6500300","中和區"
"235043","352-BY","2019/08/09 18:19:45","新北市中和區景平路381號","121.50389","24.9933283333333","6500300","中和區"
"235050","4979-A6","2019/08/09 18:19:31","新北市中和區捷運路61巷9號","121.509193333333","24.9894216666667","6500300","中和區"
"235069","4980-A6","2019/08/09 18:19:33","新北市中和區連城路221號","121.494258333333","24.9976466666667","6500300","中和區"
"235070","558-UM","2019/08/09 18:19:40","新北市中和區景新街131號","121.505865","24.9973366666667","6500300","中和區"
"235045","565-BX","2019/08/09 18:19:43","新北市中和區南山路236巷22弄11號","121.505415","24.9891166666667","6500300","中和區"
"235060","KED-0823","2019/08/09 18:19:39","新北市中和區中山路二段493號","121.48257","25.0050116666667","6500300","中和區"
"235047","732-UM","2019/08/09 18:19:38","新北市中和區中正路271號","121.495853333333","24.993785","6500300","中和區"
"235062","800-TS","2019/08/09 18:19:38","新北市中和區景平路726-2號","121.496745","25.0035533333333","6500300","中和區"
"235057","801-TS","2019/08/09 18:19:28","新北市中和區民安街47號","121.479805","25.0001433333333","6500300","中和區"
"235052","805-TS","2019/08/09 18:19:28","新北市中和區興南路二段96號","121.505141666667","24.98424","6500300","中和區"
"235048","896-TW","2019/08/09 18:19:25","新北市中和區錦和路350-1號","121.490536666667","24.993555","6500300","中和區"
"235053","900-TW","2019/08/09 18:19:33","新北市中和區和城路一段271巷1號","121.485401666667","24.9916516666667","6500300","中和區"
"235054","911-UM","2019/08/09 18:19:45","新北市中和區民享街110號","121.474608333333","24.999335","6500300","中和區"
"235051","157-BY","2019/08/09 18:18:23","新北市中和區興南路二段130號","121.504338333333","24.98347","6500300","中和區"
"235037","AAC-213","2019/08/09 18:19:29","新北市中和區景德街97號","121.515718333333","24.9912516666667","6500300","中和區"
"220065","072-UY","2019/08/09 18:19:31","新北市板橋區華東街1-9號","121.448165","24.9949216666667","6500100","板橋區"
"226004","312-R5","2019/08/09 18:19:36","新北市平溪區薯榔里薯榔寮81-3號","121.716035","25.02078","6502400","平溪區"
"228001","212-TW","2019/08/09 18:19:31","新北市貢寮區真理里新港街26巷55弄2-1號","121.927316666667","25.0528066666667","6502600","貢寮區"
"228002","663-BX","2019/08/09 18:19:37","新北市貢寮區福連里福興街39-3號","121.994751666667","25.0146816666667","6502600","貢寮區"
"228003","828-UM","2019/08/09 18:19:38","新北市貢寮區真理里美艷山街66號","121.918315","25.0739966666667","6502600","貢寮區"
"224010","AGQ-8101","2019/08/09 18:19:30","新北市瑞芳區街頂巷21號","121.844431666667","25.1073983333333","6501200","瑞芳區"
"224006","676-BX","2019/08/09 18:19:26","新北市瑞芳區三爪子坑路106巷1-2號","121.808058333333","25.1048833333333","6501200","瑞芳區"
"224002","639-TC","2019/08/09 18:19:41","新北市瑞芳區三爪子坑路117號","121.81051","25.10706","6501200","瑞芳區"
"224007","285-BY","2019/08/09 18:19:33","新北市瑞芳區大埔路67巷5-1號","121.76428","25.1016033333333","6501200","瑞芳區"
"224009","275-VK","2019/08/09 18:19:28","新北市瑞芳區祈堂路227號","121.856691666667","25.10929","6501200","瑞芳區"
"224008","273-VK","2019/08/09 18:19:46","新北市瑞芳區逢甲路15號","121.809816666667","25.10865","6501200","瑞芳區"
"224005","271-BY","2019/08/09 18:19:35","新北市瑞芳區台電新村113號","121.811643333333","25.1282866666667","6501200","瑞芳區"
"227002","642-TC","2019/08/09 18:19:37","新北市雙溪區共和里泰和街13號","121.863045","25.033895","6502500","雙溪區"
"227001","400-TW","2019/08/09 18:19:38","新北市雙溪區牡丹里牡丹73號","121.851708333333","25.0593433333333","6502500","雙溪區"
"253006","032-BX","2019/08/09 18:19:39","新北市石門區老梅路95號","121.546693333333","25.2892183333333","6502200","石門區"
"253005","295-VK","2019/08/09 18:19:43","新北市石門區中央路37號","121.567988333333","25.293555","6502200","石門區"
"222001","KEA-2212","2019/08/09 18:19:44","新北市深坑區北深路二段51號","121.618936666667","25.0040116666667","6501800","深坑區"
"208002","KEA-2872","2019/08/09 18:19:37","新北市金山區磺清路135號","121.639576666667","25.2277666666667","6502700","金山區"
"208003","665-BX","2019/08/09 18:19:37","新北市金山區中山路276-3號","121.635086666667","25.22429","6502700","金山區"
"251009","008-UM","2019/08/09 18:19:38","新北市淡水區中山北路一段305號","121.444546666667","25.182825","6501000","淡水區"
"251004","009-UM","2019/08/09 18:19:49","新北市淡水區民權路215巷100號","121.462645","25.1335783333333","6501000","淡水區"
"251001","011-UM","2019/08/09 18:19:32","新北市淡水區自強路108-19號","121.461591666667","25.1312916666667","6501000","淡水區"
"251010","012-UM","2019/08/09 18:19:29","新北市淡水區淡海路189巷1號","121.420371666667","25.184335","6501000","淡水區"
"251008","181-VK","2019/08/09 18:19:43","新北市淡水區水源街二段346巷1弄1號","121.464361666667","25.1755133333333","6501000","淡水區"
"251012","441-VK","2019/08/09 18:19:40","新北市淡水區北新路二段77-5號","121.480573333333","25.1855366666667","6501000","淡水區"
"251005","443-VK","2019/08/09 18:19:35","新北市淡水區水源街一段122巷37號","121.447088333333","25.170415","6501000","淡水區"
"251006","561-UM","2019/08/09 18:19:41","新北市淡水區新民街76巷47-1號","121.439321666667","25.1779583333333","6501000","淡水區"
"251011","650-BX","2019/08/09 18:19:34","新北市淡水區三空泉9-2號","121.474168333333","25.1634416666667","6501000","淡水區"
"251002","672-BX","2019/08/09 18:19:33","新北市淡水區中正東路一段125號","121.455165","25.1592583333333","6501000","淡水區"
"251003","766-UM","2019/08/09 18:19:44","新北市淡水區北新路135號","121.449391666667","25.178825","6501000","淡水區"
"207003","681-TV","2019/08/09 18:19:38","新北市萬里區野柳里港西路71號","121.685511666667","25.2047833333333","6502800","萬里區"
"207004","291-VK","2019/08/09 18:19:36","新北市萬里區中幅里中福路186號","121.673881666667","25.1655766666667","6502800","萬里區"
"252002","178-VK","2019/08/09 18:19:38","新北市三芝區中山路二段38號","121.502986666667","25.2551083333333","6502100","三芝區"
"252003","249-BX","2019/08/09 18:19:34","新北市三芝區錫板里南勢崗11號","121.478826666667","25.2613733333333","6502100","三芝區"
"208001","170-UY","2019/08/09 18:19:31","新北市金山區自強路22號","121.640348333333","25.2167166666667","6502700","金山區"
"237004","KEA-2597","2019/08/09 18:19:48","新北市三峽區五寮41-6號","121.367573333333","24.8646983333333","6500900","三峽區"
"237007","153-BY","2019/08/09 18:19:35","新北市三峽區中正路三段70巷64號","121.355173333333","24.9051116666667","6500900","三峽區"
"237009","210-TH","2019/08/09 18:19:23","新北市三峽區大勇路36巷31號","121.365081666667","24.9369766666667","6500900","三峽區"
"237013","252-BX","2019/08/09 18:19:37","新北市三峽區永安街9巷13號","121.376001666667","24.92947","6500900","三峽區"
"237012","275-BY","2019/08/09 18:19:26","新北市三峽區三樹路76號","121.37805","24.93844","6500900","三峽區"
"237008","302-VK","2019/08/09 18:19:46","新北市三峽區白雞68-261號","121.391811666667","24.9080666666667","6500900","三峽區"
"237014","433-BY","2019/08/09 18:19:45","新北市三峽區復興路57號","121.373323333333","24.937065","6500900","三峽區"
"237006","5529-G3","2019/08/09 18:19:41","新北市三峽區溪東路352號","121.412075","24.9289516666667","6500900","三峽區"
"237011","KEA-2596","2019/08/09 18:19:44","新北市三峽區溪東路304號","121.409978333333","24.930645","6500900","三峽區"
"237015","649-BX","2019/08/09 18:19:29","新北市三峽區竹崙路17號","121.428435","24.9226216666667","6500900","三峽區"
"237010","706-TV","2019/08/09 18:19:40","新北市三峽區民權街147號","121.36881","24.9316933333333","6500900","三峽區"
"237005","AKY-6261","2019/08/09 18:19:39","新北市三峽區民權街58號","121.369591666667","24.9332683333333","6500900","三峽區"
"236042","KED-0685","2019/08/09 18:19:27","新北市土城區樂利街3巷2號","121.448348333333","24.98607","6501300","土城區"
"233002","762-BX","2019/08/09 18:19:30","新北市烏來區新烏路四段58號","121.54455","24.88443","6502900","烏來區"
"236079","166-UM","2019/08/09 18:19:35","新北市土城區永平街2巷1號","121.42742","24.9634533333333","6501300","土城區"
"236030","253-BX","2019/08/09 18:19:44","新北市土城區順風路31號","121.440768333333","24.9767233333333","6501300","土城區"
"236026","269-VK","2019/08/09 18:19:47","新北市土城區承天路69號","121.439833333333","24.9633416666667","6501300","土城區"
"236014","270-VK","2019/08/09 18:19:36","新北市土城區青雲路39巷7號","121.460301666667","24.9874183333333","6501300","土城區"
"236039","271-VK","2019/08/09 18:19:34","新北市土城區青雲路483巷9號","121.459423333333","24.9735783333333","6501300","土城區"
"236069","KEA-2877","2019/08/09 18:19:40","新北市土城區永豐路143號","121.466625","24.9834583333333","6501300","土城區"
"252001","KED-0821","2019/08/09 18:19:37","新北市三芝區中興街二段2號","121.498373333333","25.2566383333333","6502100","三芝區"
"236020","401-BY","2019/08/09 18:19:40","新北市土城區明德路一段297號","121.459975","24.9771983333333","6501300","土城區"
"236059","912-UM","2019/08/09 18:19:29","新北市土城區中央路四段464號","121.409953333333","24.9505216666667","6501300","土城區"
"236048","913-UM","2019/08/09 18:19:44","新北市土城區明德路一段288-1號","121.456876666667","24.9776233333333","6501300","土城區"
"236063","915-UM","2019/08/09 18:19:40","新北市土城區金城路三段179號","121.469503333333","24.9886866666667","6501300","土城區"
"236055","AAC-216","2019/08/09 18:19:38","新北市土城區中華路二段96號","121.438143333333","24.9745083333333","6501300","土城區"
"242060","986-R7","2019/08/09 18:19:43","新北市新莊區民安西路23號","121.42713","25.0211333333333","6500500","新莊區"
"242002","751-BX","2019/08/09 18:19:30","新北市新莊區環漢路二段385號","121.451138333333","25.0326333333333","6500500","新莊區"
"242027","613-BX","2019/08/09 18:19:41","新北市新莊區幸福路815號","121.445568333333","25.0490433333333","6500500","新莊區"
"242058","612-BX","2019/08/09 18:19:30","桃園市龜山區萬壽路一段24號","121.409586666667","25.0203416666667","6500500","新莊區"
"242046","566-BX","2019/08/09 18:19:33","新北市新莊區中正路829巷21號","121.421061666667","25.027525","6500500","新莊區"
"242050","497-BY","2019/08/09 18:19:32","新北市新莊區新樹路206巷4號","121.43364","25.020425","6500500","新莊區"
"242056","441-UM","2019/08/09 18:19:42","新北市新莊區豐年街豐2巷32號","121.44759","25.030815","6500500","新莊區"
"242041","415-TV","2019/08/09 18:19:32","新北市新莊區天祥街80號","121.41565","25.0294066666667","6500500","新莊區"
"242011","413-TV","2019/08/09 18:19:46","新北市新莊區中榮街49巷1號","121.449441666667","25.0524933333333","6500500","新莊區"
"242048","400-BY","2019/08/09 18:19:36","新北市新莊區民安路100號","121.423961666667","25.0259916666667","6500500","新莊區"
"242025","362-BY","2019/08/09 18:19:32","新北市新莊區五權一路12巷16號","121.457368333333","25.0645383333333","6500500","新莊區"
"242037","135-UY","2019/08/09 18:19:33","新北市新莊區後港一路49巷3弄11號","121.42517","25.02669","6500500","新莊區"
"242054","172-VK","2019/08/09 18:19:42","新北市新莊區民安西路468號","121.431538333333","25.0080733333333","6500500","新莊區"
"242015","173-VK","2019/08/09 18:19:30","新北市新莊區中和街122號","121.447495","25.0477966666667","6500500","新莊區"
"242021","175-VK","2019/08/09 18:19:46","新北市新莊區中正路174號","121.450515","25.0357483333333","6500500","新莊區"
"242034","348-TH","2019/08/09 18:19:37","新北市新莊區瓊林路13-4號","121.448755","25.0308183333333","6500500","新莊區"
"242007","349-TH","2019/08/09 18:19:44","新北市新莊區自立街79巷20號","121.454468333333","25.0461733333333","6500500","新莊區"
"242032","350-TH","2019/08/09 18:19:30","新北市新莊區新泰路255巷51號","121.443976666667","25.0395233333333","6500500","新莊區"
"242017","351-TH","2019/08/09 18:19:43","新北市新莊區新泰路357巷3弄25號","121.441838333333","25.0406866666667","6500500","新莊區"
"238015","755-BX","2019/08/09 18:19:41","新北市樹林區文化街79巷1號","121.416838333333","24.9891383333333","6500700","樹林區"
"238023","601-UM","2019/08/09 18:19:34","新北市樹林區三福街46號","121.407593333333","25.01638","6500700","樹林區"
"238019","599-UM","2019/08/09 18:19:43","新北市樹林區國凱街136巷20號","121.42358","24.9797716666667","6500700","樹林區"
"238016","571-TV","2019/08/09 18:19:36","新北市樹林區復興路320號","121.416398333333","24.9868266666667","6500700","樹林區"
"238024","5061-A6","2019/08/09 18:19:39","新北市樹林區中山路一段135-4號","121.422535","24.9898216666667","6500700","樹林區"
"238018","KEA-2217","2019/08/09 18:19:47","新北市樹林區鎮前街8號","121.426318333333","24.993415","6500700","樹林區"
"238025","303-VK","2019/08/09 18:19:33","新北市樹林區保安街一段120號","121.423398333333","24.99499","6500700","樹林區"
"238017","283-BY","2019/08/09 18:19:37","新北市樹林區保安街二段333巷2號","121.41246","25.007615","6500700","樹林區"
"238014","282-BY","2019/08/09 18:19:41","新北市樹林區大安路111巷25號","121.423173333333","24.9976516666667","6500700","樹林區"
"238020","268-VK","2019/08/09 18:19:34","新北市樹林區三俊街65巷7號","121.413453333333","25.0162383333333","6500700","樹林區"
"238026","172-UY","2019/08/09 18:19:45","新北市樹林區佳園路一段82-1號","121.393366666667","24.9695133333333","6500700","樹林區"
"239007","AAC-297","2019/08/09 18:19:32","新北市鶯歌區中正一路324號","121.357068333333","24.9570266666667","6500800","鶯歌區"
"239006","891-R6","2019/08/09 18:19:29","新北市鶯歌區鶯桃路266號","121.335715","24.9600883333333","6500800","鶯歌區"
"239008","527-UM","2019/08/09 18:08:51","新北市鶯歌區朝陽街4號","121.336246666667","24.976595","6500800","鶯歌區"
"239005","526-UM","2019/08/09 18:19:35","新北市鶯歌區鶯桃路668巷30號","121.328993333333","24.9701883333333","6500800","鶯歌區"
"239001","417-VK","2019/08/09 18:19:30","新北市鶯歌區國中街197號","121.338241666667","24.939145","6500800","鶯歌區"
"239003","360-BY","2019/08/09 18:19:49","新北市鶯歌區福安街58號","121.335568333333","24.9651983333333","6500800","鶯歌區"
"239002","359-BY","2019/08/09 18:19:43","新北市鶯歌區中山路162號","121.3493","24.9570666666667","6500800","鶯歌區"
"239004","193-VK","2019/08/09 18:19:42","新北市鶯歌區尖山路174巷9號","121.344748333333","24.94796","6500800","鶯歌區"
"221036","130-UY","2019/08/09 18:19:40","新北市汐止區大同路三段110號","121.671256666667","25.077135","6501100","汐止區"
"221015","131-UY","2019/08/09 18:19:44","新北市汐止區長江街367-1號","121.668208333333","25.0825333333333","6501100","汐止區"
"244019","KED-0667","2019/08/09 18:19:42","新北市林口區忠孝路646巷11號","121.379131666667","25.0673766666667","6501700","林口區"
"221010","269-BY","2019/08/09 18:19:31","新北市汐止區祥雲街18巷3號","121.646523333333","25.0898383333333","6501100","汐止區"
"221012","278-VK","2019/08/09 18:19:28","新北市汐止區保一街47-2號","121.67454","25.080265","6501100","汐止區"
"221023","279-VK","2019/08/09 18:19:32","新北市汐止區中興路201號","121.629185","25.0684233333333","6501100","汐止區"
"221032","280-BY","2019/08/09 18:19:40","新北市汐止區力行街10號","121.617056666667","25.0509633333333","6501100","汐止區"
"221021","299-VK","2019/08/09 18:19:42","新北市汐止區龍安路30號","121.655135","25.06418","6501100","汐止區"
"221031","353-TW","2019/08/09 18:19:41","新北市汐止區中興路158-1號","121.632306666667","25.0652283333333","6501100","汐止區"
"221035","622-UM","2019/08/09 18:19:26","新北市汐止區中正路311號","121.655883333333","25.067735","6501100","汐止區"
"221025","623-UM","2019/08/09 18:19:28","新北市汐止區勤進路12巷31號","121.659196666667","25.0624933333333","6501100","汐止區"
"221038","646-BX","2019/08/09 18:19:42","新北市汐止區仁愛路318號","121.664906666667","25.0674716666667","6501100","汐止區"
"221033","647-BX","2019/08/09 18:19:30","新北市汐止區宜興街50巷2號","121.622436666667","25.0423583333333","6501100","汐止區"
"221002","707-TV","2019/08/09 18:19:45","新北市汐止區福德一路201巷30號","121.63601","25.0650116666667","6501100","汐止區"
"221018","753-BX","2019/08/09 18:19:33","新北市汐止區茄苳路88巷6弄8號","121.666558333333","25.070215","6501100","汐止區"
"220082","610-BX","2019/08/09 18:19:26","新北市板橋區華東街1-9號","121.448201666667","24.994905","6500100","板橋區"
"242044","281-VK","2019/08/09 18:19:27","新北市新莊區鳳山街56巷29號","121.413828333333","25.0266316666667","6500500","新莊區"
"220073","985-R7","2019/08/09 18:07:42","新北市板橋區華東街1-10號","121.44828","24.9949533333333","6500100","板橋區"
"220064","AAC-253","2019/08/09 18:19:42","新北市板橋區華東街1-10號","121.448381666667","24.9949266666667","6500100","板橋區"
"235068","KEA-2873","2019/08/09 18:19:19","新北市中和區員山路36巷16-3號","121.485091666667","24.991225","6500300","中和區"
"235061","KEA-2875","2019/08/09 18:19:21","新北市中和區民享街97巷16號","121.475261666667","24.9997583333333","6500300","中和區"
