"lineid","car","time","location","longitude","latitude","cityid","cityname"
"234046","148-BY","2019/08/09 19:09:27","新北市永和區永元路18巷9號","121.523161666667","25.0002683333333","6500400","永和區"
"234081","298-R6","2019/08/09 19:09:45","新北市永和區永貞路41號","121.521138333333","25.0063966666667","6500400","永和區"
"234038","336-UY","2019/08/09 19:09:31","新北市永和區民樂街73巷1號","121.527423333333","24.9973116666667","6500400","永和區"
"234064","337-UY","2019/08/09 19:09:43","新北市永和區秀朗路二段48號","121.521633333333","25.0022283333333","6500400","永和區"
"234086","338-UY","2019/08/09 19:09:41","新北市永和區永貞路144號","121.51808","25.0045016666667","6500400","永和區"
"234070","552-UM","2019/08/09 19:09:33","新北市永和區豫溪街95巷9號","121.518126666667","25.0107083333333","6500400","永和區"
"234017","745-BX","2019/08/09 19:09:31","新北市永和區文化路90巷3弄1號","121.513826666667","25.0154983333333","6500400","永和區"
"234030","746-BX","2019/08/09 19:09:42","新北市永和區民生路23號","121.522898333333","24.99871","6500400","永和區"
"234054","KEA-2590","2019/08/09 19:09:41","新北市永和區中興街133巷4號","121.518738333333","25.0125316666667","6500400","永和區"
"234007","KED-0605","2019/08/09 19:09:37","新北市永和區保生路2號","121.506993333333","25.00725","6500400","永和區"
"234013","KEA-2591","2019/08/09 19:09:32","新北市永和區中山路一段70號","121.512545","25.0108116666667","6500400","永和區"
"234061","AAD-866","2019/08/09 19:09:31","新北市永和區安樂路304巷7號","121.514446666667","25.0051983333333","6500400","永和區"
"234042","862-TW","2019/08/09 19:09:36","新北市永和區保平路131號","121.51049","25.0062033333333","6500400","永和區"
"234050","863-TW","2019/08/09 19:09:38","新北市永和區文化路135巷22弄1號","121.510486666667","25.0147433333333","6500400","永和區"
"234026","9371-KE","2019/08/09 19:09:33","新北市永和區安樂路421號","121.514465","25.0040816666667","6500400","永和區"
"234011","9373-KE","2019/08/09 19:09:40","新北市永和區中山路一段62號","121.51281","25.0108116666667","6500400","永和區"
"249005","172-UM","2019/08/09 19:09:39","新北市八里區中華路三段27號","121.396458333333","25.1429683333333","6502300","八里區"
"249001","173-UM","2019/08/09 19:09:42","新北市八里區龍米路二段228-7號","121.432166666667","25.1584266666667","6502300","八里區"
"249003","593-UM","2019/08/09 19:09:31","新北市八里區博物館路105號","121.409056666667","25.1593966666667","6502300","八里區"
"248016","026-BX","2019/08/09 19:09:47","新北市五股區成泰路三段543巷25號","121.450435","25.102565","6501500","五股區"
"248008","KED-0815","2019/08/09 19:09:49","新北市五股區中興路一段104號","121.466183333333","25.0732716666667","6501500","五股區"
"248018","KED-0813","2019/08/09 19:09:46","新北市五股區民義路一段255-6號","121.426081666667","25.091435","6501500","五股區"
"248012","247-BX","2019/08/09 19:09:30","新北市五股區中興路四段48巷16號","121.438593333333","25.0834266666667","6501500","五股區"
"248014","261-SL","2019/08/09 19:09:45","新北市五股區民義路一段163-2號","121.432078333333","25.087775","6501500","五股區"
"248004","677-BX","2019/08/09 19:09:30","新北市五股區五福路11-6號","121.43422","25.088715","6501500","五股區"
"248002","678-BX","2019/08/09 19:09:28","新北市五股區凌雲路一段158巷6號","121.447805","25.1029483333333","6501500","五股區"
"234023","9380-KE","2019/08/09 19:09:31","新北市永和區中興街10巷19號","121.515885","25.0112016666667","6500400","永和區"
"234077","969-R7","2019/08/09 19:09:27","新北市永和區民族街43巷3號","121.51866","24.9984866666667","6500400","永和區"
"234074","AAC-211","2019/08/09 19:09:34","新北市永和區竹林路198號","121.520498333333","25.009575","6500400","永和區"
"234067","AAC-212","2019/08/09 19:09:40","新北市永和區永和路一段65巷5號","121.512711666667","25.0072116666667","6500400","永和區"
"234003","AAC-295","2019/08/09 19:09:29","新北市永和區保福路一段43號","121.51258","25.009305","6500400","永和區"
"244023","402-UM","2019/08/09 19:09:29","新北市林口區文林六街48號","121.37132","25.0815166666667","6501700","林口區"
"244013","KEA-2802","2019/08/09 19:09:28","新北市林口區麗園一街4巷1號","121.37655","25.0712016666667","6501700","林口區"
"244011","657-BX","2019/08/09 19:09:41","新北市林口區竹林路61號","121.38768","25.0784516666667","6501700","林口區"
"244025","837-TS","2019/08/09 19:09:31","新北市林口區文化三路一段447巷41號","121.367228333333","25.075595","6501700","林口區"
"243012","AAD-798","2019/08/09 19:09:38","新北市泰山區辭修路10-11號","121.429643333333","25.0580383333333","6501600","泰山區"
"243010","297-R6","2019/08/09 19:09:44","新北市泰山區明志路一段483巷1弄4號","121.43115","25.0554266666667","6501600","泰山區"
"243014","KEA-2801","2019/08/09 19:09:29","新北市泰山區泰林路二段429號","121.426421666667","25.0641483333333","6501600","泰山區"
"243016","421-VK","2019/08/09 19:09:34","新北市泰山區明志路三段1號","121.424895","25.0434866666667","6501600","泰山區"
"243009","KEA-2215","2019/08/09 19:09:35","新北市泰山區明志路一段122巷31號","121.432458333333","25.0636666666667","6501600","泰山區"
"243011","KEA-2216","2019/08/09 19:09:33","新北市泰山區明志路二段330號","121.42616","25.0456916666667","6501600","泰山區"
"243013","646-TV","2019/08/09 19:09:32","新北市泰山區漢口街3號","121.42327","25.0366966666667","6501600","泰山區"
"243015","680-BX","2019/08/09 19:09:42","新北市泰山區明志路一段418號","121.430698333333","25.056555","6501600","泰山區"
"222003","436-BY","2019/08/09 19:09:47","新北市深坑區深南路162號","121.626098333333","25.014975","6501800","深坑區"
"222002","659-BX","2019/08/09 19:09:37","新北市深坑區北深路一段199號","121.631081666667","25.00983","6501800","深坑區"
"231043","001-UM","2019/08/09 19:09:28","新北市新店區中興路二段252號","121.54746","24.9758466666667","6500600","新店區"
"231061","002-UM","2019/08/09 19:09:34","新北市新店區安康路一段355-10號","121.520845","24.9637916666667","6500600","新店區"
"231058","0293-UT","2019/08/09 19:09:27","新北市新店區中興路一段65號","121.540168333333","24.960745","6500600","新店區"
"231044","046-UY","2019/08/09 19:09:37","新北市新店區中興路三段182號","121.544066666667","24.9813533333333","6500600","新店區"
"231060","106-UY","2019/08/09 19:09:34","新北市新店區安康路二段226號","121.50955","24.959205","6500600","新店區"
"231051","107-UY","2019/08/09 19:09:28","新北市新店區中正路382巷26號","121.535468333333","24.9778516666667","6500600","新店區"
"231049","108-UY","2019/08/09 19:09:32","新北市新店區二十張路25巷18弄16號","121.53917","24.9816733333333","6500600","新店區"
"231062","256-BX","2019/08/09 19:09:33","新北市新店區安平路35巷10號","121.520858333333","24.9671466666667","6500600","新店區"
"231054","260-TV","2019/08/09 19:09:41","新北市新店區新店路166號","121.537143333333","24.9556916666667","6500600","新店區"
"231042","268-BY","2019/08/09 19:09:43","新北市新店區中興路一段203號","121.543501666667","24.9654983333333","6500600","新店區"
"231064","278-BY","2019/08/09 19:09:44","新北市新店區安忠路73號","121.511261666667","24.9572883333333","6500600","新店區"
"231050","AAD-862","2019/08/09 19:09:38","新北市新店區竹林路2巷31號","121.550395","24.9501783333333","6500600","新店區"
"231045","355-BY","2019/08/09 19:09:46","新北市新店區北宜路一段106號","121.538986666667","24.95531","6500600","新店區"
"231055","4716-K9","2019/08/09 19:09:32","新北市新店區力行路12號","121.539436666667","24.964615","6500600","新店區"
"231056","4715-K9","2019/08/09 19:09:33","新北市新店區安民街65巷15-1號","121.515463333333","24.966665","6500600","新店區"
"231067","4772-VM","2019/08/09 19:09:27","新北市新店區安康路一段263巷7號","121.52407","24.9623483333333","6500600","新店區"
"231053","513-UM","2019/08/09 19:09:42","新北市新店區自強路23巷1號","121.546128333333","24.9266016666667","6500600","新店區"
"231041","619-UM","2019/08/09 19:09:42","新北市新店區中央二街68號","121.526188333333","24.97459","6500600","新店區"
"231063","641-BX","2019/08/09 19:09:42","新北市新店區車子路144號","121.505253333333","24.9476266666667","6500600","新店區"
"231048","KED-0819","2019/08/09 19:09:30","新北市新店區德正街27巷29弄145號","121.54568","24.9735933333333","6500600","新店區"
"231065","718-UY","2019/08/09 19:09:34","新北市新店區安祥路147巷37號","121.47649","24.9565783333333","6500600","新店區"
"231046","719-UM","2019/08/09 19:09:32","新北市新店區華潭街52號","121.52875","24.9547216666667","6500600","新店區"
"231057","720-UM","2019/08/09 19:09:40","新北市新店區百齡一路12號","121.553036666667","24.9324566666667","6500600","新店區"
"231059","897-TW","2019/08/09 19:09:37","新北市新店區安康路一段351-1號","121.519525","24.9640416666667","6500600","新店區"
"231040","898-TW","2019/08/09 19:09:33","新北市新店區三民路155-1號","121.53382","24.9734716666667","6500600","新店區"
"231066","AKT-0513","2019/08/09 19:09:46","新北市新店區安祥路35-2號","121.49009","24.9573016666667","6500600","新店區"
"241035","462-BY","2019/08/09 19:09:31","新北市三重區大仁街43號","121.493073333333","25.065535","6500200","三重區"
"241026","480-VK","2019/08/09 19:09:46","新北市三重區泉州街84巷20號","121.495813333333","25.0544883333333","6500200","三重區"
"241029","942-UM","2019/08/09 19:09:34","新北市三重區重安街83號","121.492538333333","25.0557666666667","6500200","三重區"
"235066","003-UY","2019/08/09 19:09:37","新北市中和區廣福路12-5號","121.505335","25.0026633333333","6500300","中和區"
"235064","005-UY","2019/08/09 19:09:45","新北市中和區泰和街7號","121.49976","25.0006583333333","6500300","中和區"
"235063","006-UY","2019/08/09 19:09:29","新北市中和區連城路249巷30弄1號","121.494793333333","24.9946983333333","6500300","中和區"
"235056","096-UM","2019/08/09 19:09:35","新北市中和區中正路1161號","121.481915","25.008665","6500300","中和區"
"235039","097-UM","2019/08/09 19:09:44","新北市中和區秀朗路三段179號","121.524423333333","24.9907016666667","6500300","中和區"
"235065","098-UM","2019/08/09 19:09:40","新北市中和區中山路二段136巷17號","121.501453333333","25.00403","6500300","中和區"
"235040","150-BY","2019/08/09 19:09:32","新北市中和區宜安路11巷7號","121.512996666667","24.99525","6500300","中和區"
"235058","151-BY","2019/08/09 19:09:45","新北市中和區連城路469巷20號","121.483423333333","24.99512","6500300","中和區"
"235055","183-VK","2019/08/09 19:09:34","新北市中和區德光路49號","121.47019","25.0040716666667","6500300","中和區"
"235038","185-VK","2019/08/09 19:09:45","新北市中和區大仁街8號","121.517926666667","24.9926416666667","6500300","中和區"
"235049","186-VK","2019/08/09 19:09:35","新北市中和區景安路167巷31號","121.506873333333","24.995125","6500300","中和區"
"235067","255-BX","2019/08/09 19:09:37","新北市中和區民樂路81號","121.484703333333","25.0013116666667","6500300","中和區"
"235044","293-VK","2019/08/09 19:09:37","新北市中和區中興街235巷1號","121.50072","24.9896016666667","6500300","中和區"
"235072","301-VK","2019/08/09 19:09:29","新北市中和區永和路9巷2號","121.499126666667","25.0040566666667","6500300","中和區"
"235043","352-BY","2019/08/09 19:09:45","新北市中和區景平路332號","121.512143333333","24.9928833333333","6500300","中和區"
"235050","4979-A6","2019/08/09 19:09:31","新北市中和區復興路263巷9弄11-4號","121.503458333333","24.989795","6500300","中和區"
"235069","4980-A6","2019/08/09 19:09:33","新北市中和區中和路165巷14號","121.503185","25.0003683333333","6500300","中和區"
"235070","558-UM","2019/08/09 19:09:40","新北市中和區南山路24號","121.502025","24.9982","6500300","中和區"
"235045","565-BX","2019/08/09 19:09:43","新北市中和區景新街437巷2弄1號","121.513665","24.9890983333333","6500300","中和區"
"235060","KED-0823","2019/08/09 19:09:39","新北市中和區員山路294巷11號","121.482031666667","25.0023733333333","6500300","中和區"
"235047","732-UM","2019/08/09 19:09:38","新北市中和區興南路一段56巷11號","121.510188333333","24.9913566666667","6500300","中和區"
"235046","733-UM","2019/08/09 19:09:46","新北市中和區華新街164號","121.507415","24.9822383333333","6500300","中和區"
"235071","783-BX","2019/08/09 19:09:38","新北市中和區連城路469巷44弄13號","121.482555","24.9946066666667","6500300","中和區"
"235057","801-TS","2019/08/09 19:09:28","新北市中和區員山路176號","121.481326666667","25.0000383333333","6500300","中和區"
"235052","805-TS","2019/08/09 19:09:28","新北市中和區興南路二段142巷31弄31號","121.50194","24.98339","6500300","中和區"
"235048","896-TW","2019/08/09 19:09:45","新北市中和區忠孝街60巷7號","121.5117","24.983805","6500300","中和區"
"235053","900-TW","2019/08/09 19:09:33","新北市中和區華福街71巷2號","121.467246666667","24.996865","6500300","中和區"
"235054","911-UM","2019/08/09 19:09:45","新北市中和區國光街107巷2弄6號","121.46998","24.9999866666667","6500300","中和區"
"235051","157-BY","2019/08/09 19:09:43","新北市中和區興南路一段73巷2號","121.510195","24.9889916666667","6500300","中和區"
"235037","AAC-213","2019/08/09 19:09:48","新北市中和區秀朗路三段10巷37弄13號","121.524113333333","24.9957933333333","6500300","中和區"
"235059","AAC-215","2019/08/09 19:09:32","新北市中和區圓通路294巷17-5號","121.488645","24.9904666666667","6500300","中和區"
"220065","072-UY","2019/08/09 19:09:31","新北市板橋區民族路219巷7號","121.469331666667","25.0080133333333","6500100","板橋區"
"220086","073-UY","2019/08/09 19:09:42","新北市板橋區中正路250巷31號","121.456995","25.019535","6500100","板橋區"
"220106","075-UY","2019/08/09 19:09:42","新北市板橋區江寧路三段85巷14號","121.47229","25.0332016666667","6500100","板橋區"
"220069","AAD-861","2019/08/09 19:09:37","新北市板橋區貴興路10號","121.457661666667","25.0042033333333","6500100","板橋區"
"226004","312-R5","2019/08/09 19:09:36","新北市平溪區十分里十分街59號","121.775636666667","25.0415033333333","6502400","平溪區"
"235041","251-BX","2019/08/09 19:09:43","新北市中和區中和路294號","121.508645","24.9997116666667","6500300","中和區"
"228001","212-TW","2019/08/09 19:09:31","新北市貢寮區真理里新港街10號","121.925501666667","25.054335","6502600","貢寮區"
"228002","663-BX","2019/08/09 19:09:37","新北市貢寮區福隆里福隆街32-1號","121.945083333333","25.0174166666667","6502600","貢寮區"
"228003","828-UM","2019/08/09 19:09:38","新北市貢寮區和美里和美街37號","121.912278333333","25.0866716666667","6502600","貢寮區"
"224010","AGQ-8101","2019/08/09 19:09:30","新北市瑞芳區基山街171號","121.84327","25.1080183333333","6501200","瑞芳區"
"224006","676-BX","2019/08/09 19:09:46","新北市瑞芳區頂坪路工業區20號","121.79363","25.099605","6501200","瑞芳區"
"224002","639-TC","2019/08/09 19:09:41","新北市平溪區新寮里五分寮10-2號","121.799773333333","25.0740133333333","6501200","瑞芳區"
"224009","275-VK","2019/08/09 19:09:28","新北市瑞芳區洞頂路99號","121.86176","25.1208566666667","6501200","瑞芳區"
"224008","273-VK","2019/08/09 19:09:46","新北市瑞芳區瑞芳街104號","121.80164","25.1106116666667","6501200","瑞芳區"
"227002","642-TC","2019/08/09 19:09:37","新北市雙溪區平林里外平林9-4號","121.859245","25.0379133333333","6502500","雙溪區"
"227001","400-TW","2019/08/09 19:09:39","新北市雙溪區牡丹里中正路23號","121.864646666667","25.03761","6502500","雙溪區"
"253006","032-BX","2019/08/09 19:09:39","新北市石門區崁子腳58-10號","121.530921666667","25.2870533333333","6502200","石門區"
"253005","295-VK","2019/08/09 19:09:43","新北市石門區阿里荖35-2號","121.606518333333","25.280705","6502200","石門區"
"222001","KEA-2212","2019/08/09 19:09:44","新北市深坑區北深路一段300號","121.624126666667","25.0057533333333","6501800","深坑區"
"208002","KEA-2872","2019/08/09 19:09:37","新北市金山區中正路71巷3號","121.633668333333","25.2215433333333","6502700","金山區"
"208003","665-BX","2019/08/09 19:09:48","新北市金山區中正路32號","121.635423333333","25.222175","6502700","金山區"
"251009","008-UM","2019/08/09 19:09:38","新北市淡水區重建街36號","121.439873333333","25.1712233333333","6501000","淡水區"
"251001","011-UM","2019/08/09 19:09:32","新北市淡水區民權路92巷35-1號","121.462116666667","25.1267466666667","6501000","淡水區"
"251010","012-UM","2019/08/09 19:09:49","新北市淡水區中正路一段156巷3號","121.42121","25.1802116666667","6501000","淡水區"
"251007","442-VK","2019/08/09 19:09:35","新北市淡水區民生路135巷30號","121.466653333333","25.1390866666667","6501000","淡水區"
"251005","443-VK","2019/08/09 19:09:35","新北市淡水區原德路11號","121.442143333333","25.1712066666667","6501000","淡水區"
"251002","672-BX","2019/08/09 19:09:33","新北市淡水區中山路31號","121.443926666667","25.1702866666667","6501000","淡水區"
"251003","766-UM","2019/08/09 19:09:43","新北市淡水區中山北路一段171號","121.443518333333","25.1777283333333","6501000","淡水區"
"207003","681-TV","2019/08/09 19:09:38","新北市萬里區大鵬里頂社24-2號","121.657455","25.2103883333333","6502800","萬里區"
"207004","291-VK","2019/08/09 19:09:36","新北市萬里區萬里里瑪鋉下街52號","121.691603333333","25.1795166666667","6502800","萬里區"
"252002","178-VK","2019/08/09 19:09:38","新北市三芝區淡金路二段15號","121.502531666667","25.259215","6502100","三芝區"
"252003","249-BX","2019/08/09 19:09:34","新北市三芝區錫板里南勢崗5-5號","121.480603333333","25.262745","6502100","三芝區"
"208001","170-UY","2019/08/09 19:09:31","新北市金山區金包里街42號","121.639496666667","25.2209766666667","6502700","金山區"
"237004","KEA-2597","2019/08/09 19:09:47","新北市三峽區有木205-1號","121.439038333333","24.85159","6500900","三峽區"
"237007","153-BY","2019/08/09 19:09:35","新北市三峽區麻園40號","121.363858333333","24.9207483333333","6500900","三峽區"
"237013","252-BX","2019/08/09 19:09:37","新北市三峽區大同路52號","121.376813333333","24.9289966666667","6500900","三峽區"
"237012","275-BY","2019/08/09 19:09:46","新北市三峽區三樹路222巷254弄15號","121.392128333333","24.9439866666667","6500900","三峽區"
"237008","302-VK","2019/08/09 19:09:45","新北市三峽區大同路119巷5號","121.3744","24.926495","6500900","三峽區"
"237014","433-BY","2019/08/09 19:09:45","新北市三峽區復興路337號","121.364368333333","24.9387","6500900","三峽區"
"237006","5529-G3","2019/08/09 19:09:41","新北市三峽區橫溪路95號","121.398433333333","24.9354933333333","6500900","三峽區"
"237011","KEA-2596","2019/08/09 19:09:44","新北市三峽區介壽路三段107號","121.3955","24.9393","6500900","三峽區"
"237015","649-BX","2019/08/09 19:09:49","新北市三峽區安坑40-2號","121.454838333333","24.9321116666667","6500900","三峽區"
"237010","706-TV","2019/08/09 19:09:40","新北市三峽區國光街97號","121.373335","24.9388783333333","6500900","三峽區"
"237005","AKY-6261","2019/08/09 19:09:39","新北市三峽區隆恩街551號","121.35756","24.939575","6500900","三峽區"
"236079","166-UM","2019/08/09 19:09:35","新北市土城區龍泉路13-1號","121.411013333333","24.94782","6501300","土城區"
"236030","253-BX","2019/08/09 19:09:44","新北市土城區城林路6巷80號","121.438536666667","24.9796216666667","6501300","土城區"
"236026","269-VK","2019/08/09 19:09:40","新北市土城區中正路11巷6號","121.443058333333","24.975605","6501300","土城區"
"236014","270-VK","2019/08/09 19:09:39","新北市土城區學府路一段99巷6號","121.456566666667","24.9871","6501300","土城區"
"236069","KEA-2877","2019/08/09 19:09:40","新北市土城區裕生路84巷1號","121.447328333333","24.9853333333333","6501300","土城區"
"252001","KED-0821","2019/08/09 19:09:37","新北市三芝區長勤街45巷2號","121.500333333333","25.2550766666667","6502100","三芝區"
"236020","401-BY","2019/08/09 19:09:40","新北市土城區延吉街146號","121.469068333333","24.9855133333333","6501300","土城區"
"236059","912-UM","2019/08/09 19:09:35","新北市土城區金城路一段3號","121.439141666667","24.9689266666667","6501300","土城區"
"236063","915-UM","2019/08/09 19:09:40","新北市土城區金城路三段186號","121.468108333333","24.987895","6501300","土城區"
"236055","AAC-216","2019/08/09 19:09:38","新北市土城區學府路一段231號","121.451191666667","24.9840066666667","6501300","土城區"
"242007","349-TH","2019/08/09 19:09:44","新北市樹林區中山路三段210-2號","121.381835","24.96553","6500500","新莊區"
"238015","755-BX","2019/08/09 19:08:43","新北市樹林區光明街28號","121.41159","24.99032","6500700","樹林區"
"238023","601-UM","2019/08/09 19:09:32","新北市樹林區三興路37號","121.396043333333","25.01474","6500700","樹林區"
"238019","599-UM","2019/08/09 19:09:43","新北市樹林區東華街73號","121.41568","24.9809016666667","6500700","樹林區"
"238016","571-TV","2019/08/09 19:09:36","新北市樹林區復興路373巷5號","121.417335","24.9864816666667","6500700","樹林區"
"238022","KEA-2213","2019/08/09 19:05:44","新北市樹林區中山路二段151巷12號","121.40685","24.9783266666667","6500700","樹林區"
"238021","KEA-2539","2019/08/09 19:09:37","新北市樹林區柑園街二段457號","121.363313333333","24.94617","6500700","樹林區"
"238025","303-VK","2019/08/09 19:09:33","新北市樹林區民和街61-1號","121.381426666667","24.9710216666667","6500700","樹林區"
"238017","283-BY","2019/08/09 19:09:48","新北市樹林區光興街44號","121.409891666667","25.0027616666667","6500700","樹林區"
"238014","282-BY","2019/08/09 19:09:44","新北市樹林區千歲街70巷1弄22號","121.427016666667","24.9975633333333","6500700","樹林區"
"238020","268-VK","2019/08/09 19:09:34","新北市樹林區俊英街260號","121.424411666667","25.01227","6500700","樹林區"
"238026","172-UY","2019/08/09 19:09:43","新北市樹林區中山路三段361號","121.389498333333","24.9702","6500700","樹林區"
"239007","AAC-297","2019/08/09 19:09:32","新北市鶯歌區大湖路145號","121.343383333333","24.96599","6500800","鶯歌區"
"239006","891-R6","2019/08/09 19:09:48","新北市鶯歌區鶯桃路258號","121.33581","24.9596616666667","6500800","鶯歌區"
"239008","527-UM","2019/08/09 19:09:42","新北市鶯歌區國際二路14巷16號","121.33818","24.9750266666667","6500800","鶯歌區"
"239005","526-UM","2019/08/09 19:09:35","新北市鶯歌區三界公坑30-1號","121.352876666667","24.9709383333333","6500800","鶯歌區"
"239001","417-VK","2019/08/09 19:09:30","新北市鶯歌區永智街57號","121.336543333333","24.953695","6500800","鶯歌區"
"239003","360-BY","2019/08/09 19:09:28","新北市鶯歌區德昌街50號","121.333311666667","24.9599366666667","6500800","鶯歌區"
"239002","359-BY","2019/08/09 19:09:43","新北市鶯歌區中正一路303-1號","121.35608","24.9570566666667","6500800","鶯歌區"
"239004","193-VK","2019/08/09 19:09:42","新北市鶯歌區二甲路97號","121.333196666667","24.9317516666667","6500800","鶯歌區"
"221008","489-VK","2019/08/09 19:09:32","新北市汐止區康寧街418-1號","121.630538333333","25.0680033333333","6501100","汐止區"
"221036","130-UY","2019/08/09 19:09:46","新北市汐止區南昌街16號","121.662898333333","25.0685533333333","6501100","汐止區"
"221023","279-VK","2019/08/09 19:09:32","新北市汐止區康寧街901號","121.650981666667","25.07522","6501100","汐止區"
"221031","353-TW","2019/08/09 19:09:41","新北市汐止區中興路181巷16弄11號","121.629455","25.0666966666667","6501100","汐止區"
"221035","622-UM","2019/08/09 19:09:46","新北市汐止區大同路二段342號","121.65666","25.0670916666667","6501100","汐止區"
"221002","707-TV","2019/08/09 19:09:45","新北市汐止區大同路一段312號","121.637333333333","25.058785","6501100","汐止區"
"220079","145-BY","2019/08/09 19:09:37","新北市板橋區公館街18號","121.45685","25.0123216666667","6500100","板橋區"
"220082","610-BX","2019/08/09 19:09:30","新北市板橋區大觀路三段263號","121.429183333333","24.992155","6500100","板橋區"
"220101","245-BX","2019/08/09 19:09:33","新北市板橋區莊敬路25巷23號","121.474323333333","25.0269816666667","6500100","板橋區"
"220084","256-TC","2019/08/09 19:09:37","新北市板橋區溪崑二街17號","121.428998333333","24.9915633333333","6500100","板橋區"
"220091","267-BY","2019/08/09 19:09:42","新北市板橋區縣民大道三段219號","121.480431666667","25.0252833333333","6500100","板橋區"
"220056","276-BY","2019/08/09 19:09:49","新北市板橋區信義路110巷2弄10號","121.4578","24.9925333333333","6500100","板橋區"
"220072","277-BY","2019/08/09 19:09:41","新北市板橋區金門街378號","121.427061666667","24.9837183333333","6500100","板橋區"
"220071","283-VK","2019/08/09 19:09:46","新北市板橋區忠孝路154巷50號","121.464245","25.0012816666667","6500100","板橋區"
"220094","285-UM","2019/08/09 19:09:41","新北市板橋區吳鳳路21巷2號","121.466931666667","25.03122","6500100","板橋區"
"220053","285-VK","2019/08/09 19:09:45","新北市板橋區懷仁街37-4號","121.476661666667","25.0195016666667","6500100","板橋區"
"220083","286-VK","2019/08/09 19:09:35","新北市板橋區大觀路二段174巷176弄16號","121.442818333333","25.0031566666667","6500100","板橋區"
"220081","287-VK","2019/08/09 19:09:46","新北市板橋區南雅西路二段110巷22號","121.45266","25.0126433333333","6500100","板橋區"
"220090","288-VK","2019/08/09 19:09:28","新北市板橋區長江路一段106巷13弄12號","121.460535","25.0292966666667","6500100","板橋區"
"220061","293-UM","2019/08/09 19:09:30","新北市板橋區中山路二段318巷27弄2號","121.480586666667","25.01839","6500100","板橋區"
"220062","295-UM","2019/08/09 19:09:43","新北市板橋區三民路二段居仁巷1弄48號","121.481213333333","25.013585","6500100","板橋區"
"220075","303-R5","2019/08/09 19:09:43","新北市板橋區南雅南路一段75號","121.455855","25.0055483333333","6500100","板橋區"
"220092","307-R5","2019/08/09 19:09:31","新北市板橋區松江街72巷32號","121.469853333333","25.0277116666667","6500100","板橋區"
"220098","317-R6","2019/08/09 19:09:38","新北市板橋區民有街44號","121.465821666667","25.0257916666667","6500100","板橋區"
"220089","487-VK","2019/08/09 19:09:43","新北市板橋區漢生西路19號","121.463446666667","25.0182283333333","6500100","板橋區"
"220088","491-VK","2019/08/09 19:09:41","新北市板橋區雙十路一段3號","121.478101666667","25.02402","6500100","板橋區"
"220035","560-BX","2019/08/09 19:09:39","新北市板橋區中正路377-3號","121.454266666667","25.021545","6500100","板橋區"
"220103","561-BX","2019/08/09 19:09:30","新北市板橋區文化路一段210號","121.466443333333","25.020135","6500100","板橋區"
"220080","568-UM","2019/08/09 19:09:38","新北市板橋區大觀路二段37巷288號","121.450066666667","25.001495","6500100","板橋區"
"220063","609-BX","2019/08/09 19:09:28","新北市板橋區三民路二段190號","121.478996666667","25.01478","6500100","板橋區"
"220055","630-UY","2019/08/09 19:09:40","新北市板橋區新民街13號","121.463855","25.00992","6500100","板橋區"
"220057","686-BX","2019/08/09 19:09:49","新北市板橋區五權街20號","121.464383333333","24.9938583333333","6500100","板橋區"
"220077","687-BX","2019/08/09 19:09:31","新北市板橋區大觀路二段269號","121.442913333333","24.99897","6500100","板橋區"
"220093","689-BX","2019/08/09 19:09:35","新北市板橋區漢生西路17號","121.463591666667","25.0181016666667","6500100","板橋區"
"220054","741-BX","2019/08/09 19:08:51","新北市板橋區重慶路71-3號","121.462068333333","25.0069166666667","6500100","板橋區"
"220102","KEA-2699","2019/08/09 19:09:39","新北市板橋區文聖街146號","121.478615","25.027795","6500100","板橋區"
"220067","829-TW","2019/08/09 19:09:31","新北市板橋區長安街230號","121.47511","25.0123283333333","6500100","板橋區"
"220068","831-TW","2019/08/09 19:09:46","新北市板橋區中山路二段443巷52弄2號","121.480998333333","25.021485","6500100","板橋區"
"220074","895-R6","2019/08/09 19:09:36","新北市板橋區中正路自強新村5-1號","121.455196666667","25.0139516666667","6500100","板橋區"
"220073","985-R7","2019/08/09 19:09:35","新北市板橋區中正路343號","121.454768333333","25.0205533333333","6500100","板橋區"
"220097","AAC-210","2019/08/09 19:09:46","新北市板橋區幸福路60巷63號","121.460166666667","25.0216383333333","6500100","板橋區"
"220064","AAC-253","2019/08/09 19:09:42","新北市板橋區板新路226號","121.468368333333","25.0161116666667","6500100","板橋區"
"235068","KEA-2873","2019/08/09 19:09:19","新北市中和區圓通路162巷37弄1號","121.496233333333","24.9954483333333","6500300","中和區"
"235061","KEA-2875","2019/08/09 19:09:21","新北市中和區員山路251號","121.481273333333","24.99877","6500300","中和區"
