"lineid","car","time","location","longitude","latitude","cityid","cityname"
"234046","148-BY","2019/08/09 19:49:47","新北市永和區永利路326號","121.52518","25.0032883333333","6500400","永和區"
"234081","298-R6","2019/08/09 19:49:42","新北市永和區永亨路130號","121.524618333333","25.003895","6500400","永和區"
"234038","336-UY","2019/08/09 19:49:31","新北市永和區民樂街57巷8號","121.528163333333","24.99858","6500400","永和區"
"234064","337-UY","2019/08/09 19:49:43","新北市永和區中正路404號","121.517775","25.00187","6500400","永和區"
"234086","338-UY","2019/08/09 19:49:49","新北市永和區永亨路140號","121.525036666667","25.0037833333333","6500400","永和區"
"234070","552-UM","2019/08/09 19:49:33","新北市永和區竹林路88號","121.519398333333","25.0124783333333","6500400","永和區"
"234017","745-BX","2019/08/09 19:49:31","新北市永和區永和路二段299號","121.516021666667","25.0160916666667","6500400","永和區"
"234030","746-BX","2019/08/09 19:49:42","新北市永和區民生路47巷33號","121.525101666667","24.99785","6500400","永和區"
"234054","KEA-2590","2019/08/09 19:49:35","新北市永和區竹林路75巷25弄9號","121.520093333333","25.01447","6500400","永和區"
"234007","KED-0605","2019/08/09 19:49:37","新北市永和區永貞路422號","121.508488333333","25.008195","6500400","永和區"
"234013","KEA-2591","2019/08/09 19:49:32","新北市永和區保生路55號","121.504795","25.0106366666667","6500400","永和區"
"234061","AAD-866","2019/08/09 19:49:31","新北市永和區中正路106號","121.514496666667","24.9959033333333","6500400","永和區"
"234042","862-TW","2019/08/09 19:49:36","新北市永和區中和路389巷14號","121.508116666667","25.0010583333333","6500400","永和區"
"234050","863-TW","2019/08/09 19:49:48","新北市永和區保安路107號","121.507946666667","25.0140933333333","6500400","永和區"
"234026","9371-KE","2019/08/09 19:49:33","新北市永和區雙和街25巷5號","121.508995","25.00188","6500400","永和區"
"234011","9373-KE","2019/08/09 19:49:35","新北市永和區仁愛路352巷122弄11號","121.500618333333","25.0087783333333","6500400","永和區"
"249005","172-UM","2019/08/09 19:49:39","新北市八里區中華路三段192-1號","121.391696666667","25.12803","6502300","八里區"
"249001","173-UM","2019/08/09 19:49:48","新北市八里區中華路二段201-27號","121.40612","25.1502483333333","6502300","八里區"
"249004","303-UY","2019/08/09 19:49:46","新北市八里區中山路一段268巷5弄40號","121.414308333333","25.1608633333333","6502300","八里區"
"249002","305-UY","2019/08/09 19:49:34","新北市八里區頂寮三街16號","121.451513333333","25.1259216666667","6502300","八里區"
"249003","593-UM","2019/08/09 19:49:31","新北市八里區中華路二段552號","121.39864","25.145435","6502300","八里區"
"248016","026-BX","2019/08/09 19:49:47","新北市五股區成泰路四段18-2號","121.453595","25.1066666666667","6501500","五股區"
"248008","KED-0815","2019/08/09 19:49:44","新北市五股區四維路183號","121.468118333333","25.07555","6501500","五股區"
"248018","KED-0813","2019/08/09 19:49:46","新北市五股區外寮路1-5號","121.425931666667","25.0768483333333","6501500","五股區"
"248012","247-BX","2019/08/09 19:49:30","新北市五股區蓬萊路8號","121.435516666667","25.0794866666667","6501500","五股區"
"248014","261-SL","2019/08/09 19:49:45","新北市五股區五福路22巷6號","121.434633333333","25.0890316666667","6501500","五股區"
"248010","272-BY","2019/08/09 19:49:38","新北市五股區登林路貿商巷1弄2號","121.429528333333","25.0698716666667","6501500","五股區"
"248004","677-BX","2019/08/09 19:49:30","新北市五股區成泰路一段126號","121.435258333333","25.0742516666667","6501500","五股區"
"248002","678-BX","2019/08/09 19:49:48","新北市五股區成泰路四段9號","121.452966666667","25.1064666666667","6501500","五股區"
"234023","9380-KE","2019/08/09 19:49:31","新北市永和區豫溪街57巷8弄3號","121.517603333333","25.0104316666667","6500400","永和區"
"234077","969-R7","2019/08/09 19:49:43","新北市永和區中正路171號","121.516561666667","24.998655","6500400","永和區"
"234074","AAC-211","2019/08/09 19:49:34","新北市永和區竹林路179巷38號","121.522111666667","25.010195","6500400","永和區"
"234067","AAC-212","2019/08/09 19:49:40","新北市永和區永平路173巷14弄4號","121.510153333333","25.00856","6500400","永和區"
"234003","AAC-295","2019/08/09 19:49:48","新北市永和區福和路316號","121.516088333333","25.0074333333333","6500400","永和區"
"243012","AAD-798","2019/08/09 19:49:38","新北市泰山區全興路105號","121.433626666667","25.0569016666667","6501600","泰山區"
"243016","421-VK","2019/08/09 19:49:44","新北市泰山區貴陽街32號","121.422966666667","25.0324266666667","6501600","泰山區"
"243009","KEA-2215","2019/08/09 19:49:35","新北市泰山區美寧街64號","121.430973333333","25.0646016666667","6501600","泰山區"
"243011","KEA-2216","2019/08/09 19:49:33","新北市泰山區明志路三段196巷21弄30號","121.42237","25.03855","6501600","泰山區"
"222003","436-BY","2019/08/09 19:49:47","新北市深坑區深南路51-1號","121.621146666667","25.0097916666667","6501800","深坑區"
"222002","659-BX","2019/08/09 19:49:37","新北市深坑區北深路一段266號","121.62923","25.0087","6501800","深坑區"
"231043","001-UM","2019/08/09 19:49:28","新北市新店區中正路263-4號","121.538238333333","24.9738066666667","6500600","新店區"
"231061","002-UM","2019/08/09 19:49:34","新北市新店區安民街230號","121.517496666667","24.9726633333333","6500600","新店區"
"231058","0293-UT","2019/08/09 19:49:47","新北市新店區中央路165-3號","121.533058333333","24.9705083333333","6500600","新店區"
"231044","046-UY","2019/08/09 19:49:37","新北市新店區復興路31號","121.538241666667","24.9863383333333","6500600","新店區"
"231060","106-UY","2019/08/09 19:49:48","新北市新店區安康路二段157號","121.510431666667","24.959405","6500600","新店區"
"231051","107-UY","2019/08/09 19:49:28","新北市新店區中央三街72號","121.52642","24.9751616666667","6500600","新店區"
"231049","108-UY","2019/08/09 19:49:44","新北市新店區民權路88-5號","121.536405","24.9834516666667","6500600","新店區"
"231068","187-VK","2019/08/09 19:49:41","新北市新店區安一路一段1-1號","121.51959","24.9610383333333","6500600","新店區"
"231062","256-BX","2019/08/09 19:49:33","新北市新店區永業路67號","121.531158333333","24.9516383333333","6500600","新店區"
"231054","260-TV","2019/08/09 19:49:41","新北市新店區光明街39號","121.538621666667","24.9597733333333","6500600","新店區"
"231042","268-BY","2019/08/09 19:46:23","新北市新店區中興路一段269號","121.545015","24.96807","6500600","新店區"
"231064","278-BY","2019/08/09 19:49:42","新北市新店區光華街6號","121.517901666667","24.96893","6500600","新店區"
"231050","AAD-862","2019/08/09 19:49:38","新北市新店區北宜路二段461號","121.561758333333","24.954045","6500600","新店區"
"231045","355-BY","2019/08/09 19:49:40","新北市新店區北宜路二段326號","121.562178333333","24.953835","6500600","新店區"
"231055","4716-K9","2019/08/09 19:49:31","新北市新店區力行路96號","121.538131666667","24.9666466666667","6500600","新店區"
"231056","4715-K9","2019/08/09 19:49:33","新北市新店區民權路42巷29號","121.539246666667","24.9837216666667","6500600","新店區"
"231067","4772-VM","2019/08/09 19:49:47","新北市新店區精忠路10-1號","121.532506666667","24.9592283333333","6500600","新店區"
"231053","513-UM","2019/08/09 19:49:34","新北市新店區新烏路三段92號","121.553266666667","24.9036583333333","6500600","新店區"
"231041","619-UM","2019/08/09 19:49:42","新北市新店區中央路129-1號","121.53059","24.9738316666667","6500600","新店區"
"231063","641-BX","2019/08/09 19:49:49","新北市新店區車子路11號","121.502961666667","24.9515833333333","6500600","新店區"
"231048","KED-0819","2019/08/09 19:49:50","新北市新店區寶興路61巷1號","121.550815","24.9721833333333","6500600","新店區"
"231065","718-UY","2019/08/09 19:49:46","新北市新店區安祥路109巷85弄1號","121.477851666667","24.9603333333333","6500600","新店區"
"231046","719-UM","2019/08/09 19:49:32","新北市新店區福園街10巷1號","121.532725","24.9727466666667","6500600","新店區"
"231057","720-UM","2019/08/09 19:49:40","新北市新店區梅崗三路1號","121.557473333333","24.9313066666667","6500600","新店區"
"231059","897-TW","2019/08/09 19:49:37","新北市新店區安和路二段175號","121.518433333333","24.9745883333333","6500600","新店區"
"231040","898-TW","2019/08/09 19:49:33","新北市新店區北新路一段126巷32號","121.543393333333","24.9689733333333","6500600","新店區"
"231066","AKT-0513","2019/08/09 19:49:46","新北市新店區安康路三段165巷2弄5號","121.4892","24.951275","6500600","新店區"
"241011","013-R5","2019/08/09 19:49:30","新北市三重區介壽路43號","121.498845","25.0701016666667","6500200","三重區"
"241028","022-UY","2019/08/09 19:49:38","新北市三重區中正南路97號","121.494235","25.05805","6500200","三重區"
"241008","059-VK","2019/08/09 19:49:37","新北市三重區永福街96號","121.478836666667","25.0759483333333","6500200","三重區"
"241022","060-VK","2019/08/09 19:49:30","新北市三重區過圳街3-1號","121.489473333333","25.05849","6500200","三重區"
"241031","061-VK","2019/08/09 19:49:30","新北市三重區重新路四段97號","121.48588","25.054935","6500200","三重區"
"241015","062-VK","2019/08/09 19:49:40","新北市三重區重新路一段1號","121.503801666667","25.0642166666667","6500200","三重區"
"241017","063-VK","2019/08/09 19:49:30","新北市三重區重陽路三段15號","121.489535","25.0667333333333","6500200","三重區"
"241003","091-VK","2019/08/09 19:49:31","新北市三重區五華街93巷91號","121.494","25.0849716666667","6500200","三重區"
"241006","262-UM","2019/08/09 19:49:49","新北市三重區力行路二段76巷29號","121.480535","25.073495","6500200","三重區"
"241009","267-UM","2019/08/09 19:49:43","新北市三重區三和路四段396巷35號","121.480026666667","25.0788533333333","6500200","三重區"
"241018","268-UM","2019/08/09 19:49:37","新北市三重區正義北路256巷60號","121.49471","25.0680183333333","6500200","三重區"
"241032","269-UM","2019/08/09 19:49:47","新北市三重區重陽路一段44巷10號","121.486023333333","25.0577266666667","6500200","三重區"
"241013","270-UM","2019/08/09 19:49:35","新北市三重區仁愛街112巷16號","121.49468","25.07385","6500200","三重區"
"241025","271-UM","2019/08/09 19:49:39","新北市三重區頂崁街210巷11號","121.476508333333","25.067815","6500200","三重區"
"241007","398-BY","2019/08/09 19:49:32","新北市三重區慈愛街10號","121.484553333333","25.0785083333333","6500200","三重區"
"241030","KED-0822","2019/08/09 19:49:31","新北市三重區環河南路254巷22號","121.490278333333","25.050935","6500200","三重區"
"241035","462-BY","2019/08/09 19:49:31","新北市三重區大榮街11號","121.49817","25.0632866666667","6500200","三重區"
"241020","478-VK","2019/08/09 19:49:31","新北市三重區三和路三段192號","121.49172","25.073575","6500200","三重區"
"241026","480-VK","2019/08/09 19:49:46","新北市三重區文化南路46號","121.500471666667","25.0600683333333","6500200","三重區"
"241014","543-UM","2019/08/09 19:49:38","新北市三重區長元街98巷18弄31號","121.501763333333","25.0674966666667","6500200","三重區"
"241023","545-UM","2019/08/09 19:49:47","新北市三重區大有街1-1號","121.477641666667","25.0656533333333","6500200","三重區"
"241001","547-UM","2019/08/09 19:49:41","新北市三重區仁愛街283巷25號","121.493878333333","25.079615","6500200","三重區"
"241019","KEA-2593","2019/08/09 19:49:41","新北市三重區自強路二段76號","121.488181666667","25.0701483333333","6500200","三重區"
"241005","AAD-863","2019/08/09 19:49:48","新北市三重區溪尾街322號","121.487913333333","25.08461","6500200","三重區"
"241016","887-TS","2019/08/09 19:49:38","新北市三重區正義北路48巷45號","121.496023333333","25.0637183333333","6500200","三重區"
"241012","941-UM","2019/08/09 19:49:32","新北市三重區仁興街41號","121.499168333333","25.07583","6500200","三重區"
"241029","942-UM","2019/08/09 19:49:34","新北市三重區光明路23號","121.491125","25.058555","6500200","三重區"
"241033","AAC-255","2019/08/09 19:49:32","新北市三重區中興南街29-1號","121.470585","25.0439916666667","6500200","三重區"
"235066","003-UY","2019/08/09 19:49:37","新北市中和區南工路26號","121.50559","25.0009183333333","6500300","中和區"
"235056","096-UM","2019/08/09 19:49:35","新北市中和區中山路三段136巷2號","121.473938333333","25.00667","6500300","中和區"
"235039","097-UM","2019/08/09 19:49:44","新北市中和區大勇街27巷29號","121.516146666667","24.9937683333333","6500300","中和區"
"235065","098-UM","2019/08/09 19:49:40","新北市中和區福美路268號","121.49805","25.0051133333333","6500300","中和區"
"235040","150-BY","2019/08/09 19:49:32","新北市中和區安平路38號","121.5097","24.9949333333333","6500300","中和區"
"235058","151-BY","2019/08/09 19:49:45","新北市中和區員山路148巷19號","121.48202","24.9971566666667","6500300","中和區"
"235055","183-VK","2019/08/09 19:49:49","新北市中和區德光路15巷3號","121.471273333333","25.0041083333333","6500300","中和區"
"235038","185-VK","2019/08/09 19:49:45","新北市永和區民權路53號","121.52037","24.9965733333333","6500300","中和區"
"235049","186-VK","2019/08/09 19:49:35","新北市中和區景平路558號","121.502161666667","24.9949666666667","6500300","中和區"
"235067","255-BX","2019/08/09 19:49:37","新北市中和區新生街169號","121.483663333333","25.0008866666667","6500300","中和區"
"235044","293-VK","2019/08/09 19:49:37","新北市中和區南山路146巷11號","121.503366666667","24.9924316666667","6500300","中和區"
"235072","301-VK","2019/08/09 19:49:29","新北市中和區橋和路172號","121.494938333333","25.0063833333333","6500300","中和區"
"235043","352-BY","2019/08/09 19:49:45","新北市中和區興南路二段159巷18號","121.505118333333","24.9829283333333","6500300","中和區"
"247014","KEA-2869","2019/08/09 19:49:46","新北市蘆洲區中央路87號","121.47281","25.084345","6501400","蘆洲區"
"247008","KED-0682","2019/08/09 19:49:36","新北市蘆洲區信義路117號","121.47859","25.0801433333333","6501400","蘆洲區"
"235050","4979-A6","2019/08/09 19:49:31","新北市中和區景平路241巷84弄54號","121.50614","24.9924183333333","6500300","中和區"
"235047","732-UM","2019/08/09 19:49:38","新北市中和區和平街106號","121.507168333333","24.9913416666667","6500300","中和區"
"235046","733-UM","2019/08/09 19:49:46","新北市中和區捷運路8號","121.509898333333","24.9895633333333","6500300","中和區"
"235071","783-BX","2019/08/09 19:49:38","新北市中和區環中路132號","121.482065","25.0128616666667","6500300","中和區"
"235073","800-TS","2019/08/09 19:39:35","新北市中和區員山路36巷16-3號","121.485098333333","24.9914016666667","6500300","中和區"
"235052","805-TS","2019/08/09 19:49:28","新北市中和區華新街192巷22弄18號","121.507201666667","24.9836383333333","6500300","中和區"
"235048","896-TW","2019/08/09 19:49:45","新北市中和區興南路一段1號","121.511461666667","24.9911933333333","6500300","中和區"
"235053","900-TW","2019/08/09 19:49:33","新北市中和區民德路210號","121.468251666667","24.9982466666667","6500300","中和區"
"235051","157-BY","2019/08/09 19:49:43","新北市中和區中興街180巷45號","121.498156666667","24.9896866666667","6500300","中和區"
"235037","AAC-213","2019/08/09 19:49:28","新北市中和區自立路16號","121.521951666667","24.993795","6500300","中和區"
"235059","AAC-215","2019/08/09 19:49:32","新北市中和區圓通路305巷18號","121.494971666667","24.9890733333333","6500300","中和區"
"220065","072-UY","2019/08/09 19:49:31","新北市板橋區國泰街39巷5弄9號","121.468678333333","25.0061366666667","6500100","板橋區"
"220086","073-UY","2019/08/09 19:49:42","新北市板橋區中正路191號","121.456408333333","25.01704","6500100","板橋區"
"220106","075-UY","2019/08/09 19:49:42","新北市板橋區懷德街9號","121.476681666667","25.0330566666667","6500100","板橋區"
"220069","AAD-861","2019/08/09 19:49:37","新北市板橋區大明街25巷2弄37號","121.456966666667","25.0027766666667","6500100","板橋區"
"247004","893-R6","2019/08/09 19:49:41","新北市蘆洲區中原路81號","121.458158333333","25.0817433333333","6501400","蘆洲區"
"247002","500-BY","2019/08/09 19:49:41","新北市蘆洲區永樂街38巷57弄2號","121.458433333333","25.0902016666667","6501400","蘆洲區"
"247024","337-TH","2019/08/09 19:49:49","新北市蘆洲區光復路13號","121.46255","25.0843066666667","6501400","蘆洲區"
"247006","002-UY","2019/08/09 19:49:41","新北市蘆洲區永安南路二段14號","121.467295","25.076865","6501400","蘆洲區"
"235041","251-BX","2019/08/09 19:49:43","新北市中和區中安街218號","121.51193","24.9988733333333","6500300","中和區"
"228001","212-TW","2019/08/09 19:49:31","新北市貢寮區真理里新港街118號","121.926923333333","25.0565716666667","6502600","貢寮區"
"228003","828-UM","2019/08/09 19:49:37","新北市貢寮區真理里延平街173號","121.925226666667","25.0588916666667","6502600","貢寮區"
"224002","639-TC","2019/08/09 19:49:41","新北市瑞芳區民享新村13號","121.816606666667","25.1057183333333","6501200","瑞芳區"
"227002","642-TC","2019/08/09 19:49:37","新北市雙溪區雙溪里內挖路83號","121.863228333333","25.0368583333333","6502500","雙溪區"
"227001","400-TW","2019/08/09 19:49:38","新北市雙溪區新基里中華路68號","121.865858333333","25.0381516666667","6502500","雙溪區"
"222001","KEA-2212","2019/08/09 19:49:44","新北市深坑區北深路三段114號","121.606656666667","25.00158","6501800","深坑區"
"208002","KEA-2872","2019/08/09 19:49:37","新北市金山區中正路134-5號","121.632113333333","25.2205666666667","6502700","金山區"
"208003","665-BX","2019/08/09 19:49:37","新北市金山區永興里忠義路28號","121.631673333333","25.2614733333333","6502700","金山區"
"251009","008-UM","2019/08/09 19:49:38","新北市淡水區中正路36號","121.443768333333","25.1692533333333","6501000","淡水區"
"251004","009-UM","2019/08/09 19:49:44","新北市淡水區民權路177巷53號","121.460541666667","25.1338266666667","6501000","淡水區"
"251001","011-UM","2019/08/09 19:49:35","新北市淡水區淡金路137號","121.457593333333","25.164445","6501000","淡水區"
"251008","181-VK","2019/08/09 19:49:43","新北市淡水區中正路一段24巷2-4號","121.426798333333","25.1770233333333","6501000","淡水區"
"251012","441-VK","2019/08/09 19:49:39","新北市淡水區淡金路三段66號","121.44824","25.1999233333333","6501000","淡水區"
"251007","442-VK","2019/08/09 19:49:35","新北市淡水區竿蓁一街113號","121.454873333333","25.16645","6501000","淡水區"
"251005","443-VK","2019/08/09 19:49:35","新北市淡水區中正東路6號","121.447095","25.1671933333333","6501000","淡水區"
"251006","561-UM","2019/08/09 19:49:41","新北市淡水區水碓街15號","121.443471666667","25.1770083333333","6501000","淡水區"
"251011","650-BX","2019/08/09 19:49:47","新北市淡水區紅樹林路151號","121.460626666667","25.1579733333333","6501000","淡水區"
"251002","672-BX","2019/08/09 19:49:33","新北市淡水區下圭柔山90-8號","121.431225","25.2103066666667","6501000","淡水區"
"207003","681-TV","2019/08/09 19:49:46","新北市萬里區大鵬里萬里加投287-19號","121.646518333333","25.2172766666667","6502800","萬里區"
"207004","291-VK","2019/08/09 19:49:36","新北市萬里區萬里里瑪鋉路144號","121.6904","25.179435","6502800","萬里區"
"252002","178-VK","2019/08/09 19:49:38","新北市三芝區三民街31號","121.504573333333","25.25856","6502100","三芝區"
"208001","170-UY","2019/08/09 19:49:31","新北市金山區南勢湖50號","121.607096666667","25.2173383333333","6502700","金山區"
"237004","KEA-2597","2019/08/09 19:49:28","新北市三峽區添福58-5號","121.37709","24.8886933333333","6500900","三峽區"
"237007","153-BY","2019/08/09 19:49:35","新北市三峽區二鬮路19號","121.362608333333","24.9111183333333","6500900","三峽區"
"237009","210-TH","2019/08/09 19:49:43","新北市三峽區清水街435號","121.368626666667","24.9255816666667","6500900","三峽區"
"237013","252-BX","2019/08/09 19:49:37","新北市三峽區溪北街14號","121.396363333333","24.9362866666667","6500900","三峽區"
"237012","275-BY","2019/08/09 19:49:46","新北市三峽區中華路9號","121.373638333333","24.932055","6500900","三峽區"
"237008","302-VK","2019/08/09 19:49:45","新北市三峽區中華路138號","121.370761666667","24.9271133333333","6500900","三峽區"
"237014","433-BY","2019/08/09 19:49:45","新北市三峽區大埔路14-11號","121.374145","24.900965","6500900","三峽區"
"237006","5529-G3","2019/08/09 19:49:41","新北市三峽區中正路一段336巷15弄2號","121.369968333333","24.9249816666667","6500900","三峽區"
"237015","649-BX","2019/08/09 19:49:49","新北市三峽區溪東路87號","121.401288333333","24.9346783333333","6500900","三峽區"
"237005","AKY-6261","2019/08/09 19:49:39","新北市三峽區長泰街102號","121.375936666667","24.9331733333333","6500900","三峽區"
"236042","KED-0685","2019/08/09 19:49:47","新北市土城區金城路二段227號","121.455475","24.982395","6501300","土城區"
"236079","166-UM","2019/08/09 19:49:35","新北市土城區民權街8號","121.415681666667","24.9628333333333","6501300","土城區"
"236030","253-BX","2019/08/09 19:49:24","新北市土城區中央路一段327號","121.444183333333","24.982535","6501300","土城區"
"236026","269-VK","2019/08/09 19:49:39","新北市土城區中央路二段61巷30號","121.443456666667","24.9785983333333","6501300","土城區"
"236039","271-VK","2019/08/09 19:49:33","新北市土城區國際路158巷54號","121.467975","24.97485","6501300","土城區"
"236069","KEA-2877","2019/08/09 19:49:40","新北市土城區中央路二段346巷23號","121.439291666667","24.9723","6501300","土城區"
"252001","KED-0821","2019/08/09 19:49:37","新北市三芝區公正街66號","121.499823333333","25.2574566666667","6502100","三芝區"
"236020","401-BY","2019/08/09 19:49:40","新北市土城區延吉街165巷5號","121.470283333333","24.9853383333333","6501300","土城區"
"236059","912-UM","2019/08/09 19:49:49","新北市土城區中央路一段141號","121.446638333333","24.9881066666667","6501300","土城區"
"236048","913-UM","2019/08/09 19:49:44","新北市土城區青雲路163號","121.459071666667","24.9834283333333","6501300","土城區"
"236063","915-UM","2019/08/09 19:49:42","新北市土城區延和路146巷15號","121.4683","24.9895116666667","6501300","土城區"
"236055","AAC-216","2019/08/09 19:49:40","新北市土城區延和路106號","121.46692","24.98978","6501300","土城區"
"242060","986-R7","2019/08/09 19:49:43","新北市新莊區瓊林路59-74號","121.444145","25.0272966666667","6500500","新莊區"
"242002","751-BX","2019/08/09 19:49:30","新北市新莊區武前街29號","121.450236666667","25.0325583333333","6500500","新莊區"
"242005","440-UM","2019/08/09 19:49:42","新北市新莊區化成路63巷26弄17號","121.462485","25.046025","6500500","新莊區"
"242048","400-BY","2019/08/09 19:49:36","新北市新莊區建安街92巷15號","121.425768333333","25.0243333333333","6500500","新莊區"
"242025","362-BY","2019/08/09 19:49:32","新北市新莊區五權一路12巷21弄8號","121.457946666667","25.0645916666667","6500500","新莊區"
"242023","353-BY","2019/08/09 19:49:43","新北市新莊區化成路93號","121.465581666667","25.046715","6500500","新莊區"
"242013","132-UY","2019/08/09 19:49:39","新北市新莊區中泰街62巷3號","121.450153333333","25.0470933333333","6500500","新莊區"
"242037","135-UY","2019/08/09 19:49:44","新北市新莊區建安街66號","121.426971666667","25.0246","6500500","新莊區"
"242021","175-VK","2019/08/09 19:49:42","新北市新莊區新泰路127號","121.44832","25.0362066666667","6500500","新莊區"
"242039","346-TH","2019/08/09 19:49:45","新北市新莊區民安路299巷33號","121.429318333333","25.0232533333333","6500500","新莊區"
"242034","348-TH","2019/08/09 19:49:37","新北市新莊區仁愛街73號","121.444141666667","25.03779","6500500","新莊區"
"242032","350-TH","2019/08/09 19:49:49","新北市新莊區忠孝街88號","121.443986666667","25.036905","6500500","新莊區"
"238023","601-UM","2019/08/09 19:49:32","新北市樹林區大安路103號","121.422628333333","24.998135","6500700","樹林區"
"238019","599-UM","2019/08/09 19:49:43","新北市樹林區中山路三段206-1號","121.385078333333","24.9678333333333","6500700","樹林區"
"238024","5061-A6","2019/08/09 19:49:33","新北市樹林區中山路三段206-1號","121.38505","24.96775","6500700","樹林區"
"238021","KEA-2539","2019/08/09 19:49:37","新北市樹林區佳園路三段101巷62弄12號","121.393766666667","24.9501716666667","6500700","樹林區"
"238025","303-VK","2019/08/09 19:49:33","新北市樹林區中山路一段229號","121.420938333333","24.9869716666667","6500700","樹林區"
"238017","283-BY","2019/08/09 19:49:28","新北市樹林區保安街二段167巷26號","121.414225","25.0027433333333","6500700","樹林區"
"238014","282-BY","2019/08/09 19:49:41","新北市樹林區中正路23號","121.427483333333","24.9991983333333","6500700","樹林區"
"239006","891-R6","2019/08/09 19:49:48","新北市鶯歌區文化路145巷4號","121.356678333333","24.9539933333333","6500800","鶯歌區"
"239002","359-BY","2019/08/09 19:49:23","新北市鶯歌區大湖路92號","121.342571666667","24.96278","6500800","鶯歌區"
"221008","489-VK","2019/08/09 19:49:32","新北市汐止區康寧街61巷22弄9號","121.619886666667","25.0669416666667","6501100","汐止區"
"221010","269-BY","2019/08/09 19:49:31","新北市汐止區汐萬路二段9號","121.649455","25.08054","6501100","汐止區"
"221012","278-VK","2019/08/09 19:49:48","新北市汐止區大同路三段495號","121.680193333333","25.071125","6501100","汐止區"
"221023","279-VK","2019/08/09 19:49:32","新北市汐止區中興路201號","121.629186666667","25.0684466666667","6501100","汐止區"
"221029","298-VK","2019/08/09 19:49:38","新北市汐止區康寧街901號","121.65144","25.0749366666667","6501100","汐止區"
"221021","299-VK","2019/08/09 19:49:37","新北市汐止區青山路41-1號","121.656665","25.0613433333333","6501100","汐止區"
"221031","353-TW","2019/08/09 19:49:41","新北市汐止區康寧街753巷2弄26號","121.640358333333","25.074635","6501100","汐止區"
"221025","623-UM","2019/08/09 19:49:28","新北市汐止區秀峰路81巷15弄19號","121.661166666667","25.0648716666667","6501100","汐止區"
"221038","646-BX","2019/08/09 19:49:49","新北市汐止區忠孝東路428號","121.666055","25.0719766666667","6501100","汐止區"
"220079","145-BY","2019/08/09 19:49:39","新北市板橋區民權路202巷25號","121.460511666667","25.0174733333333","6500100","板橋區"
"220082","610-BX","2019/08/09 19:49:46","新北市板橋區溪崑一街41號","121.430256666667","24.9911583333333","6500100","板橋區"
"220101","245-BX","2019/08/09 19:49:33","新北市板橋區莒光路178號","121.473903333333","25.0228483333333","6500100","板橋區"
"220084","256-TC","2019/08/09 19:49:48","新北市板橋區溪崑二街118巷2號","121.426143333333","24.9883483333333","6500100","板橋區"
"220091","267-BY","2019/08/09 19:49:33","新北市板橋區懷德街127巷56號","121.480593333333","25.0318733333333","6500100","板橋區"
"220056","276-BY","2019/08/09 19:49:49","新北市板橋區四川路二段47巷6弄1-2號","121.454261666667","24.994415","6500100","板橋區"
"220072","277-BY","2019/08/09 19:49:41","新北市板橋區金門街125-3號","121.432985","24.991485","6500100","板橋區"
"220071","283-VK","2019/08/09 19:49:33","新北市板橋區和平路174巷34號","121.464823333333","24.994245","6500100","板橋區"
"220094","285-UM","2019/08/09 19:49:41","新北市板橋區雨農路8號","121.462293333333","25.0248116666667","6500100","板橋區"
"220053","285-VK","2019/08/09 19:49:37","新北市板橋區永豐街14號","121.474806666667","25.0169133333333","6500100","板橋區"
"220083","286-VK","2019/08/09 19:49:34","新北市板橋區僑中二街124巷2號","121.445445","25.00525","6500100","板橋區"
"220081","287-VK","2019/08/09 19:49:46","新北市板橋區大觀路一段29巷131弄29號","121.450588333333","25.0046416666667","6500100","板橋區"
"220090","288-VK","2019/08/09 19:49:28","新北市板橋區新海路72巷60號","121.462005","25.023455","6500100","板橋區"
"220061","293-UM","2019/08/09 19:49:32","新北市板橋區觀光街5號","121.471876666667","25.01591","6500100","板橋區"
"220062","295-UM","2019/08/09 19:49:34","新北市板橋區三民路二段81巷27弄31號","121.481368333333","25.0175533333333","6500100","板橋區"
"220075","303-R5","2019/08/09 19:49:43","新北市板橋區中正路229號","121.455825","25.017805","6500100","板橋區"
"220092","307-R5","2019/08/09 19:49:31","新北市板橋區新海路11號","121.462451666667","25.020785","6500100","板橋區"
"220098","317-R6","2019/08/09 19:49:46","新北市板橋區四維路279巷79弄3號","121.459898333333","25.02716","6500100","板橋區"
"220089","487-VK","2019/08/09 19:49:43","新北市板橋區四維路182號","121.464298333333","25.02678","6500100","板橋區"
"220088","491-VK","2019/08/09 19:49:46","新北市板橋區懷德街127巷1號","121.478861666667","25.0308983333333","6500100","板橋區"
"220035","560-BX","2019/08/09 19:49:38","新北市板橋區金華街85巷42號","121.459186666667","25.0213933333333","6500100","板橋區"
"220103","561-BX","2019/08/09 19:49:30","新北市板橋區英士路58巷7號","121.460643333333","25.0251216666667","6500100","板橋區"
"220080","568-UM","2019/08/09 19:49:38","新北市板橋區大觀路二段37巷38號","121.448585","25.00263","6500100","板橋區"
"220063","609-BX","2019/08/09 19:49:49","新北市板橋區三民路一段3巷2號","121.479008333333","25.0234266666667","6500100","板橋區"
"220055","630-UY","2019/08/09 19:49:40","新北市板橋區國慶路127號","121.460695","24.99594","6500100","板橋區"
"220057","686-BX","2019/08/09 19:49:29","新北市板橋區四川路二段245巷32號","121.451411666667","24.99277","6500100","板橋區"
"220077","687-BX","2019/08/09 19:49:30","新北市板橋區僑中二街116巷1號","121.445816666667","25.0063366666667","6500100","板橋區"
"220093","689-BX","2019/08/09 19:49:42","新北市板橋區長江路三段103號","121.474863333333","25.0344183333333","6500100","板橋區"
"220054","741-BX","2019/08/09 19:49:44","新北市板橋區忠孝路202號","121.465841666667","25.0026216666667","6500100","板橋區"
"220102","KEA-2699","2019/08/09 19:49:44","新北市板橋區莒光路39巷20號","121.471111666667","25.02524","6500100","板橋區"
"220067","829-TW","2019/08/09 19:49:31","新北市板橋區長安街331巷21號","121.473588333333","25.0123733333333","6500100","板橋區"
"220068","831-TW","2019/08/09 19:49:32","新北市板橋區光復街150號","121.484763333333","25.0195033333333","6500100","板橋區"
"220074","895-R6","2019/08/09 19:49:36","新北市板橋區縣民大道一段193號","121.458726666667","25.008075","6500100","板橋區"
"220073","985-R7","2019/08/09 19:49:35","新北市板橋區國光路51號","121.458068333333","25.0179183333333","6500100","板橋區"
"220097","AAC-210","2019/08/09 19:49:48","新北市板橋區光正街18巷11號","121.462625","25.017685","6500100","板橋區"
"220064","AAC-253","2019/08/09 19:49:43","新北市板橋區民族路232號","121.469046666667","25.00727","6500100","板橋區"
"235068","KEA-2873","2019/08/09 19:49:19","新北市中和區莊敬路14號","121.499861666667","25.0043583333333","6500300","中和區"
