"lineid","car","time","location","longitude","latitude","cityid","cityname"
"234046","148-BY","2019/08/09 19:59:48","新北市永和區成功路一段2號","121.527183333333","25.00569","6500400","永和區"
"234081","298-R6","2019/08/09 19:59:47","新北市永和區林森路99號","121.523481666667","25.0037233333333","6500400","永和區"
"234038","336-UY","2019/08/09 19:59:31","新北市永和區成功路二段116號","121.526546666667","24.9978833333333","6500400","永和區"
"234064","337-UY","2019/08/09 19:59:43","新北市永和區中正路412巷20弄27號","121.519133333333","25.00126","6500400","永和區"
"234086","338-UY","2019/08/09 19:59:24","新北市永和區永利路42號","121.518701666667","25.0054633333333","6500400","永和區"
"234070","552-UM","2019/08/09 19:59:37","新北市永和區國光路16號","121.518958333333","25.0084133333333","6500400","永和區"
"234017","745-BX","2019/08/09 19:59:31","新北市永和區文化路86號","121.513896666667","25.015215","6500400","永和區"
"234030","746-BX","2019/08/09 19:59:44","新北市永和區民權路49巷5弄4號","121.520461666667","24.997445","6500400","永和區"
"234054","KEA-2590","2019/08/09 19:59:35","新北市永和區環河東路一段122號","121.520625","25.0154383333333","6500400","永和區"
"234007","KED-0605","2019/08/09 19:59:37","新北市永和區中山路一段238號","121.507385","25.0077516666667","6500400","永和區"
"234013","KEA-2591","2019/08/09 19:59:32","新北市永和區保生路55號","121.504698333333","25.01061","6500400","永和區"
"234061","AAD-866","2019/08/09 19:59:48","新北市永和區中正路283巷37號","121.516113333333","24.99963","6500400","永和區"
"234042","862-TW","2019/08/09 19:59:36","新北市永和區雙和街17巷17號","121.50899","25.0014316666667","6500400","永和區"
"234050","863-TW","2019/08/09 19:59:38","新北市永和區保安路292號","121.505183333333","25.0118766666667","6500400","永和區"
"234026","9371-KE","2019/08/09 19:59:33","新北市永和區水源街27巷9號","121.511285","25.0039666666667","6500400","永和區"
"234011","9373-KE","2019/08/09 19:59:35","新北市永和區仁愛路352巷124號","121.500226666667","25.0086216666667","6500400","永和區"
"249005","172-UM","2019/08/09 19:59:39","新北市八里區楓林路2-9號","121.385993333333","25.13233","6502300","八里區"
"249001","173-UM","2019/08/09 19:59:28","新北市八里區中華路二段249-2號","121.404085","25.1484416666667","6502300","八里區"
"249004","303-UY","2019/08/09 19:59:46","新北市八里區中華路一段333-1號","121.413575","25.1535083333333","6502300","八里區"
"249002","305-UY","2019/08/09 19:59:36","新北市八里區頂寮一街39號","121.45054","25.1237916666667","6502300","八里區"
"249003","593-UM","2019/08/09 19:59:31","新北市八里區中華路二段560巷17號","121.398491666667","25.1451916666667","6502300","八里區"
"248016","026-BX","2019/08/09 19:59:47","新北市五股區成泰路三段577巷80弄7號","121.449483333333","25.10433","6501500","五股區"
"248008","KED-0815","2019/08/09 19:59:44","新北市五股區四維路30巷29號","121.468573333333","25.0714633333333","6501500","五股區"
"248018","KED-0813","2019/08/09 19:59:46","新北市五股區登林路95號","121.41657","25.07523","6501500","五股區"
"248012","247-BX","2019/08/09 19:59:30","新北市五股區民義路一段109-2號","121.433951666667","25.0863833333333","6501500","五股區"
"248014","261-SL","2019/08/09 19:59:45","新北市五股區成泰路二段147巷23-8號","121.437481666667","25.0874883333333","6501500","五股區"
"248010","272-BY","2019/08/09 19:59:51","新北市五股區成泰路一段26-1號","121.434798333333","25.0677533333333","6501500","五股區"
"248004","677-BX","2019/08/09 19:59:29","新北市五股區成泰路一段32巷62號","121.435133333333","25.0671433333333","6501500","五股區"
"248002","678-BX","2019/08/09 19:59:48","新北市五股區成泰路三段487號","121.450731666667","25.0992466666667","6501500","五股區"
"234023","9380-KE","2019/08/09 19:59:41","新北市永和區中正路702巷18號","121.516453333333","25.0104833333333","6500400","永和區"
"234077","969-R7","2019/08/09 19:59:43","新北市永和區民有街23巷1號","121.516823333333","24.9964516666667","6500400","永和區"
"234074","AAC-211","2019/08/09 19:59:34","新北市永和區豫溪街205號","121.523615","25.0096433333333","6500400","永和區"
"234067","AAC-212","2019/08/09 19:59:40","新北市永和區中山路一段281巷3號","121.507368333333","25.0067416666667","6500400","永和區"
"234003","AAC-295","2019/08/09 19:59:48","新北市永和區中正路613號","121.516175","25.0097083333333","6500400","永和區"
"243012","AAD-798","2019/08/09 19:59:38","新北市泰山區全興路13號","121.432343333333","25.05893","6501600","泰山區"
"243010","297-R6","2019/08/09 19:59:44","新北市泰山區明志路二段54號","121.429131666667","25.0528366666667","6501600","泰山區"
"243014","KEA-2801","2019/08/09 19:59:49","新北市泰山區泰林路二段36-1號","121.435848333333","25.0572533333333","6501600","泰山區"
"243016","421-VK","2019/08/09 19:59:34","新北市泰山區明志路三段411號","121.421161666667","25.0339466666667","6501600","泰山區"
"243009","KEA-2215","2019/08/09 19:59:37","新北市泰山區泰林路二段164巷37號","121.4341","25.06126","6501600","泰山區"
"243011","KEA-2216","2019/08/09 19:59:33","新北市泰山區明志路三段196巷41號","121.421526666667","25.0399483333333","6501600","泰山區"
"222003","436-BY","2019/08/09 19:59:47","新北市深坑區埔新街14號","121.620735","25.0039466666667","6501800","深坑區"
"222002","659-BX","2019/08/09 19:59:37","新北市深坑區北深路二段81巷6弄1號","121.618206666667","25.00325","6501800","深坑區"
"231043","001-UM","2019/08/09 19:59:49","新北市新店區中正路263-4號","121.538225","24.9737283333333","6500600","新店區"
"231061","002-UM","2019/08/09 19:59:34","新北市新店區安民街361號","121.516646666667","24.9757633333333","6500600","新店區"
"231044","046-UY","2019/08/09 19:59:37","新北市新店區復興路36號","121.538998333333","24.986965","6500600","新店區"
"231060","106-UY","2019/08/09 19:59:48","新北市新店區安康路二段365號","121.495461666667","24.954625","6500600","新店區"
"231051","107-UY","2019/08/09 19:59:48","新北市新店區中央五街22號","121.529325","24.9744816666667","6500600","新店區"
"231049","108-UY","2019/08/09 19:59:31","新北市新店區建國路219-1號","121.53757","24.9813016666667","6500600","新店區"
"231068","187-VK","2019/08/09 19:59:41","新北市新店區安康路一段355-3號","121.51981","24.9624033333333","6500600","新店區"
"231062","256-BX","2019/08/09 19:59:33","新北市新店區華城路36巷1號","121.52799","24.9553016666667","6500600","新店區"
"231054","260-TV","2019/08/09 19:59:41","新北市新店區光明街185號","121.539956666667","24.96321","6500600","新店區"
"231042","268-BY","2019/08/09 19:59:43","新北市新店區中興路一段292號","121.54609","24.969045","6500600","新店區"
"231064","278-BY","2019/08/09 19:59:35","新北市新店區安光路10-1號","121.513788333333","24.9641483333333","6500600","新店區"
"231050","AAD-862","2019/08/09 19:59:38","新北市新店區北宜路二段230號","121.559876666667","24.95442","6500600","新店區"
"231045","355-BY","2019/08/09 19:59:41","新北市新店區北宜路二段427號","121.560578333333","24.9543866666667","6500600","新店區"
"231055","4716-K9","2019/08/09 19:59:33","新北市新店區力行路14巷14弄1號","121.539233333333","24.965345","6500600","新店區"
"231056","4715-K9","2019/08/09 19:59:37","新北市新店區北新路二段29巷2弄2號","121.542293333333","24.9729183333333","6500600","新店區"
"231067","4772-VM","2019/08/09 19:59:47","新北市新店區秀山路11巷18弄1號","121.531638333333","24.958945","6500600","新店區"
"231053","513-UM","2019/08/09 19:59:34","新北市新店區新烏路三段寶島巷2弄3號","121.551985","24.8985616666667","6500600","新店區"
"231041","619-UM","2019/08/09 19:59:42","新北市新店區中央路23號","121.533173333333","24.978045","6500600","新店區"
"231063","641-BX","2019/08/09 19:59:29","新北市新店區車子路11號","121.503026666667","24.95162","6500600","新店區"
"231048","KED-0819","2019/08/09 19:59:50","新北市新店區寶宏路38號","121.549538333333","24.9756533333333","6500600","新店區"
"231065","718-UY","2019/08/09 19:59:46","新北市新店區安祥路109巷112號","121.476995","24.9586033333333","6500600","新店區"
"231057","720-UM","2019/08/09 19:59:40","新北市新店區花園二路一段11號","121.55546","24.932475","6500600","新店區"
"231059","897-TW","2019/08/09 19:59:37","新北市新店區安和路一段15號","121.516836666667","24.96417","6500600","新店區"
"231040","898-TW","2019/08/09 19:59:33","新北市新店區北新路一段126巷32號","121.543391666667","24.968925","6500600","新店區"
"231066","AKT-0513","2019/08/09 19:59:46","新北市新店區安康路二段341巷4號","121.496861666667","24.955","6500600","新店區"
"241011","013-R5","2019/08/09 19:59:30","新北市三重區文化北路149號","121.497661666667","25.069485","6500200","三重區"
"241028","022-UY","2019/08/09 19:59:38","新北市三重區仁化街165號","121.49481","25.0568733333333","6500200","三重區"
"241008","059-VK","2019/08/09 19:59:37","新北市三重區永福街179巷26號","121.478115","25.0748416666667","6500200","三重區"
"241022","060-VK","2019/08/09 19:59:30","新北市三重區新北大道一段11號","121.488646666667","25.0607","6500200","三重區"
"241031","061-VK","2019/08/09 19:59:10","新北市三重區重新路四段144巷26號","121.48732","25.0552466666667","6500200","三重區"
"241015","062-VK","2019/08/09 19:59:40","新北市三重區三和路二段35-1號","121.5009","25.067145","6500200","三重區"
"241017","063-VK","2019/08/09 19:59:50","新北市三重區自強路一段290號","121.4915","25.068255","6500200","三重區"
"241024","065-VK","2019/08/09 19:59:47","新北市三重區力行路一段277號","121.482121666667","25.0716116666667","6500200","三重區"
"241003","091-VK","2019/08/09 19:59:45","新北市三重區仁愛街445巷59號","121.491381666667","25.0832466666667","6500200","三重區"
"241002","742-BX","2019/08/09 19:59:39","新北市三重區仁義街101巷2號","121.49869","25.0783783333333","6500200","三重區"
"241006","262-UM","2019/08/09 19:59:45","新北市三重區力行路二段156號","121.482693333333","25.0762533333333","6500200","三重區"
"241009","267-UM","2019/08/09 19:59:43","新北市三重區三和路四段392-1號","121.481798333333","25.0791166666667","6500200","三重區"
"241018","268-UM","2019/08/09 19:59:40","新北市三重區正義北路252號","121.495796666667","25.06833","6500200","三重區"
"241032","269-UM","2019/08/09 19:59:27","新北市三重區朝陽街26巷1弄19號","121.483036666667","25.05708","6500200","三重區"
"241013","270-UM","2019/08/09 19:59:35","新北市三重區三和路三段125巷42號","121.494026666667","25.0737783333333","6500200","三重區"
"241025","271-UM","2019/08/09 19:59:39","新北市三重區頂崁街210巷16號","121.47643","25.06774","6500200","三重區"
"241007","398-BY","2019/08/09 19:59:32","新北市三重區慈愛街105號","121.487913333333","25.07964","6500200","三重區"
"241030","KED-0822","2019/08/09 19:59:31","新北市三重區成功路187號","121.485733333333","25.05299","6500200","三重區"
"241035","462-BY","2019/08/09 19:59:31","新北市三重區大榮街9號","121.498226666667","25.063145","6500200","三重區"
"241004","475-VK","2019/08/09 19:59:32","新北市三重區五華街70號","121.493471666667","25.0819316666667","6500200","三重區"
"241020","478-VK","2019/08/09 19:59:31","新北市三重區忠孝路一段101號","121.489513333333","25.07214","6500200","三重區"
"241026","480-VK","2019/08/09 19:59:46","新北市三重區仁慈街4號","121.501581666667","25.0632483333333","6500200","三重區"
"241014","543-UM","2019/08/09 19:59:38","新北市三重區三和路二段160號","121.499276666667","25.068555","6500200","三重區"
"241023","545-UM","2019/08/09 19:59:47","新北市三重區頂崁街166號","121.477615","25.06573","6500200","三重區"
"241001","547-UM","2019/08/09 19:59:41","新北市三重區溪尾街16號","121.491298333333","25.07553","6500200","三重區"
"241019","KEA-2593","2019/08/09 19:59:41","新北市三重區自強路二段7號","121.49024","25.0690183333333","6500200","三重區"
"241005","AAD-863","2019/08/09 19:59:48","新北市三重區碧華街292號","121.48962","25.0833016666667","6500200","三重區"
"241016","887-TS","2019/08/09 19:59:38","新北市三重區正義北路36巷45號","121.495938333333","25.0633433333333","6500200","三重區"
"241012","941-UM","2019/08/09 19:59:32","新北市三重區仁興街57號","121.498983333333","25.07611","6500200","三重區"
"241029","942-UM","2019/08/09 19:59:34","新北市三重區重新路三段204號","121.490121666667","25.058295","6500200","三重區"
"241033","AAC-255","2019/08/09 19:59:32","新北市三重區中興北街26號","121.469673333333","25.048645","6500200","三重區"
"235066","003-UY","2019/08/09 19:59:37","新北市中和區中山路二段46號","121.50425","25.0049333333333","6500300","中和區"
"235039","097-UM","2019/08/09 19:59:24","新北市中和區景平路278巷16弄28號","121.514486666667","24.9938583333333","6500300","中和區"
"235065","098-UM","2019/08/09 19:59:40","新北市中和區福美路256巷10號","121.498085","25.0058233333333","6500300","中和區"
"235040","150-BY","2019/08/09 19:59:32","新北市中和區景新街149號","121.506475","24.9965816666667","6500300","中和區"
"235055","183-VK","2019/08/09 19:59:34","新北市中和區中山路三段206號","121.471596666667","25.0064966666667","6500300","中和區"
"235044","293-VK","2019/08/09 19:59:37","新北市中和區復興路73號","121.503698333333","24.990355","6500300","中和區"
"247014","KEA-2869","2019/08/09 19:59:46","新北市蘆洲區中山二路105號","121.47259","25.0817916666667","6501400","蘆洲區"
"247008","KED-0682","2019/08/09 19:59:35","新北市蘆洲區信義路111號","121.478285","25.0802316666667","6501400","蘆洲區"
"235050","4979-A6","2019/08/09 19:59:31","新北市中和區景平路155巷2弄2號","121.513305","24.9920383333333","6500300","中和區"
"235046","733-UM","2019/08/09 19:59:46","新北市中和區忠孝街31巷42號","121.509828333333","24.985115","6500300","中和區"
"235073","800-TS","2019/08/09 19:39:35","新北市中和區員山路36巷16-3號","121.485098333333","24.9914016666667","6500300","中和區"
"235051","157-BY","2019/08/09 19:59:43","新北市中和區景安路221號","121.504291666667","24.9913516666667","6500300","中和區"
"235037","AAC-213","2019/08/09 19:59:48","新北市中和區自強路50號","121.520335","24.9949066666667","6500300","中和區"
"235059","AAC-215","2019/08/09 19:59:32","新北市中和區圓通路355號","121.49144","24.990155","6500300","中和區"
"220065","072-UY","2019/08/09 19:59:37","新北市板橋區海山路37-1號","121.46736","25.0094966666667","6500100","板橋區"
"220086","073-UY","2019/08/09 19:59:45","新北市板橋區館前西路160巷32號","121.452238333333","25.0091683333333","6500100","板橋區"
"220106","075-UY","2019/08/09 19:59:42","新北市板橋區民治街132號","121.477693333333","25.0308383333333","6500100","板橋區"
"220069","AAD-861","2019/08/09 19:59:37","新北市板橋區貴興路92號","121.45593","25.0027133333333","6500100","板橋區"
"247004","893-R6","2019/08/09 19:59:47","新北市蘆洲區長安街271號","121.458488333333","25.084","6501400","蘆洲區"
"247018","546-UM","2019/08/09 19:59:50","新北市蘆洲區民族路290巷17號","121.478525","25.0900916666667","6501400","蘆洲區"
"247002","500-BY","2019/08/09 19:59:40","新北市蘆洲區長安街272號","121.457396666667","25.086945","6501400","蘆洲區"
"247024","337-TH","2019/08/09 19:59:08","新北市蘆洲區光榮路120巷8弄37號","121.464671666667","25.087945","6501400","蘆洲區"
"247012","056-VK","2019/08/09 19:59:41","新北市蘆洲區民族路149號","121.479505","25.0878616666667","6501400","蘆洲區"
"247016","053-VK","2019/08/09 19:59:41","新北市蘆洲區光華路32號","121.46917","25.0832333333333","6501400","蘆洲區"
"247020","007-UY","2019/08/09 19:59:31","新北市蘆洲區民義街53號","121.472761666667","25.089765","6501400","蘆洲區"
"247006","002-UY","2019/08/09 19:59:41","新北市蘆洲區九芎街143號","121.46558","25.0792616666667","6501400","蘆洲區"
"228003","828-UM","2019/08/09 19:59:37","新北市貢寮區仁理村仁和路11號","121.923041666667","25.05164","6502600","貢寮區"
"224002","639-TC","2019/08/09 19:59:41","新北市瑞芳區員山子路3-1號","121.81902","25.1045933333333","6501200","瑞芳區"
"227002","642-TC","2019/08/09 19:59:37","新北市雙溪區雙溪里太平路81號","121.865416666667","25.0361716666667","6502500","雙溪區"
"227001","400-TW","2019/08/09 19:59:38","新北市雙溪區新基里新基南街24號","121.866283333333","25.03821","6502500","雙溪區"
"222001","KEA-2212","2019/08/09 19:59:44","新北市深坑區北深路三段137號","121.603825","25.002645","6501800","深坑區"
"208002","KEA-2872","2019/08/09 19:59:37","新北市金山區環金路462號","121.630113333333","25.2248033333333","6502700","金山區"
"251009","008-UM","2019/08/09 19:59:38","新北市淡水區英專路21巷17號","121.444915","25.169685","6501000","淡水區"
"251004","009-UM","2019/08/09 19:59:44","新北市淡水區民權路173巷15號","121.460708333333","25.135555","6501000","淡水區"
"251001","011-UM","2019/08/09 19:59:32","新北市淡水區北投子14-6號","121.44751","25.18487","6501000","淡水區"
"251008","181-VK","2019/08/09 19:59:43","新北市淡水區淡海路63巷10-1號","121.422741666667","25.1807433333333","6501000","淡水區"
"251012","441-VK","2019/08/09 19:59:40","新北市淡水區下圭柔山93號","121.435981666667","25.2090683333333","6501000","淡水區"
"251005","443-VK","2019/08/09 19:59:35","新北市淡水區學府路136巷24號","121.451413333333","25.17273","6501000","淡水區"
"251006","561-UM","2019/08/09 19:59:41","新北市淡水區水碓街16號","121.44382","25.17725","6501000","淡水區"
"251011","650-BX","2019/08/09 19:59:46","新北市淡水區埤島3-20號","121.446941666667","25.191525","6501000","淡水區"
"251002","672-BX","2019/08/09 19:59:33","新北市淡水區新市一路一段6號","121.429123333333","25.1874466666667","6501000","淡水區"
"207003","681-TV","2019/08/09 19:59:38","新北市萬里區大鵬里萬里加投45-1號","121.641443333333","25.21087","6502800","萬里區"
"207004","291-VK","2019/08/09 19:59:35","新北市萬里區北基里忠二街35號","121.685695","25.1756966666667","6502800","萬里區"
"252002","178-VK","2019/08/09 19:59:38","新北市三芝區三民街39巷36號","121.50543","25.257535","6502100","三芝區"
"237004","KEA-2597","2019/08/09 19:59:28","新北市三峽區添福9-1號","121.371276666667","24.90765","6500900","三峽區"
"237009","210-TH","2019/08/09 19:59:43","新北市三峽區民族街28巷1號","121.369065","24.930855","6500900","三峽區"
"237012","275-BY","2019/08/09 19:59:46","新北市三峽區中華路33號","121.372791666667","24.9312816666667","6500900","三峽區"
"237008","302-VK","2019/08/09 19:59:45","新北市三峽區中華路76-2號","121.371505","24.9290316666667","6500900","三峽區"
"237014","433-BY","2019/08/09 19:59:45","新北市三峽區白雞30-3號","121.370008333333","24.9122683333333","6500900","三峽區"
"237006","5529-G3","2019/08/09 19:59:40","新北市三峽區中正路二段168號","121.36603","24.9156083333333","6500900","三峽區"
"237015","649-BX","2019/08/09 19:59:49","新北市三峽區介壽路二段138巷1弄13號","121.39637","24.933765","6500900","三峽區"
"237005","AKY-6261","2019/08/09 19:59:39","新北市三峽區民生街1巷5-96號","121.379655","24.9354583333333","6500900","三峽區"
"236042","KED-0685","2019/08/09 19:59:47","新北市土城區學府路一段120巷7號","121.455001666667","24.988","6501300","土城區"
"236079","166-UM","2019/08/09 19:59:35","新北市土城區三民路25號","121.420196666667","24.96362","6501300","土城區"
"236030","253-BX","2019/08/09 19:59:44","新北市土城區中央路一段287號","121.444448333333","24.9845483333333","6501300","土城區"
"236026","269-VK","2019/08/09 19:59:36","新北市土城區中央路二段93號","121.442243333333","24.9781133333333","6501300","土城區"
"236014","270-VK","2019/08/09 19:59:36","新北市土城區廣福街123號","121.456243333333","24.9929783333333","6501300","土城區"
"236039","271-VK","2019/08/09 19:59:33","新北市土城區國際路68號","121.466613333333","24.9773133333333","6501300","土城區"
"247010","KED-0683","2019/08/09 19:59:36","新北市三重區集賢路182號","121.48376","25.0879383333333","6501400","蘆洲區"
"236069","KEA-2877","2019/08/09 19:59:40","新北市土城區忠義路92號","121.444345","24.9623216666667","6501300","土城區"
"252001","KED-0821","2019/08/09 19:59:37","新北市三芝區公正街66號","121.499831666667","25.2574583333333","6502100","三芝區"
"236020","401-BY","2019/08/09 19:59:40","新北市土城區延吉街75巷8號","121.472365","24.9868683333333","6501300","土城區"
"236059","912-UM","2019/08/09 19:59:29","新北市土城區中央路一段342號","121.443111666667","24.98114","6501300","土城區"
"236048","913-UM","2019/08/09 19:59:43","新北市土城區金城路三段313-2號","121.474813333333","24.991075","6501300","土城區"
"236063","915-UM","2019/08/09 19:59:40","新北市土城區金城路三段73巷9弄21號","121.465705","24.9874616666667","6501300","土城區"
"236055","AAC-216","2019/08/09 19:59:49","新北市土城區學府路一段1巷1號","121.459471666667","24.988305","6501300","土城區"
"242060","986-R7","2019/08/09 19:59:43","新北市新莊區瓊林路瓊英巷8弄10號","121.443205","25.028065","6500500","新莊區"
"242002","751-BX","2019/08/09 19:59:30","新北市新莊區中正路219號","121.450941666667","25.0358066666667","6500500","新莊區"
"242029","615-BX","2019/08/09 19:59:32","新北市新莊區中榮街152巷44號","121.445421666667","25.0538233333333","6500500","新莊區"
"242058","612-BX","2019/08/09 19:59:50","新北市新莊區八德街45號","121.424893333333","25.02217","6500500","新莊區"
"242050","497-BY","2019/08/09 19:59:31","新北市新莊區民本街43巷11號","121.428556666667","25.01848","6500500","新莊區"
"242056","441-UM","2019/08/09 19:59:42","新北市新莊區中正路347巷17弄2號","121.447316666667","25.0343516666667","6500500","新莊區"
"242005","440-UM","2019/08/09 19:59:40","新北市新莊區化成路352巷29號","121.467046666667","25.04924","6500500","新莊區"
"242011","413-TV","2019/08/09 19:59:47","新北市新莊區中港路531巷33號","121.450028333333","25.0514783333333","6500500","新莊區"
"242048","400-BY","2019/08/09 19:59:36","新北市新莊區民安路199號","121.4262","25.0225","6500500","新莊區"
"242025","362-BY","2019/08/09 19:59:31","新北市新莊區五工二路86巷39號","121.460686666667","25.067435","6500500","新莊區"
"242023","353-BY","2019/08/09 19:59:43","新北市新莊區化成路422號","121.465956666667","25.0509833333333","6500500","新莊區"
"242013","132-UY","2019/08/09 19:59:36","新北市新莊區中港路376號","121.452263333333","25.0474566666667","6500500","新莊區"
"242037","135-UY","2019/08/09 19:59:33","新北市新莊區建安街21號","121.428936666667","25.0261283333333","6500500","新莊區"
"242015","173-VK","2019/08/09 19:59:32","新北市新莊區復興路一段47巷11號","121.446796666667","25.0426733333333","6500500","新莊區"
"242021","175-VK","2019/08/09 19:59:32","新北市新莊區建中街48巷10弄12號","121.448651666667","25.038445","6500500","新莊區"
"242019","KED-0687","2019/08/09 19:59:46","新北市新莊區中港路206巷2號","121.45519","25.0426083333333","6500500","新莊區"
"242039","346-TH","2019/08/09 19:59:45","新北市新莊區民安路287-5號","121.428771666667","25.0230366666667","6500500","新莊區"
"242034","348-TH","2019/08/09 19:59:37","新北市新莊區建中街98號","121.446651666667","25.03656","6500500","新莊區"
"242007","349-TH","2019/08/09 19:59:45","新北市新莊區思源路593巷14號","121.458803333333","25.0597166666667","6500500","新莊區"
"242032","350-TH","2019/08/09 19:59:49","新北市新莊區公園一路43號","121.443178333333","25.03568","6500500","新莊區"
"242017","351-TH","2019/08/09 19:59:32","新北市新莊區中安街1號","121.452793333333","25.0453266666667","6500500","新莊區"
"238025","303-VK","2019/08/09 19:59:33","新北市樹林區中山路二段162號","121.412053333333","24.98307","6500700","樹林區"
"238017","283-BY","2019/08/09 19:59:28","新北市樹林區保安街二段45巷13弄1號","121.415323333333","24.9998916666667","6500700","樹林區"
"239006","891-R6","2019/08/09 19:59:29","新北市鶯歌區文化路57號","121.358863333333","24.9564833333333","6500800","鶯歌區"
"221008","489-VK","2019/08/09 19:59:32","新北市汐止區康寧街143號","121.621476666667","25.06665","6501100","汐止區"
"221015","131-UY","2019/08/09 19:59:44","新北市汐止區橋東街7號","121.666641666667","25.07605","6501100","汐止區"
"221010","269-BY","2019/08/09 19:59:31","新北市汐止區汐萬路二段3-1號","121.649013333333","25.079945","6501100","汐止區"
"221012","278-VK","2019/08/09 19:59:48","新北市汐止區保長路273巷8號","121.6816","25.0740083333333","6501100","汐止區"
"221023","279-VK","2019/08/09 19:59:46","新北市汐止區民族三街42號","121.629605","25.0700816666667","6501100","汐止區"
"221027","281-BY","2019/08/09 19:59:46","新北市汐止區中正路101號","121.660891666667","25.06941","6501100","汐止區"
"221029","298-VK","2019/08/09 19:59:38","新北市汐止區樟樹一路137巷23號","121.641175","25.0658683333333","6501100","汐止區"
"221021","299-VK","2019/08/09 19:59:48","新北市汐止區青山路16-2號","121.655668333333","25.062275","6501100","汐止區"
"221031","353-TW","2019/08/09 19:59:41","新北市汐止區福德二路55巷6弄1號","121.63461","25.0665366666667","6501100","汐止區"
"221035","622-UM","2019/08/09 19:59:46","新北市汐止區長江街9號","121.654638333333","25.071185","6501100","汐止區"
"221025","623-UM","2019/08/09 19:59:47","新北市汐止區仁愛路77巷2弄20號","121.661661666667","25.0636616666667","6501100","汐止區"
"221038","646-BX","2019/08/09 19:59:49","新北市汐止區忠孝東路528號","121.667036666667","25.0763","6501100","汐止區"
"221033","647-BX","2019/08/09 19:59:50","新北市汐止區東勢街190巷1號","121.633898333333","25.041695","6501100","汐止區"
"220079","145-BY","2019/08/09 19:59:37","新北市板橋區復興街26號","121.45809","25.01722","6500100","板橋區"
"220082","610-BX","2019/08/09 19:59:46","新北市板橋區存德街9號","121.42996","24.9919","6500100","板橋區"
"220101","245-BX","2019/08/09 19:59:33","新北市板橋區莒光路171巷1弄16號","121.474578333333","25.02461","6500100","板橋區"
"220084","256-TC","2019/08/09 19:59:47","新北市板橋區溪崑二街111巷7號","121.426828333333","24.9885816666667","6500100","板橋區"
"220091","267-BY","2019/08/09 19:59:33","新北市板橋區文聖街101巷23號","121.478325","25.029765","6500100","板橋區"
"220056","276-BY","2019/08/09 19:59:29","新北市板橋區四川路二段96號","121.451651666667","24.9945633333333","6500100","板橋區"
"220072","277-BY","2019/08/09 19:59:41","新北市板橋區金門街111-3號","121.433115","24.9921316666667","6500100","板橋區"
"220071","283-VK","2019/08/09 19:59:42","新北市板橋區廣權路95號","121.46439","24.9927466666667","6500100","板橋區"
"220094","285-UM","2019/08/09 19:59:41","新北市板橋區文化路一段160號","121.465465","25.0193066666667","6500100","板橋區"
"220053","285-VK","2019/08/09 19:59:40","新北市板橋區懷仁街79號","121.477386666667","25.0184783333333","6500100","板橋區"
"220083","286-VK","2019/08/09 19:59:35","新北市板橋區僑中二街10巷3號","121.446711666667","25.0108833333333","6500100","板橋區"
"220081","287-VK","2019/08/09 19:59:46","新北市板橋區大觀路一段28巷101號","121.450011666667","25.0119566666667","6500100","板橋區"
"220090","288-VK","2019/08/09 19:59:39","新北市板橋區新海路72巷5弄39號","121.461196666667","25.0232866666667","6500100","板橋區"
"220061","293-UM","2019/08/09 19:59:29","新北市板橋區觀光街4-1號","121.472293333333","25.0158466666667","6500100","板橋區"
"220062","295-UM","2019/08/09 19:59:49","新北市板橋區光復街33巷19號","121.482063333333","25.0189933333333","6500100","板橋區"
"242044","281-VK","2019/08/09 19:59:47","新北市新莊區中正路756號","121.412433333333","25.0221966666667","6500500","新莊區"
"220075","303-R5","2019/08/09 19:59:43","新北市板橋區金華街10巷48弄59號","121.459068333333","25.0201983333333","6500100","板橋區"
"220098","317-R6","2019/08/09 19:59:38","新北市板橋區新海路385巷24號","121.458008333333","25.02552","6500100","板橋區"
"220089","487-VK","2019/08/09 19:59:43","新北市板橋區四維路343號","121.462418333333","25.0297883333333","6500100","板橋區"
"220088","491-VK","2019/08/09 19:59:41","新北市板橋區懷德街127巷23弄9號","121.479426666667","25.031705","6500100","板橋區"
"220035","560-BX","2019/08/09 19:59:39","新北市板橋區金華街97號","121.458515","25.0208616666667","6500100","板橋區"
"220103","561-BX","2019/08/09 19:59:30","新北市板橋區新海路7-4號","121.462525","25.020655","6500100","板橋區"
"220080","568-UM","2019/08/09 19:59:38","新北市板橋區大觀路二段163巷30號","121.446456666667","25.0000433333333","6500100","板橋區"
"220063","609-BX","2019/08/09 19:59:23","新北市板橋區中山路二段133號","121.475236666667","25.0165566666667","6500100","板橋區"
"220055","630-UY","2019/08/09 19:59:40","新北市板橋區仁愛路62巷14弄1號","121.459951666667","24.9984483333333","6500100","板橋區"
"220077","687-BX","2019/08/09 19:59:50","新北市板橋區僑中一街84號","121.447336666667","25.01175","6500100","板橋區"
"220093","689-BX","2019/08/09 19:59:48","新北市板橋區長江路一段140號","121.460606666667","25.030135","6500100","板橋區"
"220054","741-BX","2019/08/09 19:55:44","新北市板橋區忠孝路忠義巷15弄90號","121.465436666667","25.0055466666667","6500100","板橋區"
"220102","KEA-2699","2019/08/09 19:59:39","新北市板橋區莒光路56號","121.47085","25.0243016666667","6500100","板橋區"
"220067","829-TW","2019/08/09 19:59:31","新北市板橋區漢生東路163號","121.469583333333","25.01253","6500100","板橋區"
"220068","831-TW","2019/08/09 19:59:32","新北市板橋區中山路二段450號","121.48453","25.0217033333333","6500100","板橋區"
"220074","895-R6","2019/08/09 19:58:57","新北市板橋區文化路一段46巷16號","121.460288333333","25.0114916666667","6500100","板橋區"
"220073","985-R7","2019/08/09 19:59:45","新北市板橋區南雅西路二段212號","121.451953333333","25.015165","6500100","板橋區"
"220097","AAC-210","2019/08/09 19:59:46","新北市板橋區復興街133號","121.461078333333","25.01815","6500100","板橋區"
"220064","AAC-253","2019/08/09 19:59:42","新北市板橋區漢生東路193巷23-4號","121.470995","25.0121933333333","6500100","板橋區"
"235068","KEA-2873","2019/08/09 19:59:19","新北市中和區中山路二段250巷24號","121.49726","25.0033566666667","6500300","中和區"
