"lineid","car","time","location","longitude","latitude","cityid","cityname"
"241006","262-UM","2019/08/09 22:09:49","新北市五股區中興路三段2巷10號","121.449078333333","25.0811816666667","6500200","三重區"
"251004","009-UM","2019/08/09 22:09:38","新北市淡水區民族路33號","121.462281666667","25.13581","6501000","淡水區"
"251010","012-UM","2019/08/09 22:09:49","新北市淡水區沙崙路200號","121.424706666667","25.1838933333333","6501000","淡水區"
"251008","181-VK","2019/08/09 22:09:43","新北市淡水區學府路104號","121.449903333333","25.171875","6501000","淡水區"
"251007","442-VK","2019/08/09 22:09:46","新北市淡水區北新路180號","121.449478333333","25.17865","6501000","淡水區"
"251005","443-VK","2019/08/09 22:09:35","新北市淡水區鄧公路19號","121.451438333333","25.1700066666667","6501000","淡水區"
"251006","561-UM","2019/08/09 22:09:38","新北市淡水區中正路11巷3號","121.437833333333","25.170765","6501000","淡水區"
"251011","650-BX","2019/08/09 22:09:46","新北市淡水區水碓街7號","121.443156666667","25.1770733333333","6501000","淡水區"
"242017","351-TH","2019/08/09 22:09:32","新北市新莊區新泰路357巷3弄57號","121.441938333333","25.0394833333333","6500500","新莊區"
