"lineid","car","time","location","longitude","latitude","cityid","cityname"
"241006","262-UM","2019/08/09 22:19:49","新北市五股區中興路二段182巷18-1號","121.456371666667","25.0810266666667","6500200","三重區"
"251004","009-UM","2019/08/09 22:19:38","新北市淡水區民族路33號","121.462236666667","25.1358066666667","6501000","淡水區"
"251010","012-UM","2019/08/09 22:19:49","新北市淡水區沙崙路200號","121.424736666667","25.183925","6501000","淡水區"
"251008","181-VK","2019/08/09 22:19:43","新北市淡水區學府路104號","121.449913333333","25.1718583333333","6501000","淡水區"
"251007","442-VK","2019/08/09 22:19:35","新北市淡水區北新路180號","121.449481666667","25.1786583333333","6501000","淡水區"
"251011","650-BX","2019/08/09 22:19:46","新北市淡水區水碓街7號","121.443173333333","25.177105","6501000","淡水區"
