"lineid","car","time","location","longitude","latitude","cityid","cityname"
"234044","148-BY","2019/11/19 14:13:30","新北市永和區得和路283號","121.522431666667","24.999765","6500400","永和區"
"234078","298-R6","2019/11/19 14:13:31","新北市永和區國中路104巷2弄1號","121.52444","25.0068066666667","6500400","永和區"
"234036","336-UY","2019/11/19 14:13:14","新北市永和區環河東路三段96號","121.528236666667","25.0041333333333","6500400","永和區"
"234062","337-UY","2019/11/19 14:13:28","新北市永和區永利路152號","121.522436666667","25.0027666666667","6500400","永和區"
"234084","338-UY","2019/11/19 14:13:25","新北市永和區中正路625號","121.515688333333","25.0098883333333","6500400","永和區"
"234068","552-UM","2019/11/19 14:13:23","新北市永和區永亨路31號","121.519768333333","25.006205","6500400","永和區"
"234015","745-BX","2019/11/19 14:13:21","新北市永和區仁愛路89號","121.513045","25.0131","6500400","永和區"
"234028","746-BX","2019/11/19 14:13:09","新北市永和區民權路84號","121.519905","24.99697","6500400","永和區"
"234052","KEA-2590","2019/11/19 14:13:27","新北市永和區永和路二段298號","121.516295","25.015825","6500400","永和區"
"234005","KED-0605","2019/11/19 14:13:29","新北市永和區永貞路368號","121.510016666667","25.00672","6500400","永和區"
"234012","KEA-2591","2019/11/19 14:13:26","新北市永和區保生路1-1號","121.506288333333","25.007135","6500400","永和區"
"234060","AAD-866","2019/11/19 14:13:18","新北市永和區得和路9號","121.515175","25.0006566666667","6500400","永和區"
"234040","862-TW","2019/11/19 14:13:26","新北市中和區中安街166號","121.510896666667","25.0000033333333","6500400","永和區"
"234048","863-TW","2019/11/19 14:13:22","新北市永和區新生路28巷9號","121.508096666667","25.016215","6500400","永和區"
"234025","9371-KE","2019/11/19 14:13:27","新北市永和區安樂路198號","121.51522","25.0016666666667","6500400","永和區"
"234010","9373-KE","2019/11/19 14:13:12","新北市永和區保順路11號","121.504791666667","25.0096116666667","6500400","永和區"
"248017","KED-0813","2019/11/19 14:13:21","新北市五股區民義路一段242-3號","121.4265","25.09221","6501500","五股區"
"234022","9380-KE","2019/11/19 14:13:20","新北市永和區竹林路25巷21號","121.51816","25.01501","6500400","永和區"
"234076","969-R7","2019/11/19 14:13:19","新北市永和區民族街81巷6號","121.518641666667","24.9966083333333","6500400","永和區"
"234072","AAC-211","2019/11/19 14:13:29","新北市永和區福和路172號","121.520878333333","25.0080283333333","6500400","永和區"
"234066","AAC-212","2019/11/19 14:13:13","新北市永和區保平路268巷16號","121.507916666667","25.0060916666667","6500400","永和區"
"234001","AAC-295","2019/11/19 14:13:27","新北市永和區中正路577巷6-1號","121.516225","25.0088916666667","6500400","永和區"
"244002","248-BX","2019/11/19 14:13:09","新北市林口區南勢里34-8號","121.352345","25.0702783333333","6501700","林口區"
"231030","002-UM","2019/11/19 14:13:26","新北市新店區安民街115巷28號","121.515305","24.9676266666667","6500600","新店區"
"231024","0291-UT","2019/11/19 14:13:23","新北市新店區安興路33-1號","121.516046666667","24.9705166666667","6500600","新店區"
"231005","046-UY","2019/11/19 14:13:24","新北市新店區中興路三段218號","121.543491666667","24.9826533333333","6500600","新店區"
"231029","106-UY","2019/11/19 14:13:18","新北市新店區安康路二段208號","121.51014","24.9595133333333","6500600","新店區"
"231018","107-UY","2019/11/19 14:13:24","新北市新店區中央五街53號","121.527871666667","24.9754716666667","6500600","新店區"
"231013","108-UY","2019/11/19 14:13:15","新北市新店區北新路三段47號","121.541895","24.980475","6500600","新店區"
"231036","110-UY","2019/11/19 14:13:30","新北市新店區安祥路109巷85弄1號","121.477835","24.9603333333333","6500600","新店區"
"231032","256-BX","2019/11/19 14:13:23","新北市新店區華城路36巷10-2號","121.527123333333","24.95661","6500600","新店區"
"231023","260-TV","2019/11/19 14:13:10","新北市新店區文中路51號","121.539738333333","24.9566416666667","6500600","新店區"
"231003","268-BY","2019/11/19 14:13:26","新北市新店區中興路一段167號","121.54271","24.96439","6500600","新店區"
"231035","278-BY","2019/11/19 14:13:12","新北市新店區安和路二段115號","121.518666666667","24.97043","6500600","新店區"
"231015","AAD-862","2019/11/19 14:13:17","新北市新店區中生路165號","121.574616666667","24.9482416666667","6500600","新店區"
"231006","355-BY","2019/11/19 14:13:11","新北市新店區北宜路二段271號","121.55477","24.9536433333333","6500600","新店區"
"231038","3712-VJ","2019/11/19 14:13:21","新北市新店區溪洲路6巷40號","121.533695","24.9629183333333","6500600","新店區"
"231027","3713-VJ","2019/11/19 14:13:28","新北市新店區光明街22號","121.538138333333","24.9587816666667","6500600","新店區"
"231025","4715-K9","2019/11/19 14:13:22","新北市新店區民族路161號","121.537765","24.9766966666667","6500600","新店區"
"231020","513-UM","2019/11/19 14:13:13","新北市新店區屈尺路40號","121.548143333333","24.9226333333333","6500600","新店區"
"231001","617-UM","2019/11/19 14:13:30","新北市新店區中華路40號","121.539931666667","24.96811","6500600","新店區"
"231002","619-UM","2019/11/19 14:13:23","新北市新店區中正路487號","121.533853333333","24.9821233333333","6500600","新店區"
"231034","641-BX","2019/11/19 14:13:13","新北市新店區車子路11號","121.503013333333","24.9520983333333","6500600","新店區"
"231012","KED-0819","2019/11/19 14:13:11","新北市新店區五峰路63巷8弄74號","121.547923333333","24.9684566666667","6500600","新店區"
"231028","897-TW","2019/11/19 14:13:25","新北市新店區安業街16號","121.516476666667","24.9781283333333","6500600","新店區"
"231004","899-TW","2019/11/19 14:13:23","新北市新店區北新路二段82號","121.542963333333","24.97279","6500600","新店區"
"231037","AKT-0513","2019/11/19 14:13:31","新北市新店區安康路二段341巷38號","121.49665","24.9543683333333","6500600","新店區"
"235030","003-UY","2019/11/19 14:13:16","新北市中和區中和路102號","121.502686666667","24.9996866666667","6500300","中和區"
"235028","005-UY","2019/11/19 14:13:16","新北市中和區南山路81巷48-1號","121.50358","24.9983533333333","6500300","中和區"
"235027","006-UY","2019/11/19 14:13:27","新北市中和區連城路249巷28弄1號","121.49478","24.9948866666667","6500300","中和區"
"235020","096-UM","2019/11/19 14:13:23","新北市中和區員山路505號","121.479815","25.0063533333333","6500300","中和區"
"235003","097-UM","2019/11/19 14:13:28","新北市中和區秀峰街103巷2弄4號","121.519936666667","24.9905266666667","6500300","中和區"
"235029","098-UM","2019/11/19 14:13:16","新北市中和區中山路二段2巷13弄24號","121.50265","25.0065783333333","6500300","中和區"
"235004","150-BY","2019/11/19 14:13:30","新北市中和區宜安路56號","121.511876666667","24.9968166666667","6500300","中和區"
"235022","151-BY","2019/11/19 14:13:15","新北市中和區員山路36巷16-2號","121.48524","24.9916733333333","6500300","中和區"
"235019","183-VK","2019/11/19 14:13:20","新北市中和區莒光路5號","121.471976666667","25.0060533333333","6500300","中和區"
"235031","255-BX","2019/11/19 14:13:20","新北市中和區連城路280號","121.484346666667","24.9963066666667","6500300","中和區"
"235008","293-VK","2019/11/19 14:13:23","新北市中和區中興街235巷1號","121.500695","24.989545","6500300","中和區"
"235036","301-VK","2019/11/19 14:13:23","新北市中和區永和路52號","121.49923","25.0040416666667","6500300","中和區"
"235007","352-BY","2019/11/19 14:13:29","新北市中和區景平路268號","121.514413333333","24.992725","6500300","中和區"
"235006","KEA-2878","2019/11/19 14:13:26","新北市中和區大勇街60巷17號","121.518671666667","24.9947566666667","6500300","中和區"
"247015","KEA-2869","2019/11/19 14:13:19","新北市蘆洲區光華路70巷2號","121.46799","25.08306","6501400","蘆洲區"
"247009","KED-0682","2019/11/19 14:13:12","新北市蘆洲區信義路168號","121.479388333333","25.0838466666667","6501400","蘆洲區"
"235014","4979-A6","2019/11/19 14:13:16","新北市中和區復興路280巷18弄20號","121.501698333333","24.9922833333333","6500300","中和區"
"235033","4980-A6","2019/11/19 14:13:21","新北市中和區景平路736巷1弄7號","121.497343333333","25.0040866666667","6500300","中和區"
"235034","558-UM","2019/11/19 14:05:05","新北市中和區連城路45號","121.498171666667","25.00192","6500300","中和區"
"235009","565-BX","2019/11/19 14:13:10","新北市中和區景新街423巷35弄17號","121.51389","24.9903666666667","6500300","中和區"
"235024","KED-0823","2019/11/19 14:13:28","新北市中和區新生街114巷24號","121.482493333333","25.0024083333333","6500300","中和區"
"235018","640-BX","2019/11/19 14:13:18","新北市中和區莒光路63-1號","121.472203333333","25.0041616666667","6500300","中和區"
"235035","647-TV","2019/11/19 14:13:16","新北市中和區中正路677號","121.484701666667","24.9969933333333","6500300","中和區"
"235011","732-UM","2019/11/19 14:13:27","新北市中和區興南路一段56巷11號","121.510311666667","24.9913116666667","6500300","中和區"
"235010","733-UM","2019/11/19 14:13:30","新北市中和區華新街97號","121.508716666667","24.9829166666667","6500300","中和區"
"235026","800-TS","2019/11/19 14:13:19","新北市中和區中山路二段526巷18號","121.485881666667","25.0055766666667","6500300","中和區"
"235021","801-TS","2019/11/19 14:13:13","新北市中和區中山路三段37巷35號","121.4796","25.0048183333333","6500300","中和區"
"235005","802-TS","2019/11/19 14:13:21","新北市中和區中安街192號","121.511351666667","24.9992533333333","6500300","中和區"
"235016","805-TS","2019/11/19 14:13:29","新北市中和區興南路二段142巷31弄54號","121.501835","24.9835116666667","6500300","中和區"
"235012","896-TW","2019/11/19 14:13:32","新北市中和區華新街109巷22號","121.508446666667","24.9805133333333","6500300","中和區"
"235017","900-TW","2019/11/19 14:13:28","新北市中和區民德路206號","121.468086666667","24.99845","6500300","中和區"
"235002","911-UM","2019/11/19 14:13:09","新北市中和區大仁街10巷13號","121.518363333333","24.9926066666667","6500300","中和區"
"235015","157-BY","2019/11/19 14:13:24","新北市中和區和平街38巷14號","121.509473333333","24.991005","6500300","中和區"
"235001","AAC-213","2019/11/19 14:13:21","新北市中和區自立路15巷2號","121.522538333333","24.99602","6500300","中和區"
"235023","AAC-215","2019/11/19 14:13:19","新北市中和區錦和路195巷3弄1號","121.491228333333","24.9909766666667","6500300","中和區"
"220013","072-UY","2019/11/19 14:13:23","新北市板橋區民族路129巷12弄1號","121.467926666667","25.0084033333333","6500100","板橋區"
"220034","073-UY","2019/11/19 14:13:22","新北市板橋區中正路236巷65號","121.458526666667","25.0196066666667","6500100","板橋區"
"220105","075-UY","2019/11/19 14:13:27","新北市板橋區江寧路三段85巷14號","121.472373333333","25.0331733333333","6500100","板橋區"
"220017","AAD-861","2019/11/19 14:13:18","新北市板橋區貴興路49號","121.457336666667","25.0031833333333","6500100","板橋區"
"247005","893-R6","2019/11/19 14:13:29","新北市蘆洲區九芎街15巷12號","121.467823333333","25.0779183333333","6501400","蘆洲區"
"247003","341-TH","2019/11/19 14:13:28","新北市蘆洲區中原路22號","121.460328333333","25.082985","6501400","蘆洲區"
"247023","057-VK","2019/11/19 14:13:15","新北市蘆洲區長榮路500號","121.459556666667","25.08974","6501400","蘆洲區"
"247013","056-VK","2019/11/19 14:13:22","新北市蘆洲區中山一路176號","121.474203333333","25.0811116666667","6501400","蘆洲區"
"247017","053-VK","2019/11/19 14:13:18","新北市蘆洲區復興路182號","121.477925","25.0885883333333","6501400","蘆洲區"
"247021","007-UY","2019/11/19 14:13:30","新北市蘆洲區三民路246號","121.468081666667","25.08986","6501400","蘆洲區"
"247007","002-UY","2019/11/19 14:13:28","新北市蘆洲區中山一路257號","121.472865","25.0801916666667","6501400","蘆洲區"
"247001","001-UY","2019/11/19 14:13:28","新北市蘆洲區永平街6號","121.459671666667","25.0904033333333","6501400","蘆洲區"
"235013","251-BX","2019/11/19 14:13:16","新北市中和區景新街228-6號","121.508201666667","24.9942","6500300","中和區"
"228004","212-TW","2019/11/19 14:13:14","新北市貢寮區雙玉里下雙溪街10-3號","121.91517","25.0136566666667","6502600","貢寮區"
"228005","828-UM","2019/11/19 14:13:15","新北市貢寮區美豐里土地公嶺5-2號","121.895551666667","25.0595","6502600","貢寮區"
"207002","749-BX","2019/11/19 14:12:09","新北市萬里區溪底里瑞泉路21號","121.60387","25.1492516666667","6502800","萬里區"
"207001","662-BX","2019/11/19 14:13:11","新北市萬里區磺潭里清水18號","121.637865","25.1977433333333","6502800","萬里區"
"252005","AAC-283","2019/11/19 14:13:30","新北市三芝區橫山里橫山51-1號","121.533803333333","25.2552066666667","6502100","三芝區"
"236040","KED-0685","2019/11/19 14:13:13","新北市土城區裕生路71號","121.447118333333","24.9846866666667","6501300","土城區"
"220110","KED-0812","2019/11/19 14:13:14","新北市板橋區國光路200號","121.461665","25.0184766666667","6500100","板橋區"
"236074","166-UM","2019/11/19 14:13:22","新北市土城區永安街9-1號","121.434036666667","24.9650016666667","6501300","土城區"
"236029","253-BX","2019/11/19 14:13:10","新北市土城區員福街38號","121.44087","24.9789","6501300","土城區"
"236024","269-VK","2019/11/19 14:13:16","新北市土城區承天路47號","121.438915","24.96365","6501300","土城區"
"236013","270-VK","2019/11/19 14:13:21","新北市土城區青雲路39巷7號","121.46037","24.9875766666667","6501300","土城區"
"236032","271-VK","2019/11/19 14:13:10","新北市土城區青雲路449-1號","121.458986666667","24.9746783333333","6501300","土城區"
"247011","KED-0683","2019/11/19 14:13:15","新北市蘆洲區信義路298號","121.477573333333","25.087525","6501400","蘆洲區"
"236065","KEA-2877","2019/11/19 14:13:12","新北市土城區明德路一段200號","121.461613333333","24.9778533333333","6501300","土城區"
"236017","401-BY","2019/11/19 14:13:21","新北市土城區明德路一段385-1號","121.452773333333","24.9798766666667","6501300","土城區"
"236045","752-BX","2019/11/19 14:13:14","新北市土城區明德路一段365-1號","121.453545","24.9790566666667","6501300","土城區"
"236057","912-UM","2019/11/19 14:13:15","新北市土城區中央路四段195號","121.414691666667","24.9565283333333","6501300","土城區"
"236060","915-UM","2019/11/19 14:13:22","新北市土城區金城路二段56號","121.451956666667","24.979445","6501300","土城區"
"236054","AAC-216","2019/11/19 14:13:08","新北市土城區中華路二段92號","121.438223333333","24.9747433333333","6501300","土城區"
"220027","145-BY","2019/11/19 14:13:14","新北市板橋區民權路202巷5弄1號","121.459873333333","25.01456","6500100","板橋區"
"220028","200-UY","2019/11/19 14:13:27","新北市板橋區大觀路二段19巷93號","121.449605","25.0029083333333","6500100","板橋區"
"220030","610-BX","2019/11/19 14:13:18","新北市板橋區溪崑二街96巷2號","121.42677","24.9889866666667","6500100","板橋區"
"220040","267-BY","2019/11/19 14:13:31","新北市板橋區萬板路466-1號","121.479641666667","25.0258516666667","6500100","板橋區"
"220004","276-BY","2019/11/19 14:13:17","新北市板橋區信義路215號","121.459461666667","24.9914966666667","6500100","板橋區"
"220020","277-BY","2019/11/19 14:13:10","新北市板橋區金門街300號","121.42901","24.985585","6500100","板橋區"
"220050","280-UM","2019/11/19 14:13:15","新北市板橋區縣民大道三段121巷7號","121.476765","25.0230083333333","6500100","板橋區"
"220043","283-UM","2019/11/19 14:13:17","新北市板橋區光武街110巷17號","121.466318333333","25.0296433333333","6500100","板橋區"
"220019","283-VK","2019/11/19 14:13:12","新北市板橋區重慶路327巷7弄2號","121.46437","24.9986233333333","6500100","板橋區"
"220001","285-VK","2019/11/19 14:13:24","新北市板橋區永豐街148號","121.478185","25.0212366666667","6500100","板橋區"
"220029","287-VK","2019/11/19 14:13:24","新北市板橋區南雅西路一段110號","121.453041666667","25.006175","6500100","板橋區"
"220039","288-VK","2019/11/19 14:13:15","新北市板橋區裕民街72號","121.46095","25.0284116666667","6500100","板橋區"
"220009","293-UM","2019/11/19 14:13:19","新北市板橋區中山路二段211巷1號","121.476315","25.0172916666667","6500100","板橋區"
"220032","296-UM","2019/11/19 14:13:18","新北市板橋區溪崑二街73巷5號","121.428388333333","24.989895","6500100","板橋區"
"220041","299-UM","2019/11/19 14:13:21","新北市板橋區文化路二段125巷9號","121.46929","25.026655","6500100","板橋區"
"220023","303-R5","2019/11/19 14:13:28","新北市板橋區中正路37號","121.456308333333","25.01311","6500100","板橋區"
"220010","305-R5","2019/11/19 14:13:26","新北市板橋區三民路二段153巷36弄2號","121.481138333333","25.014075","6500100","板橋區"
"220047","317-R6","2019/11/19 14:13:12","新北市板橋區四維路103巷9號","121.46503","25.0242766666667","6500100","板橋區"
"220037","491-VK","2019/11/19 14:13:17","新北市板橋區雙十路二段239號","121.472743333333","25.0290683333333","6500100","板橋區"
"220104","560-BX","2019/11/19 14:13:17","新北市板橋區中正路360巷57號","121.456476666667","25.022815","6500100","板橋區"
"220052","561-BX","2019/11/19 14:13:30","新北市板橋區文化路一段266號","121.467256666667","25.0205016666667","6500100","板橋區"
"220107","568-UM","2019/11/19 14:13:28","新北市板橋區龍興街73巷2號","121.444005","25.0021816666667","6500100","板橋區"
"220109","609-BX","2019/11/19 14:13:27","新北市板橋區三民路二段224號","121.47882","25.0115833333333","6500100","板橋區"
"220025","687-BX","2019/11/19 14:13:30","新北市板橋區龍興街25號","121.442856666667","25.0000066666667","6500100","板橋區"
"220111","689-BX","2019/11/19 14:13:10","新北市板橋區英士路151號","121.460241666667","25.023725","6500100","板橋區"
"220002","741-BX","2019/11/19 14:13:17","新北市板橋區重慶路78號","121.461778333333","25.0062766666667","6500100","板橋區"
"220051","KEA-2699","2019/11/19 14:13:23","新北市板橋區文聖街80號","121.47741","25.0300966666667","6500100","板橋區"
"220003","827-TW","2019/11/19 14:13:29","新北市板橋區新民街4巷1號","121.464343333333","25.0102216666667","6500100","板橋區"
"220016","830-TW","2019/11/19 14:13:28","新北市板橋區三民路一段1巷39號","121.48022","25.0248816666667","6500100","板橋區"
"220014","831-TW","2019/11/19 14:13:24","新北市板橋區長安街138巷1弄69號","121.474555","25.010755","6500100","板橋區"
"220005","833-TW","2019/11/19 14:13:27","新北市板橋區五權街4-2號","121.464238333333","24.9942416666667","6500100","板橋區"
"220022","895-R6","2019/11/19 14:13:25","新北市板橋區文昌街1號","121.45603","25.0100583333333","6500100","板橋區"
"220108","985-R7","2019/11/19 14:13:19","新北市板橋區中正路166號","121.456505","25.01694","6500100","板橋區"
"220046","AAC-210","2019/11/19 14:13:11","新北市板橋區新海路135巷1號","121.460713333333","25.0233516666667","6500100","板橋區"
"220012","AAC-253","2019/11/19 14:13:26","新北市板橋區中山路一段85號","121.461563333333","25.010035","6500100","板橋區"
"235032","KEA-2873","2019/11/19 14:13:16","新北市中和區景平路493-5號","121.500006666667","24.99795","6500300","中和區"
"235025","KEA-2875","2019/11/19 14:13:26","新北市中和區連城路456巷9號","121.478663333333","24.9952133333333","6500300","中和區"
