"lineid","car","time","location","longitude","latitude","cityid","cityname"
"234062","337-UY","2019/11/19 14:43:28","新北市中和區中原二街71號","121.488596666667","25.011595","6500400","永和區"
"234025","9371-KE","2019/11/19 14:43:27","新北市永和區雙和街20巷1號","121.509196666667","25.0022916666667","6500400","永和區"
"248017","KED-0813","2019/11/19 14:32:01","新北市五股區外寮路13-1號","121.42487","25.0812333333333","6501500","五股區"
"244002","248-BX","2019/11/19 14:43:29","新北市林口區南勢里34-8號","121.352428333333","25.07022","6501700","林口區"
"231030","002-UM","2019/11/19 14:43:26","新北市新店區安民街189-1號","121.51688","24.97101","6500600","新店區"
"231024","0291-UT","2019/11/19 14:43:23","新北市新店區中華路83巷47號","121.538501666667","24.9676683333333","6500600","新店區"
"231005","046-UY","2019/11/19 14:43:17","新北市新店區復興路2號","121.532315","24.9883133333333","6500600","新店區"
"231029","106-UY","2019/11/19 14:43:18","新北市新店區安康路三段356-1號","121.486076666667","24.9518033333333","6500600","新店區"
"231018","107-UY","2019/11/19 14:43:24","新北市新店區中央二街10號","121.529073333333","24.97316","6500600","新店區"
"231013","108-UY","2019/11/19 14:43:15","新北市新店區北新路二段139巷12弄2號","121.542176666667","24.9760216666667","6500600","新店區"
"231036","110-UY","2019/11/19 14:43:15","新北市新店區安祥路106巷274號","121.472901666667","24.958635","6500600","新店區"
"231032","256-BX","2019/11/19 14:43:21","新北市新店區溪洲路187-2號","121.52911","24.9644966666667","6500600","新店區"
"231023","260-TV","2019/11/19 14:43:10","新北市新店區檳榔路111號","121.544595","24.9615333333333","6500600","新店區"
"231003","268-BY","2019/11/19 14:43:26","新北市新店區中正路5號","121.545788333333","24.96909","6500600","新店區"
"231035","278-BY","2019/11/19 14:43:12","新北市新店區吉安街24號","121.516303333333","24.96592","6500600","新店區"
"231015","AAD-862","2019/11/19 14:43:17","新北市新店區北宜路三段221號","121.592371666667","24.9532083333333","6500600","新店區"
"231006","355-BY","2019/11/19 14:43:11","新北市新店區北宜路二段103號","121.550228333333","24.9524333333333","6500600","新店區"
"231038","3712-VJ","2019/11/19 14:43:21","新北市新店區安華路28-1號","121.519696666667","24.9608066666667","6500600","新店區"
"231027","3713-VJ","2019/11/19 14:43:08","新北市新店區中正路76巷11弄22號","121.54367","24.9717516666667","6500600","新店區"
"231020","513-UM","2019/11/19 14:43:13","新北市新店區桂山路121號","121.569176666667","24.8922783333333","6500600","新店區"
"231001","617-UM","2019/11/19 14:43:30","新北市新店區中正路30號","121.545221666667","24.9698066666667","6500600","新店區"
"231002","619-UM","2019/11/19 14:43:23","新北市新店區民權路108號","121.535675","24.98294","6500600","新店區"
"231034","641-BX","2019/11/19 14:43:13","新北市新店區車子路8-1號","121.504476666667","24.9529033333333","6500600","新店區"
"231012","KED-0819","2019/11/19 14:43:31","新北市新店區寶橋路75號","121.545695","24.975265","6500600","新店區"
"231028","897-TW","2019/11/19 14:43:25","新北市新店區安德街60巷17-1號","121.51076","24.96279","6500600","新店區"
"231004","899-TW","2019/11/19 14:43:22","新北市新店區民族路161號","121.537678333333","24.976885","6500600","新店區"
"231037","AKT-0513","2019/11/19 14:43:11","新北市新店區柴埕路60巷34號","121.505818333333","24.96927","6500600","新店區"
"235030","003-UY","2019/11/19 14:43:16","新北市中和區中和路196巷9弄11號","121.505653333333","24.9991766666667","6500300","中和區"
"235027","006-UY","2019/11/19 14:43:27","新北市中和區連城路263巷5弄2號","121.492168333333","24.9960383333333","6500300","中和區"
"235020","096-UM","2019/11/19 14:43:23","新北市中和區民富街72號","121.476488333333","25.007705","6500300","中和區"
"235003","097-UM","2019/11/19 14:43:26","新北市中和區安平路208號","121.513606666667","24.9996466666667","6500300","中和區"
"235029","098-UM","2019/11/19 14:43:16","新北市中和區橋和路296號","121.49685","25.006915","6500300","中和區"
"235004","150-BY","2019/11/19 14:43:10","新北市中和區安平路59號","121.50968","24.9951716666667","6500300","中和區"
"235022","151-BY","2019/11/19 14:43:15","新北市中和區員山路140號","121.481171666667","24.9964533333333","6500300","中和區"
"235019","183-VK","2019/11/19 14:43:20","新北市中和區民德路8-1號","121.468808333333","25.002985","6500300","中和區"
"235031","255-BX","2019/11/19 14:43:20","新北市中和區中正路751巷3弄3號","121.484383333333","24.999595","6500300","中和區"
"235008","293-VK","2019/11/19 14:43:23","新北市中和區南山路417號","121.507323333333","24.989575","6500300","中和區"
"235036","301-VK","2019/11/19 14:43:23","新北市中和區中山路二段3巷22弄11號","121.506146666667","25.0046666666667","6500300","中和區"
"235007","352-BY","2019/11/19 14:43:29","新北市中和區安和路91號","121.507408333333","24.995655","6500300","中和區"
"235006","KEA-2878","2019/11/19 14:43:26","新北市中和區宜安路85號","121.510865","24.9975533333333","6500300","中和區"
"247015","KEA-2869","2019/11/19 14:43:19","新北市蘆洲區和平路172號","121.466466666667","25.08132","6501400","蘆洲區"
"235034","558-UM","2019/11/19 14:43:25","新北市中和區圓通路82號","121.499913333333","24.997055","6500300","中和區"
"235018","640-BX","2019/11/19 14:43:15","新北市中和區民享街35巷8弄15號","121.474658333333","25.0035","6500300","中和區"
"235035","647-TV","2019/11/19 14:43:26","新北市中和區建一路90號","121.48774","25.0023283333333","6500300","中和區"
"235011","732-UM","2019/11/19 14:43:27","新北市中和區和平街80號","121.507716666667","24.9911583333333","6500300","中和區"
"235010","733-UM","2019/11/19 14:43:20","新北市中和區仁愛街114號","121.511673333333","24.9869283333333","6500300","中和區"
"235005","802-TS","2019/11/19 14:43:21","新北市中和區宜安路118巷30號","121.511116666667","24.99903","6500300","中和區"
"235016","805-TS","2019/11/19 14:43:15","新北市中和區興南路二段159巷21號","121.505795","24.9838866666667","6500300","中和區"
"235012","896-TW","2019/11/19 14:43:26","新北市中和區忠孝街125號","121.512611666667","24.9880066666667","6500300","中和區"
"235017","900-TW","2019/11/19 14:43:28","新北市中和區國光街171巷6號","121.467568333333","25.00144","6500300","中和區"
"235002","911-UM","2019/11/19 14:43:30","新北市中和區立人街67號","121.519876666667","24.9941266666667","6500300","中和區"
"235015","157-BY","2019/11/19 14:43:24","新北市中和區中興街233巷10號","121.501468333333","24.9895116666667","6500300","中和區"
"235001","AAC-213","2019/11/19 14:43:21","新北市中和區自立路66號","121.52393","24.9913533333333","6500300","中和區"
"235023","AAC-215","2019/11/19 14:43:19","新北市中和區圓通路305巷27弄1號","121.494998333333","24.989125","6500300","中和區"
"220013","072-UY","2019/11/19 14:43:23","新北市板橋區國泰街38巷2弄64號","121.468206666667","25.006755","6500100","板橋區"
"220034","073-UY","2019/11/19 14:43:22","新北市板橋區漢生西路89巷5弄1號","121.460908333333","25.0194816666667","6500100","板橋區"
"220105","075-UY","2019/11/19 14:43:27","新北市板橋區民治街57巷24弄1號","121.480278333333","25.0338383333333","6500100","板橋區"
"220017","AAD-861","2019/11/19 14:43:18","新北市板橋區貴興路49-1號","121.457455","25.0031516666667","6500100","板橋區"
"247005","893-R6","2019/11/19 14:43:23","新北市蘆洲區中華街3號","121.463958333333","25.08191","6501400","蘆洲區"
"247023","057-VK","2019/11/19 14:43:15","新北市蘆洲區中山二路222巷21弄8號","121.469033333333","25.0801616666667","6501400","蘆洲區"
"247013","056-VK","2019/11/19 14:43:22","新北市蘆洲區得勝街145號","121.471741666667","25.0830533333333","6501400","蘆洲區"
"247007","007-UY","2019/11/19 14:43:30","新北市蘆洲區信義路32號","121.474476666667","25.0794133333333","6501400","蘆洲區"
"247001","001-UY","2019/11/19 14:43:21","新北市蘆洲區長安街329號","121.457391666667","25.0865816666667","6501400","蘆洲區"
"235013","251-BX","2019/11/19 14:43:16","新北市中和區中興街28號","121.500865","24.9948633333333","6500300","中和區"
"228004","212-TW","2019/11/19 14:43:14","新北市貢寮區福隆里龜壽谷街30-1號","121.947021666667","25.0131883333333","6502600","貢寮區"
"228005","828-UM","2019/11/19 14:43:15","新北市貢寮區美豐里雞母嶺街6-6號","121.902083333333","25.0641983333333","6502600","貢寮區"
"207001","662-BX","2019/11/19 14:42:51","新北市萬里區雙興里豐稟路21號","121.640448333333","25.18631","6502800","萬里區"
"252005","AAC-283","2019/11/19 14:43:10","新北市三芝區茂長里陳厝坑15號","121.516918333333","25.255435","6502100","三芝區"
"236040","KED-0685","2019/11/19 14:43:12","新北市土城區裕民路92巷25弄3號","121.449701666667","24.9859466666667","6501300","土城區"
"220110","KED-0812","2019/11/19 14:43:22","新北市板橋區龍泉街55巷22號","121.457548333333","25.0252633333333","6500100","板橋區"
"236074","166-UM","2019/11/19 14:43:21","新北市土城區中央路四段196-1號","121.416311666667","24.9577","6501300","土城區"
"236029","253-BX","2019/11/19 14:43:30","新北市土城區中央路三段61巷2號","121.439545","24.969475","6501300","土城區"
"236024","269-VK","2019/11/19 14:43:25","新北市土城區農豐街2-1號","121.44221","24.9738633333333","6501300","土城區"
"236013","270-VK","2019/11/19 14:43:28","新北市土城區清水路278巷28弄2號","121.462573333333","24.98255","6501300","土城區"
"236032","271-VK","2019/11/19 14:43:21","新北市土城區明德路一段221巷1號","121.463486666667","24.9781383333333","6501300","土城區"
"236065","KEA-2877","2019/11/19 14:43:12","新北市土城區永豐路135巷1號","121.46675","24.983325","6501300","土城區"
"236017","401-BY","2019/11/19 14:43:21","新北市土城區延吉街253巷30號","121.467965","24.9836166666667","6501300","土城區"
"236045","752-BX","2019/11/19 14:43:14","新北市土城區青雲路136號","121.459006666667","24.9851816666667","6501300","土城區"
"236057","912-UM","2019/11/19 14:43:14","新北市土城區中央路三段93號","121.437505","24.967645","6501300","土城區"
"236060","915-UM","2019/11/19 14:43:22","新北市土城區延壽路13巷17號","121.470051666667","24.9912466666667","6501300","土城區"
"236054","AAC-216","2019/11/19 14:43:31","新北市土城區裕民路87號","121.45026","24.9872316666667","6501300","土城區"
"220027","145-BY","2019/11/19 14:43:30","新北市板橋區民權路302巷15號","121.457648333333","25.0165216666667","6500100","板橋區"
"220028","200-UY","2019/11/19 14:43:27","新北市板橋區大觀路二段153巷46弄10號","121.4489","24.9995683333333","6500100","板橋區"
"220030","610-BX","2019/11/19 14:43:18","新北市板橋區存德街2號","121.429386666667","24.99215","6500100","板橋區"
"220040","267-BY","2019/11/19 14:43:31","新北市板橋區懷德街139巷20弄1號","121.480121666667","25.0307133333333","6500100","板橋區"
"220004","276-BY","2019/11/19 14:43:17","新北市板橋區國慶路49巷19弄8號","121.459063333333","24.9962716666667","6500100","板橋區"
"220020","277-BY","2019/11/19 14:43:30","新北市板橋區金門街215巷41號","121.433398333333","24.989675","6500100","板橋區"
"220050","280-UM","2019/11/19 14:43:15","新北市板橋區縣民大道三段61號","121.474803333333","25.0212016666667","6500100","板橋區"
"220043","283-UM","2019/11/19 14:43:17","新北市板橋區陽明街293號","121.461828333333","25.0265566666667","6500100","板橋區"
"220019","283-VK","2019/11/19 14:43:32","新北市板橋區和平路174巷1弄2號","121.464195","24.9949916666667","6500100","板橋區"
"220001","285-VK","2019/11/19 14:43:24","新北市板橋區民享街6號","121.475691666667","25.0148583333333","6500100","板橋區"
"220029","287-VK","2019/11/19 14:43:11","新北市板橋區大觀路一段29巷131弄10號","121.450628333333","25.0051316666667","6500100","板橋區"
"220039","288-VK","2019/11/19 14:43:15","新北市板橋區漢生西路159號","121.462958333333","25.0234616666667","6500100","板橋區"
"220009","293-UM","2019/11/19 14:43:19","新北市板橋區板新路136號","121.470726666667","25.0156066666667","6500100","板橋區"
"220032","296-UM","2019/11/19 14:43:18","新北市板橋區滿平街25號","121.426843333333","24.9897566666667","6500100","板橋區"
"220041","299-UM","2019/11/19 14:38:29","新北市板橋區四維路259巷60-2號","121.460651666667","25.026865","6500100","板橋區"
"220023","303-R5","2019/11/19 14:43:28","新北市板橋區中正路253巷48號","121.453925","25.0176633333333","6500100","板橋區"
"220010","305-R5","2019/11/19 14:43:14","新北市板橋區中山路二段416巷52-1號","121.482961666667","25.019295","6500100","板橋區"
"220047","317-R6","2019/11/19 14:43:12","新北市板橋區四維路269巷32號","121.461891666667","25.0278233333333","6500100","板橋區"
"220037","491-VK","2019/11/19 14:43:33","新北市板橋區仁化街124號","121.477048333333","25.0325433333333","6500100","板橋區"
"220104","560-BX","2019/11/19 14:43:13","新北市板橋區金華街85巷42號","121.459171666667","25.021475","6500100","板橋區"
"220052","561-BX","2019/11/19 14:43:30","新北市板橋區文化路一段435巷31弄1號","121.466796666667","25.0229733333333","6500100","板橋區"
"220107","568-UM","2019/11/19 14:43:08","新北市板橋區僑中二街124巷2號","121.445408333333","25.0053266666667","6500100","板橋區"
"220109","609-BX","2019/11/19 14:43:27","新北市板橋區萬安街27巷21號","121.48402","25.0227316666667","6500100","板橋區"
"220025","687-BX","2019/11/19 14:43:28","新北市板橋區僑中二街82號","121.446523333333","25.009605","6500100","板橋區"
"220111","689-BX","2019/11/19 14:43:30","新北市板橋區長江路二段299號","121.47066","25.0332116666667","6500100","板橋區"
"220002","741-BX","2019/11/19 14:43:17","新北市板橋區實踐路68號","121.463863333333","25.005755","6500100","板橋區"
"220051","KEA-2699","2019/11/19 14:43:25","新北市板橋區仁化街45號","121.475063333333","25.0317766666667","6500100","板橋區"
"220003","827-TW","2019/11/19 14:43:23","新北市板橋區國慶路161-5號","121.461828333333","24.9961316666667","6500100","板橋區"
"220016","830-TW","2019/11/19 14:43:28","新北市板橋區中山路二段416巷47弄25號","121.483756666667","25.0195316666667","6500100","板橋區"
"220014","831-TW","2019/11/19 14:43:24","新北市板橋區長安街138巷1弄87號","121.47489","25.0113883333333","6500100","板橋區"
"220005","833-TW","2019/11/19 14:43:27","新北市板橋區和平路14巷38號","121.461788333333","24.9915333333333","6500100","板橋區"
"220022","895-R6","2019/11/19 14:43:25","新北市板橋區府中路29-2號","121.458495","25.0080433333333","6500100","板橋區"
"220108","985-R7","2019/11/19 14:43:19","新北市板橋區中正路302號","121.454776666667","25.0206916666667","6500100","板橋區"
"220046","AAC-210","2019/11/19 14:43:20","新北市板橋區光正街40號","121.461935","25.0172933333333","6500100","板橋區"
"220012","AAC-253","2019/11/19 14:43:26","新北市板橋區館前東路108-1號","121.463183333333","25.00771","6500100","板橋區"
"235032","KEA-2873","2019/11/19 14:43:16","新北市中和區福美路298-1號","121.497366666667","25.0050183333333","6500300","中和區"
"235025","KEA-2875","2019/11/19 14:43:26","新北市中和區員山路174巷24號","121.481825","24.999665","6500300","中和區"
