"lineid","car","time","location","longitude","latitude","cityid","cityname"
"234025","9371-KE","2019/11/19 14:59:27","新北市永和區保平路262號","121.508878333333","25.00516","6500400","永和區"
"248017","KED-0813","2019/11/19 14:59:20","新北市五股區登林路106巷12號","121.426695","25.071375","6501500","五股區"
"244002","248-BX","2019/11/19 14:59:29","新北市林口區南勢里34-8號","121.352378333333","25.0701916666667","6501700","林口區"
"231030","002-UM","2019/11/19 14:59:26","新北市新店區安興路83-8號","121.51529","24.9757566666667","6500600","新店區"
"231024","0291-UT","2019/11/19 14:59:29","新北市新店區力行路30號","121.539178333333","24.9646866666667","6500600","新店區"
"231005","046-UY","2019/11/19 14:59:17","新北市新店區復興路67-1號","121.535326666667","24.9875216666667","6500600","新店區"
"231029","106-UY","2019/11/19 14:59:18","新北市新店區錦秀路11巷88號","121.48052","24.9433633333333","6500600","新店區"
"231018","107-UY","2019/11/19 14:59:24","新北市新店區中央路192號","121.530801666667","24.9746766666667","6500600","新店區"
"231013","108-UY","2019/11/19 14:59:15","新北市新店區環河路16號","121.537378333333","24.9614716666667","6500600","新店區"
"231036","110-UY","2019/11/19 14:59:15","新北市新店區安祥路102巷46弄19號","121.485333333333","24.9638766666667","6500600","新店區"
"231039","187-VK","2019/11/19 14:59:20","新北市新店區中興路三段88號","121.545303333333","24.9787666666667","6500600","新店區"
"231023","260-TV","2019/11/19 14:59:30","新北市新店區檳榔路123號","121.544636666667","24.9615366666667","6500600","新店區"
"231003","268-BY","2019/11/19 14:59:26","新北市新店區中興路二段173號","121.548098333333","24.9732","6500600","新店區"
"231035","278-BY","2019/11/19 14:59:12","新北市新店區安業街17號","121.516788333333","24.9778383333333","6500600","新店區"
"231015","AAD-862","2019/11/19 14:59:17","新北市新店區北宜路三段221號","121.592285","24.9531033333333","6500600","新店區"
"231006","355-BY","2019/11/19 14:59:31","新北市新店區北宜路一段60號","121.53845","24.9561933333333","6500600","新店區"
"231038","3712-VJ","2019/11/19 14:59:21","新北市新店區安華路28-1號","121.519646666667","24.960875","6500600","新店區"
"231027","3713-VJ","2019/11/19 14:59:28","新北市新店區中正路334巷7號","121.536856666667","24.9754183333333","6500600","新店區"
"231025","4715-K9","2019/11/19 14:59:22","新北市新店區建國路218號","121.537931666667","24.981145","6500600","新店區"
"231020","513-UM","2019/11/19 14:59:13","新北市新店區桂山路2-1號","121.555746666667","24.9041383333333","6500600","新店區"
"231001","617-UM","2019/11/19 14:59:30","新北市新店區中正路276號","121.53886","24.973745","6500600","新店區"
"231002","619-UM","2019/11/19 14:59:23","新北市新店區中正路501-2號","121.533661666667","24.9837233333333","6500600","新店區"
"231034","641-BX","2019/11/19 14:59:13","新北市新店區玫瑰路4-1號","121.49355","24.9514383333333","6500600","新店區"
"231012","KED-0819","2019/11/19 14:59:11","新北市新店區寶橋路85巷50號","121.545373333333","24.9763916666667","6500600","新店區"
"231026","720-UM","2019/11/19 14:59:21","新北市新店區博愛街5號","121.540678333333","24.9727766666667","6500600","新店區"
"231028","897-TW","2019/11/19 14:59:25","新北市新店區安康路二段266號","121.508601666667","24.9588766666667","6500600","新店區"
"231004","899-TW","2019/11/19 14:59:22","新北市新店區民族路53號","121.540068333333","24.978545","6500600","新店區"
"231037","AKT-0513","2019/11/19 14:59:11","新北市新店區安民街121巷20號","121.515323333333","24.9688866666667","6500600","新店區"
"235030","003-UY","2019/11/19 14:59:16","新北市永和區中山路一段343號","121.505908333333","25.0057066666667","6500300","中和區"
"235020","096-UM","2019/11/19 14:59:23","新北市中和區中山路三段170巷2弄7號","121.47309","25.00668","6500300","中和區"
"235003","097-UM","2019/11/19 14:59:26","新北市中和區宜安路52巷19號","121.512521666667","24.9974433333333","6500300","中和區"
"235004","150-BY","2019/11/19 14:59:30","新北市中和區保健路19巷23號","121.508535","24.9986616666667","6500300","中和區"
"235008","293-VK","2019/11/19 14:59:26","新北市中和區中正路69號","121.501145","24.9935066666667","6500300","中和區"
"235036","301-VK","2019/11/19 14:59:23","新北市中和區連城路164-1號","121.493836666667","24.9983483333333","6500300","中和區"
"235007","352-BY","2019/11/19 14:59:29","新北市中和區華新街230號","121.506","24.98167","6500300","中和區"
"235014","4979-A6","2019/11/19 14:59:16","新北市中和區景平路153號","121.513476666667","24.9918783333333","6500300","中和區"
"235033","4980-A6","2019/11/19 14:59:21","新北市中和區南山路127巷27弄26號","121.503316666667","24.9980183333333","6500300","中和區"
"235034","558-UM","2019/11/19 14:59:25","新北市中和區中正路368號","121.49316","24.99413","6500300","中和區"
"235035","647-TV","2019/11/19 14:59:15","新北市中和區中正路866-2號","121.48432","25.00613","6500300","中和區"
"235010","733-UM","2019/11/19 14:59:12","新北市中和區忠孝街31巷47號","121.509693333333","24.9853966666667","6500300","中和區"
"235012","896-TW","2019/11/19 14:59:12","新北市中和區忠孝街3巷2弄2號","121.5092","24.9831766666667","6500300","中和區"
"235015","157-BY","2019/11/19 14:59:24","新北市中和區捷運路12-2號","121.509066666667","24.9898733333333","6500300","中和區"
"235001","AAC-213","2019/11/19 14:59:21","新北市中和區立人街57號","121.520263333333","24.9942816666667","6500300","中和區"
"235023","AAC-215","2019/11/19 14:59:19","新北市中和區圓通路365號","121.491351666667","24.98964","6500300","中和區"
"220013","072-UY","2019/11/19 14:59:23","新北市板橋區民族路69巷18弄1號","121.466538333333","25.0100116666667","6500100","板橋區"
"220034","073-UY","2019/11/19 14:59:22","新北市板橋區南雅西路二段7巷25號","121.451926666667","25.0094966666667","6500100","板橋區"
"220105","075-UY","2019/11/19 14:59:27","新北市板橋區懷德街76巷8號","121.477616666667","25.0317516666667","6500100","板橋區"
"220017","AAD-861","2019/11/19 14:59:18","新北市板橋區南雅南路二段18號","121.45459","25.0035283333333","6500100","板橋區"
"247021","007-UY","2019/11/19 14:59:22","新北市五股區中興路三段163號","121.44916","25.08079","6501400","蘆洲區"
"228004","212-TW","2019/11/19 14:59:14","新北市貢寮區雙玉里田寮洋街1號","121.928018333333","25.0182733333333","6502600","貢寮區"
"207001","662-BX","2019/11/19 14:59:31","新北市萬里區雙興里二坪路1-1號","121.65022","25.17626","6502800","萬里區"
"252005","AAC-283","2019/11/19 14:59:30","新北市三芝區埔坪里埔頭坑122-1號","121.518961666667","25.2449716666667","6502100","三芝區"
"236040","KED-0685","2019/11/19 14:59:21","新北市土城區裕民路214巷10號","121.453016666667","24.984095","6501300","土城區"
"220110","KED-0812","2019/11/19 14:59:16","新北市板橋區四維路249號","121.463671666667","25.0276233333333","6500100","板橋區"
"236074","166-UM","2019/11/19 14:59:21","新北市土城區中央路四段125巷2弄10號","121.416431666667","24.9569516666667","6501300","土城區"
"236029","253-BX","2019/11/19 14:59:10","新北市土城區慶利街17號","121.439161666667","24.97402","6501300","土城區"
"236024","269-VK","2019/11/19 14:59:16","新北市土城區中正路74巷1弄1號","121.444658333333","24.9752183333333","6501300","土城區"
"236013","270-VK","2019/11/19 14:59:21","新北市土城區永豐路13巷1-1號","121.4616","24.988855","6501300","土城區"
"236032","271-VK","2019/11/19 14:59:11","新北市土城區清水路137號","121.458236666667","24.98167","6501300","土城區"
"236065","KEA-2877","2019/11/19 14:59:12","新北市土城區裕生路82巷2號","121.447411666667","24.9856683333333","6501300","土城區"
"236017","401-BY","2019/11/19 14:59:21","新北市土城區延吉街166號","121.468438333333","24.9853316666667","6501300","土城區"
"236045","752-BX","2019/11/19 14:58:34","新北市土城區青雲路315號","121.458955","24.9789216666667","6501300","土城區"
"236057","912-UM","2019/11/19 14:59:14","新北市土城區金城路二段200號","121.454781666667","24.981735","6501300","土城區"
"236060","915-UM","2019/11/19 14:59:25","新北市土城區延和路41巷15號","121.465971666667","24.9897983333333","6501300","土城區"
"236054","AAC-216","2019/11/19 14:59:28","新北市土城區學成路68號","121.451648333333","24.9880416666667","6501300","土城區"
"220027","145-BY","2019/11/19 14:59:14","新北市板橋區建國街1巷6號","121.457248333333","25.0169916666667","6500100","板橋區"
"220028","200-UY","2019/11/19 14:59:27","新北市板橋區大觀路二段79巷2弄16號","121.44735","25.0016066666667","6500100","板橋區"
"220030","610-BX","2019/11/19 14:59:18","新北市板橋區存德街1號","121.429798333333","24.991985","6500100","板橋區"
"220040","267-BY","2019/11/19 14:59:30","新北市板橋區懷德街174巷26號","121.478306666667","25.029195","6500100","板橋區"
"220004","276-BY","2019/11/19 14:59:17","新北市板橋區德興街37巷7號","121.453868333333","24.99387","6500100","板橋區"
"220020","277-BY","2019/11/19 14:59:22","新北市板橋區金門街109巷17號","121.433568333333","24.99167","6500100","板橋區"
"220050","280-UM","2019/11/19 14:59:30","新北市板橋區雙十路二段47巷4弄20號","121.47503","25.0264383333333","6500100","板橋區"
"220043","283-UM","2019/11/19 14:59:17","新北市板橋區文化路一段112號","121.46483","25.0183516666667","6500100","板橋區"
"220019","283-VK","2019/11/19 14:59:18","新北市板橋區五權街30巷12弄24號","121.463928333333","24.994355","6500100","板橋區"
"220001","285-VK","2019/11/19 14:59:24","新北市板橋區永豐街145號","121.475021666667","25.020055","6500100","板橋區"
"220029","287-VK","2019/11/19 14:59:23","新北市板橋區僑中一街80巷5弄1號","121.447675","25.0123183333333","6500100","板橋區"
"220009","293-UM","2019/11/19 14:59:19","新北市板橋區中山路一段1號","121.459613333333","25.0074716666667","6500100","板橋區"
"220032","296-UM","2019/11/19 14:59:18","新北市板橋區溪崑二街110號","121.426251666667","24.9886833333333","6500100","板橋區"
"220041","299-UM","2019/11/19 14:38:29","新北市板橋區四維路259巷60-2號","121.460651666667","25.026865","6500100","板橋區"
"220023","303-R5","2019/11/19 14:59:28","新北市板橋區金華街10巷52號","121.457053333333","25.0201366666667","6500100","板橋區"
"220010","305-R5","2019/11/19 14:59:14","新北市板橋區中山路二段326號","121.481073333333","25.0197933333333","6500100","板橋區"
"220047","317-R6","2019/11/19 14:59:12","新北市板橋區新海路385巷12號","121.458456666667","25.0258416666667","6500100","板橋區"
"220037","491-VK","2019/11/19 14:59:17","新北市板橋區仁化街139號","121.477368333333","25.0329533333333","6500100","板橋區"
"220104","560-BX","2019/11/19 14:59:13","新北市板橋區新生街53巷3弄12號","121.457058333333","25.021805","6500100","板橋區"
"220052","561-BX","2019/11/19 14:59:10","新北市板橋區漢生西路3號","121.463908333333","25.0179883333333","6500100","板橋區"
"220107","568-UM","2019/11/19 14:59:28","新北市板橋區僑中二街50號","121.446598333333","25.010575","6500100","板橋區"
"220109","609-BX","2019/11/19 14:59:30","新北市板橋區三民路一段94號","121.47937","25.0215416666667","6500100","板橋區"
"220025","687-BX","2019/11/19 14:59:22","新北市板橋區僑中一街106號","121.4465","25.0117116666667","6500100","板橋區"
"220111","689-BX","2019/11/19 14:59:30","新北市板橋區長江路二段216-1號","121.467938333333","25.03231","6500100","板橋區"
"220002","741-BX","2019/11/19 14:59:17","新北市板橋區忠孝路201巷53號","121.464733333333","25.0038466666667","6500100","板橋區"
"220051","KEA-2699","2019/11/19 14:59:23","新北市板橋區莒光路40巷7弄2號","121.470325","25.0237066666667","6500100","板橋區"
"220003","827-TW","2019/11/19 14:59:23","新北市板橋區仁愛路64號","121.459915","24.9994416666667","6500100","板橋區"
"220016","830-TW","2019/11/19 14:59:28","新北市板橋區中山路二段450號","121.484506666667","25.0217233333333","6500100","板橋區"
"220014","831-TW","2019/11/19 14:59:31","新北市板橋區中山路一段206巷72號","121.47233","25.0133783333333","6500100","板橋區"
"220005","833-TW","2019/11/19 14:59:27","新北市板橋區德興街16號","121.453383333333","24.9943366666667","6500100","板橋區"
"220022","895-R6","2019/11/19 14:59:25","新北市板橋區文化路一段52巷29號","121.461456666667","25.0110966666667","6500100","板橋區"
"220108","985-R7","2019/11/19 14:59:19","新北市板橋區南雅西路二段82號","121.452535","25.0109","6500100","板橋區"
"220046","AAC-210","2019/11/19 14:59:16","新北市板橋區光正街43號","121.461806666667","25.017235","6500100","板橋區"
"220012","AAC-253","2019/11/19 14:59:26","新北市板橋區民族路237號","121.469891666667","25.0070083333333","6500100","板橋區"
"235032","KEA-2873","2019/11/19 14:59:16","新北市中和區永和路24號","121.499411666667","25.0035116666667","6500300","中和區"
