"lineid","car","time","location","longitude","latitude","cityid","cityname"
"231030","002-UM","2019/11/19 15:59:26","新北市新店區安和路三段77號","121.51773","24.9835683333333","6500600","新店區"
"231018","107-UY","2019/11/19 15:59:24","新北市新店區中正路700巷2號","121.534056666667","24.9909183333333","6500600","新店區"
"231013","108-UY","2019/11/19 15:59:15","新北市新店區安光路30號","121.51369","24.9646216666667","6500600","新店區"
"231032","256-BX","2019/11/19 15:59:21","新北市新店區雙城路4巷1號","121.491363333333","24.95078","6500600","新店區"
"231003","268-BY","2019/11/19 15:59:26","新北市新店區中興路二段226號","121.547926666667","24.975115","6500600","新店區"
"231035","278-BY","2019/11/19 15:59:12","新北市新店區安民街241號","121.517205","24.9722033333333","6500600","新店區"
"231015","AAD-862","2019/11/19 15:59:17","新北市新店區建安街33巷34號","121.538531666667","24.9747766666667","6500600","新店區"
"231034","641-BX","2019/11/19 15:59:13","新北市新店區富貴街12巷1號","121.494086666667","24.9492733333333","6500600","新店區"
"231046","719-UM","2019/11/19 15:59:13","新北市新店區安一路一段1-1號","121.5196","24.9611466666667","6500600","新店區"
"231026","720-UM","2019/11/19 15:59:21","新北市新店區民生路23號","121.532756666667","24.9864566666667","6500600","新店區"
"231037","AKT-0513","2019/11/19 15:59:31","新北市新店區柴埕路34-1號","121.51351","24.9650016666667","6500600","新店區"
"241011","013-R5","2019/11/19 15:59:22","新北市三重區文化北路224巷8號","121.497498333333","25.0688","6500200","三重區"
"241028","022-UY","2019/11/19 15:59:31","新北市三重區正義南路111號","121.498235","25.058595","6500200","三重區"
"241008","059-VK","2019/11/19 15:59:28","新北市三重區捷運路36號","121.48282","25.0551183333333","6500200","三重區"
"241017","063-VK","2019/11/19 15:59:26","新北市三重區大仁街48巷16號","121.491063333333","25.0644","6500200","三重區"
"241024","065-VK","2019/11/19 15:59:30","新北市三重區忠孝路三段9號","121.48179","25.0675083333333","6500200","三重區"
"241007","742-BX","2019/11/19 15:59:21","新北市三重區新北大道一段250號","121.479856666667","25.0613916666667","6500200","三重區"
"241006","262-UM","2019/11/19 15:59:22","新北市三重區重新路四段121號","121.48484","25.0517266666667","6500200","三重區"
"241014","316-R6","2019/11/19 15:59:18","新北市三重區重新路四段121號","121.485018333333","25.0519233333333","6500200","三重區"
"241016","266-UM","2019/11/19 15:59:30","新北市三重區重新路四段121號","121.48504","25.05194","6500200","三重區"
"241018","268-UM","2019/11/19 15:59:25","新北市三重區大仁街22號","121.491376666667","25.0636066666667","6500200","三重區"
"241013","270-UM","2019/11/19 15:59:13","新北市三重區文化北路149-1號","121.497538333333","25.0695733333333","6500200","三重區"
"241025","271-UM","2019/11/19 15:59:14","新北市三重區三民街148號","121.48266","25.065435","6500200","三重區"
"241020","478-VK","2019/11/19 15:59:15","新北市三重區忠孝路二段95號","121.484245","25.0699783333333","6500200","三重區"
"241026","480-VK","2019/11/19 15:59:13","新北市三重區捷運路11-2號","121.486158333333","25.05638","6500200","三重區"
"241023","545-UM","2019/11/19 15:59:19","新北市三重區中正北路168號","121.484286666667","25.06632","6500200","三重區"
"241001","547-UM","2019/11/19 15:59:16","新北市三重區三陽路170-1號","121.4819","25.057005","6500200","三重區"
"241005","AAD-863","2019/11/19 15:59:17","新北市三重區車路頭街135-1號","121.48419","25.0759683333333","6500200","三重區"
"241012","743-BX","2019/11/19 15:59:24","新北市三重區正義北路123號","121.496811666667","25.0660866666667","6500200","三重區"
"241022","KED-0820","2019/11/19 15:59:19","新北市三重區中正北路174-6號","121.483533333333","25.0668","6500200","三重區"
"241029","942-UM","2019/11/19 15:59:16","新北市三重區大同南路212巷59號","121.498313333333","25.0567366666667","6500200","三重區"
"241033","AAC-255","2019/11/19 15:59:17","新北市三重區重新路五段480號","121.473766666667","25.0469783333333","6500200","三重區"
"235026","800-TS","2019/11/19 15:59:19","新北市中和區建八路125巷6弄11號","121.490101666667","24.999205","6500300","中和區"
"224007","285-BY","2019/11/19 15:59:18","新北市瑞芳區大寮路356-1號","121.785123333333","25.103105","6501200","瑞芳區"
"224005","271-BY","2019/11/19 15:51:34","新北市瑞芳區明燈路二段66號","121.809321666667","25.1076083333333","6501200","瑞芳區"
"227001","642-TC","2019/11/19 15:59:19","新北市雙溪區三港里雙澳路83號","121.884118333333","25.0536683333333","6502500","雙溪區"
"227002","400-TW","2019/11/19 15:59:12","新北市雙溪區上林里內平林24號","121.834085","25.031595","6502500","雙溪區"
"251013","182-VK","2019/11/19 15:59:18","新北市淡水區中正路二段31號","121.419575","25.1814566666667","6501000","淡水區"
"236074","166-UM","2019/11/19 15:59:21","新北市土城區福安街34號","121.419261666667","24.9647983333333","6501300","土城區"
"236057","912-UM","2019/11/19 15:59:14","新北市土城區中央路三段62號","121.436745","24.9673966666667","6501300","土城區"
