"lineid","car","time","location","longitude","latitude","cityid","cityname"
"249005","172-UM","2019/11/19 16:43:16","新北市八里區忠八街59-1號","121.419225","25.1612033333333","6502300","八里區"
"249002","305-UY","2019/11/19 16:43:15","新北市八里區忠孝路85號","121.424658333333","25.1605683333333","6502300","八里區"
"249003","593-UM","2019/11/19 16:43:28","新北市八里區中山路二段289號","121.401545","25.1486816666667","6502300","八里區"
"231046","719-UM","2019/11/19 16:41:52","新北市新店區灣潭路3-5號","121.538116666667","24.9508133333333","6500600","新店區"
"241011","013-R5","2019/11/19 16:43:22","新北市三重區仁愛街53巷60號","121.497741666667","25.072275","6500200","三重區"
"241028","022-UY","2019/11/19 16:43:31","新北市三重區正義南路2-1號","121.49799","25.0618533333333","6500200","三重區"
"241008","059-VK","2019/11/19 16:43:28","新北市三重區永安北路一段23號","121.476531666667","25.0752966666667","6500200","三重區"
"241031","061-VK","2019/11/19 16:43:14","新北市三重區重陽路一段126號","121.486743333333","25.060295","6500200","三重區"
"241015","062-VK","2019/11/19 16:43:19","新北市三重區文化北路41號","121.49884","25.0651933333333","6500200","三重區"
"241017","063-VK","2019/11/19 16:43:26","新北市三重區國隆路8巷17號","121.492998333333","25.0635733333333","6500200","三重區"
"241024","065-VK","2019/11/19 16:43:30","新北市三重區中正北路315巷6弄6-1號","121.47513","25.0719983333333","6500200","三重區"
"241002","090-VK","2019/11/19 16:43:26","新北市三重區仁義街241巷29號","121.497088333333","25.0830233333333","6500200","三重區"
"241003","091-VK","2019/11/19 16:43:18","新北市三重區五華街71巷20號","121.492895","25.0831033333333","6500200","三重區"
"241007","742-BX","2019/11/19 16:43:21","新北市三重區三和路四段177-1號","121.482895","25.0788366666667","6500200","三重區"
"241006","262-UM","2019/11/19 16:43:22","新北市三重區力行路二段154號","121.482711666667","25.0761866666667","6500200","三重區"
"241014","316-R6","2019/11/19 16:43:18","新北市三重區長榮路75號","121.502591666667","25.0691433333333","6500200","三重區"
"241016","266-UM","2019/11/19 16:43:10","新北市三重區大同北路97-3號","121.494433333333","25.0636383333333","6500200","三重區"
"241009","267-UM","2019/11/19 16:43:30","新北市三重區仁美街99號","121.485836666667","25.0805166666667","6500200","三重區"
"241018","268-UM","2019/11/19 16:43:29","新北市三重區六張街58號","121.494063333333","25.0701916666667","6500200","三重區"
"241032","269-UM","2019/11/19 16:43:17","新北市三重區新北大道一段19號","121.486451666667","25.0613516666667","6500200","三重區"
"241013","270-UM","2019/11/19 16:43:13","新北市三重區仁壽街72號","121.498163333333","25.0738616666667","6500200","三重區"
"241025","271-UM","2019/11/19 16:43:14","新北市三重區中正北路534號","121.471621666667","25.0718816666667","6500200","三重區"
"241030","KED-0822","2019/11/19 16:43:11","新北市三重區環河南路221巷2號","121.492293333333","25.0520183333333","6500200","三重區"
"241004","475-VK","2019/11/19 16:43:28","新北市三重區仁愛街387號","121.491515","25.0807766666667","6500200","三重區"
"241020","478-VK","2019/11/19 16:43:15","新北市三重區忠孝路二段34號","121.48574","25.07098","6500200","三重區"
"241026","480-VK","2019/11/19 16:43:13","新北市三重區文化南路3號","121.50001","25.0624116666667","6500200","三重區"
"241023","545-UM","2019/11/19 16:43:19","新北市三重區洛陽街60號","121.481351666667","25.0630333333333","6500200","三重區"
"241001","547-UM","2019/11/19 16:43:16","新北市三重區仁政街76巷10號","121.492226666667","25.0771866666667","6500200","三重區"
"241019","KEA-2593","2019/11/19 16:43:31","新北市三重區力行路一段179巷5號","121.484766666667","25.069785","6500200","三重區"
"241005","AAD-863","2019/11/19 16:43:17","新北市三重區仁華街66號","121.484225","25.082785","6500200","三重區"
"241012","743-BX","2019/11/19 16:43:24","新北市三重區三和路三段101巷152號","121.49895","25.0737866666667","6500200","三重區"
"241022","KED-0820","2019/11/19 16:43:19","新北市三重區中華路90號","121.483436666667","25.0629016666667","6500200","三重區"
"241029","942-UM","2019/11/19 16:43:16","新北市三重區集美街175號","121.491406666667","25.054215","6500200","三重區"
"241033","AAC-255","2019/11/19 16:43:17","新北市三重區新北大道二段139巷13號","121.466438333333","25.0606566666667","6500200","三重區"
"247014","056-VK","2019/11/19 16:43:31","新北市蘆洲區三民路121號","121.472428333333","25.08619","6501400","蘆洲區"
"247021","007-UY","2019/11/19 16:43:26","新北市蘆洲區環堤大道136號","121.45279","25.0891333333333","6501400","蘆洲區"
"247002","001-UY","2019/11/19 16:43:24","新北市五股區成泰路三段531號","121.45165","25.10112","6501400","蘆洲區"
"228002","663-BX","2019/11/19 16:43:12","新北市貢寮區貢寮里朝陽街67號","121.910095","25.0216766666667","6502600","貢寮區"
"224007","285-BY","2019/11/19 16:43:18","新北市瑞芳區月眉路46-1號","121.760413333333","25.1101233333333","6501200","瑞芳區"
"224009","275-VK","2019/11/19 16:43:25","新北市瑞芳區民權街3-1號","121.809281666667","25.1083466666667","6501200","瑞芳區"
"224005","271-BY","2019/11/19 16:43:14","新北市瑞芳區洞頂路61號","121.861681666667","25.120285","6501200","瑞芳區"
"227001","642-TC","2019/11/19 16:43:19","新北市雙溪區牡丹里聖南19號","121.857636666667","25.0527283333333","6502500","雙溪區"
"227002","400-TW","2019/11/19 16:43:12","新北市雙溪區長源里柑腳21號","121.804601666667","25.0144166666667","6502500","雙溪區"
"251015","KEA-2871","2019/11/19 16:43:25","新北市淡水區忠愛街2號","121.455538333333","25.1719","6501000","淡水區"
"251016","180-VK","2019/11/19 16:43:25","新北市淡水區濱海路一段59號","121.442263333333","25.1890383333333","6501000","淡水區"
"251008","181-VK","2019/11/19 16:43:30","新北市淡水區樹梅坑9號","121.472776666667","25.142645","6501000","淡水區"
"251013","182-VK","2019/11/19 16:43:18","新北市淡水區北新路三段171-1號","121.492213333333","25.191595","6501000","淡水區"
"251007","442-VK","2019/11/19 16:43:18","新北市淡水區中正路二段31號","121.419346666667","25.1816566666667","6501000","淡水區"
"251014","577-R6","2019/11/19 16:43:23","新北市淡水區淡金路四段476號","121.452423333333","25.2239066666667","6501000","淡水區"
"251011","650-BX","2019/11/19 16:43:29","新北市淡水區中正路二段31號","121.419385","25.1817266666667","6501000","淡水區"
"252002","178-VK","2019/11/19 16:43:28","新北市三芝區茂長里陳厝坑61-4號","121.513436666667","25.254945","6502100","三芝區"
"247012","KED-0683","2019/11/19 16:43:25","新北市五股區中興路三段163號","121.449295","25.0805816666667","6501400","蘆洲區"
"252001","KED-0821","2019/11/19 16:43:28","新北市三芝區茂長里陳厝坑2-1號","121.507741666667","25.2661733333333","6502100","三芝區"
"238020","268-VK","2019/11/19 16:43:29","新北市樹林區中山路二段133號","121.406556666667","24.97905","6500700","樹林區"
"233001","KEA-2870","2019/11/19 16:43:21","新北市烏來區啦卡路70-1號","121.56524","24.85594","6502900","烏來區"
