"lineid","car","time","location","longitude","latitude","cityid","cityname"
"234007","KED-0605","2019/11/19 18:10:54","新北市永和區環河東路二段92號","121.524416666667","25.0106416666667","6500400","永和區"
"234026","9371-KE","2019/11/19 18:10:44","新北市永和區秀朗路一段10巷21號","121.513281666667","25.0062333333333","6500400","永和區"
"249005","172-UM","2019/11/19 18:10:56","新北市八里區荖阡坑路15-40號","121.401708333333","25.1398816666667","6502300","八里區"
"249001","173-UM","2019/11/19 18:10:46","新北市八里區龍米路一段267號","121.449403333333","25.1379816666667","6502300","八里區"
"249004","303-UY","2019/11/19 18:10:45","新北市八里區龍米路二段200巷3號","121.43373","25.15874","6502300","八里區"
"249002","305-UY","2019/11/19 18:10:55","新北市八里區龍米路一段356巷20號","121.45222","25.1310166666667","6502300","八里區"
"249003","593-UM","2019/11/19 18:10:48","新北市八里區文昌五街126號","121.412505","25.15478","6502300","八里區"
"248014","025-BX","2019/11/19 18:11:00","新北市五股區成泰路一段189巷29號","121.433523333333","25.0763483333333","6501500","五股區"
"248006","077-UY","2019/11/19 18:10:51","新北市五股區中興路二段8號","121.462908333333","25.07445","6501500","五股區"
"248008","KED-0815","2019/11/19 18:10:48","新北市五股區更洲路32巷15弄9號","121.458198333333","25.080485","6501500","五股區"
"248020","KED-0813","2019/11/19 18:10:52","新北市五股區成泰路三段544-1號","121.455176666667","25.100965","6501500","五股區"
"248004","677-BX","2019/11/19 18:10:42","新北市五股區成泰路二段186號","121.438741666667","25.0847033333333","6501500","五股區"
"248010","682-TV","2019/11/19 18:10:41","新北市五股區新五路二段139號","121.439095","25.0804783333333","6501500","五股區"
"232011","375-UM","2019/11/19 18:10:47","新北市坪林區國中路8號","121.713395","24.93905","6502000","坪林區"
"244007","080-UY","2019/11/19 18:10:55","新北市林口區林口路113巷6弄1號","121.388701666667","25.0806116666667","6501700","林口區"
"244019","402-UM","2019/11/19 18:10:59","新北市林口區忠孝路561巷10號","121.373245","25.0688066666667","6501700","林口區"
"244013","KEA-2802","2019/11/19 18:10:54","新北市林口區佳林路101巷36號","121.386996666667","25.079995","6501700","林口區"
"244023","483-VK","2019/11/19 18:10:47","新北市林口區東湖路153巷125號","121.382266666667","25.0734183333333","6501700","林口區"
"244017","485-VK","2019/11/19 18:10:48","新北市林口區八德路48巷19號","121.366931666667","25.0669766666667","6501700","林口區"
"244009","656-BX","2019/11/19 18:11:02","新北市林口區文林二街12號","121.376933333333","25.0889766666667","6501700","林口區"
"244011","701-TV","2019/11/19 18:11:02","新北市林口區仁愛路一段266-1號","121.394088333333","25.0762716666667","6501700","林口區"
"244025","837-TS","2019/11/19 18:10:43","新北市林口區文化北路一段299巷27號","121.359165","25.0735233333333","6501700","林口區"
"244021","838-TS","2019/11/19 18:10:46","新北市林口區自強一街63號","121.399698333333","25.077245","6501700","林口區"
"243013","646-TV","2019/11/19 18:10:54","新北市泰山區犁頭窠18號","121.421348333333","25.050235","6501600","泰山區"
"222003","436-BY","2019/11/19 18:10:49","新北市深坑區文山路三段15號","121.612865","24.9980083333333","6501800","深坑區"
"222002","659-BX","2019/11/19 18:10:45","新北市深坑區文化街42號","121.619106666667","25.0016966666667","6501800","深坑區"
"231061","002-UM","2019/11/19 18:10:55","新北市新店區安華路28-1號","121.519791666667","24.96082","6500600","新店區"
"231055","0291-UT","2019/11/19 18:10:52","新北市新店區安華路28-1號","121.519555","24.9606916666667","6500600","新店區"
"231060","106-UY","2019/11/19 18:10:49","新北市新店區安華路28-1號","121.519671666667","24.9608566666667","6500600","新店區"
"231065","110-UY","2019/11/19 18:10:54","新北市新店區安一路一段1-1號","121.51938","24.961145","6500600","新店區"
"231042","268-BY","2019/11/19 18:10:51","新北市新店區安一路一段1-1號","121.51969","24.9612733333333","6500600","新店區"
"231064","278-BY","2019/11/19 18:10:43","新北市新店區安一路一段1-1號","121.51981","24.9612216666667","6500600","新店區"
"231058","3713-VJ","2019/11/19 18:10:46","新北市新店區安華路28-1號","121.519126666667","24.960625","6500600","新店區"
"231056","4715-K9","2019/11/19 18:10:52","新北市新店區安康路一段355號","121.519948333333","24.9635466666667","6500600","新店區"
"231053","513-UM","2019/11/19 18:10:42","新北市新店區安一路一段1-1號","121.519668333333","24.9612366666667","6500600","新店區"
"231040","617-UM","2019/11/19 18:10:50","新北市新店區安華路28-1號","121.519391666667","24.96092","6500600","新店區"
"231063","641-BX","2019/11/19 18:11:02","新北市新店區安華路28-1號","121.519611666667","24.96056","6500600","新店區"
"231057","720-UM","2019/11/19 18:10:56","新北市新店區安一路一段1-1號","121.519258333333","24.961465","6500600","新店區"
"231043","899-TW","2019/11/19 18:10:49","新北市新店區安華路28-1號","121.519253333333","24.96072","6500600","新店區"
"231066","AKT-0513","2019/11/19 18:10:47","新北市新店區安華路1-1號","121.519441666667","24.9604583333333","6500600","新店區"
"241024","065-VK","2019/11/19 18:10:49","新北市三重區中正北路193巷35弄3號","121.476415","25.0707166666667","6500200","三重區"
"241033","AAC-255","2019/11/19 18:10:57","新北市三重區中興北街42巷17號","121.468881666667","25.0493","6500200","三重區"
"235066","003-UY","2019/11/19 18:10:46","新北市中和區員山路36巷16-8號","121.485436666667","24.99224","6500300","中和區"
"235064","005-UY","2019/11/19 18:10:42","新北市中和區圓通路164號","121.497398333333","24.9949283333333","6500300","中和區"
"235063","006-UY","2019/11/19 18:10:50","新北市中和區中正路637巷52弄1號","121.48548","24.9933266666667","6500300","中和區"
"235056","096-UM","2019/11/19 18:10:59","新北市中和區新生街194號","121.483775","24.9994283333333","6500300","中和區"
"235039","097-UM","2019/11/19 18:10:43","新北市中和區中正路426號","121.491481666667","24.99363","6500300","中和區"
"235065","098-UM","2019/11/19 18:10:56","新北市中和區莊敬路49巷27號","121.50161","25.0061933333333","6500300","中和區"
"235058","151-BY","2019/11/19 18:10:49","新北市中和區圓通路367巷19號","121.492263333333","24.98718","6500300","中和區"
"235055","183-VK","2019/11/19 18:10:49","新北市中和區新生街210號","121.483788333333","24.9988966666667","6500300","中和區"
"235072","301-VK","2019/11/19 18:10:47","新北市中和區中正路460號","121.490213333333","24.9941816666667","6500300","中和區"
"235043","352-BY","2019/11/19 18:11:02","新北市中和區中正路161巷6號","121.49875","24.9935433333333","6500300","中和區"
"235042","KEA-2878","2019/11/19 18:10:43","新北市中和區景平路159巷54號","121.512815","24.9912016666667","6500300","中和區"
"235050","4979-A6","2019/11/19 18:10:49","新北市中和區中正路434號","121.491398333333","24.9936416666667","6500300","中和區"
"235069","4980-A6","2019/11/19 18:10:43","新北市中和區連城路169號","121.495528333333","24.9982883333333","6500300","中和區"
"235070","558-UM","2019/11/19 18:10:50","新北市中和區圓通路118號","121.499146666667","24.9961333333333","6500300","中和區"
"235045","565-BX","2019/11/19 18:11:01","新北市中和區景安路200巷4弄1號","121.503486666667","24.9916433333333","6500300","中和區"
"235060","KED-0823","2019/11/19 18:10:51","新北市中和區員山路168號","121.481305","24.9997766666667","6500300","中和區"
"235054","640-BX","2019/11/19 18:10:54","新北市中和區莒光路183號","121.472738333333","24.99907","6500300","中和區"
"235047","732-UM","2019/11/19 18:10:43","新北市中和區中正路131號","121.499828333333","24.9934316666667","6500300","中和區"
"235062","800-TS","2019/11/19 18:10:45","新北市中和區中山路二段312巷45弄5號","121.495041666667","25.0046516666667","6500300","中和區"
"235057","801-TS","2019/11/19 18:10:55","新北市中和區民享街97巷19號","121.475431666667","24.9995633333333","6500300","中和區"
"235041","802-TS","2019/11/19 18:10:48","新北市中和區和城路一段271巷1號","121.485496666667","24.991775","6500300","中和區"
"235052","805-TS","2019/11/19 18:10:48","新北市中和區南山路150號","121.504205","24.9921816666667","6500300","中和區"
"235038","911-UM","2019/11/19 18:10:55","新北市中和區大智街29號","121.520315","24.9919316666667","6500300","中和區"
"235051","157-BY","2019/11/19 18:10:56","新北市中和區信義街2-8號","121.510813333333","24.9897583333333","6500300","中和區"
"235037","AAC-213","2019/11/19 18:10:39","新北市中和區景德街52號","121.517591666667","24.9914733333333","6500300","中和區"
"235059","AAC-215","2019/11/19 18:10:55","新北市中和區員山路36巷16-3號","121.485053333333","24.9912533333333","6500300","中和區"
"226004","312-R5","2019/11/19 18:10:49","新北市平溪區白石里白石腳43號","121.718583333333","25.021245","6502400","平溪區"
"235013","251-BX","2019/11/19 18:10:46","新北市中和區員山路36巷13號","121.484118333333","24.9909183333333","6500300","中和區"
"228001","097-TW","2019/11/19 18:10:53","新北市貢寮區真理里新港街26巷55弄2-1號","121.92746","25.05284","6502600","貢寮區"
"228002","663-BX","2019/11/19 18:10:52","新北市貢寮區福連里馬崗街31-1號","122.002071666667","25.0128116666667","6502600","貢寮區"
"228003","828-UM","2019/11/19 18:10:59","新北市貢寮區真理里美艷山街8-3號","121.92949","25.0616866666667","6502600","貢寮區"
"224006","676-BX","2019/11/19 18:11:01","新北市瑞芳區中山路36號","121.803728333333","25.1063166666667","6501200","瑞芳區"
"224007","285-BY","2019/11/19 18:10:58","新北市瑞芳區四腳亭坑路35-15號","121.771273333333","25.1098566666667","6501200","瑞芳區"
"224009","275-VK","2019/11/19 18:10:45","新北市瑞芳區新山路43號","121.855955","25.1082883333333","6501200","瑞芳區"
"224008","273-VK","2019/11/19 18:10:43","新北市瑞芳區員山子路23號","121.821445","25.1030216666667","6501200","瑞芳區"
"224005","271-BY","2019/11/19 18:10:54","新北市瑞芳區建基路二段83號","121.805985","25.1339333333333","6501200","瑞芳區"
"227001","642-TC","2019/11/19 18:10:41","新北市雙溪區三貂里定福路1-2號","121.850703333333","25.0633583333333","6502500","雙溪區"
"227002","400-TW","2019/11/19 18:10:52","新北市雙溪區共和里東榮街52號","121.866303333333","25.0336316666667","6502500","雙溪區"
"253005","032-BX","2019/11/19 18:10:48","新北市石門區中央路46號","121.568175","25.29294","6502200","石門區"
"253006","295-VK","2019/11/19 18:10:57","新北市石門區老梅路52巷21號","121.546301666667","25.2885566666667","6502200","石門區"
"222001","KEA-2212","2019/11/19 18:10:59","新北市深坑區北深路二段135號","121.614845","25.0025183333333","6501800","深坑區"
"208002","KEA-2872","2019/11/19 18:10:58","新北市金山區法鼓路99號","121.623791666667","25.2333333333333","6502700","金山區"
"208003","665-BX","2019/11/19 18:10:58","新北市金山區民生路84號","121.648343333333","25.2237933333333","6502700","金山區"
"251004","009-UM","2019/11/19 18:10:53","新北市淡水區民權路187巷86弄1號","121.461463333333","25.1348716666667","6501000","淡水區"
"251005","010-UM","2019/11/19 18:10:53","新北市淡水區水源街一段120號","121.44727","25.1718066666667","6501000","淡水區"
"251001","011-UM","2019/11/19 18:11:03","新北市淡水區自立路1巷29號","121.462251666667","25.1293416666667","6501000","淡水區"
"251002","012-UM","2019/11/19 18:10:49","新北市淡水區中正東路一段12號","121.45226","25.16272","6501000","淡水區"
"251015","KEA-2871","2019/11/19 18:10:45","新北市淡水區興福寮88巷1號","121.485381666667","25.1649133333333","6501000","淡水區"
"251016","180-VK","2019/11/19 18:10:45","新北市淡水區下圭柔山14-1號","121.450791666667","25.200405","6501000","淡水區"
"251008","181-VK","2019/11/19 18:10:50","新北市淡水區中正東路二段7號","121.457955","25.1586583333333","6501000","淡水區"
"251013","182-VK","2019/11/19 18:11:00","新北市淡水區桂花樹4-2號","121.476216666667","25.1958183333333","6501000","淡水區"
"251010","413-VK","2019/11/19 18:10:46","新北市淡水區中正路二段50巷10號","121.420015","25.1834316666667","6501000","淡水區"
"251012","441-VK","2019/11/19 18:10:57","新北市淡水區北新路三段172號","121.492748333333","25.1926566666667","6501000","淡水區"
"251006","561-UM","2019/11/19 18:10:45","新北市淡水區真理街3巷26-1號","121.438005","25.1766916666667","6501000","淡水區"
"251009","575-R6","2019/11/19 18:10:50","新北市淡水區大忠街34巷15號","121.443928333333","25.1756516666667","6501000","淡水區"
"251014","577-R6","2019/11/19 18:10:43","新北市淡水區南平14-2號","121.487111666667","25.22014","6501000","淡水區"
"251011","650-BX","2019/11/19 18:10:48","新北市淡水區三空泉9-1號","121.47489","25.162795","6501000","淡水區"
"251003","673-BX","2019/11/19 18:10:53","新北市淡水區大忠街113巷24號","121.447438333333","25.1774116666667","6501000","淡水區"
"207003","681-TV","2019/11/19 18:10:54","新北市萬里區港東路野柳風景區攤販66號","121.691266666667","25.205785","6502800","萬里區"
"207004","291-VK","2019/11/19 18:10:54","新北市萬里區中幅里中福路94號","121.67542","25.1701316666667","6502800","萬里區"
"252002","178-VK","2019/11/19 18:10:48","新北市三芝區中山路二段43號","121.503","25.2550666666667","6502100","三芝區"
"252003","249-BX","2019/11/19 18:10:53","新北市三芝區埔頭里埔頭15-7號","121.496463333333","25.2599883333333","6502100","三芝區"
"208001","170-UY","2019/11/19 18:10:49","新北市金山區磺港里磺港路28號","121.649416666667","25.22883","6502700","金山區"
"237004","KEA-2597","2019/11/19 18:10:52","新北市三峽區大埔1-3號","121.374743333333","24.8904283333333","6500900","三峽區"
"237007","153-BY","2019/11/19 18:10:41","新北市三峽區中正路二段370巷81號","121.364155","24.9117416666667","6500900","三峽區"
"237009","210-TH","2019/11/19 18:10:58","新北市三峽區復興路367巷1弄33號","121.364605","24.9381633333333","6500900","三峽區"
"237013","252-BX","2019/11/19 18:10:45","新北市三峽區長泰街45號","121.377695","24.93252","6500900","三峽區"
"237012","275-BY","2019/11/19 18:10:59","新北市三峽區民生街1巷5-42號","121.378856666667","24.93542","6500900","三峽區"
"237008","302-VK","2019/11/19 18:10:44","新北市三峽區白雞58-2號","121.383835","24.9105266666667","6500900","三峽區"
"237014","433-BY","2019/11/19 18:10:58","新北市三峽區復興路110巷4弄22號","121.373548333333","24.938175","6500900","三峽區"
"237006","5529-G3","2019/11/19 18:10:51","新北市三峽區溪東路34巷13號","121.40048","24.9346016666667","6500900","三峽區"
"237011","KEA-2596","2019/11/19 18:10:52","新北市三峽區介壽路一段286號","121.379901666667","24.930215","6500900","三峽區"
"237015","649-BX","2019/11/19 18:10:56","新北市三峽區紫新路47號","121.422133333333","24.921825","6500900","三峽區"
"237010","706-TV","2019/11/19 18:10:48","新北市三峽區中園街3號","121.368593333333","24.9274916666667","6500900","三峽區"
"237005","AKY-6261","2019/11/19 18:10:30","新北市三峽區民生街152-1號","121.371966666667","24.9350533333333","6500900","三峽區"
"236042","KED-0685","2019/11/19 18:10:44","新北市土城區中央路一段287號","121.444521666667","24.9843933333333","6501300","土城區"
"233002","762-BX","2019/11/19 18:10:57","新北市烏來區紅河21號","121.53975","24.88398","6502900","烏來區"
"236079","166-UM","2019/11/19 18:10:58","新北市土城區永安街1號","121.434496666667","24.9652983333333","6501300","土城區"
"236030","253-BX","2019/11/19 18:10:53","新北市土城區城林路6巷80號","121.438623333333","24.97964","6501300","土城區"
"236026","269-VK","2019/11/19 18:11:01","新北市土城區承天路67號","121.4395","24.9635533333333","6501300","土城區"
"236014","270-VK","2019/11/19 18:10:46","新北市土城區學府路一段150號","121.45461","24.986875","6501300","土城區"
"236038","271-VK","2019/11/19 18:10:59","新北市土城區明德路一段375-1號","121.454825","24.97817","6501300","土城區"
"236070","KEA-2877","2019/11/19 18:10:52","新北市土城區石門路18號","121.459308333333","24.96786","6501300","土城區"
"252001","KED-0821","2019/11/19 18:10:48","新北市三芝區中興街二段2號","121.498368333333","25.2566366666667","6502100","三芝區"
"236021","401-BY","2019/11/19 18:10:51","新北市土城區中華路二段2號","121.439428333333","24.9795616666667","6501300","土城區"
"236049","752-BX","2019/11/19 18:10:20","新北市土城區金城路二段58號","121.45205","24.9794266666667","6501300","土城區"
"236059","912-UM","2019/11/19 18:10:50","新北市土城區中央路四段187號","121.414846666667","24.9566933333333","6501300","土城區"
"236063","915-UM","2019/11/19 18:10:42","新北市土城區光明街4號","121.441826666667","24.974565","6501300","土城區"
"236055","AAC-216","2019/11/19 18:10:53","新北市土城區中華路二段92號","121.438228333333","24.974735","6501300","土城區"
"242042","AAC-296","2019/11/19 18:10:53","新北市新莊區壽山路31號","121.419951666667","25.0286983333333","6500500","新莊區"
"242061","986-R7","2019/11/19 18:10:54","新北市新莊區新樹路359-1號","121.432936666667","25.0182016666667","6500500","新莊區"
"242005","751-BX","2019/11/19 18:10:53","新北市新莊區自立街96號","121.454936666667","25.04531","6500500","新莊區"
"242029","615-BX","2019/11/19 18:10:47","新北市新莊區中平路202-1號","121.444921666667","25.0488466666667","6500500","新莊區"
"242027","613-BX","2019/11/19 18:11:00","新北市新莊區幸福路559號","121.454406666667","25.0492566666667","6500500","新莊區"
"242058","612-BX","2019/11/19 18:10:56","新北市新莊區中山路三段510-1號","121.412441666667","25.02916","6500500","新莊區"
"242048","566-BX","2019/11/19 18:10:56","新北市新莊區後港二路10號","121.422771666667","25.02406","6500500","新莊區"
"242054","497-BY","2019/11/19 18:10:56","新北市新莊區民安西路319-1號","121.42767","25.0113166666667","6500500","新莊區"
"242013","442-UM","2019/11/19 18:10:43","新北市新莊區中正路400號","121.441881666667","25.0342566666667","6500500","新莊區"
"242002","441-UM","2019/11/19 18:10:44","新北市新莊區新莊路60號","121.457766666667","25.0367633333333","6500500","新莊區"
"242044","415-TV","2019/11/19 18:10:46","新北市新莊區鳳山街56巷59號","121.413158333333","25.027405","6500500","新莊區"
"242051","400-BY","2019/11/19 18:10:51","新北市新莊區民本街25巷15號","121.429065","25.01952","6500500","新莊區"
"242025","362-BY","2019/11/19 18:10:59","新北市新莊區五權一路120號","121.460063333333","25.0682616666667","6500500","新莊區"
"242015","132-UY","2019/11/19 18:10:45","新北市新莊區中和街59巷10弄2號","121.446876666667","25.0471066666667","6500500","新莊區"
"242039","135-UY","2019/11/19 18:11:03","新北市新莊區民安東路176號","121.433076666667","25.0204033333333","6500500","新莊區"
"242056","172-VK","2019/11/19 18:10:50","新北市新莊區泰豐街11巷9號","121.448026666667","25.0312466666667","6500500","新莊區"
"242017","173-VK","2019/11/19 18:10:59","新北市新莊區中港路307號","121.452813333333","25.044675","6500500","新莊區"
"242032","175-VK","2019/11/19 18:10:44","新北市新莊區新泰路277巷9號","121.44531","25.0402433333333","6500500","新莊區"
"242007","346-TH","2019/11/19 18:10:52","新北市新莊區中華路二段62號","121.454125","25.046195","6500500","新莊區"
"242021","347-TH","2019/11/19 18:10:53","新北市新莊區建興街85號","121.449923333333","25.0387333333333","6500500","新莊區"
"242037","348-TH","2019/11/19 18:10:49","新北市新莊區後港一路49巷3弄1號","121.425736666667","25.026805","6500500","新莊區"
"242009","349-TH","2019/11/19 18:10:44","新北市新莊區昌平街41巷3號","121.454393333333","25.0523383333333","6500500","新莊區"
"242034","350-TH","2019/11/19 18:11:02","新北市新莊區景德路237號","121.448741666667","25.0336716666667","6500500","新莊區"
"242019","351-TH","2019/11/19 18:10:59","新北市新莊區公園路148號","121.453123333333","25.0399583333333","6500500","新莊區"
"238015","755-BX","2019/11/19 18:10:42","新北市樹林區啟智街86巷13號","121.418186666667","24.99088","6500700","樹林區"
"238023","601-UM","2019/11/19 18:10:57","新北市樹林區忠信街15號","121.407681666667","25.0149883333333","6500700","樹林區"
"238019","599-UM","2019/11/19 18:10:43","新北市樹林區中華路3號","121.4248","24.9837183333333","6500700","樹林區"
"238018","KEA-2217","2019/11/19 18:10:48","新北市板橋區大觀路三段160巷31弄1號","121.429946666667","24.993855","6500700","樹林區"
"238022","KEA-2213","2019/11/19 18:11:00","新北市樹林區太順街95號","121.416268333333","24.9779583333333","6500700","樹林區"
"238021","KEA-2539","2019/11/19 18:10:44","新北市樹林區柑園街二段175號","121.380455","24.95312","6500700","樹林區"
"238025","303-VK","2019/11/19 18:10:46","新北市樹林區保安街二段185號","121.414685","25.003565","6500700","樹林區"
"238017","283-BY","2019/11/19 18:11:00","新北市樹林區中正路815號","121.409426666667","25.0169483333333","6500700","樹林區"
"238014","282-BY","2019/11/19 18:10:56","新北市樹林區潭興街91巷6號","121.424471666667","24.9987233333333","6500700","樹林區"
"238020","268-VK","2019/11/19 18:10:56","新北市樹林區俊興街286號","121.418656666667","25.0170283333333","6500700","樹林區"
"238026","172-UY","2019/11/19 18:10:49","新北市樹林區佳園路一段35號","121.392955","24.9709733333333","6500700","樹林區"
"238016","169-UY","2019/11/19 18:10:57","新北市樹林區文化街38號","121.418776666667","24.9881133333333","6500700","樹林區"
"239007","AAC-297","2019/11/19 18:10:44","新北市鶯歌區育英街93號","121.34744","24.951425","6500800","鶯歌區"
"239006","891-R6","2019/11/19 18:10:58","新北市鶯歌區鶯桃路381巷2弄21號","121.332781666667","24.964035","6500800","鶯歌區"
"239008","527-UM","2019/11/19 18:10:58","新北市鶯歌區朝陽街61巷15號","121.338723333333","24.978175","6500800","鶯歌區"
"239005","526-UM","2019/11/19 18:10:54","新北市鶯歌區鶯桃路668巷73號","121.329945","24.971795","6500800","鶯歌區"
"239001","417-VK","2019/11/19 18:10:57","新北市鶯歌區中正三路68號","121.338746666667","24.9413833333333","6500800","鶯歌區"
"239003","360-BY","2019/11/19 18:11:00","新北市鶯歌區鶯桃路213-1號","121.336958333333","24.9588816666667","6500800","鶯歌區"
"239002","359-BY","2019/11/19 18:11:02","新北市鶯歌區中山路329巷16弄2號","121.344061666667","24.9564383333333","6500800","鶯歌區"
"239004","193-VK","2019/11/19 18:10:44","新北市鶯歌區尖山路88號","121.348631666667","24.9495083333333","6500800","鶯歌區"
"221008","489-VK","2019/11/19 18:10:52","新北市汐止區明峰街159號","121.629055","25.0702933333333","6501100","汐止區"
"221036","130-UY","2019/11/19 18:10:54","新北市汐止區大同路三段116號","121.672066666667","25.076725","6501100","汐止區"
"221015","131-UY","2019/11/19 18:10:46","新北市汐止區長江街310號","121.666085","25.0814233333333","6501100","汐止區"
"221010","269-BY","2019/11/19 18:10:56","新北市汐止區汐萬路二段275巷1弄1號","121.645806666667","25.0889216666667","6501100","汐止區"
"221012","278-VK","2019/11/19 18:10:55","新北市汐止區長興街二段50巷63號","121.675271666667","25.0809766666667","6501100","汐止區"
"221023","279-VK","2019/11/19 18:10:56","新北市汐止區明峰街190號","121.628133333333","25.069825","6501100","汐止區"
"221032","280-BY","2019/11/19 18:10:43","新北市汐止區橫科路73巷2-1號","121.61936","25.050745","6501100","汐止區"
"221027","281-BY","2019/11/19 18:10:46","新北市汐止區和平街3-1號","121.663421666667","25.070705","6501100","汐止區"
"221029","298-VK","2019/11/19 18:10:53","新北市汐止區樟樹二路134號","121.64002","25.065605","6501100","汐止區"
"221021","299-VK","2019/11/19 18:10:59","新北市汐止區復興路24號","121.655941666667","25.0638016666667","6501100","汐止區"
"221031","353-TW","2019/11/19 18:10:51","新北市汐止區中興路181巷24弄14號","121.629266666667","25.0666716666667","6501100","汐止區"
"221035","622-UM","2019/11/19 18:10:56","新北市汐止區新江北路30巷15號","121.652423333333","25.0695116666667","6501100","汐止區"
"221025","623-UM","2019/11/19 18:10:59","新北市汐止區勤進路1號","121.660466666667","25.0621466666667","6501100","汐止區"
"221038","646-BX","2019/11/19 18:10:52","新北市汐止區水源路一段268號","121.654113333333","25.0587633333333","6501100","汐止區"
"221033","647-BX","2019/11/19 18:11:01","新北市汐止區宜興街20巷21號","121.622355","25.040925","6501100","汐止區"
"221002","707-TV","2019/11/19 18:10:59","新北市汐止區福德一路188-1號","121.634815","25.0653916666667","6501100","汐止區"
"221018","753-BX","2019/11/19 18:10:47","新北市汐止區招商街16號","121.666655","25.0684866666667","6501100","汐止區"
"233001","KEA-2870","2019/11/19 18:10:41","新北市烏來區新烏路五段46號","121.543643333333","24.8769566666667","6502900","烏來區"
"224002","257-TC","2019/11/19 18:11:01","新北市瑞芳區三爪子坑路149巷16號","121.811155","25.1065283333333","6501200","瑞芳區"
"242046","281-VK","2019/11/19 18:10:40","新北市新莊區福營路226號","121.427266666667","25.0293166666667","6500500","新莊區"
"242011","280-VK","2019/11/19 18:10:48","新北市新莊區中榮街24號","121.450248333333","25.0527966666667","6500500","新莊區"
"235061","KEA-2875","2019/11/19 18:10:57","新北市土城區延壽路53號","121.469888333333","24.992145","6500300","中和區"
