"lineid","car","time","location","longitude","latitude","cityid","cityname"
"234046","148-BY","2019/11/19 18:29:11","新北市永和區福和路1號","121.526071666667","25.0096616666667","6500400","永和區"
"234081","298-R6","2019/11/19 18:29:13","新北市永和區環河東路二段98號","121.524125","25.0103683333333","6500400","永和區"
"234086","338-UY","2019/11/19 18:29:14","新北市永和區福和路1號","121.525608333333","25.0094116666667","6500400","永和區"
"234007","KED-0605","2019/11/19 18:29:14","新北市永和區環河西路二段7-11號","121.509196666667","25.0168733333333","6500400","永和區"
"234026","9371-KE","2019/11/19 18:29:13","新北市永和區中正路623號","121.515911666667","25.0097233333333","6500400","永和區"
"234011","9373-KE","2019/11/19 18:29:19","新北市永和區保福路二段158巷1號","121.509115","25.015005","6500400","永和區"
"249005","172-UM","2019/11/19 18:29:16","新北市八里區中華路三段134號","121.392123333333","25.1342366666667","6502300","八里區"
"249001","173-UM","2019/11/19 18:29:26","新北市八里區龍米路一段103號","121.452963333333","25.1251716666667","6502300","八里區"
"249004","303-UY","2019/11/19 18:29:25","新北市八里區忠孝路81號","121.425255","25.1604633333333","6502300","八里區"
"249002","305-UY","2019/11/19 18:29:15","新北市八里區龍形三街17號","121.449141666667","25.131595","6502300","八里區"
"249003","593-UM","2019/11/19 18:15:42","新北市八里區博物館路10-1號","121.415133333333","25.1639633333333","6502300","八里區"
"248014","025-BX","2019/11/19 18:29:20","新北市五股區自強路186號","121.431351666667","25.069385","6501500","五股區"
"248016","026-BX","2019/11/19 18:29:16","新北市五股區凌雲路一段83巷8號","121.450366666667","25.10107","6501500","五股區"
"248008","KED-0815","2019/11/19 18:29:28","新北市五股區四維路185巷52號","121.463105","25.07775","6501500","五股區"
"248020","KED-0813","2019/11/19 18:29:12","新北市五股區孝義路55巷2號","121.453735","25.1121033333333","6501500","五股區"
"248012","247-BX","2019/11/19 18:29:22","新北市五股區御成路145號","121.440978333333","25.0943","6501500","五股區"
"248004","677-BX","2019/11/19 18:29:22","新北市五股區工商路101號","121.437131666667","25.0855033333333","6501500","五股區"
"248002","678-BX","2019/11/19 18:29:21","新北市五股區西雲路116-5號","121.44467","25.0936033333333","6501500","五股區"
"248010","682-TV","2019/11/19 18:29:21","新北市五股區明德路6-5號","121.434045","25.0715316666667","6501500","五股區"
"234077","969-R7","2019/11/19 18:29:26","新北市永和區福和路1號","121.526053333333","25.009615","6500400","永和區"
"232011","375-UM","2019/11/19 18:29:27","新北市坪林區坪雙路一段41號","121.711693333333","24.9424466666667","6502000","坪林區"
"244007","080-UY","2019/11/19 18:29:15","新北市林口區後湖23-1號","121.387693333333","25.09898","6501700","林口區"
"244019","402-UM","2019/11/19 18:29:19","新北市林口區忠孝路646巷7號","121.379113333333","25.0676866666667","6501700","林口區"
"244013","KEA-2802","2019/11/19 18:29:14","新北市林口區中正路514巷31號","121.382186666667","25.07805","6501700","林口區"
"244023","483-VK","2019/11/19 18:29:25","新北市林口區仁愛路二段108號","121.383356666667","25.0752183333333","6501700","林口區"
"244017","485-VK","2019/11/19 18:29:28","新北市林口區八德路78號","121.365533333333","25.0655733333333","6501700","林口區"
"244009","656-BX","2019/11/19 18:29:22","新北市林口區寶林路9號","121.386498333333","25.08377","6501700","林口區"
"244011","701-TV","2019/11/19 18:29:21","新北市林口區興林路15號","121.389893333333","25.0769816666667","6501700","林口區"
"244025","837-TS","2019/11/19 18:29:23","新北市林口區南勢六街81巷16號","121.354363333333","25.0719983333333","6501700","林口區"
"222003","436-BY","2019/11/19 18:29:29","新北市深坑區翠谷街42號","121.627408333333","25.009175","6501800","深坑區"
"222002","659-BX","2019/11/19 18:29:25","新北市深坑區雲鄉路103號","121.623176666667","24.998425","6501800","深坑區"
"231061","002-UM","2019/11/19 18:29:16","新北市新店區安華路28-1號","121.519766666667","24.9608533333333","6500600","新店區"
"231055","0291-UT","2019/11/19 18:29:11","新北市新店區中正路154巷12號","121.542061666667","24.9722366666667","6500600","新店區"
"231044","046-UY","2019/11/19 18:29:12","新北市新店區安華路28-1號","121.519171666667","24.96083","6500600","新店區"
"231060","106-UY","2019/11/19 18:29:29","新北市新店區安華路28-1號","121.519553333333","24.9608183333333","6500600","新店區"
"231051","107-UY","2019/11/19 18:29:28","新北市新店區安一路一段1-1號","121.519666666667","24.9611066666667","6500600","新店區"
"231065","110-UY","2019/11/19 18:29:14","新北市新店區安一路一段1-1號","121.519366666667","24.961105","6500600","新店區"
"231054","260-TV","2019/11/19 18:29:17","新北市新店區安一路一段1-1號","121.519268333333","24.9613333333333","6500600","新店區"
"231042","268-BY","2019/11/19 18:29:31","新北市新店區安一路一段1-1號","121.519745","24.9613283333333","6500600","新店區"
"231064","278-BY","2019/11/19 18:29:23","新北市新店區安一路一段1-1號","121.519655","24.9611166666667","6500600","新店區"
"231050","AAD-862","2019/11/19 18:29:24","新北市新店區安華路28-1號","121.519895","24.9608016666667","6500600","新店區"
"231045","355-BY","2019/11/19 18:29:30","新北市新店區安一路一段1-1號","121.519126666667","24.96098","6500600","新店區"
"231058","3713-VJ","2019/11/19 18:29:26","新北市新店區環河路19巷20號","121.53752","24.9603666666667","6500600","新店區"
"231056","4715-K9","2019/11/19 18:29:12","新北市新店區二十張路129巷5弄3號","121.536623333333","24.9787783333333","6500600","新店區"
"231067","4772-VM","2019/11/19 18:29:21","新北市新店區安華路1-1號","121.51901","24.960595","6500600","新店區"
"231053","513-UM","2019/11/19 18:29:22","新北市新店區北宜路一段90號","121.538778333333","24.95554","6500600","新店區"
"231040","617-UM","2019/11/19 18:29:29","新北市新店區安華路28-1號","121.5194","24.96089","6500600","新店區"
"231063","641-BX","2019/11/19 18:29:22","新北市新店區安華路28-1號","121.519533333333","24.960545","6500600","新店區"
"231057","720-UM","2019/11/19 18:29:16","新北市新店區安一路一段1-1號","121.519278333333","24.9611416666667","6500600","新店區"
"231043","899-TW","2019/11/19 18:29:10","新北市新店區安華路28-1號","121.519208333333","24.96086","6500600","新店區"
"231066","AKT-0513","2019/11/19 18:29:27","新北市新店區安華路28-1號","121.519523333333","24.9606433333333","6500600","新店區"
"235066","003-UY","2019/11/19 18:29:26","新北市中和區中山路二段121號","121.502721666667","25.0036033333333","6500300","中和區"
"235064","005-UY","2019/11/19 18:29:22","新北市中和區連城路109巷15號","121.496735","24.9990183333333","6500300","中和區"
"235063","006-UY","2019/11/19 18:29:30","新北市中和區連城路403號","121.486163333333","24.9962366666667","6500300","中和區"
"235056","096-UM","2019/11/19 18:29:18","新北市中和區員山路611巷1號","121.477851666667","25.011155","6500300","中和區"
"235039","097-UM","2019/11/19 18:29:23","新北市中和區安樂路189-1號","121.51475","24.9982416666667","6500300","中和區"
"235065","098-UM","2019/11/19 18:29:16","新北市中和區中山路二段64巷14弄1號","121.503401666667","25.0055583333333","6500300","中和區"
"235040","150-BY","2019/11/19 18:29:32","新北市中和區安平路55號","121.509451666667","24.9953733333333","6500300","中和區"
"235058","151-BY","2019/11/19 18:29:28","新北市中和區圓通路459號","121.484385","24.9860483333333","6500300","中和區"
"235055","183-VK","2019/11/19 18:29:29","新北市中和區民生街72號","121.468536666667","25.004845","6500300","中和區"
"235031","255-BX","2019/11/19 18:29:28","新北市中和區新生街41號","121.483313333333","25.0031266666667","6500300","中和區"
"235072","301-VK","2019/11/19 18:29:27","新北市中和區連城路8號","121.499111666667","25.002255","6500300","中和區"
"235043","352-BY","2019/11/19 18:29:22","新北市中和區景平路237號","121.510046666667","24.9926","6500300","中和區"
"235042","KEA-2878","2019/11/19 18:29:23","新北市中和區秀朗路三段175巷4號","121.524696666667","24.99134","6500300","中和區"
"235050","4979-A6","2019/11/19 18:29:30","新北市中和區景新街362巷5號","121.51201","24.989995","6500300","中和區"
"235069","4980-A6","2019/11/19 18:29:22","新北市中和區連城路103號","121.49648","24.9997066666667","6500300","中和區"
"235070","558-UM","2019/11/19 18:28:50","新北市中和區南華路36號","121.50358","24.9963816666667","6500300","中和區"
"235045","565-BX","2019/11/19 18:29:21","新北市中和區南山路236巷23弄2號","121.505516666667","24.9885083333333","6500300","中和區"
"235060","KED-0823","2019/11/19 18:29:31","新北市中和區中山路三段36號","121.478893333333","25.005915","6500300","中和區"
"235054","640-BX","2019/11/19 18:29:20","新北市中和區莒光路118號","121.472486666667","25.00193","6500300","中和區"
"235047","732-UM","2019/11/19 18:29:28","新北市中和區南山路541號","121.50793","24.9868366666667","6500300","中和區"
"235046","733-UM","2019/11/19 18:29:28","新北市中和區興南路一段77號","121.510006666667","24.9890966666667","6500300","中和區"
"235062","800-TS","2019/11/19 18:29:25","新北市中和區中山路二段312巷41號","121.495153333333","25.0040966666667","6500300","中和區"
"235057","801-TS","2019/11/19 18:29:15","新北市中和區員山路327巷18號","121.480788333333","25.0013716666667","6500300","中和區"
"235041","802-TS","2019/11/19 18:29:28","新北市中和區中和路260-1號","121.50812","24.9993283333333","6500300","中和區"
"235052","805-TS","2019/11/19 18:29:28","新北市中和區興南路二段96號","121.50514","24.9841416666667","6500300","中和區"
"235048","896-TW","2019/11/19 18:29:26","新北市中和區中正路81號","121.500726666667","24.99341","6500300","中和區"
"235038","911-UM","2019/11/19 18:29:15","新北市中和區立人街45號","121.520633333333","24.9941316666667","6500300","中和區"
"235051","157-BY","2019/11/19 18:29:20","新北市中和區興南路二段142巷25弄22號","121.502688333333","24.98424","6500300","中和區"
"235037","AAC-213","2019/11/19 18:29:18","新北市中和區景德街75號","121.516611666667","24.991445","6500300","中和區"
"235059","AAC-215","2019/11/19 18:29:15","新北市中和區員山路36巷16-3號","121.48496","24.9913183333333","6500300","中和區"
"220065","072-UY","2019/11/19 18:29:33","新北市板橋區南雅南路二段11-4號","121.454108333333","25.0024816666667","6500100","板橋區"
"220069","AAD-861","2019/11/19 18:29:17","新北市板橋區南雅南路二段146號","121.451601666667","24.9961616666667","6500100","板橋區"
"226004","312-R5","2019/11/19 18:29:29","新北市平溪區石底里石底街92-1號","121.733773333333","25.0232516666667","6502400","平溪區"
"235049","251-BX","2019/11/19 18:29:26","新北市中和區景安路120巷3號","121.505248333333","24.99479","6500300","中和區"
"228001","097-TW","2019/11/19 18:29:13","新北市貢寮區仁理村仁義街6號","121.923713333333","25.052085","6502600","貢寮區"
"228002","663-BX","2019/11/19 18:29:32","新北市貢寮區福連里香蘭街11號","121.979845","25.0230633333333","6502600","貢寮區"
"228003","828-UM","2019/11/19 18:29:19","新北市貢寮區和美里和美街39號","121.912351666667","25.0893466666667","6502600","貢寮區"
"224010","AGQ-8101","2019/11/19 18:29:27","新北市瑞芳區烏勢巷108號","121.846128333333","25.1089033333333","6501200","瑞芳區"
"224006","676-BX","2019/11/19 18:29:22","新北市瑞芳區明燈路二段34-4號","121.81063","25.1078433333333","6501200","瑞芳區"
"224007","285-BY","2019/11/19 18:29:19","新北市瑞芳區大埔路有勝二村18號","121.763915","25.0999983333333","6501200","瑞芳區"
"224009","275-VK","2019/11/19 18:29:25","新北市瑞芳區五號路215號","121.856041666667","25.1103283333333","6501200","瑞芳區"
"224008","273-VK","2019/11/19 18:29:24","新北市瑞芳區岳王路1巷41-1號","121.805681666667","25.11048","6501200","瑞芳區"
"224005","271-BY","2019/11/19 18:29:14","新北市瑞芳區瑞濱路93號","121.820545","25.1207116666667","6501200","瑞芳區"
"227001","642-TC","2019/11/19 18:29:21","新北市雙溪區牡丹里牡丹151號","121.851503333333","25.058905","6502500","雙溪區"
"227002","400-TW","2019/11/19 18:29:12","新北市雙溪區共和里中山路59號","121.868971666667","25.0311766666667","6502500","雙溪區"
"253005","032-BX","2019/11/19 18:29:28","新北市石門區老崩山11-3號","121.552291666667","25.29082","6502200","石門區"
"253006","295-VK","2019/11/19 18:29:16","新北市石門區公地47-1號","121.545536666667","25.2901433333333","6502200","石門區"
"222001","KEA-2212","2019/11/19 18:29:18","新北市深坑區北深路一段185號","121.63216","25.01057","6501800","深坑區"
"208002","KEA-2872","2019/11/19 18:29:18","新北市金山區磺清路135號","121.639506666667","25.2278266666667","6502700","金山區"
"208003","665-BX","2019/11/19 18:29:18","新北市金山區中山路245號","121.637255","25.22196","6502700","金山區"
"251004","009-UM","2019/11/19 18:29:13","新北市淡水區民族路31巷2號","121.46244","25.1364033333333","6501000","淡水區"
"251005","010-UM","2019/11/19 18:29:33","新北市淡水區中正東路37號","121.446143333333","25.1682833333333","6501000","淡水區"
"251001","011-UM","2019/11/19 18:29:24","新北市淡水區自強路120號","121.464178333333","25.13291","6501000","淡水區"
"251002","012-UM","2019/11/19 18:29:29","新北市淡水區竿蓁二街65號","121.454896666667","25.1633516666667","6501000","淡水區"
"251015","KEA-2871","2019/11/19 18:29:24","新北市淡水區興福寮88巷216號","121.485971666667","25.166595","6501000","淡水區"
"251016","180-VK","2019/11/19 18:29:25","新北市淡水區下圭柔山113號","121.445748333333","25.2110966666667","6501000","淡水區"
"251008","181-VK","2019/11/19 18:29:30","新北市淡水區水源街二段346巷1弄1號","121.464391666667","25.1754816666667","6501000","淡水區"
"251013","182-VK","2019/11/19 18:29:18","新北市淡水區椿子林19-3號","121.480273333333","25.2031716666667","6501000","淡水區"
"251010","413-VK","2019/11/19 18:29:26","新北市淡水區沙崙路181巷2-2號","121.424176666667","25.1841833333333","6501000","淡水區"
"251012","441-VK","2019/11/19 18:29:14","新北市淡水區北新路一段157號","121.458688333333","25.1822966666667","6501000","淡水區"
"251006","561-UM","2019/11/19 18:29:25","新北市淡水區新生街51巷26號","121.440671666667","25.1757033333333","6501000","淡水區"
"251014","577-R6","2019/11/19 18:29:23","新北市淡水區南平25號","121.494895","25.2144933333333","6501000","淡水區"
"251011","650-BX","2019/11/19 18:29:28","新北市淡水區坪頂路52巷10號","121.457791666667","25.1624833333333","6501000","淡水區"
"251003","673-BX","2019/11/19 18:29:33","新北市淡水區北新路169巷16號","121.449751666667","25.1801433333333","6501000","淡水區"
"207003","681-TV","2019/11/19 18:29:22","新北市萬里區野柳里港東路6-1號","121.686556666667","25.2031816666667","6502800","萬里區"
"207004","291-VK","2019/11/19 18:29:14","新北市萬里區中幅里中福路53-1號","121.68153","25.1726383333333","6502800","萬里區"
"252002","178-VK","2019/11/19 18:29:28","新北市三芝區中山路二段40號","121.503031666667","25.2550883333333","6502100","三芝區"
"252003","249-BX","2019/11/19 18:29:14","新北市三芝區後厝里北勢子42-1號","121.471626666667","25.2523516666667","6502100","三芝區"
"208001","170-UY","2019/11/19 18:29:09","新北市金山區文化二路4號","121.636836666667","25.2245883333333","6502700","金山區"
"237004","KEA-2597","2019/11/19 18:29:32","新北市三峽區五寮12號","121.375676666667","24.87113","6500900","三峽區"
"237007","153-BY","2019/11/19 18:29:21","新北市三峽區中正路三段170巷34號","121.352621666667","24.9046183333333","6500900","三峽區"
"237009","210-TH","2019/11/19 18:29:17","新北市三峽區大同路257號","121.366601666667","24.9259383333333","6500900","三峽區"
"237013","252-BX","2019/11/19 18:29:25","新北市三峽區光明路69巷25號","121.376538333333","24.92915","6500900","三峽區"
"237012","275-BY","2019/11/19 18:29:19","新北市三峽區三樹路214巷11號","121.379916666667","24.9417133333333","6500900","三峽區"
"237008","302-VK","2019/11/19 18:29:24","新北市三峽區白雞120號","121.398443333333","24.9054733333333","6500900","三峽區"
"237014","433-BY","2019/11/19 18:29:18","新北市三峽區和平街61號","121.370168333333","24.9365116666667","6500900","三峽區"
"237006","5529-G3","2019/11/19 18:29:27","新北市三峽區溪東路473巷76號","121.415538333333","24.929375","6500900","三峽區"
"237011","KEA-2596","2019/11/19 18:29:12","新北市三峽區溪東路218巷24弄2號","121.406843333333","24.930425","6500900","三峽區"
"237015","649-BX","2019/11/19 18:29:16","新北市三峽區竹崙路145號","121.434695","24.9096683333333","6500900","三峽區"
"237010","706-TV","2019/11/19 18:29:28","新北市三峽區復興路489號","121.361056666667","24.9383733333333","6500900","三峽區"
"237005","AKY-6261","2019/11/19 18:29:30","新北市三峽區秀川街69號","121.370313333333","24.9332466666667","6500900","三峽區"
"236042","KED-0685","2019/11/19 18:29:24","新北市土城區學成路91巷7號","121.450356666667","24.9876216666667","6501300","土城區"
"236079","166-UM","2019/11/19 18:29:14","新北市土城區大暖路7號","121.422558333333","24.96131","6501300","土城區"
"236030","253-BX","2019/11/19 18:29:33","新北市土城區水源街81巷16號","121.439386666667","24.9760133333333","6501300","土城區"
"236026","269-VK","2019/11/19 18:29:21","新北市土城區南天母路135巷1-1號","121.447816666667","24.9543383333333","6501300","土城區"
"236014","270-VK","2019/11/19 18:29:26","新北市土城區青雲路39巷7號","121.46029","24.9873683333333","6501300","土城區"
"236038","271-VK","2019/11/19 18:29:19","新北市土城區明德路一段323號","121.459135","24.9770566666667","6501300","土城區"
"236070","KEA-2877","2019/11/19 18:29:31","新北市土城區永豐路255巷27弄43號","121.476965","24.9736266666667","6501300","土城區"
"252001","KED-0821","2019/11/19 18:29:28","新北市三芝區中興街二段16號","121.498671666667","25.25612","6502100","三芝區"
"236021","401-BY","2019/11/19 18:29:31","新北市土城區永豐路202巷7號","121.466275","24.9833033333333","6501300","土城區"
"236049","752-BX","2019/11/19 18:29:20","新北市土城區青雲路603號","121.459496666667","24.969805","6501300","土城區"
"236059","912-UM","2019/11/19 18:29:10","新北市土城區中央路四段131號","121.416106666667","24.9574483333333","6501300","土城區"
"236063","915-UM","2019/11/19 18:29:22","新北市土城區延壽路53號","121.469896666667","24.9921316666667","6501300","土城區"
"236055","AAC-216","2019/11/19 18:29:13","新北市土城區福祥街101巷1號","121.440988333333","24.9817483333333","6501300","土城區"
"242042","AAC-296","2019/11/19 18:29:13","新北市新莊區天祥街71巷21號","121.415608333333","25.0286183333333","6500500","新莊區"
"242061","986-R7","2019/11/19 18:29:14","新北市新莊區新樹路69-25號","121.438591666667","25.029725","6500500","新莊區"
"242058","612-BX","2019/11/19 18:29:16","新北市新莊區中正路891-2號","121.413538333333","25.0227133333333","6500500","新莊區"
"242054","497-BY","2019/11/19 18:29:16","新北市新莊區大安路10巷1號","121.43119","25.0062183333333","6500500","新莊區"
"242044","415-TV","2019/11/19 18:29:25","新北市新莊區龍安路12號","121.41442","25.022785","6500500","新莊區"
"242025","362-BY","2019/11/19 18:29:19","新北市新莊區五工路70-1號","121.457773333333","25.0635766666667","6500500","新莊區"
"242056","172-VK","2019/11/19 18:29:30","新北市新莊區瓊泰路77巷16號","121.44249","25.0290133333333","6500500","新莊區"
"242021","347-TH","2019/11/19 18:29:21","新北市新莊區中正路190號","121.449836666667","25.0355316666667","6500500","新莊區"
"242009","349-TH","2019/11/19 18:29:23","新北市新莊區中華路二段41號","121.45341","25.0466716666667","6500500","新莊區"
"238023","601-UM","2019/11/19 18:29:17","新北市樹林區三福街114號","121.406455","25.0162533333333","6500700","樹林區"
"238019","599-UM","2019/11/19 18:29:23","新北市樹林區國凱街108號","121.42221","24.9797466666667","6500700","樹林區"
"238024","5061-A6","2019/11/19 18:29:21","新北市樹林區育英街2巷52號","121.423566666667","24.990535","6500700","樹林區"
"238018","KEA-2217","2019/11/19 18:29:28","新北市樹林區樹新路89號","121.427868333333","24.9953916666667","6500700","樹林區"
"238025","303-VK","2019/11/19 18:29:26","新北市樹林區保安二街157號","121.422245","24.99532","6500700","樹林區"
"238017","283-BY","2019/11/19 18:29:11","新北市樹林區光榮街69號","121.412023333333","25.003165","6500700","樹林區"
"238014","282-BY","2019/11/19 18:29:15","新北市樹林區大安路111巷25號","121.423186666667","24.99758","6500700","樹林區"
"238020","268-VK","2019/11/19 18:29:16","新北市樹林區中正路592號","121.410756666667","25.015345","6500700","樹林區"
"238026","172-UY","2019/11/19 18:29:21","新北市樹林區佳園路一段75巷40號","121.395998333333","24.970465","6500700","樹林區"
"238016","169-UY","2019/11/19 18:29:17","新北市樹林區中山路一段412號","121.417396666667","24.98516","6500700","樹林區"
"239007","AAC-297","2019/11/19 18:29:23","新北市鶯歌區建國路149號","121.350658333333","24.9536133333333","6500800","鶯歌區"
"239006","891-R6","2019/11/19 18:29:18","新北市鶯歌區鶯桃路268巷18號","121.336001666667","24.9603633333333","6500800","鶯歌區"
"239008","527-UM","2019/11/19 18:29:18","新北市鶯歌區朝陽街1號","121.336271666667","24.9765716666667","6500800","鶯歌區"
"239005","526-UM","2019/11/19 18:29:14","新北市鶯歌區鶯桃路668巷73號","121.329948333333","24.9717916666667","6500800","鶯歌區"
"239001","417-VK","2019/11/19 18:29:17","新北市鶯歌區國中街183號","121.339145","24.9396216666667","6500800","鶯歌區"
"239003","360-BY","2019/11/19 18:29:20","新北市鶯歌區福安街58號","121.335578333333","24.9652233333333","6500800","鶯歌區"
"239002","359-BY","2019/11/19 18:29:21","新北市鶯歌區中山路134號","121.350038333333","24.9570066666667","6500800","鶯歌區"
"239004","193-VK","2019/11/19 18:29:25","新北市鶯歌區尖山路168巷7號","121.344948333333","24.9483366666667","6500800","鶯歌區"
"221036","130-UY","2019/11/19 18:29:14","新北市汐止區大同路三段143號","121.669378333333","25.07771","6501100","汐止區"
"221015","131-UY","2019/11/19 18:29:26","新北市汐止區長江街359號","121.66759","25.0824816666667","6501100","汐止區"
"221010","269-BY","2019/11/19 18:29:15","新北市汐止區汐萬路二段308號","121.643315","25.0908866666667","6501100","汐止區"
"221012","278-VK","2019/11/19 18:29:24","新北市汐止區保長路33號","121.672575","25.0794933333333","6501100","汐止區"
"221023","279-VK","2019/11/19 18:29:27","新北市汐止區康寧街474巷7-2號","121.63224","25.0679283333333","6501100","汐止區"
"221032","280-BY","2019/11/19 18:29:23","新北市汐止區民權街二段109巷4弄1號","121.619023333333","25.0467983333333","6501100","汐止區"
"221027","281-BY","2019/11/19 18:29:26","新北市汐止區和平街75號","121.6614","25.070645","6501100","汐止區"
"221029","298-VK","2019/11/19 18:29:13","新北市汐止區樟樹二路330巷72號","121.643013333333","25.069975","6501100","汐止區"
"221021","299-VK","2019/11/19 18:29:30","新北市汐止區連興街122號","121.653701666667","25.0622333333333","6501100","汐止區"
"221031","353-TW","2019/11/19 18:29:31","新北市汐止區大同路一段160號","121.63385","25.0566966666667","6501100","汐止區"
"221035","622-UM","2019/11/19 18:29:16","新北市汐止區大同路二段187巷8弄2號","121.652515","25.0655533333333","6501100","汐止區"
"221025","623-UM","2019/11/19 18:29:18","新北市汐止區仁愛路119巷2號","121.66262","25.0637183333333","6501100","汐止區"
"221038","646-BX","2019/11/19 18:29:12","新北市汐止區忠孝東路200-5號","121.661655","25.0661733333333","6501100","汐止區"
"221033","647-BX","2019/11/19 18:29:21","新北市汐止區宜興街15號","121.621483333333","25.0417066666667","6501100","汐止區"
"221002","707-TV","2019/11/19 18:29:19","新北市汐止區福德一路149號","121.636585","25.0667166666667","6501100","汐止區"
"221018","753-BX","2019/11/19 18:29:07","新北市汐止區茄苳路136號","121.6687","25.070025","6501100","汐止區"
"220079","145-BY","2019/11/19 18:29:22","新北市板橋區華東街1-10號","121.448338333333","24.9950583333333","6500100","板橋區"
"233001","KEA-2870","2019/11/19 18:29:21","新北市新店區新烏路一段58-2號","121.546165","24.9457516666667","6502900","烏來區"
"220080","200-UY","2019/11/19 18:29:24","新北市板橋區華東街1-9號","121.448156666667","24.9948716666667","6500100","板橋區"
"220082","610-BX","2019/11/19 18:29:12","新北市板橋區華東街1-9號","121.44823","24.9949266666667","6500100","板橋區"
"224002","257-TC","2019/11/19 18:29:26","新北市瑞芳區國中新村34號","121.816473333333","25.1078983333333","6501200","瑞芳區"
"220056","276-BY","2019/11/19 18:29:20","新北市板橋區南雅南路二段144巷19號","121.451045","24.9958266666667","6500100","板橋區"
"220094","283-UM","2019/11/19 18:29:21","新北市板橋區民生路二段161巷1號","121.470171666667","25.01995","6500100","板橋區"
"220071","283-VK","2019/11/19 18:29:21","新北市板橋區華東街1-9號","121.448096666667","24.9948766666667","6500100","板橋區"
"220081","287-VK","2019/11/19 18:29:23","新北市板橋區華東街1-10號","121.448258333333","24.9950033333333","6500100","板橋區"
"220084","296-UM","2019/11/19 18:29:21","新北市板橋區華東街1-9號","121.448135","24.9949733333333","6500100","板橋區"
"242046","281-VK","2019/11/19 18:29:21","新北市新莊區中正路803巷5號","121.421721666667","25.0280566666667","6500500","新莊區"
"242011","280-VK","2019/11/19 18:29:28","新北市新莊區中原路355號","121.444596666667","25.0543483333333","6500500","新莊區"
"220035","560-BX","2019/11/19 18:29:20","新北市板橋區南雅南路二段144巷19號","121.45094","24.9957766666667","6500100","板橋區"
"220054","741-BX","2019/11/19 18:29:23","新北市板橋區華東街1-9號","121.448096666667","24.9949933333333","6500100","板橋區"
"220055","827-TW","2019/11/19 18:29:14","新北市板橋區四川路二段140巷20號","121.448875","24.9934983333333","6500100","板橋區"
"220057","833-TW","2019/11/19 18:29:16","新北市板橋區華東街1-9號","121.44823","24.99493","6500100","板橋區"
"220074","895-R6","2019/11/19 18:29:24","新北市板橋區華東街1-10號","121.448266666667","24.99495","6500100","板橋區"
"220073","985-R7","2019/11/19 18:29:23","新北市板橋區四川路二段140巷20號","121.449253333333","24.9933716666667","6500100","板橋區"
"220064","AAC-253","2019/11/19 18:29:22","新北市板橋區南雅南路二段4巷24號","121.453453333333","25.0036566666667","6500100","板橋區"
"235068","KEA-2873","2019/11/19 18:29:28","新北市中和區圓通路284號","121.49151","24.9905816666667","6500300","中和區"
"235061","KEA-2875","2019/11/19 18:29:27","新北市中和區民享街99號","121.474953333333","24.9999216666667","6500300","中和區"
