"lineid","car","time","location","longitude","latitude","cityid","cityname"
"234046","148-BY","2019/11/19 18:59:31","新北市永和區永元路52巷52號","121.524521666667","25.0007183333333","6500400","永和區"
"234081","298-R6","2019/11/19 18:59:23","新北市永和區永貞路39巷13號","121.522453333333","25.0064066666667","6500400","永和區"
"234038","336-UY","2019/11/19 18:59:33","新北市永和區成功路二段207號","121.526645","24.9958983333333","6500400","永和區"
"234064","337-UY","2019/11/19 18:59:29","新北市永和區秀朗路一段146號","121.51827","25.0033716666667","6500400","永和區"
"234086","338-UY","2019/11/19 18:59:14","新北市永和區永利路23號","121.517901666667","25.0060283333333","6500400","永和區"
"234070","552-UM","2019/11/19 18:59:18","新北市永和區中興街52巷1弄36號","121.51766","25.01141","6500400","永和區"
"234017","745-BX","2019/11/19 18:59:22","新北市永和區永和路二段297號","121.516098333333","25.0160216666667","6500400","永和區"
"234030","746-BX","2019/11/19 18:59:24","新北市永和區秀朗路二段258號","121.526138333333","24.99859","6500400","永和區"
"234054","KEA-2590","2019/11/19 18:59:22","新北市永和區竹林路64號","121.518263333333","25.0134633333333","6500400","永和區"
"234007","KED-0605","2019/11/19 18:59:14","新北市永和區永和路二段59號","121.51468","25.010965","6500400","永和區"
"234013","KEA-2591","2019/11/19 18:59:27","新北市永和區信義路19號","121.514058333333","25.01184","6500400","永和區"
"234061","AAD-866","2019/11/19 18:59:22","新北市永和區福和路307號","121.516233333333","25.0071216666667","6500400","永和區"
"234042","862-TW","2019/11/19 18:59:26","新北市永和區永貞路308號","121.511885","25.0049083333333","6500400","永和區"
"234050","863-TW","2019/11/19 18:59:18","新北市永和區文化路194號","121.51075","25.0162066666667","6500400","永和區"
"234011","9373-KE","2019/11/19 18:59:19","新北市永和區仁愛路107號","121.512333333333","25.0128666666667","6500400","永和區"
"249005","172-UM","2019/11/19 18:59:16","新北市八里區長道坑2號","121.393541666667","25.1252716666667","6502300","八里區"
"249001","173-UM","2019/11/19 18:59:26","新北市八里區龍米路二段208號","121.433365","25.158475","6502300","八里區"
"249003","593-UM","2019/11/19 18:31:09","新北市八里區博物館路10-1號","121.415108333333","25.1639583333333","6502300","八里區"
"248016","026-BX","2019/11/19 18:59:16","新北市五股區成泰路三段559巷14弄2號","121.451335","25.1023916666667","6501500","五股區"
"248006","077-UY","2019/11/19 18:59:31","新北市五股區四維路173號","121.467923333333","25.0750683333333","6501500","五股區"
"248008","KED-0815","2019/11/19 18:59:28","新北市五股區中興路一段118巷6弄16號","121.466355","25.0745533333333","6501500","五股區"
"248020","KED-0813","2019/11/19 18:59:32","新北市五股區凌雲路三段59-2號","121.42517","25.1250333333333","6501500","五股區"
"248004","677-BX","2019/11/19 18:59:22","新北市五股區民義路二段54-3號","121.407613333333","25.1063633333333","6501500","五股區"
"248002","678-BX","2019/11/19 18:59:21","新北市五股區凌雲路一段161號","121.448978333333","25.1026","6501500","五股區"
"248010","682-TV","2019/11/19 18:59:21","新北市五股區水碓三路39號","121.43024","25.07131","6501500","五股區"
"234023","9380-KE","2019/11/19 18:59:28","新北市永和區竹林路75巷33弄3號","121.520536666667","25.01429","6500400","永和區"
"234077","969-R7","2019/11/19 18:59:26","新北市永和區智光街22號","121.51796","24.9992516666667","6500400","永和區"
"234074","AAC-211","2019/11/19 18:59:26","新北市永和區福和路1號","121.52616","25.0096783333333","6500400","永和區"
"234067","AAC-212","2019/11/19 18:59:19","新北市永和區自由街62號","121.513705","25.00573","6500400","永和區"
"234003","AAC-295","2019/11/19 18:59:28","新北市永和區和平街32號","121.5132","25.0099633333333","6500400","永和區"
"232011","375-UM","2019/11/19 18:59:27","新北市坪林區坪林街16-1號","121.712781666667","24.93588","6502000","坪林區"
"244019","402-UM","2019/11/19 18:59:19","新北市林口區麗園一街4巷1號","121.376525","25.0711866666667","6501700","林口區"
"244013","KEA-2802","2019/11/19 18:59:23","新北市林口區文化一路一段126號","121.375633333333","25.0722666666667","6501700","林口區"
"244023","483-VK","2019/11/19 18:59:25","新北市林口區文化三路二段211巷85號","121.375096666667","25.0840466666667","6501700","林口區"
"244017","485-VK","2019/11/19 18:59:28","新北市林口區文化二路一段120巷1-1號","121.368066666667","25.0706066666667","6501700","林口區"
"244011","701-TV","2019/11/19 18:59:21","新北市林口區竹林路60號","121.387528333333","25.078205","6501700","林口區"
"244025","837-TS","2019/11/19 18:59:23","新北市林口區南勢街192巷13號","121.361433333333","25.07503","6501700","林口區"
"243012","AAD-798","2019/11/19 18:59:26","新北市泰山區福興三街13號","121.434458333333","25.0577766666667","6501600","泰山區"
"243010","297-R6","2019/11/19 18:59:26","新北市泰山區辭修路22號","121.4291","25.0582033333333","6501600","泰山區"
"243014","KEA-2801","2019/11/19 18:59:29","新北市泰山區泰林路二段599巷1-1號","121.42134","25.063355","6501600","泰山區"
"243016","421-VK","2019/11/19 18:59:15","新北市泰山區明志路二段152-1號","121.427571666667","25.050755","6501600","泰山區"
"243009","KEA-2215","2019/11/19 18:59:16","新北市泰山區泰林路二段362號","121.428681666667","25.0636133333333","6501600","泰山區"
"243011","KEA-2216","2019/11/19 18:59:26","新北市泰山區明志路230號","121.427035","25.0481983333333","6501600","泰山區"
"243015","680-BX","2019/11/19 18:59:14","新北市泰山區美寧街50號","121.430541666667","25.0643916666667","6501600","泰山區"
"222003","436-BY","2019/11/19 18:59:29","新北市深坑區深南路88巷1號","121.62141","25.0108033333333","6501800","深坑區"
"222002","659-BX","2019/11/19 18:59:25","新北市深坑區文山路一段31巷2號","121.629838333333","25.0033766666667","6501800","深坑區"
"231061","002-UM","2019/11/19 18:59:16","新北市新店區安華路30巷1號","121.519425","24.9597166666667","6500600","新店區"
"231055","0291-UT","2019/11/19 18:59:11","新北市新店區新生街13巷26號","121.538925","24.9664883333333","6500600","新店區"
"231044","046-UY","2019/11/19 18:59:13","新北市新店區寶中路72號","121.547871666667","24.9805833333333","6500600","新店區"
"231060","106-UY","2019/11/19 18:59:09","新北市新店區安華路30巷3號","121.518721666667","24.95835","6500600","新店區"
"231051","107-UY","2019/11/19 18:59:28","新北市新店區中央路13號","121.533303333333","24.9784616666667","6500600","新店區"
"231049","108-UY","2019/11/19 18:59:28","新北市新店區中正路454-5號","121.53454","24.9789866666667","6500600","新店區"
"231065","110-UY","2019/11/19 18:59:14","新北市新店區安祥路147巷84號","121.475585","24.9554283333333","6500600","新店區"
"231062","256-BX","2019/11/19 18:57:38","新北市新店區安華路30巷12-1號","121.518398333333","24.958015","6500600","新店區"
"231054","260-TV","2019/11/19 18:59:16","新北市新店區光明街61號","121.53858","24.960415","6500600","新店區"
"231042","268-BY","2019/11/19 18:59:11","新北市新店區中興路一段298號","121.546178333333","24.9694883333333","6500600","新店區"
"231064","278-BY","2019/11/19 18:59:23","新北市新店區安康路一段266巷4號","121.519818333333","24.9640266666667","6500600","新店區"
"231050","AAD-862","2019/11/19 18:59:24","新北市新店區新烏路一段11巷7號","121.547288333333","24.95125","6500600","新店區"
"231045","355-BY","2019/11/19 18:59:30","新北市新店區安康路一段83-1號","121.529585","24.9613266666667","6500600","新店區"
"231058","3713-VJ","2019/11/19 18:59:26","新北市新店區中興路一段206號","121.543688333333","24.9654983333333","6500600","新店區"
"231056","4715-K9","2019/11/19 18:59:32","新北市新店區二十張路46巷37弄21-1號","121.535768333333","24.9814916666667","6500600","新店區"
"231067","4772-VM","2019/11/19 18:59:21","新北市新店區安康路一段76巷34-1號","121.528403333333","24.9635366666667","6500600","新店區"
"231053","513-UM","2019/11/19 18:59:22","新北市新店區新烏路二段9號","121.544803333333","24.9290566666667","6500600","新店區"
"231040","617-UM","2019/11/19 18:59:29","新北市新店區中央路81號","121.532328333333","24.976605","6500600","新店區"
"231041","619-UM","2019/11/19 18:59:30","新北市新店區安康路一段35號","121.531816666667","24.960675","6500600","新店區"
"231063","641-BX","2019/11/19 18:59:22","新北市新店區安華路1-1號","121.519491666667","24.960445","6500600","新店區"
"231048","KED-0819","2019/11/19 18:59:12","新北市新店區德正街17巷2號","121.54368","24.97271","6500600","新店區"
"231046","719-UM","2019/11/19 18:59:12","新北市新店區直潭一街16號","121.53607","24.9424883333333","6500600","新店區"
"231057","720-UM","2019/11/19 18:59:16","新北市新店區百齡一路12號","121.553068333333","24.93243","6500600","新店區"
"231059","897-TW","2019/11/19 18:59:21","新北市新店區安華路28-1號","121.519373333333","24.9607666666667","6500600","新店區"
"231043","899-TW","2019/11/19 18:59:10","新北市新店區北新路二段18號","121.542813333333","24.9713183333333","6500600","新店區"
"231066","AKT-0513","2019/11/19 18:59:27","新北市新店區安豐路22巷1號","121.501345","24.9561266666667","6500600","新店區"
"241035","KEA-2210","2019/11/19 18:59:17","新北市三重區捷運路4號","121.485718333333","25.0561566666667","6500200","三重區"
"241029","942-UM","2019/11/19 18:59:27","新北市三重區重安街1號","121.490041666667","25.058085","6500200","三重區"
"235066","003-UY","2019/11/19 18:59:25","新北市中和區中山路二段131巷5弄4號","121.502935","25.0028633333333","6500300","中和區"
"235064","005-UY","2019/11/19 18:59:22","新北市中和區泰和街2號","121.500136666667","25.001225","6500300","中和區"
"235063","006-UY","2019/11/19 18:59:30","新北市中和區中正路530號","121.487773333333","24.9944433333333","6500300","中和區"
"235056","096-UM","2019/11/19 18:59:18","新北市板橋區三民路二段218號","121.478916666667","25.0116966666667","6500300","中和區"
"235039","097-UM","2019/11/19 18:59:23","新北市中和區景平路64巷13弄22號","121.521425","24.9915416666667","6500300","中和區"
"235065","098-UM","2019/11/19 18:59:16","新北市中和區福祥路136號","121.49881","25.0068816666667","6500300","中和區"
"235040","150-BY","2019/11/19 18:59:32","新北市中和區安樂路51巷8號","121.511818333333","24.9938116666667","6500300","中和區"
"235058","151-BY","2019/11/19 18:59:28","新北市中和區和城路一段271巷1號","121.485335","24.9919916666667","6500300","中和區"
"235055","183-VK","2019/11/19 18:59:29","新北市中和區德光路47號","121.470231666667","25.0040166666667","6500300","中和區"
"235067","255-BX","2019/11/19 18:59:26","新北市中和區新生街211號","121.483845","24.99974","6500300","中和區"
"235044","293-VK","2019/11/19 18:59:29","新北市中和區中興街161巷10弄2號","121.501161666667","24.9909233333333","6500300","中和區"
"235072","301-VK","2019/11/19 18:59:27","新北市中和區永和路52號","121.499098333333","25.0041516666667","6500300","中和區"
"235043","352-BY","2019/11/19 18:59:22","新北市中和區秀朗路三段179號","121.524491666667","24.990595","6500300","中和區"
"235042","KEA-2878","2019/11/19 18:59:23","新北市中和區秀朗路三段22巷10號","121.525863333333","24.9962466666667","6500300","中和區"
"235050","4979-A6","2019/11/19 18:59:10","新北市中和區忠孝街60巷2弄7號","121.511853333333","24.9834483333333","6500300","中和區"
"235069","4980-A6","2019/11/19 18:59:22","新北市中和區圓通路109號","121.499451666667","24.9966283333333","6500300","中和區"
"235070","558-UM","2019/11/19 18:59:31","新北市中和區中和路98號","121.501378333333","24.9998033333333","6500300","中和區"
"235045","565-BX","2019/11/19 18:59:21","新北市中和區景新街467巷35弄4號","121.514626666667","24.98916","6500300","中和區"
"235060","KED-0823","2019/11/19 18:59:11","新北市中和區中山路三段119號","121.474533333333","25.0061466666667","6500300","中和區"
"235054","640-BX","2019/11/19 18:59:14","新北市中和區民德路150號","121.468645","25.0002383333333","6500300","中和區"
"235047","732-UM","2019/11/19 18:59:23","新北市中和區興南路二段103號","121.50594","24.9845366666667","6500300","中和區"
"235046","733-UM","2019/11/19 18:59:27","新北市中和區興南路二段23號","121.507806666667","24.9858783333333","6500300","中和區"
"235057","801-TS","2019/11/19 18:59:15","新北市中和區民利街87號","121.478173333333","24.9980966666667","6500300","中和區"
"235041","802-TS","2019/11/19 18:59:28","新北市中和區景安路58號","121.506741666667","24.9976966666667","6500300","中和區"
"235052","805-TS","2019/11/19 18:59:28","新北市中和區興南路二段341號","121.50163","24.9809933333333","6500300","中和區"
"235048","896-TW","2019/11/19 18:59:26","新北市中和區華新街143巷71弄13號","121.50835","24.978795","6500300","中和區"
"235053","900-TW","2019/11/19 18:59:30","新北市板橋區五權街1-8號","121.463748333333","24.995055","6500300","中和區"
"235038","911-UM","2019/11/19 18:59:15","新北市中和區立人街24-5號","121.518921666667","24.99417","6500300","中和區"
"235051","157-BY","2019/11/19 18:59:24","新北市中和區忠孝街19巷7號","121.50997","24.98382","6500300","中和區"
"235037","AAC-213","2019/11/19 18:59:18","新北市中和區秀朗路三段60巷30號","121.525316666667","24.99498","6500300","中和區"
"235059","AAC-215","2019/11/19 18:59:15","新北市中和區圓通路367巷20弄23號","121.49143","24.98839","6500300","中和區"
"220065","072-UY","2019/11/19 18:59:13","新北市板橋區民族路247巷7弄44號","121.470511666667","25.0085583333333","6500100","板橋區"
"220086","073-UY","2019/11/19 18:59:23","新北市板橋區大智街22號","121.455676666667","25.0148366666667","6500100","板橋區"
"220106","075-UY","2019/11/19 18:59:27","新北市板橋區雙十路三段10巷10號","121.472071666667","25.0307333333333","6500100","板橋區"
"220069","AAD-861","2019/11/19 18:59:22","新北市板橋區四川路一段102號","121.459571666667","25.00472","6500100","板橋區"
"226004","312-R5","2019/11/19 18:59:29","新北市平溪區靜安路二段418號","121.739305","25.0243733333333","6502400","平溪區"
"235049","251-BX","2019/11/19 18:59:26","新北市中和區景安路167巷1號","121.505585","24.9945866666667","6500300","中和區"
"228001","097-TW","2019/11/19 18:59:13","新北市貢寮區仁理村研海街12-1號","121.92379","25.0516383333333","6502600","貢寮區"
"228002","663-BX","2019/11/19 18:59:32","新北市貢寮區福隆里東興街106巷23弄1號","121.946313333333","25.0182866666667","6502600","貢寮區"
"228003","828-UM","2019/11/19 18:59:19","新北市貢寮區和美里龍洞街56-3號","121.912831666667","25.114625","6502600","貢寮區"
"224006","676-BX","2019/11/19 18:59:22","新北市瑞芳區東和路9號","121.80459","25.1060816666667","6501200","瑞芳區"
"224007","285-BY","2019/11/19 18:59:18","新北市瑞芳區瑞竹路76-4號","121.763438333333","25.1033333333333","6501200","瑞芳區"
"224009","275-VK","2019/11/19 18:59:25","新北市瑞芳區五號路253-1號","121.856136666667","25.1126133333333","6501200","瑞芳區"
"224008","273-VK","2019/11/19 18:59:23","新北市瑞芳區逢甲路340-9號","121.798153333333","25.1162683333333","6501200","瑞芳區"
"224005","271-BY","2019/11/19 18:59:14","新北市瑞芳區阿美家園7號","121.819611666667","25.114095","6501200","瑞芳區"
"227001","642-TC","2019/11/19 18:59:21","新北市雙溪區牡丹里中正路60號","121.866128333333","25.0423816666667","6502500","雙溪區"
"227002","400-TW","2019/11/19 18:59:12","新北市雙溪區平林里外平林9-5號","121.859138333333","25.0380216666667","6502500","雙溪區"
"253005","032-BX","2019/11/19 18:59:28","新北市石門區中央路37-5號","121.569615","25.2963916666667","6502200","石門區"
"253006","295-VK","2019/11/19 18:59:16","新北市石門區八甲4-3號","121.52088","25.2832433333333","6502200","石門區"
"222001","KEA-2212","2019/11/19 18:59:18","新北市深坑區北深路一段300號","121.6242","25.0056966666667","6501800","深坑區"
"208002","KEA-2872","2019/11/19 18:59:18","新北市金山區仁愛路63號","121.635075","25.221015","6502700","金山區"
"208003","665-BX","2019/11/19 18:59:31","新北市金山區中正路112號","121.632671666667","25.2216083333333","6502700","金山區"
"251001","011-UM","2019/11/19 18:59:24","新北市淡水區自強路58號","121.463206666667","25.1273983333333","6501000","淡水區"
"251002","012-UM","2019/11/19 18:59:09","新北市淡水區中正東路55-4號","121.446786666667","25.1678483333333","6501000","淡水區"
"251015","KEA-2871","2019/11/19 18:59:24","新北市淡水區糞箕湖62號","121.485215","25.1722716666667","6501000","淡水區"
"251016","180-VK","2019/11/19 18:59:25","新北市淡水區淡金路三段333號","121.448881666667","25.206335","6501000","淡水區"
"251013","182-VK","2019/11/19 18:59:18","新北市淡水區頂田寮路1111號","121.492268333333","25.2126216666667","6501000","淡水區"
"251010","413-VK","2019/11/19 18:59:26","新北市淡水區淡海路69巷26號","121.421916666667","25.1808666666667","6501000","淡水區"
"251012","441-VK","2019/11/19 18:59:14","新北市淡水區新春街126巷15弄17號","121.440618333333","25.18089","6501000","淡水區"
"251007","442-VK","2019/11/19 18:59:29","新北市淡水區民生路113巷1弄35號","121.46315","25.1386416666667","6501000","淡水區"
"251009","575-R6","2019/11/19 18:59:10","新北市淡水區文化路15號","121.439568333333","25.17254","6501000","淡水區"
"251014","577-R6","2019/11/19 18:59:23","新北市淡水區小中寮31號","121.490108333333","25.227395","6501000","淡水區"
"251011","650-BX","2019/11/19 18:59:28","新北市淡水區鄧公路30巷2弄24號","121.453651666667","25.169015","6501000","淡水區"
"251003","673-BX","2019/11/19 18:59:13","新北市淡水區中山北路一段149巷24號","121.442848333333","25.1780383333333","6501000","淡水區"
"207003","681-TV","2019/11/19 18:59:14","新北市萬里區大鵬里頂社2-1號","121.660378333333","25.2071783333333","6502800","萬里區"
"207004","291-VK","2019/11/19 18:59:14","新北市萬里區萬里里獅頭路23號","121.69326","25.1781983333333","6502800","萬里區"
"252002","178-VK","2019/11/19 18:59:28","新北市三芝區中正路一段24號","121.503068333333","25.25855","6502100","三芝區"
"252003","249-BX","2019/11/19 18:59:13","新北市三芝區後厝里北勢子42-11號","121.471546666667","25.2520833333333","6502100","三芝區"
"208001","170-UY","2019/11/19 18:59:29","新北市金山區民生路51巷1-2號","121.641955","25.22023","6502700","金山區"
"237004","KEA-2597","2019/11/19 18:59:12","新北市三峽區有木205-1號","121.439041666667","24.8515766666667","6500900","三峽區"
"237007","153-BY","2019/11/19 18:59:21","新北市三峽區中正路二段203號","121.366013333333","24.9135083333333","6500900","三峽區"
"237013","252-BX","2019/11/19 18:59:25","新北市三峽區光明路69巷24號","121.376598333333","24.929055","6500900","三峽區"
"237012","275-BY","2019/11/19 18:59:19","新北市三峽區三樹路222巷72-1號","121.38332","24.9422083333333","6500900","三峽區"
"237008","302-VK","2019/11/19 18:59:28","新北市三峽區大同路107號","121.374441666667","24.9268666666667","6500900","三峽區"
"237014","433-BY","2019/11/19 18:59:18","新北市三峽區隆恩街232號","121.357838333333","24.94118","6500900","三峽區"
"237006","5529-G3","2019/11/19 18:59:07","新北市三峽區溪東路233巷45弄16號","121.410066666667","24.9340966666667","6500900","三峽區"
"237011","KEA-2596","2019/11/19 18:59:12","新北市三峽區介壽路三段231-1號","121.404606666667","24.945775","6500900","三峽區"
"237015","649-BX","2019/11/19 18:59:16","新北市三峽區建安75-6號","121.450298333333","24.9251183333333","6500900","三峽區"
"237010","706-TV","2019/11/19 18:59:28","新北市三峽區復興路239-1號","121.368015","24.93886","6500900","三峽區"
"237005","AKY-6261","2019/11/19 18:59:30","新北市三峽區中山路459巷135號","121.348651666667","24.9329116666667","6500900","三峽區"
"236079","166-UM","2019/11/19 18:59:14","新北市土城區中央路四段376號","121.413001666667","24.9546533333333","6501300","土城區"
"236030","253-BX","2019/11/19 18:59:13","新北市土城區慶利街21號","121.439105","24.9741083333333","6501300","土城區"
"236026","269-VK","2019/11/19 18:59:21","新北市土城區中正路56巷2號","121.443888333333","24.9753333333333","6501300","土城區"
"236014","270-VK","2019/11/19 18:59:26","新北市土城區立德路29巷9號","121.462448333333","24.9882066666667","6501300","土城區"
"236038","271-VK","2019/11/19 18:59:19","新北市土城區仁愛路34號","121.461393333333","24.9797483333333","6501300","土城區"
"236070","KEA-2877","2019/11/19 18:59:12","新北市土城區清水路83號","121.455785","24.981685","6501300","土城區"
"252001","KED-0821","2019/11/19 18:59:28","新北市三芝區中興街二段260號","121.501788333333","25.25303","6502100","三芝區"
"236021","401-BY","2019/11/19 18:59:31","新北市土城區延吉街168巷9號","121.4681","24.9857783333333","6501300","土城區"
"236049","752-BX","2019/11/19 18:59:20","新北市土城區青雲路236號","121.459068333333","24.9806333333333","6501300","土城區"
"236059","912-UM","2019/11/19 18:59:30","新北市土城區金城路二段258號","121.457268333333","24.9834416666667","6501300","土城區"
"236063","915-UM","2019/11/19 18:59:22","新北市土城區金城路三段139巷22號","121.467643333333","24.9890083333333","6501300","土城區"
"236055","AAC-216","2019/11/19 18:59:14","新北市土城區學成路147號","121.448733333333","24.9895083333333","6501300","土城區"
"242061","986-R7","2019/11/19 18:59:14","新北市新莊區新樹路39號","121.440336666667","25.032295","6500500","新莊區"
"242009","349-TH","2019/11/19 18:59:23","新北市新莊區三和路12-21號","121.442145","25.0384083333333","6500500","新莊區"
"238023","601-UM","2019/11/19 18:59:29","新北市樹林區大慶街130號","121.396201666667","25.0134933333333","6500700","樹林區"
"238019","599-UM","2019/11/19 18:59:28","新北市樹林區東榮街185號","121.413581666667","24.9812783333333","6500700","樹林區"
"238022","KEA-2213","2019/11/19 18:59:26","新北市樹林區東順街64號","121.410998333333","24.977995","6500700","樹林區"
"238021","KEA-2539","2019/11/19 18:59:13","新北市樹林區柑園街二段328巷6弄29號","121.373245","24.9526866666667","6500700","樹林區"
"238025","303-VK","2019/11/19 18:59:26","新北市樹林區中山路三段22號","121.395553333333","24.972935","6500700","樹林區"
"238017","283-BY","2019/11/19 18:59:30","新北市樹林區光興街83-3號","121.409893333333","25.0026416666667","6500700","樹林區"
"238014","282-BY","2019/11/19 18:59:15","新北市樹林區潭興街143巷12號","121.425433333333","25.0000666666667","6500700","樹林區"
"238020","268-VK","2019/11/19 18:59:16","新北市樹林區俊英街219巷47-1號","121.420581666667","25.0113866666667","6500700","樹林區"
"238026","172-UY","2019/11/19 18:59:29","新北市樹林區吉祥街31號","121.39605","24.97408","6500700","樹林區"
"238016","169-UY","2019/11/19 18:59:17","新北市樹林區文化街27號","121.419185","24.9877216666667","6500700","樹林區"
"239007","AAC-297","2019/11/19 18:59:23","新北市鶯歌區中正一路建德巷6號","121.364801666667","24.9568833333333","6500800","鶯歌區"
"239006","891-R6","2019/11/19 18:59:18","新北市鶯歌區鶯桃路295巷8號","121.334536666667","24.9596833333333","6500800","鶯歌區"
"239008","527-UM","2019/11/19 18:59:18","新北市鶯歌區朝陽街4號","121.336263333333","24.9765983333333","6500800","鶯歌區"
"239005","526-UM","2019/11/19 18:59:14","新北市鶯歌區鳳吉二街2-1號","121.325511666667","24.972985","6500800","鶯歌區"
"239001","417-VK","2019/11/19 18:59:18","新北市鶯歌區鶯桃路5號","121.344105","24.9503","6500800","鶯歌區"
"239003","360-BY","2019/11/19 18:59:20","新北市鶯歌區鶯桃路421號","121.332756666667","24.9649233333333","6500800","鶯歌區"
"239002","359-BY","2019/11/19 18:59:21","新北市鶯歌區中山路80號","121.351208333333","24.957085","6500800","鶯歌區"
"239004","193-VK","2019/11/19 18:59:24","新北市鶯歌區中正三路194巷46號","121.331203333333","24.9407633333333","6500800","鶯歌區"
"221008","489-VK","2019/11/19 18:59:32","新北市汐止區康寧街582號","121.635001666667","25.0698533333333","6501100","汐止區"
"221036","130-UY","2019/11/19 18:59:14","新北市汐止區水碓街63號","121.665171666667","25.0687783333333","6501100","汐止區"
"221015","131-UY","2019/11/19 18:59:26","新北市汐止區鄉長路一段55巷6號","121.66543","25.07616","6501100","汐止區"
"221032","280-BY","2019/11/19 18:59:23","新北市汐止區橫科路407巷30弄28-5號","121.627481666667","25.04865","6501100","汐止區"
"221029","298-VK","2019/11/19 18:59:22","新北市汐止區樟樹一路234號","121.642456666667","25.0667533333333","6501100","汐止區"
"221031","353-TW","2019/11/19 18:59:31","新北市汐止區福德一路300巷49號","121.630283333333","25.0646333333333","6501100","汐止區"
"221035","622-UM","2019/11/19 18:59:16","新北市汐止區大同路二段266號","121.654583333333","25.0661316666667","6501100","汐止區"
"221002","707-TV","2019/11/19 18:59:19","新北市汐止區大同路一段2號","121.621033333333","25.0550366666667","6501100","汐止區"
"220079","145-BY","2019/11/19 18:59:29","新北市板橋區大智街71巷3弄2號","121.45338","25.01518","6500100","板橋區"
"220080","200-UY","2019/11/19 18:59:24","新北市板橋區大觀路二段265巷1弄52號","121.445043333333","24.9979333333333","6500100","板橋區"
"220082","610-BX","2019/11/19 18:59:11","新北市板橋區滿平街141號","121.429041666667","24.9880716666667","6500100","板橋區"
"224002","257-TC","2019/11/19 18:59:26","新北市平溪區新寮里五分寮10-2號","121.80081","25.0751283333333","6501200","瑞芳區"
"220091","267-BY","2019/11/19 18:59:21","新北市板橋區大同街8巷43號","121.477873333333","25.0262533333333","6500100","板橋區"
"220056","276-BY","2019/11/19 18:59:20","新北市板橋區信義路150巷7號","121.458771666667","24.9916766666667","6500100","板橋區"
"220072","277-BY","2019/11/19 18:59:25","新北市板橋區溪北路111號","121.430091666667","24.9887183333333","6500100","板橋區"
"220101","280-UM","2019/11/19 18:59:17","新北市板橋區萬板路15號","121.470533333333","25.0210416666667","6500100","板橋區"
"220094","283-UM","2019/11/19 18:59:22","新北市板橋區光武街151號","121.46548","25.029385","6500100","板橋區"
"220071","283-VK","2019/11/19 18:59:21","新北市板橋區重慶路245巷48-1號","121.465095","25.0008783333333","6500100","板橋區"
"220053","285-VK","2019/11/19 18:59:22","新北市板橋區太和街5巷19號","121.473203333333","25.0196066666667","6500100","板橋區"
"220083","286-VK","2019/11/19 18:59:22","新北市板橋區大觀路一段38巷156弄59號","121.442811666667","25.00682","6500100","板橋區"
"220081","287-VK","2019/11/19 18:59:23","新北市板橋區南雅西路二段102號","121.45239","25.0117833333333","6500100","板橋區"
"220090","288-VK","2019/11/19 18:59:29","新北市板橋區裕民街23-3號","121.462151666667","25.029025","6500100","板橋區"
"220061","293-UM","2019/11/19 18:59:20","新北市板橋區中山路二段295巷17號","121.477775","25.0187166666667","6500100","板橋區"
"220084","296-UM","2019/11/19 18:59:21","新北市板橋區龍興街63巷2號","121.442993333333","25.00133","6500100","板橋區"
"220075","303-R5","2019/11/19 18:59:28","新北市板橋區茶館街25號","121.456381666667","25.01054","6500100","板橋區"
"220062","305-R5","2019/11/19 18:59:26","新北市板橋區民享街115-1號","121.477715","25.0161083333333","6500100","板橋區"
"220092","307-R5","2019/11/19 18:59:24","新北市板橋區文化路二段225巷60弄64號","121.469175","25.0299066666667","6500100","板橋區"
"220098","317-R6","2019/11/19 18:59:22","新北市板橋區民生路二段226巷34號","121.471233333333","25.022135","6500100","板橋區"
"220089","487-VK","2019/11/19 18:59:23","新北市板橋區文化路二段147號","121.470165","25.026995","6500100","板橋區"
"220088","491-VK","2019/11/19 18:59:24","新北市板橋區莒光路158-2號","121.473933333333","25.0239816666667","6500100","板橋區"
"220035","560-BX","2019/11/19 18:59:20","新北市板橋區中正路273-1號","121.455571666667","25.0188916666667","6500100","板橋區"
"220103","561-BX","2019/11/19 18:59:25","新北市板橋區介壽街64號","121.469223333333","25.0194833333333","6500100","板橋區"
"220063","609-BX","2019/11/19 18:59:23","新北市板橋區三民路二段77號","121.479418333333","25.0167833333333","6500100","板橋區"
"220077","687-BX","2019/11/19 18:59:29","新北市板橋區龍興街59號","121.443276666667","25.0012833333333","6500100","板橋區"
"220093","689-BX","2019/11/19 18:59:13","新北市板橋區民生路三段183號","121.465463333333","25.0273866666667","6500100","板橋區"
"220054","741-BX","2019/11/19 18:59:23","新北市板橋區成都街99號","121.463333333333","25.005315","6500100","板橋區"
"220102","KEA-2699","2019/11/19 18:59:14","新北市板橋區田單街2巷31號","121.48222","25.02801","6500100","板橋區"
"220055","827-TW","2019/11/19 18:59:29","新北市板橋區民安街9號","121.466726666667","25.01181","6500100","板橋區"
"220068","830-TW","2019/11/19 18:59:28","新北市板橋區中山路二段465巷92-1號","121.481173333333","25.02252","6500100","板橋區"
"220067","831-TW","2019/11/19 18:59:33","新北市板橋區民享街116巷2弄11號","121.47745","25.0155","6500100","板橋區"
"220057","833-TW","2019/11/19 18:59:16","新北市板橋區重慶路290-1號","121.463506666667","24.9989183333333","6500100","板橋區"
"220074","895-R6","2019/11/19 18:59:24","新北市板橋區後菜園街47號","121.456088333333","25.009895","6500100","板橋區"
"220073","985-R7","2019/11/19 18:59:23","新北市板橋區民權路240號","121.458506666667","25.0144816666667","6500100","板橋區"
"220097","AAC-210","2019/11/19 18:59:32","新北市板橋區新海路135巷4號","121.459773333333","25.022855","6500100","板橋區"
"220064","AAC-253","2019/11/19 18:59:26","新北市板橋區板新路14號","121.474536666667","25.0132016666667","6500100","板橋區"
"235068","KEA-2873","2019/11/19 18:59:28","新北市中和區圓通路277號","121.495576666667","24.9930433333333","6500300","中和區"
"235061","KEA-2875","2019/11/19 18:59:27","新北市中和區民享街59巷4號","121.474425","25.00251","6500300","中和區"
