"lineid","car","time","location","longitude","latitude","cityid","cityname"
"234046","148-BY","2019/11/19 19:59:31","新北市永和區成功路一段87號","121.526875","25.002995","6500400","永和區"
"234081","298-R6","2019/11/19 19:59:22","新北市永和區永利路81巷15號","121.522121666667","25.00379","6500400","永和區"
"234038","336-UY","2019/11/19 19:59:13","新北市永和區成功路二段115號","121.526668333333","24.99863","6500400","永和區"
"234064","337-UY","2019/11/19 19:59:29","新北市永和區中正路412巷20弄27號","121.51912","25.0012633333333","6500400","永和區"
"234086","338-UY","2019/11/19 19:59:33","新北市永和區福和路186號","121.520303333333","25.0077616666667","6500400","永和區"
"234070","552-UM","2019/11/19 19:59:18","新北市永和區福和路248號","121.51866","25.0078983333333","6500400","永和區"
"234017","745-BX","2019/11/19 19:59:22","新北市永和區文化路72號","121.514213333333","25.0150983333333","6500400","永和區"
"234030","746-BX","2019/11/19 19:59:24","新北市永和區四維街75號","121.525148333333","24.9978633333333","6500400","永和區"
"234054","KEA-2590","2019/11/19 19:59:22","新北市永和區環河東路一段122號","121.520591666667","25.0155233333333","6500400","永和區"
"234007","KED-0605","2019/11/19 19:59:14","新北市永和區保順路11號","121.504393333333","25.0096666666667","6500400","永和區"
"234013","KEA-2591","2019/11/19 19:59:26","新北市永和區保生路55號","121.504698333333","25.0106","6500400","永和區"
"234061","AAD-866","2019/11/19 19:59:32","新北市永和區中正路283巷64弄2號","121.516136666667","24.9997333333333","6500400","永和區"
"234042","862-TW","2019/11/19 19:59:26","新北市永和區中和路421巷12號","121.508751666667","25.001155","6500400","永和區"
"234050","863-TW","2019/11/19 19:59:22","新北市永和區保安路244號","121.506598333333","25.0127433333333","6500400","永和區"
"234026","9371-KE","2019/11/19 19:59:33","新北市永和區水源街27巷7號","121.511288333333","25.00404","6500400","永和區"
"234011","9373-KE","2019/11/19 19:59:19","新北市永和區仁愛路352巷122弄33號","121.500833333333","25.0091816666667","6500400","永和區"
"249005","172-UM","2019/11/19 19:59:16","新北市八里區楓林路1-9號","121.386255","25.1325233333333","6502300","八里區"
"249001","173-UM","2019/11/19 19:59:29","新北市八里區中華路二段310號","121.403816666667","25.14835","6502300","八里區"
"249004","303-UY","2019/11/19 19:59:12","新北市八里區文昌五街126號","121.412418333333","25.1547633333333","6502300","八里區"
"249002","305-UY","2019/11/19 19:59:15","新北市八里區頂寮一街50號","121.450511666667","25.1242116666667","6502300","八里區"
"249003","593-UM","2019/11/19 19:59:32","新北市八里區中華路二段566號","121.3987","25.1447883333333","6502300","八里區"
"248016","026-BX","2019/11/19 19:59:16","新北市五股區成泰路三段577巷80弄7號","121.449431666667","25.10428","6501500","五股區"
"248008","KED-0815","2019/11/19 19:59:28","新北市五股區四維路30巷29號","121.468593333333","25.0714666666667","6501500","五股區"
"248020","KED-0813","2019/11/19 19:59:32","新北市五股區凌雲路三段9-11號","121.431466666667","25.107295","6501500","五股區"
"248012","247-BX","2019/11/19 19:59:22","新北市五股區工商路189號","121.433706666667","25.0868","6501500","五股區"
"248004","677-BX","2019/11/19 19:59:22","新北市五股區成泰路一段72-1號","121.435581666667","25.0699616666667","6501500","五股區"
"248002","678-BX","2019/11/19 19:59:21","新北市五股區成泰路三段472號","121.451775","25.1012416666667","6501500","五股區"
"248010","682-TV","2019/11/19 19:59:21","新北市五股區登林路79-4號","121.427611666667","25.0705033333333","6501500","五股區"
"234023","9380-KE","2019/11/19 19:59:29","新北市永和區中正路702巷9號","121.516298333333","25.0103566666667","6500400","永和區"
"234077","969-R7","2019/11/19 19:59:26","新北市永和區智光街101號","121.516213333333","24.9968966666667","6500400","永和區"
"234074","AAC-211","2019/11/19 19:59:26","新北市永和區豫溪街185號","121.522488333333","25.01034","6500400","永和區"
"234067","AAC-212","2019/11/19 19:59:16","新北市永和區永貞路358號","121.510171666667","25.0066016666667","6500400","永和區"
"234003","AAC-295","2019/11/19 19:59:28","新北市永和區永和路二段8號","121.514503333333","25.0102033333333","6500400","永和區"
"243012","AAD-798","2019/11/19 19:59:26","新北市泰山區全興路20號","121.4324","25.0588233333333","6501600","泰山區"
"243010","297-R6","2019/11/19 19:35:26","新北市泰山區明志路二段7巷13號","121.430701666667","25.0533166666667","6501600","泰山區"
"243014","KEA-2801","2019/11/19 19:59:13","新北市泰山區泰林路二段33-1號","121.435705","25.0567666666667","6501600","泰山區"
"243016","421-VK","2019/11/19 19:59:15","新北市泰山區貴陽街3號","121.421026666667","25.0335433333333","6501600","泰山區"
"243009","KEA-2215","2019/11/19 19:59:16","新北市泰山區楓江路16巷25號","121.434073333333","25.0614616666667","6501600","泰山區"
"243011","KEA-2216","2019/11/19 19:59:26","新北市泰山區工專路47號","121.422881666667","25.0401083333333","6501600","泰山區"
"222003","436-BY","2019/11/19 19:59:29","新北市深坑區埔新街14號","121.620713333333","25.00393","6501800","深坑區"
"222002","659-BX","2019/11/19 19:59:25","新北市深坑區北深路二段81巷8弄6號","121.618243333333","25.0030816666667","6501800","深坑區"
"231061","002-UM","2019/11/19 19:59:15","新北市新店區安民街281號","121.517571666667","24.97321","6500600","新店區"
"231055","0291-UT","2019/11/19 19:59:31","新北市新店區力行路12號","121.539423333333","24.9646183333333","6500600","新店區"
"231044","046-UY","2019/11/19 19:59:13","新北市新店區復興路76號","121.53759","24.986775","6500600","新店區"
"231060","106-UY","2019/11/19 19:59:29","新北市新店區安康路二段408號","121.496735","24.9553116666667","6500600","新店區"
"231051","107-UY","2019/11/19 19:59:28","新北市新店區中央路153號","121.530158333333","24.9730316666667","6500600","新店區"
"231049","108-UY","2019/11/19 19:59:20","新北市新店區民族路14-1號","121.541311666667","24.9787516666667","6500600","新店區"
"231065","110-UY","2019/11/19 19:59:14","新北市新店區安祥路109巷3弄14號","121.475605","24.9600316666667","6500600","新店區"
"231068","187-VK","2019/11/19 19:59:25","新北市新店區安一路一段1-1號","121.519753333333","24.961885","6500600","新店區"
"231062","256-BX","2019/11/19 19:59:18","新北市新店區華潭街26巷3弄3號","121.530003333333","24.9531966666667","6500600","新店區"
"231054","260-TV","2019/11/19 19:59:16","新北市新店區光明街137號","121.539473333333","24.9620033333333","6500600","新店區"
"231042","268-BY","2019/11/19 19:59:30","新北市新店區中正路2號","121.545878333333","24.9692616666667","6500600","新店區"
"231064","278-BY","2019/11/19 19:59:23","新北市新店區安光路10-1號","121.513818333333","24.9641366666667","6500600","新店區"
"231050","AAD-862","2019/11/19 19:59:24","新北市新店區北宜路二段579巷13號","121.565553333333","24.9544233333333","6500600","新店區"
"231045","355-BY","2019/11/19 19:59:30","新北市新店區北宜路二段210號","121.55938","24.9543866666667","6500600","新店區"
"231056","4715-K9","2019/11/19 19:59:12","新北市新店區北新路二段86號","121.542945","24.972915","6500600","新店區"
"231067","4772-VM","2019/11/19 19:59:21","新北市新店區秀山路11巷12弄1號","121.531675","24.9593966666667","6500600","新店區"
"231053","513-UM","2019/11/19 19:59:22","新北市新店區新烏路三段寶島巷2弄2號","121.551906666667","24.89856","6500600","新店區"
"231040","617-UM","2019/11/19 19:59:29","新北市新店區北新路一段96巷23號","121.543055","24.968715","6500600","新店區"
"231041","619-UM","2019/11/19 19:59:23","新北市新店區中正路374號","121.53503","24.9764033333333","6500600","新店區"
"231063","641-BX","2019/11/19 19:59:22","新北市新店區車子路11號","121.503075","24.952045","6500600","新店區"
"231048","KED-0819","2019/11/19 19:59:12","新北市新店區寶興路65巷2號","121.550843333333","24.971645","6500600","新店區"
"231057","720-UM","2019/11/19 19:59:16","新北市新店區花園二路一段11號","121.555435","24.932495","6500600","新店區"
"231059","897-TW","2019/11/19 19:59:21","新北市新店區安和路二段1號","121.517846666667","24.9670183333333","6500600","新店區"
"231043","899-TW","2019/11/19 19:59:30","新北市新店區中正路263-2號","121.538441666667","24.9737833333333","6500600","新店區"
"241011","013-R5","2019/11/19 19:59:21","新北市三重區三和路二段210號","121.49812","25.06948","6500200","三重區"
"241028","022-UY","2019/11/19 19:59:23","新北市三重區中正南路83號","121.494278333333","25.05845","6500200","三重區"
"241008","059-VK","2019/11/19 19:59:20","新北市三重區永福街179巷26號","121.478106666667","25.0747416666667","6500200","三重區"
"241031","061-VK","2019/11/19 19:59:14","新北市三重區重新路四段144巷17號","121.486983333333","25.05534","6500200","三重區"
"241015","062-VK","2019/11/19 19:59:19","新北市三重區三和路二段37-6號","121.5012","25.0674016666667","6500200","三重區"
"241017","063-VK","2019/11/19 19:59:27","新北市三重區自強路一段177號","121.492896666667","25.0673766666667","6500200","三重區"
"241024","065-VK","2019/11/19 19:59:29","新北市三重區大勇街38號","121.48142","25.07168","6500200","三重區"
"241003","091-VK","2019/11/19 19:59:19","新北市三重區五華街128號","121.491718333333","25.08352","6500200","三重區"
"241007","742-BX","2019/11/19 19:59:21","新北市三重區溪尾街100號","121.48961","25.0786533333333","6500200","三重區"
"241006","262-UM","2019/11/19 19:59:22","新北市三重區力行路二段93號","121.482656666667","25.075855","6500200","三重區"
"241014","316-R6","2019/11/19 19:59:27","新北市三重區三和路二段156號","121.49942","25.068475","6500200","三重區"
"241016","266-UM","2019/11/19 19:58:49","新北市三重區正義北路36巷14號","121.496551666667","25.06332","6500200","三重區"
"241009","267-UM","2019/11/19 19:59:27","新北市三重區三和路四段390巷2號","121.481858333333","25.0790083333333","6500200","三重區"
"241018","268-UM","2019/11/19 19:59:25","新北市三重區正義北路244巷19號","121.495355","25.06816","6500200","三重區"
"241032","269-UM","2019/11/19 19:59:18","新北市三重區朝陽街26巷1弄1號","121.483216666667","25.0565083333333","6500200","三重區"
"241013","270-UM","2019/11/19 19:59:16","新北市三重區三和路三段139巷10號","121.49287","25.0737483333333","6500200","三重區"
"241025","271-UM","2019/11/19 19:59:11","新北市三重區頂崁街210巷16號","121.476525","25.0677616666667","6500200","三重區"
"241035","KEA-2210","2019/11/19 19:59:17","新北市三重區大榮街7號","121.498208333333","25.0631","6500200","三重區"
"241030","KED-0822","2019/11/19 19:59:11","新北市三重區重新路四段244巷6號","121.486181666667","25.0535133333333","6500200","三重區"
"241004","475-VK","2019/11/19 19:59:28","新北市三重區五華街74號","121.493435","25.082005","6500200","三重區"
"241020","478-VK","2019/11/19 19:59:14","新北市三重區忠孝路一段101號","121.489525","25.072135","6500200","三重區"
"241026","480-VK","2019/11/19 19:59:29","新北市三重區福德南路15-1號","121.502661666667","25.0631566666667","6500200","三重區"
"241023","545-UM","2019/11/19 19:59:19","新北市三重區頂崁街168號","121.477665","25.0658866666667","6500200","三重區"
"241001","547-UM","2019/11/19 19:59:16","新北市三重區福隆路47號","121.490865","25.0776483333333","6500200","三重區"
"241019","KEA-2593","2019/11/19 19:59:30","新北市三重區自強路二段20-1號","121.489631666667","25.0692266666667","6500200","三重區"
"241005","AAD-863","2019/11/19 19:59:17","新北市三重區碧華街296-1號","121.489638333333","25.083415","6500200","三重區"
"241012","743-BX","2019/11/19 19:59:24","新北市三重區仁興街58號","121.498916666667","25.0759683333333","6500200","三重區"
"241029","942-UM","2019/11/19 19:59:27","新北市三重區重安街14號","121.4903","25.0582","6500200","三重區"
"241033","AAC-255","2019/11/19 19:59:32","新北市三重區中興北街125號","121.46972","25.0491483333333","6500200","三重區"
"235066","003-UY","2019/11/19 19:59:25","新北市中和區中山路二段67號","121.503966666667","25.00454","6500300","中和區"
"235039","097-UM","2019/11/19 19:59:23","新北市中和區大勇街25巷39弄13號","121.514636666667","24.9939983333333","6500300","中和區"
"235065","098-UM","2019/11/19 19:59:16","新北市中和區永和路90巷2弄4號","121.497463333333","25.00568","6500300","中和區"
"235040","150-BY","2019/11/19 19:59:32","新北市中和區安和路39號","121.509673333333","24.9949116666667","6500300","中和區"
"235055","183-VK","2019/11/19 19:59:29","新北市中和區中山路三段5號","121.479743333333","25.005995","6500300","中和區"
"235044","293-VK","2019/11/19 19:59:29","新北市中和區復興路56號","121.503845","24.99046","6500300","中和區"
"247016","KEA-2869","2019/11/19 19:59:33","新北市蘆洲區光華路1號","121.469938333333","25.0835566666667","6501400","蘆洲區"
"235050","4979-A6","2019/11/19 19:59:29","新北市中和區景平路241巷64弄1號","121.50769","24.992395","6500300","中和區"
"235046","733-UM","2019/11/19 19:59:27","新北市中和區忠孝街31巷49號","121.509641666667","24.98552","6500300","中和區"
"235062","800-TS","2019/11/19 19:59:05","新北市中和區員山路36巷16-3號","121.484998333333","24.9914733333333","6500300","中和區"
"235052","805-TS","2019/11/19 19:59:28","新北市中和區忠孝街79號","121.512153333333","24.9851383333333","6500300","中和區"
"235051","157-BY","2019/11/19 19:59:15","新北市中和區景安路247巷9號","121.504458333333","24.990585","6500300","中和區"
"235037","AAC-213","2019/11/19 19:59:18","新北市中和區立人街55號","121.5203","24.9942183333333","6500300","中和區"
"235059","AAC-215","2019/11/19 19:59:15","新北市中和區圓通路367巷13弄28號","121.49287","24.98825","6500300","中和區"
"220065","072-UY","2019/11/19 19:59:13","新北市板橋區民族路129巷10號","121.467666666667","25.0084383333333","6500100","板橋區"
"220086","073-UY","2019/11/19 19:59:23","新北市板橋區林園街7-1號","121.454128333333","25.0092066666667","6500100","板橋區"
"220106","075-UY","2019/11/19 19:59:26","新北市板橋區懷德街66巷21號","121.476993333333","25.0319266666667","6500100","板橋區"
"220069","AAD-861","2019/11/19 19:59:17","新北市板橋區大明街20巷19弄22號","121.457861666667","25.00324","6500100","板橋區"
"247006","893-R6","2019/11/19 19:59:28","新北市蘆洲區九芎街143號","121.465535","25.0793416666667","6501400","蘆洲區"
"247020","546-UM","2019/11/19 19:59:20","新北市蘆洲區民義街66號","121.472978333333","25.0897666666667","6501400","蘆洲區"
"247004","500-BY","2019/11/19 19:59:31","新北市蘆洲區長安街267巷8弄2號","121.458296666667","25.0837133333333","6501400","蘆洲區"
"247024","057-VK","2019/11/19 19:59:09","新北市蘆洲區光復路53號","121.463316666667","25.084905","6501400","蘆洲區"
"247014","056-VK","2019/11/19 19:59:14","新北市蘆洲區成功路118號","121.472255","25.0824733333333","6501400","蘆洲區"
"247018","053-VK","2019/11/19 19:59:21","新北市蘆洲區民族路290巷13號","121.4785","25.0900816666667","6501400","蘆洲區"
"247022","007-UY","2019/11/19 19:59:24","新北市蘆洲區中正路174巷4號","121.467458333333","25.0878866666667","6501400","蘆洲區"
"247008","002-UY","2019/11/19 19:59:14","新北市蘆洲區信義路93號","121.477676666667","25.0800333333333","6501400","蘆洲區"
"247002","001-UY","2019/11/19 19:59:13","新北市蘆洲區長安街272號","121.457256666667","25.086945","6501400","蘆洲區"
"226004","312-R5","2019/11/19 19:59:09","新北市平溪區靜安路三段98號","121.770955","25.03601","6502400","平溪區"
"235049","251-BX","2019/11/19 19:59:26","新北市中和區景安路100號","121.505335","24.9957066666667","6500300","中和區"
"228003","828-UM","2019/11/19 19:59:19","新北市貢寮區仁理村仁和路132號","121.922965","25.05136","6502600","貢寮區"
"227001","642-TC","2019/11/19 19:59:21","新北市雙溪區新基里新基南街25號","121.866261666667","25.0381333333333","6502500","雙溪區"
"227002","400-TW","2019/11/19 19:59:32","新北市雙溪區雙溪里長安街16號","121.864986666667","25.034655","6502500","雙溪區"
"222001","KEA-2212","2019/11/19 19:59:18","新北市深坑區北深路三段165-1號","121.602155","25.0033766666667","6501800","深坑區"
"208002","KEA-2872","2019/11/19 19:59:18","新北市金山區中正路134-3號","121.63266","25.2200166666667","6502700","金山區"
"208003","665-BX","2019/11/19 19:59:18","新北市金山區海興路1-3號","121.634048333333","25.24543","6502700","金山區"
"251004","009-UM","2019/11/19 19:59:16","新北市淡水區民權路177巷17號","121.460813333333","25.1350633333333","6501000","淡水區"
"251005","010-UM","2019/11/19 19:59:13","新北市淡水區學府路136巷32號","121.45178","25.1726216666667","6501000","淡水區"
"251001","011-UM","2019/11/19 19:59:24","新北市淡水區北投子14-2號","121.448681666667","25.1835716666667","6501000","淡水區"
"251002","012-UM","2019/11/19 19:59:29","新北市淡水區新市一路一段6號","121.429071666667","25.1874133333333","6501000","淡水區"
"251015","KEA-2871","2019/11/19 19:59:24","新北市三芝區興華里田心子26號","121.49265","25.195415","6501000","淡水區"
"251016","180-VK","2019/11/19 19:54:42","新北市淡水區淡金路三段446號","121.450761666667","25.2143266666667","6501000","淡水區"
"251008","181-VK","2019/11/19 19:59:30","新北市淡水區淡海路57號","121.422848333333","25.1808233333333","6501000","淡水區"
"251013","182-VK","2019/11/19 19:59:18","新北市淡水區下圭柔山63-7號","121.451885","25.20615","6501000","淡水區"
"251012","441-VK","2019/11/19 19:59:14","新北市淡水區下圭柔山93-3號","121.436111666667","25.209135","6501000","淡水區"
"251006","561-UM","2019/11/19 19:59:25","新北市淡水區水碓街10號","121.443656666667","25.17705","6501000","淡水區"
"251009","575-R6","2019/11/19 19:59:10","新北市淡水區英專路21巷21號","121.444805","25.1697","6501000","淡水區"
"251014","577-R6","2019/11/19 19:59:23","新北市淡水區石頭厝2-1號","121.458126666667","25.235715","6501000","淡水區"
"251011","650-BX","2019/11/19 19:59:24","新北市淡水區淡金路一段166-7號","121.453835","25.180195","6501000","淡水區"
"207003","681-TV","2019/11/19 19:59:14","新北市萬里區大鵬里萬里加投46-1號","121.641816666667","25.2111866666667","6502800","萬里區"
"207004","291-VK","2019/11/19 19:59:14","新北市萬里區北基里忠二街37號","121.685705","25.1757916666667","6502800","萬里區"
"252002","178-VK","2019/11/19 19:59:28","新北市三芝區三民街39巷5號","121.50545","25.2576066666667","6502100","三芝區"
"237004","KEA-2597","2019/11/19 19:59:12","新北市三峽區添福1-1號","121.370811666667","24.90864","6500900","三峽區"
"237007","153-BY","2019/11/19 19:59:21","新北市三峽區麻園46號","121.363835","24.9212983333333","6500900","三峽區"
"237009","210-TH","2019/11/19 19:59:17","新北市三峽區民族街28巷2-5號","121.369043333333","24.9308116666667","6500900","三峽區"
"237012","275-BY","2019/11/19 19:59:19","新北市三峽區中華路96號","121.371075","24.9280616666667","6500900","三峽區"
"237008","302-VK","2019/11/19 19:59:23","新北市三峽區中正路一段174巷9號","121.371876666667","24.92884","6500900","三峽區"
"237014","433-BY","2019/11/19 19:59:18","新北市三峽區添福1-1號","121.370661666667","24.9089933333333","6500900","三峽區"
"237006","5529-G3","2019/11/19 19:59:33","新北市三峽區中正路二段168號","121.366041666667","24.9155316666667","6500900","三峽區"
"237015","649-BX","2019/11/19 19:59:16","新北市三峽區介壽路二段138巷16號","121.396011666667","24.93437","6500900","三峽區"
"237005","AKY-6261","2019/11/19 19:59:30","新北市三峽區長泰街18巷7號","121.379458333333","24.9317633333333","6500900","三峽區"
"236042","KED-0685","2019/11/19 19:59:23","新北市土城區學府路一段98巷23-1號","121.455266666667","24.9886716666667","6501300","土城區"
"236079","166-UM","2019/11/19 19:59:13","新北市土城區民族街20號","121.418995","24.96305","6501300","土城區"
"236030","253-BX","2019/11/19 19:59:33","新北市土城區中央路一段250巷1號","121.444198333333","24.9846833333333","6501300","土城區"
"236026","269-VK","2019/11/19 19:59:21","新北市土城區中央路一段298號","121.443428333333","24.98209","6501300","土城區"
"236038","271-VK","2019/11/19 19:59:19","新北市土城區國際路52號","121.466445","24.9782883333333","6501300","土城區"
"247012","KED-0683","2019/11/19 19:59:13","新北市蘆洲區民族路149號","121.479573333333","25.0878883333333","6501400","蘆洲區"
"236070","KEA-2877","2019/11/19 19:59:11","新北市土城區忠承路29巷12號","121.441651666667","24.96684","6501300","土城區"
"252001","KED-0821","2019/11/19 19:59:28","新北市三芝區公正街66號","121.499781666667","25.2574716666667","6502100","三芝區"
"236021","401-BY","2019/11/19 19:59:31","新北市土城區延吉街111巷12弄15-3號","121.47163","24.9849233333333","6501300","土城區"
"236049","752-BX","2019/11/19 19:59:05","新北市土城區金城路三段248號","121.473885","24.990605","6501300","土城區"
"236059","912-UM","2019/11/19 19:59:22","新北市土城區中央路一段342號","121.443121666667","24.981135","6501300","土城區"
"236063","915-UM","2019/11/19 19:59:22","新北市土城區金城路三段33巷10號","121.465491666667","24.9872183333333","6501300","土城區"
"236055","AAC-216","2019/11/19 19:59:23","新北市土城區學府路一段124-2號","121.455228333333","24.9873083333333","6501300","土城區"
"242061","986-R7","2019/11/19 19:59:19","新北市新莊區瓊林路59-72號","121.44431","25.0274966666667","6500500","新莊區"
"242005","751-BX","2019/11/19 19:59:22","新北市新莊區化成路314巷19號","121.466951666667","25.0482933333333","6500500","新莊區"
"242029","615-BX","2019/11/19 19:59:27","新北市新莊區中平路375號","121.444585","25.0523866666667","6500500","新莊區"
"242027","613-BX","2019/11/19 19:59:27","新北市新莊區中平路377巷17弄10號","121.444086666667","25.0520016666667","6500500","新莊區"
"242058","612-BX","2019/11/19 19:59:24","新北市新莊區八德街87號","121.424471666667","25.0215733333333","6500500","新莊區"
"242048","566-BX","2019/11/19 19:59:16","新北市新莊區民安路207巷7弄1號","121.42671","25.0230383333333","6500500","新莊區"
"242054","497-BY","2019/11/19 19:59:16","新北市新莊區西盛街423號","121.427253333333","25.0121816666667","6500500","新莊區"
"242013","442-UM","2019/11/19 19:59:28","新北市新莊區中港路417巷9號","121.4516","25.047475","6500500","新莊區"
"242002","441-UM","2019/11/19 19:59:24","新北市新莊區中正路170號","121.450915","25.0358566666667","6500500","新莊區"
"242051","400-BY","2019/11/19 19:59:22","新北市新莊區龍安路476號","121.426748333333","25.0176666666667","6500500","新莊區"
"242025","362-BY","2019/11/19 19:59:29","新北市新莊區五工二路86巷29號","121.460336666667","25.0672016666667","6500500","新莊區"
"242023","353-BY","2019/11/19 19:59:29","新北市新莊區化成路380-1號","121.465901666667","25.0500633333333","6500500","新莊區"
"242015","132-UY","2019/11/19 19:59:21","新北市新莊區泰順街47號","121.447346666667","25.0429683333333","6500500","新莊區"
"242039","135-UY","2019/11/19 19:59:21","新北市新莊區民安路312號","121.428451666667","25.0219866666667","6500500","新莊區"
"242056","172-VK","2019/11/19 19:58:36","新北市新莊區中正路347巷27號","121.44724","25.0340383333333","6500500","新莊區"
"242017","173-VK","2019/11/19 19:59:19","新北市新莊區中安街2號","121.452856666667","25.045205","6500500","新莊區"
"242032","175-VK","2019/11/19 19:59:24","新北市新莊區公園一路38號","121.443348333333","25.035515","6500500","新莊區"
"242007","346-TH","2019/11/19 19:59:12","新北市新莊區思源路587號","121.459665","25.059465","6500500","新莊區"
"242021","347-TH","2019/11/19 19:59:13","新北市新莊區建中街16巷8號","121.449451666667","25.038075","6500500","新莊區"
"242037","348-TH","2019/11/19 19:59:14","新北市新莊區建安街27號","121.429046666667","25.02602","6500500","新莊區"
"242009","349-TH","2019/11/19 19:59:23","新北市新莊區中華路二段119號","121.452896666667","25.0502416666667","6500500","新莊區"
"242034","350-TH","2019/11/19 19:59:26","新北市新莊區建中街107號","121.446318333333","25.036515","6500500","新莊區"
"242019","351-TH","2019/11/19 19:59:19","新北市新莊區民生街15巷9號","121.455276666667","25.04259","6500500","新莊區"
"238021","KEA-2539","2019/11/19 19:59:13","新北市樹林區西圳街一段118巷16號","121.39428","24.9668333333333","6500700","樹林區"
"239006","891-R6","2019/11/19 19:59:18","新北市鶯歌區文化路145巷2號","121.356493333333","24.95423","6500800","鶯歌區"
"221008","489-VK","2019/11/19 19:59:32","新北市汐止區康寧街141巷1弄1號","121.621448333333","25.067005","6501100","汐止區"
"221015","131-UY","2019/11/19 19:59:26","新北市汐止區大同路三段21號","121.666425","25.076115","6501100","汐止區"
"221010","269-BY","2019/11/19 19:59:15","新北市汐止區汐萬路二段5號","121.648965","25.0799483333333","6501100","汐止區"
"221012","278-VK","2019/11/19 19:59:15","新北市汐止區大同路三段440號","121.683235","25.0727416666667","6501100","汐止區"
"221023","279-VK","2019/11/19 19:59:22","新北市汐止區民族六街4巷1號","121.62948","25.0701533333333","6501100","汐止區"
"221027","281-BY","2019/11/19 19:59:26","新北市汐止區中正路110號","121.660833333333","25.0694933333333","6501100","汐止區"
"221029","298-VK","2019/11/19 19:59:13","新北市汐止區樟樹一路137巷24號","121.641061666667","25.06601","6501100","汐止區"
"221021","299-VK","2019/11/19 19:59:29","新北市汐止區水源路一段194號","121.654698333333","25.0615083333333","6501100","汐止區"
"221031","353-TW","2019/11/19 19:59:31","新北市汐止區福德一路176巷7弄14號","121.634703333333","25.06649","6501100","汐止區"
"221035","622-UM","2019/11/19 19:59:28","新北市汐止區長江街9號","121.654568333333","25.0712083333333","6501100","汐止區"
"221025","623-UM","2019/11/19 19:59:18","新北市汐止區秀峰路109巷26弄7號","121.661278333333","25.0635333333333","6501100","汐止區"
"221038","646-BX","2019/11/19 19:59:26","新北市汐止區忠孝東路510號","121.666785","25.075405","6501100","汐止區"
"221033","647-BX","2019/11/19 19:59:21","新北市汐止區東勢街190巷1號","121.633861666667","25.0416916666667","6501100","汐止區"
"220079","145-BY","2019/11/19 19:59:22","新北市板橋區民權路302巷14號","121.457825","25.0164416666667","6500100","板橋區"
"220080","200-UY","2019/11/19 19:59:24","新北市板橋區大觀路二段163巷9號","121.446055","25.00027","6500100","板橋區"
"220082","610-BX","2019/11/19 19:59:11","新北市板橋區存德街3號","121.429935","24.991965","6500100","板橋區"
"224002","257-TC","2019/11/19 19:59:26","新北市瑞芳區員山子路3-1號","121.819035","25.1047766666667","6501200","瑞芳區"
"220091","267-BY","2019/11/19 19:59:24","新北市板橋區文聖街101巷2號","121.478","25.0295783333333","6500100","板橋區"
"220056","276-BY","2019/11/19 19:59:20","新北市板橋區四川路二段90號","121.451941666667","24.9946333333333","6500100","板橋區"
"220072","277-BY","2019/11/19 19:59:25","新北市板橋區金門街121巷5號","121.433525","24.9916066666667","6500100","板橋區"
"220101","280-UM","2019/11/19 19:59:17","新北市板橋區莒光路165巷32-2號","121.474216666667","25.024785","6500100","板橋區"
"220094","283-UM","2019/11/19 19:59:21","新北市板橋區文化路一段371號","121.46691","25.0215333333333","6500100","板橋區"
"220071","283-VK","2019/11/19 19:59:21","新北市板橋區五權街30巷24弄24號","121.463708333333","24.9939433333333","6500100","板橋區"
"220053","285-VK","2019/11/19 19:59:22","新北市板橋區懷仁街55號","121.476936666667","25.0189533333333","6500100","板橋區"
"220083","286-VK","2019/11/19 19:59:14","新北市板橋區僑中二街10巷26號","121.44594","25.0111766666667","6500100","板橋區"
"220081","287-VK","2019/11/19 19:59:23","新北市板橋區大觀路一段28巷107-1號","121.44988","25.012205","6500100","板橋區"
"220090","288-VK","2019/11/19 19:59:29","新北市板橋區新海路72巷5弄7號","121.461936666667","25.02236","6500100","板橋區"
"220061","293-UM","2019/11/19 19:59:20","新北市板橋區觀光街4巷2弄1號","121.47235","25.0158083333333","6500100","板橋區"
"220084","296-UM","2019/11/19 19:59:25","新北市板橋區滿平街2巷10號","121.425331666667","24.9895216666667","6500100","板橋區"
"220075","303-R5","2019/11/19 19:59:20","新北市板橋區金華街10巷48弄70號","121.459783333333","25.0203333333333","6500100","板橋區"
"220062","305-R5","2019/11/19 19:59:26","新北市板橋區中山路二段318巷4號","121.480086666667","25.0192133333333","6500100","板橋區"
"220092","307-R5","2019/11/19 19:59:13","新北市板橋區文化路一段45巷16號","121.460416666667","25.0139033333333","6500100","板橋區"
"220098","317-R6","2019/11/19 19:59:23","新北市板橋區裕民街133巷1號","121.459225","25.0270933333333","6500100","板橋區"
"220089","487-VK","2019/11/19 19:59:23","新北市板橋區四維路337號","121.462496666667","25.02963","6500100","板橋區"
"242011","280-VK","2019/11/19 19:59:28","新北市新莊區中港路531巷122號","121.449928333333","25.0515616666667","6500500","新莊區"
"220088","491-VK","2019/11/19 19:59:24","新北市板橋區民治街73-1號","121.479566666667","25.0326533333333","6500100","板橋區"
"220035","560-BX","2019/11/19 19:59:20","新北市板橋區金華街47號","121.456736666667","25.0204683333333","6500100","板橋區"
"220103","561-BX","2019/11/19 19:59:32","新北市板橋區漢生東路53巷27號","121.466633333333","25.0174","6500100","板橋區"
"220063","609-BX","2019/11/19 19:59:14","新北市板橋區中山路二段84-6號","121.474958333333","25.0162233333333","6500100","板橋區"
"220077","687-BX","2019/11/19 19:59:29","新北市板橋區僑中一街100號","121.446686666667","25.0116533333333","6500100","板橋區"
"220093","689-BX","2019/11/19 19:59:27","新北市板橋區長江路一段147號","121.460915","25.0302916666667","6500100","板橋區"
"220054","741-BX","2019/11/19 19:59:23","新北市板橋區忠孝路忠義巷15弄23號","121.46563","25.0042266666667","6500100","板橋區"
"220102","KEA-2699","2019/11/19 19:59:14","新北市板橋區莒光路16巷5號","121.469665","25.0243383333333","6500100","板橋區"
"220055","827-TW","2019/11/19 19:59:14","新北市板橋區仁愛路62巷15弄2號","121.459998333333","24.9984366666667","6500100","板橋區"
"220068","830-TW","2019/11/19 19:59:28","新北市板橋區光復街234號","121.484575","25.0217916666667","6500100","板橋區"
"220067","831-TW","2019/11/19 19:59:33","新北市板橋區中山路一段206巷74號","121.472508333333","25.013385","6500100","板橋區"
"220057","833-TW","2019/11/19 19:59:16","新北市板橋區四川路二段98-1號","121.451011666667","24.99421","6500100","板橋區"
"220074","895-R6","2019/11/19 19:59:24","新北市板橋區明德街2號","121.459796666667","25.010135","6500100","板橋區"
"220073","985-R7","2019/11/19 19:59:23","新北市板橋區南雅西路二段206號","121.451895","25.0149733333333","6500100","板橋區"
"220097","AAC-210","2019/11/19 19:59:23","新北市板橋區復興街135號","121.4611","25.017985","6500100","板橋區"
"220064","AAC-253","2019/11/19 19:59:22","新北市板橋區長安街331巷106-4號","121.471745","25.0126033333333","6500100","板橋區"
"235068","KEA-2873","2019/11/19 19:59:28","新北市中和區福美路301巷19號","121.497603333333","25.0040883333333","6500300","中和區"
