"lineid","car","time","location","longitude","latitude","cityid","cityname"
"234064","337-UY","2019/11/19 20:43:29","新北市永和區永元路126號","121.522925","25.0029783333333","6500400","永和區"
"234030","746-BX","2019/11/19 20:43:24","新北市新店區安和路三段1-1號","121.517041666667","24.9795266666667","6500400","永和區"
"234042","862-TW","2019/11/19 20:43:26","新北市永和區永元路138號","121.522908333333","25.0032166666667","6500400","永和區"
"249001","173-UM","2019/11/19 20:43:28","新北市八里區中山路三段227號","121.381996666667","25.1404116666667","6502300","八里區"
"249004","303-UY","2019/11/19 20:43:12","新北市八里區中山路一段157巷63號","121.412558333333","25.1579016666667","6502300","八里區"
"234074","AAC-211","2019/11/19 20:43:26","新北市永和區環河東路一段140號","121.52096","25.0150683333333","6500400","永和區"
"222003","436-BY","2019/11/19 20:43:28","新北市深坑區文山路三段48-1號","121.609951666667","24.9985283333333","6501800","深坑區"
"222002","659-BX","2019/11/19 20:43:25","新北市深坑區北深路三段248號","121.60004","25.0043616666667","6501800","深坑區"
"231061","002-UM","2019/11/19 20:43:27","新北市新店區新和街69號","121.520211666667","24.9857666666667","6500600","新店區"
"231044","046-UY","2019/11/19 20:43:13","新北市新店區建國路221號","121.537666666667","24.9814416666667","6500600","新店區"
"231060","106-UY","2019/11/19 20:43:29","新北市新店區錦秀路1號","121.478993333333","24.9458983333333","6500600","新店區"
"231051","107-UY","2019/11/19 20:43:28","新北市新店區中央七街97號","121.526273333333","24.9772883333333","6500600","新店區"
"231049","108-UY","2019/11/19 20:43:20","新北市新店區永業路81巷5弄33號","121.531016666667","24.9500066666667","6500600","新店區"
"231065","110-UY","2019/11/19 20:43:14","新北市新店區安祥路104巷59號","121.483131666667","24.9638316666667","6500600","新店區"
"231068","187-VK","2019/11/19 20:43:25","新北市新店區寶元路一段85巷1號","121.543011666667","24.9855316666667","6500600","新店區"
"231062","256-BX","2019/11/19 20:43:18","新北市新店區安泰路60巷55弄86號","121.484653333333","24.945565","6500600","新店區"
"231054","260-TV","2019/11/19 20:43:16","新北市新店區北新路一段88巷3號","121.542286666667","24.9674733333333","6500600","新店區"
"231042","268-BY","2019/11/19 20:43:10","新北市新店區寶高路118號","121.554513333333","24.9759816666667","6500600","新店區"
"231064","278-BY","2019/11/19 20:43:23","新北市新店區安民街379巷3號","121.51608","24.976265","6500600","新店區"
"231050","AAD-862","2019/11/19 20:43:24","新北市新店區中正路247巷6弄2號","121.538701666667","24.9728","6500600","新店區"
"231045","355-BY","2019/11/19 20:43:30","新北市新店區長春路19巷15號","121.548681666667","24.956065","6500600","新店區"
"231056","4715-K9","2019/11/19 20:43:32","新北市新店區安興路57號","121.516458333333","24.97201","6500600","新店區"
"231067","4772-VM","2019/11/19 20:43:21","新北市新店區安康路一段355-4號","121.51739","24.9639583333333","6500600","新店區"
"231053","513-UM","2019/11/19 20:43:22","新北市新店區松林路1號","121.547068333333","24.91214","6500600","新店區"
"231040","617-UM","2019/11/19 20:43:29","新北市新店區中正路270號","121.539098333333","24.97375","6500600","新店區"
"231041","619-UM","2019/11/19 20:43:25","新北市新店區中正路707號","121.533845","24.991135","6500600","新店區"
"231063","641-BX","2019/11/19 20:43:02","新北市新店區如意街1巷2號","121.495718333333","24.9494866666667","6500600","新店區"
"231048","KED-0819","2019/11/19 20:43:12","新北市新店區寶元路一段109號","121.545705","24.98311","6500600","新店區"
"231057","720-UM","2019/11/19 20:43:25","新北市新店區新烏路一段205-2號","121.547631666667","24.9325783333333","6500600","新店區"
"231059","897-TW","2019/11/19 20:43:21","新北市新店區僑信路123號","121.500778333333","24.9458133333333","6500600","新店區"
"231043","899-TW","2019/11/19 20:43:10","新北市新店區博愛街13巷24號","121.54019","24.9740083333333","6500600","新店區"
"231066","AKT-0513","2019/11/19 20:43:27","新北市新店區安民街365巷7弄2號","121.516025","24.97529","6500600","新店區"
"241011","013-R5","2019/11/19 20:43:21","新北市三重區龍濱路217號","121.501886666667","25.0719783333333","6500200","三重區"
"241028","022-UY","2019/11/19 20:43:23","新北市三重區中正南路50號","121.493958333333","25.059925","6500200","三重區"
"241008","059-VK","2019/11/19 20:43:20","新北市三重區下竹圍街42-1號","121.48102","25.0748566666667","6500200","三重區"
"241031","061-VK","2019/11/19 20:43:14","新北市三重區重陽路一段113巷1弄51號","121.48808","25.0584266666667","6500200","三重區"
"241015","062-VK","2019/11/19 20:43:19","新北市三重區三和路二段228號","121.497505","25.0696366666667","6500200","三重區"
"241017","063-VK","2019/11/19 20:43:27","新北市三重區民生街58號","121.491495","25.06663","6500200","三重區"
"241024","065-VK","2019/11/19 20:43:29","新北市三重區三民街206巷16號","121.480538333333","25.0663466666667","6500200","三重區"
"241002","090-VK","2019/11/19 20:43:26","新北市三重區仁義街159巷1號","121.497313333333","25.0811916666667","6500200","三重區"
"241003","091-VK","2019/11/19 20:43:19","新北市三重區五華街141巷58號","121.493568333333","25.0867633333333","6500200","三重區"
"241007","742-BX","2019/11/19 20:43:21","新北市三重區三和路四段99號","121.487336666667","25.0763816666667","6500200","三重區"
"241006","262-UM","2019/11/19 20:43:22","新北市三重區車路頭街135-1號","121.484218333333","25.07618","6500200","三重區"
"241014","316-R6","2019/11/19 20:43:27","新北市三重區安和路97號","121.500845","25.0696566666667","6500200","三重區"
"241016","266-UM","2019/11/19 20:43:29","新北市三重區正義北路202號","121.496171666667","25.06718","6500200","三重區"
"241009","267-UM","2019/11/19 20:43:19","新北市三重區碧華街49號","121.484583333333","25.0813716666667","6500200","三重區"
"241018","268-UM","2019/11/19 20:43:24","新北市三重區正義北路317號","121.494181666667","25.0712616666667","6500200","三重區"
"241032","269-UM","2019/11/19 20:43:18","新北市三重區重陽路一段120巷35號","121.485103333333","25.0601766666667","6500200","三重區"
"241013","270-UM","2019/11/19 20:43:16","新北市三重區三和路三段124號","121.493698333333","25.0725466666667","6500200","三重區"
"241025","271-UM","2019/11/19 20:43:31","新北市三重區中華路81號","121.483575","25.0627533333333","6500200","三重區"
"241035","KEA-2210","2019/11/19 20:43:17","新北市三重區三和路三段41號","121.495613333333","25.0712966666667","6500200","三重區"
"241030","KED-0822","2019/11/19 20:43:31","新北市三重區成功路73巷18號","121.48944","25.051965","6500200","三重區"
"241004","475-VK","2019/11/19 20:43:27","新北市三重區仁愛街406巷3號","121.490693333333","25.0811816666667","6500200","三重區"
"241020","478-VK","2019/11/19 20:43:14","新北市三重區忠孝路一段101號","121.489508333333","25.0721566666667","6500200","三重區"
"241026","480-VK","2019/11/19 20:43:28","新北市三重區和平街1號","121.50008","25.0622516666667","6500200","三重區"
"241023","545-UM","2019/11/19 20:43:18","新北市三重區忠孝路三段75巷5號","121.480338333333","25.0660416666667","6500200","三重區"
"241001","547-UM","2019/11/19 20:43:16","新北市三重區自強路三段110巷31號","121.485646666667","25.0745083333333","6500200","三重區"
"241019","KEA-2593","2019/11/19 20:43:11","新北市三重區忠孝路一段2號","121.492793333333","25.0715866666667","6500200","三重區"
"241005","AAD-863","2019/11/19 20:43:17","新北市三重區三信路182號","121.488021666667","25.0860916666667","6500200","三重區"
"241012","743-BX","2019/11/19 20:43:24","新北市三重區龍門路274巷45號","121.501208333333","25.0755383333333","6500200","三重區"
"241022","KED-0820","2019/11/19 20:43:19","新北市三重區重陽路二段19巷12號","121.488051666667","25.062445","6500200","三重區"
"241029","942-UM","2019/11/19 20:43:27","新北市三重區環河南路220-12號","121.494213333333","25.0530333333333","6500200","三重區"
"241033","AAC-255","2019/11/19 20:43:11","新北市三重區中興北街177號","121.469103333333","25.0559933333333","6500200","三重區"
"235055","183-VK","2019/11/19 20:43:29","新北市五股區凌雲路二段18巷12號","121.444753333333","25.1068783333333","6500300","中和區"
"247016","KEA-2869","2019/11/19 20:41:54","新北市蘆洲區中山一路310號","121.469501666667","25.0774866666667","6501400","蘆洲區"
"247010","KED-0682","2019/11/19 20:43:20","新北市蘆洲區民族路7號","121.47573","25.0839733333333","6501400","蘆洲區"
"235069","4980-A6","2019/11/19 20:43:22","新北市中和區連城路308號","121.483748333333","24.9962983333333","6500300","中和區"
"247006","893-R6","2019/11/19 20:43:28","新北市蘆洲區和平路121巷12號","121.466961666667","25.0796166666667","6501400","蘆洲區"
"247004","500-BY","2019/11/19 20:43:24","新北市蘆洲區長安街227號","121.459536666667","25.0827116666667","6501400","蘆洲區"
"247024","057-VK","2019/11/19 20:43:29","新北市蘆洲區長樂路166號","121.462458333333","25.0909133333333","6501400","蘆洲區"
"247014","056-VK","2019/11/19 20:43:13","新北市蘆洲區中山二路101號","121.4727","25.08173","6501400","蘆洲區"
"247018","053-VK","2019/11/19 20:43:21","新北市蘆洲區民權路70號","121.474998333333","25.0872966666667","6501400","蘆洲區"
"247022","007-UY","2019/11/19 20:43:24","新北市蘆洲區民權路141號","121.471623333333","25.0903633333333","6501400","蘆洲區"
"247008","002-UY","2019/11/19 20:43:14","新北市蘆洲區永安北路二段8巷16號","121.480355","25.080985","6501400","蘆洲區"
"247002","001-UY","2019/11/19 20:43:13","新北市蘆洲區長榮路394號","121.459616666667","25.087485","6501400","蘆洲區"
"222001","KEA-2212","2019/11/19 20:43:18","新北市深坑區北深路三段208號","121.6013","25.0038333333333","6501800","深坑區"
"251001","011-UM","2019/11/19 20:43:23","新北市淡水區忠愛街4號","121.459678333333","25.17135","6501000","淡水區"
"251002","012-UM","2019/11/19 20:43:29","新北市淡水區中正路30號","121.444101666667","25.1691116666667","6501000","淡水區"
"251015","KEA-2871","2019/11/19 20:43:23","新北市淡水區淡金路三段446號","121.45083","25.2144","6501000","淡水區"
"251016","180-VK","2019/11/19 20:43:22","新北市淡水區後洲子11號","121.446653333333","25.225125","6501000","淡水區"
"251013","182-VK","2019/11/19 20:43:18","新北市淡水區下圭柔山28巷17號","121.457938333333","25.20388","6501000","淡水區"
"251010","413-VK","2019/11/19 20:43:26","新北市淡水區沙崙路133號","121.422806666667","25.1827166666667","6501000","淡水區"
"251012","441-VK","2019/11/19 20:43:14","新北市淡水區興仁路103巷48號","121.450285","25.2170833333333","6501000","淡水區"
"251007","442-VK","2019/11/19 20:43:29","新北市淡水區學府路102巷62號","121.453446666667","25.17113","6501000","淡水區"
"251006","561-UM","2019/11/19 20:43:25","新北市淡水區商工路143號","121.447295","25.188285","6501000","淡水區"
"251014","577-R6","2019/11/19 20:43:23","新北市淡水區公埔子32-8號","121.461636666667","25.2323483333333","6501000","淡水區"
"251003","673-BX","2019/11/19 20:43:13","新北市淡水區新民街120巷54號","121.438808333333","25.17838","6501000","淡水區"
"247012","KED-0683","2019/11/19 20:43:13","新北市蘆洲區中興街66號","121.4821","25.0879416666667","6501400","蘆洲區"
"242042","AAC-296","2019/11/19 20:43:30","新北市新莊區天祥街11號","121.417141666667","25.02749","6500500","新莊區"
"242061","986-R7","2019/11/19 20:43:19","新北市新莊區新樹路262號","121.43265","25.0148516666667","6500500","新莊區"
"242005","751-BX","2019/11/19 20:43:26","新北市新莊區化成路371巷23號","121.463783333333","25.057125","6500500","新莊區"
"242029","615-BX","2019/11/19 20:43:27","新北市新莊區中華路二段71巷2號","121.452836666667","25.047525","6500500","新莊區"
"242027","613-BX","2019/11/19 20:43:27","新北市新莊區思源路163號","121.459805","25.044755","6500500","新莊區"
"242058","612-BX","2019/11/19 20:43:24","新北市新莊區四維路95號","121.423411666667","25.0237766666667","6500500","新莊區"
"242048","566-BX","2019/11/19 20:43:26","新北市新莊區中正路833號","121.420615","25.0283133333333","6500500","新莊區"
"242054","497-BY","2019/11/19 20:43:16","新北市新莊區民安西路189巷10弄24號","121.426411666667","25.0150466666667","6500500","新莊區"
"242013","442-UM","2019/11/19 20:43:28","新北市新莊區中和街191巷25號","121.447213333333","25.0507633333333","6500500","新莊區"
"242002","441-UM","2019/11/19 20:43:24","新北市新莊區中港路五守新村16巷2號","121.454806666667","25.038855","6500500","新莊區"
"242044","415-TV","2019/11/19 20:43:13","新北市新莊區龍安路92號","121.41768","25.02077","6500500","新莊區"
"242051","400-BY","2019/11/19 20:43:22","新北市新莊區民安西路47號","121.427441666667","25.0206433333333","6500500","新莊區"
"242025","362-BY","2019/11/19 20:43:14","新北市三重區疏洪西路400號","121.468786666667","25.0640216666667","6500500","新莊區"
"242023","353-BY","2019/11/19 20:43:18","新北市新莊區化成路152號","121.465428333333","25.0450416666667","6500500","新莊區"
"242015","132-UY","2019/11/19 20:43:21","新北市新莊區中和街2號","121.448455","25.0429016666667","6500500","新莊區"
"242039","135-UY","2019/11/19 20:43:21","新北市新莊區瓊林路204-8號","121.43785","25.0210933333333","6500500","新莊區"
"242056","172-VK","2019/11/19 20:43:16","新北市新莊區瓊泰路94巷48號","121.444878333333","25.0294233333333","6500500","新莊區"
"242017","173-VK","2019/11/19 20:43:19","新北市新莊區中平路82巷25號","121.446348333333","25.04552","6500500","新莊區"
"242032","175-VK","2019/11/19 20:43:24","新北市新莊區中正路589號","121.434195","25.0326483333333","6500500","新莊區"
"242007","346-TH","2019/11/19 20:43:12","新北市新莊區思源路287巷19號","121.45884","25.0482216666667","6500500","新莊區"
"242021","347-TH","2019/11/19 20:43:21","新北市新莊區公園路102號","121.450881666667","25.03999","6500500","新莊區"
"242037","348-TH","2019/11/19 20:43:14","新北市新莊區建國一路18號","121.433635","25.0317083333333","6500500","新莊區"
"242009","349-TH","2019/11/19 20:43:23","新北市新莊區福壽街99巷11弄2號","121.45742","25.0503966666667","6500500","新莊區"
"242034","350-TH","2019/11/19 20:43:28","新北市新莊區中正路343號","121.447235","25.034995","6500500","新莊區"
"242019","351-TH","2019/11/19 20:43:19","新北市新莊區中正路115號","121.460211666667","25.0385383333333","6500500","新莊區"
"221008","489-VK","2019/11/19 20:43:12","新北市汐止區康寧街688號","121.637145","25.07181","6501100","汐止區"
"221036","130-UY","2019/11/19 20:43:14","新北市汐止區新昌路19號","121.661863333333","25.06756","6501100","汐止區"
"221015","131-UY","2019/11/19 20:43:26","新北市汐止區建成路26號","121.664563333333","25.0727183333333","6501100","汐止區"
"221012","278-VK","2019/11/19 20:43:15","新北市汐止區保新街283號","121.692736666667","25.06831","6501100","汐止區"
"221023","279-VK","2019/11/19 20:43:22","新北市汐止區民族二街30巷21號","121.6339","25.0716916666667","6501100","汐止區"
"221027","281-BY","2019/11/19 20:43:26","新北市汐止區大同路二段447號","121.65957","25.0675766666667","6501100","汐止區"
"221029","298-VK","2019/11/19 20:43:13","新北市汐止區大同路一段433號","121.642841666667","25.0612633333333","6501100","汐止區"
"221021","299-VK","2019/11/19 20:43:29","新北市汐止區水源路一段284號","121.65422","25.0583333333333","6501100","汐止區"
"221031","353-TW","2019/11/19 20:43:11","新北市汐止區中興路27巷21號","121.634108333333","25.060835","6501100","汐止區"
"221035","622-UM","2019/11/19 20:43:16","新北市汐止區長江街101-5號","121.658695","25.0732116666667","6501100","汐止區"
"221025","623-UM","2019/11/19 20:43:18","新北市汐止區水源路二段236號","121.65869","25.05103","6501100","汐止區"
"221033","647-BX","2019/11/19 20:43:21","新北市汐止區合順街18巷8弄5號","121.620355","25.0419366666667","6501100","汐止區"
"221002","707-TV","2019/11/19 20:43:19","新北市汐止區福德二路165號","121.630956666667","25.0652116666667","6501100","汐止區"
"220083","286-VK","2019/11/19 20:43:14","新北市板橋區僑中二街116巷9-3號","121.445203333333","25.0064983333333","6500100","板橋區"
"242046","281-VK","2019/11/19 20:43:20","新北市新莊區裕民街67號","121.41866","25.0242933333333","6500500","新莊區"
"220075","303-R5","2019/11/19 20:43:20","新北市樹林區中山路三段210-2號","121.380653333333","24.9666783333333","6500100","板橋區"
"242011","280-VK","2019/11/19 20:43:27","新北市新莊區新北大道四段209號","121.444615","25.0560333333333","6500500","新莊區"
