"lineid","car","time","location","longitude","latitude","cityid","cityname"
"232017","290-BY","2019/12/30 07:13:38","新北市坪林區九芎坑4號","121.72629","24.9623616666667","6502000","坪林區"
"232005","291-BY","2019/12/30 07:13:31","新北市坪林區魚堀40-3號","121.700175","24.93219","6502000","坪林區"
"232010","375-UM","2019/12/30 07:13:27","新北市坪林區水聳淒坑6號","121.725696666667","24.9262716666667","6502000","坪林區"
"232012","705-BZ","2019/12/30 07:13:38","新北市坪林區黃舉皮寮14-1號","121.688478333333","24.93476","6502000","坪林區"
"232001","758-BX","2019/12/30 07:13:40","新北市坪林區桶盤嶼10-1號","121.706583333333","24.9584533333333","6502000","坪林區"
"244001","248-BX","2019/12/30 07:13:36","新北市林口區南勢里71-36號","121.3574","25.079005","6501700","林口區"
"222004","289-BY","2019/12/30 07:13:26","新北市深坑區深坑街85號","121.614626666667","25.0013416666667","6501800","深坑區"
"223002","KEA-2673","2019/12/30 07:13:31","新北市石碇區碇格路二段31號","121.638843333333","24.9574066666667","6501900","石碇區"
"223003","205-TH","2019/12/30 07:13:24","新北市石碇區烏塗窟14-1號","121.65625","24.9756516666667","6501900","石碇區"
"223008","406-TH","2019/12/30 07:13:35","新北市石碇區番子坑24-1號","121.678243333333","25.0016933333333","6501900","石碇區"
"223001","592-UM","2019/12/30 07:13:45","新北市石碇區烏塗窟8號","121.655805","24.9751583333333","6501900","石碇區"
"223004","660-BX","2019/12/30 07:13:26","新北市石碇區靜安路一段88號","121.647395","25.0107583333333","6501900","石碇區"
"223007","661-BX","2019/12/30 07:13:30","新北市石碇區番子坑14-2號","121.679785","25.00171","6501900","石碇區"
"227003","282-VK","2019/12/30 07:13:28","新北市雙溪區新基里自強路5-1號","121.866366666667","25.039105","6502500","雙溪區"
"252006","073-UM","2019/12/30 07:13:45","新北市三芝區福德里埔尾9-19號","121.499356666667","25.2428883333333","6502100","三芝區"
"252004","249-BX","2019/12/30 07:13:41","新北市三芝區錫板里小坑子11號","121.503461666667","25.23767","6502100","三芝區"
