"lineid","car","time","location","longitude","latitude","cityid","cityname"
"232017","290-BY","2019/12/30 07:43:38","新北市坪林區乾溪1號","121.741728333333","24.9767133333333","6502000","坪林區"
"232005","291-BY","2019/12/30 07:43:31","新北市坪林區魚堀49號","121.701405","24.9298783333333","6502000","坪林區"
"232010","375-UM","2019/12/30 07:43:27","新北市坪林區磨壁潭5號","121.721626666667","24.938545","6502000","坪林區"
"232012","705-BZ","2019/12/30 07:43:38","新北市坪林區金瓜寮13-1號","121.68183","24.91603","6502000","坪林區"
"232001","758-BX","2019/12/30 07:43:40","新北市坪林區下坑子口19-2號","121.708056666667","24.9476233333333","6502000","坪林區"
"244001","248-BX","2019/12/30 07:43:36","新北市林口區頂福20-18號","121.353945","25.0925433333333","6501700","林口區"
"244008","656-BX","2019/12/30 07:43:37","新北市林口區粉寮69號","121.404986666667","25.0908516666667","6501700","林口區"
"222004","289-BY","2019/12/30 07:43:26","新北市深坑區文化街39巷1號","121.618868333333","25.0011283333333","6501800","深坑區"
"231008","192-VK","2019/12/30 07:43:28","新北市新店區安一路一段1-1號","121.519315","24.9611716666667","6500600","新店區"
"223003","205-TH","2019/12/30 07:41:24","新北市石碇區烏塗窟36-1號","121.65636","24.9722","6501900","石碇區"
"223008","406-TH","2019/12/30 07:37:03","新北市石碇區靜安路一段337號","121.6988","25.0146366666667","6501900","石碇區"
"223001","592-UM","2019/12/30 07:41:26","新北市石碇區烏塗窟40號","121.656575","24.9717933333333","6501900","石碇區"
"223004","660-BX","2019/12/30 07:43:43","新北市石碇區八分寮47號","121.642395","25.0139866666667","6501900","石碇區"
"223007","661-BX","2019/12/30 07:42:22","新北市石碇區靜安路一段337號","121.698938333333","25.0145683333333","6501900","石碇區"
"227003","282-VK","2019/12/30 07:43:28","新北市雙溪區雙溪里太平路41號","121.864701666667","25.0356183333333","6502500","雙溪區"
"252006","073-UM","2019/12/30 07:43:25","新北市三芝區車新路29號","121.484926666667","25.2651116666667","6502100","三芝區"
"252004","249-BX","2019/12/30 07:43:40","新北市三芝區店子里菜公坑99-3號","121.512858333333","25.2061433333333","6502100","三芝區"
"242040","AAC-296","2019/12/30 07:43:40","新北市新莊區三和路12-21號","121.442178333333","25.0384766666667","6500500","新莊區"
"242059","986-R7","2019/12/30 07:43:44","新北市新莊區新泰路357巷3弄57號","121.442195","25.0394","6500500","新莊區"
"242003","751-BX","2019/12/30 07:43:25","新北市新莊區三和路12-20號","121.442323333333","25.03782","6500500","新莊區"
"242024","705-TV","2019/12/30 07:43:32","新北市新莊區新泰路357巷3弄19號","121.442461666667","25.04079","6500500","新莊區"
"242028","615-BX","2019/12/30 07:43:42","新北市新莊區幸福路914號","121.44256","25.0487716666667","6500500","新莊區"
"242026","613-BX","2019/12/30 07:43:43","新北市新莊區三和路12-21號","121.442401666667","25.0381333333333","6500500","新莊區"
"242057","612-BX","2019/12/30 07:43:41","新北市新莊區新泰路357巷3弄57號","121.44213","25.0392183333333","6500500","新莊區"
"242047","566-BX","2019/12/30 07:43:33","新北市新莊區中正路488號","121.436525","25.032995","6500500","新莊區"
"242052","497-BY","2019/12/30 07:43:43","新北市新莊區中正路386號","121.441893333333","25.034955","6500500","新莊區"
"242016","442-UM","2019/12/30 07:35:47","新北市新莊區三和路12-21號","121.442075","25.0386366666667","6500500","新莊區"
"242001","441-UM","2019/12/30 07:43:41","新北市新莊區新泰路207號","121.446895","25.0385","6500500","新莊區"
"242043","415-TV","2019/12/30 07:43:24","新北市新莊區中正路400號","121.441758333333","25.0343583333333","6500500","新莊區"
"242012","413-TV","2019/12/30 07:43:44","新北市新莊區三和路18-25號","121.441778333333","25.03919","6500500","新莊區"
"242049","400-BY","2019/12/30 07:43:38","新北市新莊區新泰路357巷2號","121.442148333333","25.0414466666667","6500500","新莊區"
"242022","353-BY","2019/12/30 07:43:11","新北市新莊區三和路12-21號","121.442195","25.0386433333333","6500500","新莊區"
"242014","132-UY","2019/12/30 07:39:22","新北市新莊區三和路12-21號","121.44208","25.0388","6500500","新莊區"
"242038","135-UY","2019/12/30 07:43:43","新北市新莊區三和路10號","121.44183","25.0356716666667","6500500","新莊區"
"242030","175-VK","2019/12/30 07:43:43","新北市新莊區三和路12-21號","121.441956666667","25.0385633333333","6500500","新莊區"
"242055","176-VK","2019/12/30 07:43:35","新北市新莊區三和路10號","121.441893333333","25.0357733333333","6500500","新莊區"
"242020","KED-0687","2019/12/30 07:43:39","新北市新莊區三和路12-21號","121.442166666667","25.0381033333333","6500500","新莊區"
"242018","346-TH","2019/12/30 07:43:35","新北市新莊區三和路12-21號","121.441815","25.0384016666667","6500500","新莊區"
"242035","348-TH","2019/12/30 07:43:35","新北市新莊區三和路12-11號","121.442306666667","25.0369316666667","6500500","新莊區"
"242008","349-TH","2019/12/30 07:29:16","新北市新莊區三和路12-21號","121.442261666667","25.0382883333333","6500500","新莊區"
"242033","350-TH","2019/12/30 07:43:42","新北市新莊區新泰路255巷83號","121.442368333333","25.0388983333333","6500500","新莊區"
"242045","281-VK","2019/12/30 07:43:27","新北市新莊區中正路386號","121.441883333333","25.03472","6500500","新莊區"
"242010","280-VK","2019/12/30 07:43:36","新北市新莊區三和路12-21號","121.442093333333","25.0383733333333","6500500","新莊區"
