"lineid","car","time","location","longitude","latitude","cityid","cityname"
"244004","248-BX","2019/11/29 07:59:36","新北市林口區下福里147-15號","121.300288333333","25.11627","6501700","林口區"
"222004","289-BY","2019/11/29 07:59:35","新北市深坑區文化街45號","121.616956666667","25.0017716666667","6501800","深坑區"
"231009","192-VK","2019/11/29 07:59:34","新北市新店區北宜路一段215號","121.547528333333","24.95205","6500600","新店區"
"231065","KEA-2219","2019/11/29 07:59:52","新北市新店區新和街33號","121.518988333333","24.9847266666667","6500600","新店區"
"223003","205-TH","2019/11/29 07:58:57","新北市石碇區樟空子10-2號","121.66688","24.961645","6501900","石碇區"
"223001","592-UM","2019/11/29 07:59:49","新北市石碇區橫坪1-4號","121.66984","24.9659533333333","6501900","石碇區"
"223004","660-BX","2019/11/29 07:59:34","新北市石碇區楓子林61-2號","121.645076666667","25.0104216666667","6501900","石碇區"
"223007","661-BX","2019/11/29 07:40:34","新北市石碇區靜安路一段337號","121.698915","25.0143816666667","6501900","石碇區"
"227003","282-VK","2019/11/29 07:59:39","新北市雙溪區平林里梅竹蹊16號","121.862021666667","25.0359883333333","6502500","雙溪區"
"237013","760-BX","2019/11/29 07:59:42","新北市三峽區紫微南路83號","121.420686666667","24.904905","6500900","三峽區"
