"lineid","car","time","location","longitude","latitude","cityid","cityname"
"222004","289-BY","2019/11/29 09:43:35","新北市深坑區北深路一段288號","121.628318333333","25.0077816666667","6501800","深坑區"
"231007","189-VK","2019/11/29 09:43:45","新北市新店區新潭路三段181-1號","121.50969","24.9067833333333","6500600","新店區"
"231009","192-VK","2019/11/29 09:43:34","新北市新店區小坑一路12-6號","121.535265","24.9126966666667","6500600","新店區"
"223001","592-UM","2019/11/29 09:43:49","新北市石碇區北宜路四段6號","121.614238333333","24.9611983333333","6501900","石碇區"
"227003","282-VK","2019/11/29 09:33:39","新北市雙溪區泰平里溪尾寮7號","121.821263333333","24.9596066666667","6502500","雙溪區"
"237013","760-BX","2019/11/29 09:43:42","新北市三峽區成福路19號","121.417253333333","24.928535","6500900","三峽區"
