"lineid","car","time","location","longitude","latitude","cityid","cityname"
"234046","148-BY","2019/11/29 18:59:39","新北市永和區得和路373巷31弄4號","121.524945","25.0005016666667","6500400","永和區"
"234081","298-R6","2019/11/29 18:59:29","新北市永和區國中路156號","121.5226","25.006705","6500400","永和區"
"234038","336-UY","2019/11/29 18:59:27","新北市永和區成功路二段207號","121.526621666667","24.9959183333333","6500400","永和區"
"234064","337-UY","2019/11/29 18:59:36","新北市永和區秀朗路一段126號","121.517755","25.0034233333333","6500400","永和區"
"234086","338-UY","2019/11/29 18:59:38","新北市永和區永利路18號","121.518021666667","25.00577","6500400","永和區"
"234070","552-UM","2019/11/29 18:59:40","新北市永和區中興街98號","121.518976666667","25.012055","6500400","永和區"
"234017","745-BX","2019/11/29 18:59:34","新北市永和區永和路二段310號","121.516148333333","25.0160883333333","6500400","永和區"
"234030","746-BX","2019/11/29 18:59:43","新北市永和區四維街56號","121.524656666667","24.9982","6500400","永和區"
"234054","KEA-2590","2019/11/29 18:59:32","新北市永和區竹林路66巷2號","121.518336666667","25.0133166666667","6500400","永和區"
"234007","KED-0605","2019/11/29 18:59:32","新北市永和區中山路一段62號","121.512816666667","25.0107316666667","6500400","永和區"
"234013","KEA-2591","2019/11/29 18:59:29","新北市永和區中山路一段60巷4號","121.513023333333","25.010925","6500400","永和區"
"234061","AAD-866","2019/11/29 18:59:26","新北市永和區福和路307號","121.516261666667","25.00711","6500400","永和區"
"234042","862-TW","2019/11/29 18:59:35","新北市永和區永貞路304號","121.511918333333","25.004775","6500400","永和區"
"234050","863-TW","2019/11/29 18:59:28","新北市永和區文化路194號","121.51073","25.01621","6500400","永和區"
"234026","9371-KE","2019/11/29 18:59:41","新北市永和區安樂路461號","121.514336666667","25.00521","6500400","永和區"
"234011","9373-KE","2019/11/29 18:59:38","新北市永和區信義路77號","121.512363333333","25.0131616666667","6500400","永和區"
"249005","172-UM","2019/11/29 18:59:25","新北市八里區長道坑2號","121.393518333333","25.1254816666667","6502300","八里區"
"249001","173-UM","2019/11/29 18:59:26","新北市八里區龍米路二段218號","121.433128333333","25.1584683333333","6502300","八里區"
"249003","759-BX","2019/11/29 18:59:40","新北市八里區中山路二段356巷56號","121.399516666667","25.1512516666667","6502300","八里區"
"248016","026-BX","2019/11/29 18:59:28","新北市五股區成泰路三段559巷14弄2號","121.451365","25.1024016666667","6501500","五股區"
"248006","077-UY","2019/11/29 18:59:32","新北市五股區四維路173號","121.46792","25.0750816666667","6501500","五股區"
"248008","KED-0815","2019/11/29 18:59:43","新北市五股區中興路一段118巷6弄36號","121.466386666667","25.0753016666667","6501500","五股區"
"248018","KED-0813","2019/11/29 18:59:33","新北市五股區民義路一段287巷2-3號","121.423638333333","25.0907116666667","6501500","五股區"
"248012","247-BX","2019/11/29 18:59:42","新北市五股區工商路38號","121.439425","25.0837383333333","6501500","五股區"
"248010","272-BY","2019/11/29 18:59:40","新北市五股區水碓七路28號","121.428883333333","25.0715833333333","6501500","五股區"
"248004","677-BX","2019/11/29 18:59:41","新北市五股區民義路一段222號","121.429203333333","25.0903483333333","6501500","五股區"
"248002","678-BX","2019/11/29 18:59:29","新北市五股區凌雲路一段158巷6號","121.447956666667","25.1027716666667","6501500","五股區"
"234023","9380-KE","2019/11/29 18:59:34","新北市永和區環河東路一段158號","121.521108333333","25.0145566666667","6500400","永和區"
"234077","969-R7","2019/11/29 18:59:28","新北市永和區得和路104巷8號","121.51804","24.99976","6500400","永和區"
"234067","AAC-212","2019/11/29 18:59:31","新北市永和區自由街53號","121.513773333333","25.0057033333333","6500400","永和區"
"234003","AAC-295","2019/11/29 18:59:32","新北市永和區和平街46號","121.512861666667","25.0100033333333","6500400","永和區"
"232011","375-UM","2019/11/29 18:59:29","新北市坪林區坪林街10-2號","121.712931666667","24.9355833333333","6502000","坪林區"
"244013","KEA-2802","2019/11/29 18:59:41","新北市林口區文化一路一段126號","121.375678333333","25.0722816666667","6501700","林口區"
"244023","483-VK","2019/11/29 18:59:27","新北市林口區民權路200號","121.37449","25.0843733333333","6501700","林口區"
"244017","485-VK","2019/11/29 18:59:36","新北市林口區文化二路一段120巷1-1號","121.368071666667","25.0705633333333","6501700","林口區"
"244011","701-TV","2019/11/29 18:59:26","新北市林口區竹林路63號","121.387718333333","25.07847","6501700","林口區"
"244025","837-TS","2019/11/29 18:59:28","新北市林口區南勢一街22號","121.360855","25.0755283333333","6501700","林口區"
"208001","267-VK","2019/11/29 18:59:35","新北市金山區民生路51巷1-2號","121.641943333333","25.220145","6502700","金山區"
"243012","AAD-798","2019/11/29 18:59:33","新北市泰山區泰林路二段73巷27號","121.43446","25.0578483333333","6501600","泰山區"
"243010","297-R6","2019/11/29 18:59:36","新北市泰山區辭修路26巷4號","121.429235","25.0583683333333","6501600","泰山區"
"243014","KEA-2801","2019/11/29 18:59:35","新北市泰山區泰林路二段603號","121.421361666667","25.0634433333333","6501600","泰山區"
"243016","421-VK","2019/11/29 18:59:27","新北市泰山區明志路二段135號","121.427633333333","25.0507666666667","6501600","泰山區"
"243009","KEA-2215","2019/11/29 18:59:36","新北市泰山區泰林路二段362號","121.428723333333","25.063645","6501600","泰山區"
"243011","KEA-2216","2019/11/29 18:59:45","新北市泰山區明志路二段256號","121.426905","25.0473983333333","6501600","泰山區"
"243013","646-TV","2019/11/29 18:59:42","新北市泰山區明志路三段249號","121.42338","25.0374916666667","6501600","泰山區"
"243015","680-BX","2019/11/29 18:59:31","新北市泰山區美寧街50號","121.430453333333","25.0644766666667","6501600","泰山區"
"222003","436-BY","2019/11/29 18:59:36","新北市深坑區深南路88巷1號","121.621423333333","25.0107633333333","6501800","深坑區"
"222002","659-BX","2019/11/29 18:59:46","新北市深坑區文山路一段31巷2號","121.629856666667","25.0033016666667","6501800","深坑區"
"231061","002-UM","2019/11/29 18:59:26","新北市新店區安華路1-1號","121.51954","24.960205","6500600","新店區"
"231044","046-UY","2019/11/29 18:59:44","新北市新店區中興路二段188號","121.54821","24.9728516666667","6500600","新店區"
"231040","047-UY","2019/11/29 18:59:42","新北市新店區中央路13號","121.53336","24.9784283333333","6500600","新店區"
"231060","106-UY","2019/11/29 18:59:33","新北市新店區安華路16號","121.51711","24.958105","6500600","新店區"
"231051","107-UY","2019/11/29 18:59:37","新北市新店區中央路25號","121.53307","24.9780033333333","6500600","新店區"
"231049","108-UY","2019/11/29 18:59:40","新北市新店區中正路454-5號","121.534573333333","24.978955","6500600","新店區"
"231065","110-UY","2019/11/29 18:59:30","新北市新店區安祥路147巷84號","121.475558333333","24.9554316666667","6500600","新店區"
"221031","KEA-2785","2019/11/29 18:59:33","新北市汐止區福德一路300巷20號","121.630668333333","25.06416","6501100","汐止區"
"231054","260-TV","2019/11/29 18:59:32","新北市新店區北新路一段43號","121.538125","24.9594033333333","6500600","新店區"
"231042","268-BY","2019/11/29 18:59:43","新北市新店區中興路一段298號","121.546135","24.9695133333333","6500600","新店區"
"231064","278-BY","2019/11/29 18:59:44","新北市新店區安康路一段266巷4號","121.519796666667","24.9639966666667","6500600","新店區"
"231050","AAD-862","2019/11/29 18:59:31","新北市新店區新烏路一段11巷7號","121.547328333333","24.9513433333333","6500600","新店區"
"231045","355-BY","2019/11/29 18:59:27","新北市新店區安康路一段121號","121.528348333333","24.96178","6500600","新店區"
"231058","3713-VJ","2019/11/29 18:59:30","新北市新店區中興路一段284號","121.545726666667","24.9689116666667","6500600","新店區"
"231055","4716-K9","2019/11/29 18:59:43","新北市新店區新生街13巷19號","121.53911","24.96585","6500600","新店區"
"231056","4715-K9","2019/11/29 18:59:27","新北市新店區二十張路46巷37弄37號","121.535915","24.98149","6500600","新店區"
"231067","4772-VM","2019/11/29 18:59:40","新北市新店區安康路一段76巷18-1號","121.528475","24.9629916666667","6500600","新店區"
"231053","513-UM","2019/11/29 18:59:39","新北市新店區新烏路二段7號","121.544148333333","24.9293816666667","6500600","新店區"
"231041","619-UM","2019/11/29 18:59:33","新北市新店區安康路一段17號","121.533138333333","24.9603616666667","6500600","新店區"
"231063","641-BX","2019/11/29 18:59:36","新北市新店區安華路1-1號","121.519535","24.960445","6500600","新店區"
"231048","KED-0819","2019/11/29 18:59:39","新北市新店區德正街23巷15號","121.544828333333","24.972185","6500600","新店區"
"231062","718-UY","2019/11/29 18:59:30","新北市新店區安豐路48號","121.500353333333","24.954155","6500600","新店區"
"231046","719-UM","2019/11/29 18:59:25","新北市新店區直潭一街1號","121.535656666667","24.94405","6500600","新店區"
"231057","720-UM","2019/11/29 18:59:30","新北市新店區百齡一路12號","121.55307","24.9324616666667","6500600","新店區"
"231059","897-TW","2019/11/29 18:59:34","新北市新店區安華路28-1號","121.51948","24.96065","6500600","新店區"
"231043","899-TW","2019/11/29 18:59:41","新北市新店區北新路一段98號","121.542046666667","24.96906","6500600","新店區"
"231066","AKT-0513","2019/11/29 18:59:29","新北市新店區安豐路24號","121.501355","24.9563716666667","6500600","新店區"
"241035","462-BY","2019/11/29 18:59:34","新北市三重區重新路四段121號","121.484826666667","25.0519","6500200","三重區"
"241029","942-UM","2019/11/29 18:59:35","新北市三重區重安街13巷8號","121.490538333333","25.057015","6500200","三重區"
"235066","003-UY","2019/11/29 18:59:27","新北市中和區水源路6巷6號","121.503496666667","25.003455","6500300","中和區"
"235064","005-UY","2019/11/29 18:59:32","新北市中和區泰和街25號","121.499366666667","25.0000983333333","6500300","中和區"
"235063","006-UY","2019/11/29 18:59:35","新北市中和區中正路464號","121.49015","24.994305","6500300","中和區"
"235056","096-UM","2019/11/29 18:59:39","新北市中和區員山路570號","121.478906666667","25.0114","6500300","中和區"
"235039","097-UM","2019/11/29 18:59:27","新北市中和區景平路64巷13弄22號","121.52145","24.9915483333333","6500300","中和區"
"235065","098-UM","2019/11/29 18:59:25","新北市中和區勝利路5號","121.499875","25.00808","6500300","中和區"
"235040","150-BY","2019/11/29 18:59:32","新北市中和區安樂路85號","121.512708333333","24.994525","6500300","中和區"
"235058","151-BY","2019/11/29 18:59:34","新北市中和區連城路469巷70弄26號","121.482351666667","24.993865","6500300","中和區"
"235055","183-VK","2019/11/29 18:59:28","新北市中和區德光路24號","121.470925","25.0044016666667","6500300","中和區"
"235038","185-VK","2019/11/29 18:59:31","新北市中和區大勇街60巷21號","121.518753333333","24.9947383333333","6500300","中和區"
"235067","255-BX","2019/11/29 18:59:26","新北市中和區新生街176巷19號","121.482555","24.9998966666667","6500300","中和區"
"235044","293-VK","2019/11/29 18:59:45","新北市中和區中興街161巷8弄2號","121.50092","24.9908683333333","6500300","中和區"
"235072","301-VK","2019/11/29 18:59:36","新北市中和區景平路734號","121.496538333333","25.0039866666667","6500300","中和區"
"235043","352-BY","2019/11/29 18:59:34","新北市中和區秀朗路三段175巷23號","121.525883333333","24.9910266666667","6500300","中和區"
"235042","KEA-2878","2019/11/29 18:59:34","新北市中和區秀朗路三段38號","121.526425","24.995965","6500300","中和區"
"235050","4979-A6","2019/11/29 18:59:42","新北市中和區忠孝街2-4號","121.509021666667","24.9829683333333","6500300","中和區"
"235069","4980-A6","2019/11/29 18:59:19","新北市中和區景平路479號","121.500393333333","24.99727","6500300","中和區"
"235068","551-UM","2019/11/29 18:59:29","新北市中和區圓通路279號","121.495551666667","24.9930666666667","6500300","中和區"
"235070","558-UM","2019/11/29 18:59:37","新北市中和區中和路115號","121.501486666667","25.0003183333333","6500300","中和區"
"235045","565-BX","2019/11/29 18:59:41","新北市中和區景新街467巷35弄7號","121.514351666667","24.989015","6500300","中和區"
"235060","KED-0823","2019/11/29 18:59:33","新北市中和區中山路三段145號","121.473765","25.0059566666667","6500300","中和區"
"235054","640-BX","2019/11/29 18:59:41","新北市中和區國光街109巷2弄12號","121.469175","25.0007433333333","6500300","中和區"
"235047","732-UM","2019/11/29 18:59:35","新北市中和區興南路二段95號","121.50615","24.98476","6500300","中和區"
"235046","733-UM","2019/11/29 18:59:36","新北市中和區興南路二段29號","121.507776666667","24.98582","6500300","中和區"
"235057","801-TS","2019/11/29 18:59:45","新北市中和區民利街78號","121.478178333333","24.998215","6500300","中和區"
"235041","802-TS","2019/11/29 18:59:29","新北市中和區景安路71號","121.506828333333","24.9977366666667","6500300","中和區"
"235052","805-TS","2019/11/29 18:59:28","新北市中和區興南路二段120號","121.504513333333","24.9837366666667","6500300","中和區"
"235048","896-TW","2019/11/29 18:59:27","新北市中和區華新街113巷4弄16號","121.506918333333","24.9813616666667","6500300","中和區"
"235053","900-TW","2019/11/29 18:59:30","新北市板橋區和平路174巷1弄1號","121.464058333333","24.9951083333333","6500300","中和區"
"235051","157-BY","2019/11/29 18:59:28","新北市中和區忠孝街101巷20號","121.51094","24.9861233333333","6500300","中和區"
"235037","AAC-213","2019/11/29 18:59:33","新北市中和區秀朗路三段60巷43號","121.524913333333","24.99486","6500300","中和區"
"235059","AAC-215","2019/11/29 18:59:33","新北市中和區圓通路369巷14弄8號","121.490435","24.9878233333333","6500300","中和區"
"220054","015-TV","2019/11/29 18:59:40","新北市板橋區重慶路127巷19-1號","121.463626666667","25.0049466666667","6500100","板橋區"
"220065","072-UY","2019/11/29 18:59:38","新北市板橋區民族路247巷9弄4號","121.471245","25.0079383333333","6500100","板橋區"
"220086","073-UY","2019/11/29 18:59:41","新北市板橋區大智街10號","121.456078333333","25.0148216666667","6500100","板橋區"
"220069","AAD-861","2019/11/29 18:59:35","新北市板橋區華興街56-1號","121.457906666667","25.00477","6500100","板橋區"
"226004","312-R5","2019/11/29 18:54:57","新北市平溪區平溪里平溪街46號","121.738493333333","25.026805","6502400","平溪區"
"235049","251-BX","2019/11/29 18:59:36","新北市中和區景安路157號","121.505346666667","24.9947883333333","6500300","中和區"
"228002","663-BX","2019/11/29 18:59:27","新北市貢寮區福隆里東興街106巷25弄1號","121.946431666667","25.0182916666667","6502600","貢寮區"
"228001","670-TC","2019/11/29 18:59:46","新北市貢寮區仁理村研海街12-1號","121.923786666667","25.0516733333333","6502600","貢寮區"
"228003","828-UM","2019/11/29 18:59:40","新北市貢寮區和美里龍洞街55號","121.911996666667","25.1137333333333","6502600","貢寮區"
"224010","AGQ-8101","2019/11/29 18:59:14","新北市瑞芳區烏勢巷145號","121.8478","25.1090733333333","6501200","瑞芳區"
"224006","676-BX","2019/11/29 18:59:42","新北市瑞芳區三爪子坑路118-4號","121.806601666667","25.1052733333333","6501200","瑞芳區"
"224007","285-BY","2019/11/29 18:59:35","新北市瑞芳區瑞竹路122號","121.762008333333","25.1039433333333","6501200","瑞芳區"
"224009","275-VK","2019/11/29 18:59:33","新北市瑞芳區長仁路35-1號","121.866156666667","25.1177483333333","6501200","瑞芳區"
"224008","273-VK","2019/11/29 18:59:32","新北市瑞芳區逢甲路340-9號","121.798328333333","25.1169983333333","6501200","瑞芳區"
"224005","271-BY","2019/11/29 18:59:39","新北市瑞芳區明燈路二段66號","121.809491666667","25.1076533333333","6501200","瑞芳區"
"227001","642-TC","2019/11/29 18:59:30","新北市雙溪區牡丹里中正路69號","121.86447","25.044045","6502500","雙溪區"
"227002","400-TW","2019/11/29 18:59:44","新北市雙溪區平林里康福家園1號","121.858276666667","25.0377666666667","6502500","雙溪區"
"253005","032-BX","2019/11/29 18:59:34","新北市石門區崁子腳76-1號","121.571198333333","25.29685","6502200","石門區"
"253006","295-VK","2019/11/29 18:59:29","新北市石門區下員坑30-7號","121.519791666667","25.2821933333333","6502200","石門區"
"222001","KEA-2212","2019/11/29 18:59:43","新北市深坑區北深路一段300號","121.624268333333","25.0057716666667","6501800","深坑區"
"208002","KEA-2872","2019/11/29 18:59:36","新北市金山區仁愛路67巷4號","121.634551666667","25.2209333333333","6502700","金山區"
"208003","665-BX","2019/11/29 18:59:32","新北市金山區中正路91號","121.633255","25.2216583333333","6502700","金山區"
"251002","012-UM","2019/11/29 18:59:33","新北市淡水區中正東路49號","121.446633333333","25.1679816666667","6501000","淡水區"
"251010","413-VK","2019/11/29 18:59:40","新北市淡水區淡海路69巷8弄3號","121.422443333333","25.1813116666667","6501000","淡水區"
"251012","441-VK","2019/11/29 18:59:46","新北市淡水區新興街109號","121.440598333333","25.1808616666667","6501000","淡水區"
"251007","442-VK","2019/11/29 18:59:27","新北市淡水區民生路113巷1弄39號","121.463006666667","25.1386266666667","6501000","淡水區"
"251001","559-UM","2019/11/29 18:59:38","新北市淡水區自強路58號","121.463265","25.1275083333333","6501000","淡水區"
"251009","575-R6","2019/11/29 18:59:38","新北市淡水區重建街100號","121.440021666667","25.1726516666667","6501000","淡水區"
"251011","650-BX","2019/11/29 18:59:33","新北市淡水區鄧公路34號","121.45749","25.1689216666667","6501000","淡水區"
"251003","673-BX","2019/11/29 18:59:34","新北市淡水區中山北路一段149巷24號","121.442966666667","25.1779483333333","6501000","淡水區"
"207003","681-TV","2019/11/29 18:59:32","新北市萬里區大鵬里頂社2-1號","121.660375","25.2071866666667","6502800","萬里區"
"207004","291-VK","2019/11/29 18:59:30","新北市萬里區萬里里獅頭路23號","121.69359","25.178325","6502800","萬里區"
"252003","249-BX","2019/11/29 18:59:40","新北市三芝區後厝里北勢子42-3號","121.472158333333","25.252485","6502100","三芝區"
"252001","292-VK","2019/11/29 18:59:26","新北市三芝區中興街二段260號","121.501703333333","25.2530383333333","6502100","三芝區"
"237004","KEA-2597","2019/11/29 18:59:29","新北市三峽區有木205-1號","121.43904","24.85153","6500900","三峽區"
"237007","153-BY","2019/11/29 18:59:32","新北市三峽區中正路二段218號","121.366011666667","24.9139983333333","6500900","三峽區"
"237013","252-BX","2019/11/29 18:59:41","新北市三峽區光明路69巷25號","121.376758333333","24.9291633333333","6500900","三峽區"
"237012","275-BY","2019/11/29 18:59:43","新北市三峽區三樹路222巷60號","121.382398333333","24.9423383333333","6500900","三峽區"
"237008","302-VK","2019/11/29 18:59:42","新北市三峽區大同路77號","121.375058333333","24.9272916666667","6500900","三峽區"
"237014","433-BY","2019/11/29 18:59:33","新北市三峽區隆恩街232號","121.357818333333","24.941175","6500900","三峽區"
"237006","5529-G3","2019/11/29 18:59:29","新北市三峽區溪東路233巷47弄2號","121.411295","24.935215","6500900","三峽區"
"237011","KEA-2596","2019/11/29 18:59:40","新北市三峽區介壽路三段260巷1號","121.407475","24.9491983333333","6500900","三峽區"
"237015","649-BX","2019/11/29 18:59:44","新北市三峽區建安86-2號","121.454328333333","24.9208133333333","6500900","三峽區"
"237010","706-TV","2019/11/29 18:59:29","新北市三峽區復興路257號","121.366668333333","24.938905","6500900","三峽區"
"237005","AKY-6261","2019/11/29 18:59:27","新北市三峽區中山路459巷135號","121.348608333333","24.93295","6500900","三峽區"
"236042","KED-0685","2019/11/29 18:59:25","新北市土城區學府路一段189巷13號","121.452546666667","24.98462","6501300","土城區"
"233002","762-BX","2019/11/29 18:44:25","新北市烏來區啦卡路70-1號","121.565183333333","24.8558433333333","6502900","烏來區"
"236079","166-UM","2019/11/29 18:59:42","新北市土城區中央路四段466號","121.410093333333","24.9506833333333","6501300","土城區"
"236030","253-BX","2019/11/29 18:59:44","新北市土城區慶利街9號","121.439558333333","24.9736016666667","6501300","土城區"
"236026","269-VK","2019/11/29 18:59:32","新北市土城區光明街11號","121.44202","24.9746966666667","6501300","土城區"
"236014","270-VK","2019/11/29 18:59:42","新北市土城區立德路29巷7號","121.462238333333","24.9884666666667","6501300","土城區"
"236039","271-VK","2019/11/29 18:59:31","新北市土城區仁愛路8-2號","121.460135","24.9809616666667","6501300","土城區"
"236069","KEA-2877","2019/11/29 18:59:44","新北市土城區裕民路270號","121.454923333333","24.9825983333333","6501300","土城區"
"252002","KED-0821","2019/11/29 18:59:40","新北市三芝區中正路一段16-1號","121.502986666667","25.258795","6502100","三芝區"
"236020","401-BY","2019/11/29 18:59:43","新北市土城區延吉街215號","121.468456666667","24.9853","6501300","土城區"
"236048","752-BX","2019/11/29 18:59:44","新北市土城區明德路一段280號","121.457808333333","24.97742","6501300","土城區"
"236059","912-UM","2019/11/29 18:59:38","新北市土城區金城路二段236號","121.456688333333","24.9829916666667","6501300","土城區"
"236063","915-UM","2019/11/29 18:59:34","新北市土城區延和路41巷6弄18號","121.466715","24.9903333333333","6501300","土城區"
"236055","AAC-216","2019/11/29 18:59:44","新北市土城區學成路130號","121.449171666667","24.98955","6501300","土城區"
"242009","349-TH","2019/11/29 18:59:38","新北市新莊區三和路12-21號","121.442205","25.0383116666667","6500500","新莊區"
"238023","601-UM","2019/11/29 18:59:25","新北市樹林區大慶街150號","121.396723333333","25.013545","6500700","樹林區"
"238019","599-UM","2019/11/29 18:59:33","新北市樹林區東榮街173號","121.413841666667","24.981415","6500700","樹林區"
"238022","KEA-2213","2019/11/29 18:59:32","新北市樹林區東興街43號","121.410635","24.977665","6500700","樹林區"
"238021","KEA-2539","2019/11/29 18:59:44","新北市樹林區柑園街二段314號","121.373408333333","24.9517566666667","6500700","樹林區"
"238025","303-VK","2019/11/29 18:59:31","新北市樹林區中山路三段153-2號","121.395686666667","24.9728366666667","6500700","樹林區"
"238014","282-BY","2019/11/29 18:59:42","新北市樹林區潭興街143巷1-1號","121.425698333333","24.999715","6500700","樹林區"
"238020","268-VK","2019/11/29 18:59:39","新北市樹林區俊英街219巷47-1號","121.420538333333","25.0113733333333","6500700","樹林區"
"238026","172-UY","2019/11/29 18:59:43","新北市樹林區吉祥街5巷2號","121.39263","24.9729333333333","6500700","樹林區"
"238016","169-UY","2019/11/29 18:59:45","新北市樹林區文化街28號","121.419253333333","24.98773","6500700","樹林區"
"239007","AAC-297","2019/11/29 18:59:37","新北市鶯歌區中正一路建德巷12號","121.364815","24.9570183333333","6500800","鶯歌區"
"239006","891-R6","2019/11/29 18:59:35","新北市鶯歌區鶯桃路296巷53號","121.335861666667","24.9613366666667","6500800","鶯歌區"
"239008","527-UM","2019/11/29 18:59:26","新北市鶯歌區朝陽街1號","121.336313333333","24.976585","6500800","鶯歌區"
"239005","526-UM","2019/11/29 18:59:29","新北市鶯歌區鳳吉一街20號","121.325425","24.97341","6500800","鶯歌區"
"239001","417-VK","2019/11/29 18:59:28","新北市鶯歌區中正二路187-4號","121.340495","24.9474533333333","6500800","鶯歌區"
"239003","360-BY","2019/11/29 18:59:29","新北市鶯歌區永和街58號","121.3334","24.968165","6500800","鶯歌區"
"239002","359-BY","2019/11/29 18:59:36","新北市鶯歌區中正一路109號","121.352141666667","24.9553966666667","6500800","鶯歌區"
"239004","193-VK","2019/11/29 18:59:30","新北市鶯歌區中正三路156巷59-16號","121.332368333333","24.9410966666667","6500800","鶯歌區"
"221008","489-VK","2019/11/29 18:59:33","新北市汐止區康寧街582號","121.635001666667","25.0698716666667","6501100","汐止區"
"221036","130-UY","2019/11/29 18:59:25","新北市汐止區水碓街51號","121.665203333333","25.0693216666667","6501100","汐止區"
"221015","131-UY","2019/11/29 18:59:46","新北市汐止區鄉長路一段55巷6號","121.665391666667","25.0761216666667","6501100","汐止區"
"244019","KED-0667","2019/11/29 18:59:31","新北市林口區文化二路一段565號","121.375115","25.0773333333333","6501700","林口區"
"221027","277-VK","2019/11/29 18:59:33","新北市汐止區汐萬路一段256巷1號","121.651815","25.07484","6501100","汐止區"
"221032","280-BY","2019/11/29 18:59:42","新北市汐止區橫科路407巷81弄5號","121.629035","25.0479933333333","6501100","汐止區"
"221029","298-VK","2019/11/29 18:59:32","新北市汐止區樟樹一路234號","121.642395","25.06675","6501100","汐止區"
"221035","622-UM","2019/11/29 18:59:46","新北市汐止區大同路二段316號","121.655716666667","25.0667883333333","6501100","汐止區"
"221002","707-TV","2019/11/29 18:59:41","新北市汐止區大同路一段2號","121.621045","25.055045","6501100","汐止區"
"220079","145-BY","2019/11/29 18:59:39","新北市板橋區大仁街95號","121.453111666667","25.0158","6500100","板橋區"
"220080","200-UY","2019/11/29 18:59:26","新北市板橋區大觀路二段文和巷67號","121.443546666667","24.99854","6500100","板橋區"
"220082","610-BX","2019/11/29 18:59:38","新北市板橋區溪北路142號","121.429951666667","24.98855","6500100","板橋區"
"220101","245-BX","2019/11/29 18:59:28","新北市板橋區莊敬路208巷2弄6號","121.471643333333","25.0216616666667","6500100","板橋區"
"220056","276-BY","2019/11/29 18:59:32","新北市板橋區信義路148號","121.458913333333","24.9917416666667","6500100","板橋區"
"220072","277-BY","2019/11/29 18:59:40","新北市樹林區中正路12號","121.429881666667","24.9974033333333","6500100","板橋區"
"220088","280-UM","2019/11/29 18:59:39","新北市板橋區文化路二段182巷7弄7號","121.472093333333","25.02736","6500100","板橋區"
"220094","283-UM","2019/11/29 18:59:38","新北市板橋區光武街153號","121.465428333333","25.02953","6500100","板橋區"
"220071","283-VK","2019/11/29 18:59:30","新北市板橋區重慶路245巷49號","121.465163333333","25.00096","6500100","板橋區"
"220053","285-VK","2019/11/29 18:59:25","新北市板橋區太和街5巷19號","121.473216666667","25.019585","6500100","板橋區"
"220083","286-VK","2019/11/29 18:59:39","新北市板橋區大觀路一段38巷156弄71號","121.442696666667","25.0068933333333","6500100","板橋區"
"220081","287-VK","2019/11/29 18:59:28","新北市板橋區光華街19巷36號","121.453221666667","25.0119883333333","6500100","板橋區"
"220090","288-VK","2019/11/29 18:59:30","新北市板橋區裕民街23-3號","121.462116666667","25.0290116666667","6500100","板橋區"
"220061","293-UM","2019/11/29 18:59:25","新北市板橋區懷仁街85巷8號","121.477715","25.0186416666667","6500100","板橋區"
"220084","296-UM","2019/11/29 18:59:24","新北市板橋區大觀路二段142-2號","121.442588333333","24.9991333333333","6500100","板橋區"
"220075","303-R5","2019/11/29 18:59:26","新北市板橋區後菜園街34號","121.456755","25.010225","6500100","板橋區"
"220062","305-R5","2019/11/29 18:59:38","新北市板橋區民享街134號","121.477991666667","25.0163616666667","6500100","板橋區"
"220092","307-R5","2019/11/29 18:59:41","新北市板橋區文化路二段225巷60弄66號","121.469071666667","25.0299","6500100","板橋區"
"220098","317-R6","2019/11/29 18:59:42","新北市板橋區莊敬路168號","121.471528333333","25.022375","6500100","板橋區"
"220089","487-VK","2019/11/29 18:59:40","新北市板橋區文化路二段164號","121.470221666667","25.0270016666667","6500100","板橋區"
"220035","560-BX","2019/11/29 18:59:38","新北市板橋區中正路325巷2號","121.454733333333","25.0200216666667","6500100","板橋區"
"220103","561-BX","2019/11/29 18:59:38","新北市板橋區介壽街44-1號","121.468661666667","25.019775","6500100","板橋區"
"220063","609-BX","2019/11/29 18:59:46","新北市板橋區三民路二段37-2號","121.479438333333","25.01745","6500100","板橋區"
"220091","637-BX","2019/11/29 18:59:29","新北市板橋區大同街8巷54-1號","121.477895","25.0262516666667","6500100","板橋區"
"220057","686-BX","2019/11/29 18:59:44","新北市板橋區重慶路302-1號","121.4637","24.9982566666667","6500100","板橋區"
"220077","687-BX","2019/11/29 18:59:38","新北市板橋區龍興街69號","121.443733333333","25.001625","6500100","板橋區"
"220102","KEA-2699","2019/11/29 18:59:32","新北市板橋區萬板路810號","121.482688333333","25.0273333333333","6500100","板橋區"
"220055","827-TW","2019/11/29 18:59:28","新北市板橋區民安街30號","121.466858333333","25.01119","6500100","板橋區"
"220106","829-TW","2019/11/29 18:59:42","新北市板橋區雙十路三段10巷9號","121.472063333333","25.0308966666667","6500100","板橋區"
"220068","830-TW","2019/11/29 18:59:41","新北市板橋區中山路二段465巷92-1號","121.481125","25.022495","6500100","板橋區"
"220067","831-TW","2019/11/29 18:59:32","新北市板橋區民享街116巷2弄13號","121.477366666667","25.0154583333333","6500100","板橋區"
"220074","895-R6","2019/11/29 18:59:31","新北市板橋區後菜園街49號","121.45599","25.00998","6500100","板橋區"
"220073","985-R7","2019/11/29 18:59:25","新北市板橋區中正路163號","121.45639","25.016065","6500100","板橋區"
"220097","AAC-210","2019/11/29 18:59:28","新北市板橋區幸福路70巷30號","121.460195","25.0209133333333","6500100","板橋區"
"220064","AAC-253","2019/11/29 18:59:34","新北市板橋區板新路15號","121.474955","25.012685","6500100","板橋區"
"235061","KEA-2875","2019/11/29 18:59:20","新北市中和區民有街1號","121.475545","25.005785","6500300","中和區"
