"lineid","car","time","location","longitude","latitude","cityid","cityname"
"234046","148-BY","2019/11/29 19:29:26","新北市永和區得和路423號","121.526245","24.99923","6500400","永和區"
"234081","298-R6","2019/11/29 19:29:29","新北市永和區福和路5號","121.525298333333","25.008605","6500400","永和區"
"234038","336-UY","2019/11/29 19:29:38","新北市永和區民樂街35巷2號","121.527553333333","25.0008883333333","6500400","永和區"
"234064","337-UY","2019/11/29 19:29:36","新北市永和區得和路243巷27號","121.52075","25.0011633333333","6500400","永和區"
"234086","338-UY","2019/11/29 19:29:38","新北市永和區林森路74號","121.523691666667","25.0039466666667","6500400","永和區"
"234070","552-UM","2019/11/29 19:29:28","新北市永和區警光街5-1號","121.519778333333","25.0095283333333","6500400","永和區"
"234017","745-BX","2019/11/29 19:29:34","新北市永和區環河西路一段87號","121.512373333333","25.0179033333333","6500400","永和區"
"234030","746-BX","2019/11/29 19:29:43","新北市永和區民生路35號","121.522958333333","24.99816","6500400","永和區"
"234054","KEA-2590","2019/11/29 19:29:32","新北市永和區復興街21號","121.516126666667","25.013045","6500400","永和區"
"234007","KED-0605","2019/11/29 19:29:32","新北市永和區永和路一段112-1號","121.513438333333","25.0073733333333","6500400","永和區"
"234013","KEA-2591","2019/11/29 19:29:29","新北市永和區中山路一段184巷9弄1號","121.50857","25.0092483333333","6500400","永和區"
"234061","AAD-866","2019/11/29 19:29:31","新北市永和區永貞路147巷1號","121.516008333333","25.0041033333333","6500400","永和區"
"234042","862-TW","2019/11/29 19:29:35","新北市永和區水源街39巷23號","121.510676666667","25.0034066666667","6500400","永和區"
"234050","863-TW","2019/11/29 19:29:38","新北市永和區信義路114號","121.51233","25.01435","6500400","永和區"
"234026","9371-KE","2019/11/29 19:29:37","新北市永和區安樂路100巷5號","121.514195","24.9994083333333","6500400","永和區"
"249003","759-BX","2019/11/29 19:29:40","新北市八里區華峰三街5號","121.400091666667","25.1465533333333","6502300","八里區"
"248014","025-BX","2019/11/29 19:29:42","新北市五股區工商路164-1號","121.43355","25.0879783333333","6501500","五股區"
"248008","KED-0815","2019/11/29 19:29:43","新北市五股區中興路一段93號","121.466685","25.0729066666667","6501500","五股區"
"248018","KED-0813","2019/11/29 19:29:33","新北市五股區外寮路3號","121.424766666667","25.0768583333333","6501500","五股區"
"248012","247-BX","2019/11/29 19:29:43","新北市五股區成泰路二段91巷11號","121.437525","25.0841166666667","6501500","五股區"
"248004","677-BX","2019/11/29 19:29:41","新北市五股區工商路118號","121.436743333333","25.085675","6501500","五股區"
"248002","678-BX","2019/11/29 19:29:29","新北市五股區凌雲路一段158巷6號","121.447758333333","25.1029766666667","6501500","五股區"
"234023","9380-KE","2019/11/29 19:29:28","新北市永和區環河東路二段8號","121.522086666667","25.0134516666667","6500400","永和區"
"234077","969-R7","2019/11/29 19:29:28","新北市永和區民權路58巷3號","121.519643333333","24.9982683333333","6500400","永和區"
"234074","AAC-211","2019/11/29 19:29:46","新北市永和區環河東路二段60號","121.523563333333","25.011155","6500400","永和區"
"234067","AAC-212","2019/11/29 19:29:33","新北市永和區永貞路353號","121.509173333333","25.0075416666667","6500400","永和區"
"234003","AAC-295","2019/11/29 19:29:32","新北市永和區福和路376號","121.514293333333","25.00779","6500400","永和區"
"244023","483-VK","2019/11/29 19:29:40","新北市林口區民富街198號","121.370798333333","25.0751733333333","6501700","林口區"
"244025","837-TS","2019/11/29 19:29:28","新北市林口區文化三路一段555巷50號","121.369763333333","25.0769383333333","6501700","林口區"
"208001","267-VK","2019/11/29 19:29:35","新北市金山區中正路168號","121.630323333333","25.221125","6502700","金山區"
"243012","AAD-798","2019/11/29 19:29:33","新北市泰山區仁義路220巷8號","121.432963333333","25.0537633333333","6501600","泰山區"
"243010","297-R6","2019/11/29 19:19:09","新北市泰山區明志路一段519號","121.430315","25.053985","6501600","泰山區"
"243014","KEA-2801","2019/11/29 19:29:36","新北市泰山區仁義路220巷53號","121.432126666667","25.0527","6501600","泰山區"
"243016","421-VK","2019/11/29 19:29:27","新北市泰山區明志路三段204巷16號","121.421863333333","25.0379066666667","6501600","泰山區"
"243009","KEA-2215","2019/11/29 19:29:36","新北市五股區成泰路一段7巷12號","121.433303333333","25.0667966666667","6501600","泰山區"
"243011","KEA-2216","2019/11/29 19:29:45","新北市泰山區貴子路140號","121.428965","25.0403016666667","6501600","泰山區"
"243013","646-TV","2019/11/29 19:29:32","新北市泰山區貴子路28號","121.425911666667","25.0416833333333","6501600","泰山區"
"243015","680-BX","2019/11/29 19:29:31","新北市泰山區明志路二段81號","121.428805","25.052325","6501600","泰山區"
"222003","436-BY","2019/11/29 19:29:36","新北市深坑區深南路51-1號","121.621073333333","25.009865","6501800","深坑區"
"222002","659-BX","2019/11/29 19:29:46","新北市深坑區北深路一段177號","121.632533333333","25.0108433333333","6501800","深坑區"
"231061","002-UM","2019/11/29 19:29:46","新北市新店區安康路二段18號","121.516045","24.96379","6500600","新店區"
"231044","046-UY","2019/11/29 19:29:24","新北市新店區中興路三段225號","121.54321","24.9831166666667","6500600","新店區"
"231040","047-UY","2019/11/29 19:29:42","新北市新店區中華路52號","121.539581666667","24.9684733333333","6500600","新店區"
"231060","106-UY","2019/11/29 19:29:33","新北市新店區安康路二段1-5號","121.517121666667","24.9639583333333","6500600","新店區"
"231051","107-UY","2019/11/29 19:29:37","新北市新店區中央五街28號","121.528991666667","24.9746766666667","6500600","新店區"
"231049","108-UY","2019/11/29 19:29:40","新北市新店區北新路三段65巷34弄12號","121.540088333333","24.9813916666667","6500600","新店區"
"231065","110-UY","2019/11/29 19:29:30","新北市新店區安祥路109巷6弄23號","121.475461666667","24.9579566666667","6500600","新店區"
"221031","KEA-2785","2019/11/29 19:29:33","新北市汐止區康寧街901號","121.650796666667","25.0753116666667","6501100","汐止區"
"231054","260-TV","2019/11/29 19:29:32","新北市新店區文中路45號","121.539675","24.9566616666667","6500600","新店區"
"231042","268-BY","2019/11/29 19:29:43","新北市新店區中興路一段136號","121.54206","24.963325","6500600","新店區"
"231064","278-BY","2019/11/29 19:29:24","新北市新店區安和路二段1-1號","121.517828333333","24.9669066666667","6500600","新店區"
"231050","AAD-862","2019/11/29 19:29:31","新北市新店區竹林路157號","121.556071666667","24.948385","6500600","新店區"
"231045","355-BY","2019/11/29 19:29:27","新北市新店區北宜路二段209號","121.553171666667","24.9533333333333","6500600","新店區"
"231058","3713-VJ","2019/11/29 19:29:30","新北市新店區北新路一段96巷21號","121.542536666667","24.9689183333333","6500600","新店區"
"231056","4715-K9","2019/11/29 19:29:27","新北市新店區安德街60巷19-1號","121.510398333333","24.9632466666667","6500600","新店區"
"231053","513-UM","2019/11/29 19:29:39","新北市新店區廣興路10號","121.546155","24.912325","6500600","新店區"
"231041","619-UM","2019/11/29 19:29:33","新北市新店區中正路656號","121.53395","24.98942","6500600","新店區"
"231063","641-BX","2019/11/29 19:29:36","新北市新店區達觀路18-1號","121.502791666667","24.9413633333333","6500600","新店區"
"231048","KED-0819","2019/11/29 19:29:39","新北市新店區五峰路157號","121.544913333333","24.96565","6500600","新店區"
"231062","718-UY","2019/11/29 19:29:29","新北市新店區莒光路70號","121.522953333333","24.9548416666667","6500600","新店區"
"231046","719-UM","2019/11/29 19:29:45","新北市新店區環河路17號","121.537485","24.9614283333333","6500600","新店區"
"231057","720-UM","2019/11/29 19:29:37","新北市新店區花園一路二段11-2號","121.550428333333","24.93351","6500600","新店區"
"231059","897-TW","2019/11/29 19:29:34","新北市新店區安和路三段7號","121.518136666667","24.980515","6500600","新店區"
"231043","899-TW","2019/11/29 19:29:40","新北市新店區北新路二段156號","121.54293","24.9754883333333","6500600","新店區"
"231066","AKT-0513","2019/11/29 19:29:28","新北市新店區安康路三段355巷26號","121.484671666667","24.9496216666667","6500600","新店區"
"241028","022-UY","2019/11/29 19:29:35","新北市三重區中寮街31號","121.492598333333","25.05889","6500200","三重區"
"241008","059-VK","2019/11/29 19:29:31","新北市三重區永福街135巷40號","121.477005","25.0771766666667","6500200","三重區"
"241031","061-VK","2019/11/29 19:29:24","新北市三重區重新路四段184巷40號","121.488326666667","25.055035","6500200","三重區"
"241017","063-VK","2019/11/29 19:29:36","新北市三重區中正北路25巷2號","121.49327","25.0628","6500200","三重區"
"241007","066-VK","2019/11/29 19:29:30","新北市三重區溪尾街126巷11號","121.488973333333","25.079285","6500200","三重區"
"241006","262-UM","2019/11/29 19:29:39","新北市三重區車路頭街90號","121.484331666667","25.07416","6500200","三重區"
"241032","316-R6","2019/11/29 19:29:35","新北市三重區三陽路111號","121.483813333333","25.0588033333333","6500200","三重區"
"241009","267-UM","2019/11/29 19:29:41","新北市三重區仁愛街562號","121.485446666667","25.0814616666667","6500200","三重區"
"241013","270-UM","2019/11/29 19:29:42","新北市三重區仁愛街125巷7號","121.496173333333","25.0752383333333","6500200","三重區"
"241030","KED-0822","2019/11/29 19:29:30","新北市三重區環河南路254巷23號","121.490051666667","25.051145","6500200","三重區"
"241035","462-BY","2019/11/29 19:29:34","新北市三重區信義西街1巷3號","121.498068333333","25.0649016666667","6500200","三重區"
"241020","478-VK","2019/11/29 19:29:38","新北市三重區大智街256號","121.489198333333","25.0734333333333","6500200","三重區"
"241026","480-VK","2019/11/29 19:29:37","新北市三重區光興街9號","121.500063333333","25.0603033333333","6500200","三重區"
"241023","545-UM","2019/11/29 19:29:34","新北市三重區頂崁街99號","121.477955","25.063845","6500200","三重區"
"241022","KED-0820","2019/11/29 19:29:37","新北市三重區三民街165巷6號","121.483971666667","25.0652583333333","6500200","三重區"
"241025","KED-0670","2019/11/29 19:29:46","新北市三重區頂崁街210巷28弄20號","121.475758333333","25.0671966666667","6500200","三重區"
"241029","942-UM","2019/11/29 19:29:34","新北市三重區大同南路161巷68號","121.495238333333","25.0550483333333","6500200","三重區"
"235066","003-UY","2019/11/29 19:29:47","新北市中和區景新街53號","121.504426666667","24.999","6500300","中和區"
"235064","005-UY","2019/11/29 19:29:32","新北市中和區南山路127巷33號","121.503621666667","24.9975966666667","6500300","中和區"
"235063","006-UY","2019/11/29 19:29:35","新北市中和區連城路221號","121.494253333333","24.9976316666667","6500300","中和區"
"235056","096-UM","2019/11/29 19:29:39","新北市中和區員山路581巷2弄30號","121.477398333333","25.01005","6500300","中和區"
"235039","097-UM","2019/11/29 19:29:27","新北市中和區秀峰街101號","121.5207","24.9903316666667","6500300","中和區"
"235065","098-UM","2019/11/29 19:29:25","新北市中和區永和路6號","121.499956666667","25.0029633333333","6500300","中和區"
"235040","150-BY","2019/11/29 19:29:32","新北市中和區保健路46巷39弄1號","121.508641666667","24.9954716666667","6500300","中和區"
"235058","151-BY","2019/11/29 19:29:34","新北市中和區員山路124巷46號","121.482545","24.996225","6500300","中和區"
"235055","183-VK","2019/11/29 19:29:28","新北市中和區莒光路3巷6號","121.472448333333","25.0060183333333","6500300","中和區"
"235038","185-VK","2019/11/29 19:29:31","新北市中和區自立路125號","121.521888333333","24.9941683333333","6500300","中和區"
"235067","255-BX","2019/11/29 19:29:26","新北市中和區新生街220巷13號","121.48296","24.9983216666667","6500300","中和區"
"235044","293-VK","2019/11/29 19:29:45","新北市中和區捷運路122號","121.505356666667","24.9914366666667","6500300","中和區"
"235072","301-VK","2019/11/29 19:29:36","新北市中和區連城路265巷10弄1號","121.491681666667","24.9952866666667","6500300","中和區"
"235043","352-BY","2019/11/29 19:29:34","新北市中和區安和路15號","121.511255","24.99379","6500300","中和區"
"235042","KEA-2878","2019/11/29 19:29:43","新北市中和區中和路350巷8弄8號","121.510355","25.00028","6500300","中和區"
"235068","551-UM","2019/11/29 19:29:29","新北市中和區景平路493巷12弄31號","121.498333333333","24.9968683333333","6500300","中和區"
"235070","558-UM","2019/11/29 19:29:37","新北市中和區景平路549號","121.49848","24.9995283333333","6500300","中和區"
"235045","565-BX","2019/11/29 19:29:41","新北市中和區四維街8號","121.513338333333","24.987485","6500300","中和區"
"235060","KED-0823","2019/11/29 19:29:32","新北市中和區中山路二段523巷2號","121.481671666667","25.0049633333333","6500300","中和區"
"235054","640-BX","2019/11/29 19:29:41","新北市中和區莒光路175-4號","121.472751666667","24.9994116666667","6500300","中和區"
"235071","647-TV","2019/11/29 19:29:33","新北市中和區連城路469巷21弄3號","121.483936666667","24.99513","6500300","中和區"
"235047","732-UM","2019/11/29 19:29:35","新北市中和區景平路259巷50號","121.506393333333","24.9928533333333","6500300","中和區"
"235046","733-UM","2019/11/29 19:29:36","新北市中和區忠孝街50號","121.511336666667","24.9834916666667","6500300","中和區"
"235057","801-TS","2019/11/29 19:29:45","新北市中和區員山路173號","121.481178333333","24.9969266666667","6500300","中和區"
"235041","802-TS","2019/11/29 19:29:28","新北市中和區中和路390號","121.51115","25.002545","6500300","中和區"
"235052","805-TS","2019/11/29 19:29:28","新北市中和區華新街143巷63弄2號","121.506411666667","24.9791883333333","6500300","中和區"
"235048","896-TW","2019/11/29 19:29:27","新北市中和區忠孝街73號","121.512141666667","24.985035","6500300","中和區"
"235053","900-TW","2019/11/29 19:29:30","新北市中和區國光街140巷4號","121.468526666667","25.001445","6500300","中和區"
"235051","157-BY","2019/11/29 19:29:29","新北市中和區南華路5號","121.502023333333","24.9955116666667","6500300","中和區"
"235037","AAC-213","2019/11/29 19:29:33","新北市中和區秀朗路三段50巷4弄2號","121.525676666667","24.9956683333333","6500300","中和區"
"235059","AAC-215","2019/11/29 19:29:33","新北市中和區圓通路262-3號","121.492796666667","24.9908466666667","6500300","中和區"
"220054","015-TV","2019/11/29 19:29:40","新北市板橋區重慶路155巷31號","121.463361666667","25.0041416666667","6500100","板橋區"
"220065","072-UY","2019/11/29 19:29:38","新北市板橋區國泰街75巷28弄62號","121.467456666667","25.0045033333333","6500100","板橋區"
"220086","073-UY","2019/11/29 19:29:41","新北市板橋區中正路216巷10號","121.456378333333","25.0183966666667","6500100","板橋區"
"220069","AAD-861","2019/11/29 19:29:35","新北市板橋區南雅南路二段18號","121.454458333333","25.0034933333333","6500100","板橋區"
"247004","500-BY","2019/11/29 19:29:39","新北市蘆洲區長安街223號","121.459668333333","25.0825566666667","6501400","蘆洲區"
"226004","312-R5","2019/11/29 19:23:11","新北市平溪區十分里十分街94號","121.776915","25.0424166666667","6502400","平溪區"
"235049","251-BX","2019/11/29 19:29:36","新北市中和區安平路17號","121.50917","24.9941216666667","6500300","中和區"
"228001","670-TC","2019/11/29 19:29:46","新北市貢寮區真理里大澳街21-1號","121.925","25.0561","6502600","貢寮區"
"228003","828-UM","2019/11/29 19:29:28","新北市貢寮區和美里和美街22-1號","121.912846666667","25.0826083333333","6502600","貢寮區"
"224008","273-VK","2019/11/29 19:29:32","新北市瑞芳區一坑路74號","121.803133333333","25.1082033333333","6501200","瑞芳區"
"227001","642-TC","2019/11/29 19:29:29","新北市雙溪區新基里新基北街43號","121.86823","25.0396983333333","6502500","雙溪區"
"227002","400-TW","2019/11/29 19:29:24","新北市雙溪區雙溪里光復街20號","121.865151666667","25.03546","6502500","雙溪區"
"222001","KEA-2212","2019/11/29 19:29:43","新北市深坑區深坑街10號","121.61592","25.002815","6501800","深坑區"
"208002","KEA-2872","2019/11/29 19:29:36","新北市金山區中正路43號","121.634853333333","25.222055","6502700","金山區"
"208003","665-BX","2019/11/29 19:29:32","新北市金山區仁愛路66號","121.635","25.22112","6502700","金山區"
"251005","010-UM","2019/11/29 19:29:31","新北市淡水區水源街一段47巷39號","121.444095","25.17354","6501000","淡水區"
"251002","012-UM","2019/11/29 19:29:33","新北市淡水區中正路一段22巷100號","121.426725","25.1856816666667","6501000","淡水區"
"251008","181-VK","2019/11/29 19:29:28","新北市淡水區中正路一段31巷2號","121.425698333333","25.1766966666667","6501000","淡水區"
"251010","413-VK","2019/11/29 19:29:39","新北市淡水區中正路二段152巷28號","121.424356666667","25.1880216666667","6501000","淡水區"
"251007","442-VK","2019/11/29 19:29:27","新北市淡水區八勢一街48號","121.461086666667","25.154665","6501000","淡水區"
"251001","559-UM","2019/11/29 19:29:38","新北市淡水區民權路139-1號","121.460166666667","25.13646","6501000","淡水區"
"251006","561-UM","2019/11/29 19:29:42","新北市淡水區大信街52巷7弄1號","121.44135","25.1779816666667","6501000","淡水區"
"251009","575-R6","2019/11/29 19:29:38","新北市淡水區中山路159-10號","121.440915","25.1734266666667","6501000","淡水區"
"251003","673-BX","2019/11/29 19:29:34","新北市淡水區中山北路二段185號","121.444243333333","25.1850683333333","6501000","淡水區"
"207003","681-TV","2019/11/29 19:29:32","新北市萬里區大鵬里萬里加投101號","121.646186666667","25.21306","6502800","萬里區"
"207004","291-VK","2019/11/29 19:29:33","新北市萬里區萬里里瑪鋉路93號","121.68875","25.1773816666667","6502800","萬里區"
"252001","292-VK","2019/11/29 19:29:45","新北市三芝區長春街16號","121.49999","25.2565816666667","6502100","三芝區"
"237004","KEA-2597","2019/11/29 19:29:29","新北市三峽區有木206號","121.43911","24.851615","6500900","三峽區"
"237007","153-BY","2019/11/29 19:29:32","新北市三峽區二鬮路136巷20弄77號","121.358011666667","24.90942","6500900","三峽區"
"237009","210-TH","2019/11/29 19:29:42","新北市三峽區民權街67號","121.36949","24.9330616666667","6500900","三峽區"
"237013","252-BX","2019/11/29 19:29:41","新北市三峽區介壽路一段311巷5號","121.38121","24.930675","6500900","三峽區"
"237012","275-BY","2019/11/29 19:29:43","新北市三峽區三樹路98巷169號","121.384565","24.939455","6500900","三峽區"
"237008","302-VK","2019/11/29 19:29:42","新北市三峽區大同路154號","121.373086666667","24.9267533333333","6500900","三峽區"
"237014","433-BY","2019/11/29 19:29:44","新北市三峽區中山路58號","121.3683","24.9345333333333","6500900","三峽區"
"237006","5529-G3","2019/11/29 19:29:29","新北市三峽區中正路一段392-2號","121.369886666667","24.9235233333333","6500900","三峽區"
"237011","KEA-2596","2019/11/29 19:29:40","新北市三峽區介壽路一段414號","121.384055","24.931165","6500900","三峽區"
"237015","649-BX","2019/11/29 19:29:44","新北市三峽區安坑7號","121.439496666667","24.9267016666667","6500900","三峽區"
"237010","706-TV","2019/11/29 19:29:29","新北市三峽區復興路150號","121.37149","24.9382133333333","6500900","三峽區"
"237005","AKY-6261","2019/11/29 19:29:27","新北市三峽區中山路219巷17弄3號","121.36338","24.9362283333333","6500900","三峽區"
"236079","166-UM","2019/11/29 19:29:41","新北市土城區中州路59號","121.412628333333","24.957845","6501300","土城區"
"236069","KEA-2877","2019/11/29 19:29:44","新北市土城區學府路一段161號","121.453146666667","24.985805","6501300","土城區"
"252002","KED-0821","2019/11/29 19:29:40","新北市三芝區淡金路二段20號","121.502706666667","25.25959","6502100","三芝區"
"236020","401-BY","2019/11/29 19:29:43","新北市土城區峰廷街3號","121.469041666667","24.9872766666667","6501300","土城區"
"236048","752-BX","2019/11/29 19:29:44","新北市土城區清水路217號","121.460551666667","24.9820883333333","6501300","土城區"
"236055","AAC-216","2019/11/29 19:29:44","新北市土城區學府路一段231號","121.451143333333","24.9841016666667","6501300","土城區"
"242009","349-TH","2019/11/29 19:29:37","新北市新莊區三和路12-21號","121.442141666667","25.038345","6500500","新莊區"
"238015","755-BX","2019/11/29 19:29:37","新北市樹林區復興路356號","121.415995","24.986195","6500700","樹林區"
"238023","601-UM","2019/11/29 19:29:25","新北市樹林區中正路837號","121.409156666667","25.0175583333333","6500700","樹林區"
"238019","599-UM","2019/11/29 19:29:33","新北市樹林區鎮前街347巷3弄2號","121.416898333333","24.9833366666667","6500700","樹林區"
"238024","5061-A6","2019/11/29 19:29:28","新北市樹林區福德街48號","121.39939","24.9747383333333","6500700","樹林區"
"238018","KEA-2217","2019/11/29 19:29:31","新北市樹林區中華路153號","121.421356666667","24.982105","6500700","樹林區"
"238022","KEA-2213","2019/11/29 19:29:32","新北市樹林區國凱街39號","121.420315","24.9788783333333","6500700","樹林區"
"238021","KEA-2539","2019/11/29 19:29:24","新北市樹林區佳園路三段219巷19號","121.386793333333","24.9460116666667","6500700","樹林區"
"238025","303-VK","2019/11/29 19:29:31","新北市樹林區中山路一段55號","121.423916666667","24.992145","6500700","樹林區"
"238017","283-BY","2019/11/29 19:29:29","新北市樹林區光興街148號","121.407395","25.0043183333333","6500700","樹林區"
"238014","282-BY","2019/11/29 19:29:42","新北市樹林區千歲街6巷18號","121.425503333333","24.9952183333333","6500700","樹林區"
"238020","268-VK","2019/11/29 19:29:39","新北市樹林區俊英街105-1號","121.425025","25.00965","6500700","樹林區"
"238026","172-UY","2019/11/29 19:29:43","新北市樹林區佳園路三段36號","121.38791","24.9536233333333","6500700","樹林區"
"238016","169-UY","2019/11/29 19:29:25","新北市樹林區復興路446巷2弄2號","121.413413333333","24.984325","6500700","樹林區"
"239007","AAC-297","2019/11/29 19:29:37","新北市鶯歌區西湖街45巷1號","121.340223333333","24.958605","6500800","鶯歌區"
"239006","891-R6","2019/11/29 19:29:35","新北市鶯歌區鶯桃路16號","121.342228333333","24.9515266666667","6500800","鶯歌區"
"239008","527-UM","2019/11/29 19:29:26","新北市鶯歌區國際二路6巷17號","121.338971666667","24.973905","6500800","鶯歌區"
"239005","526-UM","2019/11/29 19:29:29","新北市鶯歌區中湖街152巷5號","121.350105","24.9734266666667","6500800","鶯歌區"
"239001","417-VK","2019/11/29 19:29:28","新北市鶯歌區永智街45號","121.336535","24.9541866666667","6500800","鶯歌區"
"239003","360-BY","2019/11/29 19:29:29","新北市鶯歌區鶯桃路310號","121.333981666667","24.9617066666667","6500800","鶯歌區"
"239002","359-BY","2019/11/29 19:29:36","新北市鶯歌區西湖街182-1號","121.338363333333","24.9650466666667","6500800","鶯歌區"
"239004","193-VK","2019/11/29 19:29:30","新北市鶯歌區中正三路335巷37號","121.330003333333","24.9342233333333","6500800","鶯歌區"
"221008","489-VK","2019/11/29 19:29:33","新北市汐止區康寧街235號","121.624031666667","25.0668066666667","6501100","汐止區"
"221027","277-VK","2019/11/29 19:29:33","新北市汐止區忠孝東路9號","121.658278333333","25.0659233333333","6501100","汐止區"
"221025","623-UM","2019/11/29 19:29:25","新北市汐止區中正路311號","121.655863333333","25.0677066666667","6501100","汐止區"
"221033","647-BX","2019/11/29 19:29:34","新北市汐止區南勢街3號","121.62708","25.0374266666667","6501100","汐止區"
"221002","707-TV","2019/11/29 19:29:41","新北市汐止區大同路一段337巷16弄3號","121.63777","25.0600616666667","6501100","汐止區"
"220079","145-BY","2019/11/29 19:29:39","新北市板橋區公館街60號","121.461351666667","25.0163216666667","6500100","板橋區"
"220080","200-UY","2019/11/29 19:29:26","新北市板橋區大觀路二段3巷32號","121.448256666667","25.0036183333333","6500100","板橋區"
"220082","610-BX","2019/11/29 19:29:38","新北市板橋區金門街231號","121.432171666667","24.989625","6500100","板橋區"
"220101","245-BX","2019/11/29 19:29:28","新北市板橋區莊敬路263巷17號","121.473113333333","25.0217116666667","6500100","板橋區"
"220056","276-BY","2019/11/29 19:29:32","新北市板橋區干城路158-1號","121.460488333333","24.9922383333333","6500100","板橋區"
"220072","277-BY","2019/11/29 19:29:40","新北市板橋區篤行路二段141巷28號","121.430586666667","24.9876683333333","6500100","板橋區"
"220088","280-UM","2019/11/29 19:29:39","新北市板橋區文化路二段578號","121.476651666667","25.03459","6500100","板橋區"
"220094","283-UM","2019/11/29 19:29:38","新北市板橋區銘傳街74號","121.469043333333","25.0311866666667","6500100","板橋區"
"220071","283-VK","2019/11/29 19:29:39","新北市板橋區忠孝路24巷23號","121.460276666667","25.0008933333333","6500100","板橋區"
"220053","285-VK","2019/11/29 19:29:42","新北市板橋區懷仁街89號","121.477505","25.0183","6500100","板橋區"
"220083","286-VK","2019/11/29 19:29:39","新北市板橋區龍興街73巷23號","121.442868333333","25.0024166666667","6500100","板橋區"
"220081","287-VK","2019/11/29 19:29:28","新北市板橋區大觀路一段28巷1弄102號","121.452093333333","25.006375","6500100","板橋區"
"220090","288-VK","2019/11/29 19:29:30","新北市板橋區長江路一段48巷12號","121.459501666667","25.0279033333333","6500100","板橋區"
"220061","293-UM","2019/11/29 19:29:25","新北市板橋區中山路一段267號","121.468791666667","25.0135266666667","6500100","板橋區"
"220084","296-UM","2019/11/29 19:29:38","新北市板橋區篤行路三段玉平巷76弄18號","121.427361666667","24.9860366666667","6500100","板橋區"
"220075","303-R5","2019/11/29 19:29:26","新北市板橋區中正路275巷93號","121.45078","25.0181783333333","6500100","板橋區"
"220062","305-R5","2019/11/29 19:29:37","新北市板橋區三民路二段123巷19號","121.480171666667","25.0156583333333","6500100","板橋區"
"220092","307-R5","2019/11/29 19:29:39","新北市板橋區陽明街164巷15號","121.464053333333","25.024455","6500100","板橋區"
"220098","317-R6","2019/11/29 19:29:38","新北市板橋區四維路266巷2弄27號","121.464131666667","25.0281033333333","6500100","板橋區"
"220089","487-VK","2019/11/29 19:29:39","新北市板橋區龍泉街82巷11-4號","121.455876666667","25.0255383333333","6500100","板橋區"
"220035","560-BX","2019/11/29 19:29:41","新北市板橋區中正路433巷1號","121.454118333333","25.0232766666667","6500100","板橋區"
"220103","561-BX","2019/11/29 19:29:39","新北市板橋區陽明街29巷15號","121.464665","25.0219833333333","6500100","板橋區"
"220063","609-BX","2019/11/29 19:29:30","新北市板橋區林森街3巷1弄23號","121.482746666667","25.0235966666667","6500100","板橋區"
"220091","637-BX","2019/11/29 19:29:27","新北市板橋區文聖街135巷29號","121.479053333333","25.0290666666667","6500100","板橋區"
"220057","686-BX","2019/11/29 19:29:42","新北市板橋區廣權路27號","121.46236","24.9915483333333","6500100","板橋區"
"220077","687-BX","2019/11/29 19:29:34","新北市板橋區大觀路一段28巷78號","121.449791666667","25.010795","6500100","板橋區"
"220102","KEA-2699","2019/11/29 19:29:31","新北市板橋區雙十路二段72號","121.475306666667","25.0279083333333","6500100","板橋區"
"220055","827-TW","2019/11/29 19:29:39","新北市板橋區重慶路278巷16號","121.462411666667","24.9996533333333","6500100","板橋區"
"220106","829-TW","2019/11/29 19:29:28","新北市板橋區民治街26巷6號","121.477588333333","25.0338716666667","6500100","板橋區"
"220068","830-TW","2019/11/29 19:29:41","新北市板橋區萬安街96號","121.483826666667","25.0240933333333","6500100","板橋區"
"220067","831-TW","2019/11/29 19:29:32","新北市板橋區長安街138巷1弄5號","121.473028333333","25.0097216666667","6500100","板橋區"
"220074","895-R6","2019/11/29 19:29:40","新北市板橋區府中路42號","121.457451666667","25.0095383333333","6500100","板橋區"
"220073","985-R7","2019/11/29 19:29:32","新北市板橋區中正路302號","121.454903333333","25.0206133333333","6500100","板橋區"
"220097","AAC-210","2019/11/29 19:29:30","新北市板橋區文化路一段285巷1弄19號","121.464051666667","25.0187883333333","6500100","板橋區"
"220064","AAC-253","2019/11/29 19:29:34","新北市板橋區民權路31號","121.462306666667","25.010915","6500100","板橋區"
"235061","KEA-2875","2019/11/29 19:29:20","新北市中和區民安街17號","121.48051","25.0006816666667","6500300","中和區"
