"lineid","car","time","location","longitude","latitude","cityid","cityname"
"251004","009-UM","2019/11/29 21:59:29","新北市淡水區自強路201巷39號","121.462161666667","25.1267766666667","6501000","淡水區"
"251005","010-UM","2019/11/29 21:59:31","新北市淡水區鄧公路30巷1弄67號","121.454408333333","25.1695683333333","6501000","淡水區"
"251008","181-VK","2019/11/29 21:59:28","新北市淡水區水源街一段83巷149-15號","121.448388333333","25.1734716666667","6501000","淡水區"
"251010","413-VK","2019/11/29 21:59:39","新北市淡水區中正路二段206號","121.426208333333","25.189075","6501000","淡水區"
"251007","442-VK","2019/11/29 21:59:27","新北市淡水區北新路184巷19號","121.450208333333","25.1780616666667","6501000","淡水區"
"251006","561-UM","2019/11/29 21:42:07","新北市淡水區中正路11巷3號","121.437896666667","25.1707583333333","6501000","淡水區"
"251011","650-BX","2019/11/29 21:59:34","新北市淡水區水碓街5號","121.443133333333","25.1770633333333","6501000","淡水區"
"251003","673-BX","2019/11/29 21:59:34","新北市淡水區新春街88號","121.438806666667","25.1823333333333","6501000","淡水區"
