"lineid","car","time","location","longitude","latitude","cityid","cityname"
"251004","009-UM","2019/11/29 22:29:29","新北市淡水區民族路33號","121.462313333333","25.1358","6501000","淡水區"
"251008","181-VK","2019/11/29 22:29:48","新北市淡水區學府路104號","121.449873333333","25.17182","6501000","淡水區"
"251010","413-VK","2019/11/29 22:29:39","新北市淡水區沙崙路242號","121.425768333333","25.1847633333333","6501000","淡水區"
"251007","442-VK","2019/11/29 22:29:27","新北市淡水區北新路180號","121.44943","25.1786883333333","6501000","淡水區"
"251011","650-BX","2019/11/29 22:29:34","新北市淡水區水碓街7號","121.443185","25.1771716666667","6501000","淡水區"
