"lineid","car","time","location","longitude","latitude","cityid","cityname"
"232009","291-BY","2019/11/30 06:43:48","新北市坪林區鶯子瀨12-1號","121.714126666667","24.9132533333333","6502000","坪林區"
"232010","375-UM","2019/11/30 06:43:49","新北市坪林區北宜路八段477號","121.706648333333","24.9215016666667","6502000","坪林區"
"232016","705-BZ","2019/11/30 06:43:42","新北市坪林區北宜路八段558號","121.718111666667","24.9095116666667","6502000","坪林區"
"232004","758-BX","2019/11/30 06:43:40","新北市坪林區北宜路八段441號","121.706928333333","24.923765","6502000","坪林區"
"244005","248-BX","2019/11/30 06:43:51","新北市林口區粉寮路二段160巷28號","121.405143333333","25.0907483333333","6501700","林口區"
"223002","KEA-2673","2019/11/30 06:43:41","新北市石碇區摸乳巷8-2號","121.659423333333","24.98084","6501900","石碇區"
"223003","205-TH","2019/11/30 06:43:32","新北市石碇區湳窟26號","121.661738333333","24.9916633333333","6501900","石碇區"
"223008","406-TH","2019/11/30 06:43:35","新北市石碇區石崁14-1號","121.655198333333","24.994395","6501900","石碇區"
"223001","592-UM","2019/11/30 06:43:47","新北市石碇區湳窟26號","121.661976666667","24.9914683333333","6501900","石碇區"
"223004","660-BX","2019/11/30 06:43:32","新北市石碇區小粗坑(潭邊里)5號","121.67317","24.983215","6501900","石碇區"
"223007","661-BX","2019/11/30 06:43:47","新北市石碇區雙溪36號","121.65013","25.0090016666667","6501900","石碇區"
"227004","282-VK","2019/11/30 06:43:33","新北市雙溪區牡丹里自強路14號","121.865465","25.0392983333333","6502500","雙溪區"
