"lineid","car","time","location","longitude","latitude","cityid","cityname"
"232017","290-BY","2019/09/02 07:09:24","新北市坪林區九芎坑3-3號","121.727476666667","24.963345","6502000","坪林區"
"232005","291-BY","2019/09/02 07:09:42","新北市坪林區魚堀48-5號","121.703313333333","24.9325066666667","6502000","坪林區"
"232010","375-UM","2019/09/02 07:09:32","新北市坪林區水聳淒坑7-10號","121.721726666667","24.924985","6502000","坪林區"
"232012","705-BZ","2019/09/02 07:09:41","新北市坪林區北宜路七段205號","121.687501666667","24.9368333333333","6502000","坪林區"
"232001","758-BX","2019/09/02 07:09:36","新北市坪林區桶盤嶼8-3號","121.706308333333","24.957145","6502000","坪林區"
"244001","248-BX","2019/09/02 07:09:29","新北市林口區頭湖92-5號","121.367796666667","25.08066","6501700","林口區"
"222004","289-BY","2019/09/02 07:09:37","新北市深坑區深坑街75號","121.614676666667","25.001315","6501800","深坑區"
"226005","5620-A6","2019/09/02 07:09:25","新北市平溪區菁桐里菁桐街30號","121.725705","25.0238416666667","6502400","平溪區"
"226001","7418-A5","2019/09/02 07:09:31","新北市平溪區靜安路二段530巷7號","121.745031666667","25.0273433333333","6502400","平溪區"
"226003","AGD-0702","2019/09/02 07:09:26","新北市平溪區嶺腳里嶺腳寮9-1號","121.747428333333","25.0298933333333","6502400","平溪區"
"223002","KEA-2673","2019/09/02 07:09:29","新北市石碇區半路店5號","121.645245","24.9625916666667","6501900","石碇區"
"223003","205-TH","2019/09/02 07:09:31","新北市石碇區溪邊寮1號","121.658426666667","24.980165","6501900","石碇區"
"223008","406-TH","2019/09/02 07:09:40","新北市石碇區十八重溪6號","121.678048333333","25.0111933333333","6501900","石碇區"
"223001","592-UM","2019/09/02 07:09:39","新北市石碇區烏塗窟16-2號","121.65653","24.9753433333333","6501900","石碇區"
"223004","660-BX","2019/09/02 07:09:41","新北市石碇區雙溪43號","121.651585","25.00755","6501900","石碇區"
"223007","661-BX","2019/09/02 07:09:44","新北市石碇區番子坑38-9號","121.678121666667","25.01094","6501900","石碇區"
"227003","282-VK","2019/09/02 07:09:36","新北市雙溪區新基里自強路7號","121.866275","25.0390416666667","6502500","雙溪區"
"252006","073-UM","2019/09/02 07:09:40","新北市三芝區古庄里山豬堀2-2號","121.499598333333","25.2489183333333","6502100","三芝區"
"252004","249-BX","2019/09/02 07:09:40","新北市三芝區錫板里小坑子11-1號","121.501731666667","25.2359083333333","6502100","三芝區"
"242010","280-VK","2019/09/02 07:09:42","新北市新莊區三和路12-21號","121.441931666667","25.0380966666667","6500500","新莊區"
