"lineid","car","time","location","longitude","latitude","cityid","cityname"
"232017","290-BY","2019/09/02 07:39:44","新北市坪林區乾溪1-7號","121.737205","24.975715","6502000","坪林區"
"232005","291-BY","2019/09/02 07:39:41","新北市坪林區魚堀35-4號","121.70031","24.9292083333333","6502000","坪林區"
"232010","375-UM","2019/09/02 07:39:32","新北市坪林區厚德岡坑2-1號","121.727613333333","24.9401466666667","6502000","坪林區"
"232012","705-BZ","2019/09/02 07:39:41","新北市坪林區金瓜寮13-2號","121.682","24.9157766666667","6502000","坪林區"
"232001","758-BX","2019/09/02 07:39:36","新北市坪林區上坑子口23號","121.702521666667","24.951495","6502000","坪林區"
"244001","248-BX","2019/09/02 07:39:29","新北市林口區頂福里81號","121.335063333333","25.097795","6501700","林口區"
"244008","656-BX","2019/09/02 07:39:34","新北市林口區粉寮69號","121.405073333333","25.0908166666667","6501700","林口區"
"222004","289-BY","2019/09/02 07:39:36","新北市深坑區文化街39巷13號","121.618958333333","25.0011033333333","6501800","深坑區"
"231007","189-VK","2019/09/02 07:38:55","新北市新店區安一路一段1-1號","121.519841666667","24.961625","6500600","新店區"
"231008","515-UM","2019/09/02 07:39:34","新北市新店區安一路一段1-1號","121.519623333333","24.9612966666667","6500600","新店區"
"226005","5620-A6","2019/09/02 07:39:45","新北市平溪區靜安路二段293號","121.73318","25.0232","6502400","平溪區"
"226001","7418-A5","2019/09/02 07:39:31","新北市平溪區平湖里大湖18號","121.779965","25.02197","6502400","平溪區"
"226003","AGD-0702","2019/09/02 07:28:06","新北市平溪區嶺腳里嶺腳寮83-2號","121.750653333333","25.0351233333333","6502400","平溪區"
"223003","205-TH","2019/09/02 07:39:31","新北市石碇區內楒仔腳4-1號","121.642478333333","24.9705683333333","6501900","石碇區"
"223008","406-TH","2019/09/02 07:36:24","新北市石碇區靜安路一段337號","121.698768333333","25.01461","6501900","石碇區"
"223001","592-UM","2019/09/02 07:39:25","新北市石碇區蓬菜寮11-2號","121.65005","24.97326","6501900","石碇區"
"223004","660-BX","2019/09/02 07:37:43","新北市石碇區八分寮55-2號","121.644685","25.0173483333333","6501900","石碇區"
"223007","661-BX","2019/09/02 07:39:28","新北市石碇區大溪墘2-4號","121.698973333333","25.011015","6501900","石碇區"
"227003","282-VK","2019/09/02 07:39:35","新北市雙溪區雙溪里太平路54號","121.864771666667","25.03549","6502500","雙溪區"
"252006","073-UM","2019/09/02 07:39:40","新北市三芝區古庄里茂興店73-1號","121.493128333333","25.2638883333333","6502100","三芝區"
"252004","249-BX","2019/09/02 07:39:40","新北市三芝區店子里菜公坑77-1號","121.510971666667","25.2061483333333","6502100","三芝區"
"237014","760-BX","2019/09/02 07:39:44","新北市三峽區五寮126-1號","121.358833333333","24.858145","6500900","三峽區"
"242040","AAC-296","2019/09/02 07:39:28","新北市新莊區新泰路357巷3弄57號","121.442168333333","25.0395616666667","6500500","新莊區"
"242001","751-BX","2019/09/02 07:39:27","新北市新莊區三和路12-21號","121.442198333333","25.0386983333333","6500500","新莊區"
"242028","615-BX","2019/09/02 07:39:27","新北市新莊區新泰路357巷3弄57號","121.442","25.0392633333333","6500500","新莊區"
"242026","613-BX","2019/09/02 07:39:36","新北市新莊區三和路12-21號","121.442148333333","25.0380183333333","6500500","新莊區"
"242057","612-BX","2019/09/02 07:39:26","新北市新莊區新泰路357巷3弄57號","121.442138333333","25.03928","6500500","新莊區"
"242047","566-BX","2019/09/02 07:39:24","新北市新莊區三和路10號","121.441885","25.0362033333333","6500500","新莊區"
"242052","497-BY","2019/09/02 07:39:40","新北市新莊區新泰路255巷83號","121.442585","25.03922","6500500","新莊區"
"242033","442-UM","2019/09/02 07:39:30","新北市新莊區新泰路255巷83號","121.44214","25.03887","6500500","新莊區"
"242055","441-UM","2019/09/02 07:39:41","新北市新莊區三和路12-10號","121.442158333333","25.0367716666667","6500500","新莊區"
"242006","440-UM","2019/09/02 07:39:41","新北市新莊區新泰路255巷83號","121.442205","25.0388483333333","6500500","新莊區"
"242012","413-TV","2019/09/02 07:39:35","新北市新莊區新泰路357巷3弄57號","121.44191","25.0394066666667","6500500","新莊區"
"242049","400-BY","2019/09/02 07:39:27","新北市新莊區三和路12-13號","121.441835","25.0371383333333","6500500","新莊區"
"242014","132-UY","2019/09/02 07:39:34","新北市新莊區新泰路255巷83號","121.44211","25.0389333333333","6500500","新莊區"
"242038","135-UY","2019/09/02 07:39:28","新北市新莊區三和路12-21號","121.441976666667","25.0387716666667","6500500","新莊區"
"242016","173-VK","2019/09/02 07:39:35","新北市新莊區三和路12-21號","121.442066666667","25.038725","6500500","新莊區"
"242030","175-VK","2019/09/02 07:39:32","新北市新莊區三和路12-21號","121.44203","25.03871","6500500","新莊區"
"242020","346-TH","2019/09/02 07:39:38","新北市新莊區三和路12-21號","121.442225","25.0381883333333","6500500","新莊區"
"242043","347-TH","2019/09/02 07:39:43","新北市新莊區三和路10號","121.441835","25.03612","6500500","新莊區"
"242035","348-TH","2019/09/02 07:39:25","新北市新莊區新泰路357巷3弄51號","121.442301666667","25.0399266666667","6500500","新莊區"
"242008","349-TH","2019/09/02 07:39:32","新北市新莊區三和路12-21號","121.442295","25.0383066666667","6500500","新莊區"
"242018","351-TH","2019/09/02 07:39:31","新北市新莊區新泰路357巷3弄57號","121.441953333333","25.0394466666667","6500500","新莊區"
"242045","281-VK","2019/09/02 07:39:29","新北市新莊區三和路12-21號","121.442361666667","25.0381016666667","6500500","新莊區"
"242010","280-VK","2019/09/02 07:39:42","新北市新莊區三和路12-21號","121.44201","25.0382966666667","6500500","新莊區"
