"lineid","car","time","location","longitude","latitude","cityid","cityname"
"244006","080-UY","2019/11/28 08:59:24","新北市林口區林口路113巷6弄1號","121.388716666667","25.080595","6501700","林口區"
"244003","248-BX","2019/11/28 08:58:48","新北市林口區寶斗厝坑79-1號","121.332601666667","25.1166666666667","6501700","林口區"
"244012","KEA-2802","2019/11/28 08:59:28","新北市林口區文化一路二段92號","121.381503333333","25.0787116666667","6501700","林口區"
"244022","483-VK","2019/11/28 08:59:30","新北市林口區東湖路120號","121.384906666667","25.07351","6501700","林口區"
"244016","485-VK","2019/11/28 08:59:29","新北市林口區公園路43號","121.367268333333","25.0683583333333","6501700","林口區"
"244008","656-BX","2019/11/28 08:59:42","新北市林口區文化三路二段358號","121.37843","25.085635","6501700","林口區"
"244010","701-TV","2019/11/28 08:59:43","新北市林口區興林路17巷6號","121.390415","25.0769883333333","6501700","林口區"
"244024","837-TS","2019/11/28 08:59:22","新北市林口區南勢六街242號","121.35571","25.0748333333333","6501700","林口區"
"244020","838-TS","2019/11/28 08:59:24","新北市林口區自強二街41號","121.398671666667","25.0775533333333","6501700","林口區"
"222006","289-BY","2019/11/28 08:59:42","新北市深坑區土庫尖路75-1號","121.630633333333","25.0185166666667","6501800","深坑區"
"231069","189-VK","2019/11/28 08:58:39","新北市新店區平廣路二段220號","121.491416666667","24.895175","6500600","新店區"
"231008","192-VK","2019/11/28 08:59:36","新北市新店區廣興路60巷6-1號","121.539926666667","24.91423","6500600","新店區"
"223003","205-TH","2019/11/28 08:59:21","新北市石碇區北宜路六段水底寮巷12號","121.666183333333","24.9430266666667","6501900","石碇區"
"223008","406-TH","2019/11/28 08:59:37","新北市石碇區石汐路1號","121.67836","25.034155","6501900","石碇區"
"223001","592-UM","2019/11/28 08:59:38","新北市石碇區北宜路六段水底寮巷25號","121.665958333333","24.9442083333333","6501900","石碇區"
"223004","660-BX","2019/11/28 08:59:33","新北市石碇區碇坪路二段66號","121.683893333333","24.969765","6501900","石碇區"
"223007","661-BX","2019/11/28 08:59:21","新北市石碇區碇南路二段鹿窟巷16號","121.666205","25.0307366666667","6501900","石碇區"
"223005","677-TV","2019/11/28 08:59:25","新北市石碇區崩山53號","121.682333333333","24.96891","6501900","石碇區"
"252004","249-BX","2019/11/28 08:59:20","新北市三芝區興華里田心子32-2號","121.491181666667","25.1997083333333","6502100","三芝區"
"252007","AAC-283","2019/11/28 08:59:39","新北市三芝區古庄里四棧橋24-1號","121.486283333333","25.2621316666667","6502100","三芝區"
"237013","760-BX","2019/11/28 08:59:35","新北市三峽區金敏16號","121.390613333333","24.8756916666667","6500900","三峽區"
"242059","986-R7","2019/11/28 08:59:29","新北市新莊區四維路97巷22號","121.424073333333","25.023355","6500500","新莊區"
"242003","751-BX","2019/11/28 08:57:55","新北市新莊區化成路45號","121.465088333333","25.0447383333333","6500500","新莊區"
"242028","615-BX","2019/11/28 08:59:30","新北市新莊區中原路193號","121.45198","25.054245","6500500","新莊區"
"242026","613-BX","2019/11/28 08:59:26","新北市新莊區立信一街51號","121.443021666667","25.0495666666667","6500500","新莊區"
"242057","612-BX","2019/11/28 08:59:41","新北市新莊區中正路887-8號","121.41658","25.02445","6500500","新莊區"
"242047","566-BX","2019/11/28 08:59:27","新北市新莊區民安路232號","121.426198333333","25.0223133333333","6500500","新莊區"
"242052","497-BY","2019/11/28 08:59:35","新北市新莊區西盛街395巷37弄1號","121.429045","25.01195","6500500","新莊區"
"242040","442-UM","2019/11/28 08:59:36","新北市新莊區青山路一段18號","121.411193333333","25.0275716666667","6500500","新莊區"
"242001","441-UM","2019/11/28 08:59:37","新北市新莊區中正路48-3號","121.463875","25.0410283333333","6500500","新莊區"
"242043","415-TV","2019/11/28 08:59:32","新北市新莊區龍安路101號","121.416205","25.0223766666667","6500500","新莊區"
"242012","413-TV","2019/11/28 08:59:28","新北市新莊區中和街155巷24弄28號","121.446603333333","25.051","6500500","新莊區"
"242049","400-BY","2019/11/28 08:59:38","新北市新莊區民安西路212巷3弄15號","121.425276666667","25.0142066666667","6500500","新莊區"
"242024","362-BY","2019/11/28 08:59:29","新北市新莊區五工一路87巷8-1號","121.461026666667","25.0672166666667","6500500","新莊區"
"242022","353-BY","2019/11/28 08:59:27","新北市新莊區化成路373-2號","121.46545","25.0578166666667","6500500","新莊區"
"242014","132-UY","2019/11/28 08:59:30","新北市新莊區永樂街227號","121.447018333333","25.0443283333333","6500500","新莊區"
"242055","172-VK","2019/11/28 08:59:24","新北市新莊區瓊泰路7-1號","121.444783333333","25.028365","6500500","新莊區"
"242016","173-VK","2019/11/28 08:59:35","新北市新莊區中港二街43號","121.450601666667","25.04587","6500500","新莊區"
"242030","175-VK","2019/11/28 08:59:36","新北市新莊區新泰路215號","121.446686666667","25.038855","6500500","新莊區"
"242038","176-VK","2019/11/28 08:59:39","新北市新莊區民安西路120號","121.42678","25.0185233333333","6500500","新莊區"
"242006","346-TH","2019/11/28 08:59:30","新北市新莊區福壽街112巷25號","121.459225","25.0507316666667","6500500","新莊區"
"242020","347-TH","2019/11/28 08:59:36","新北市新莊區建中街32巷8號","121.4489","25.0378966666667","6500500","新莊區"
"242035","348-TH","2019/11/28 08:59:36","新北市新莊區建安街27號","121.429015","25.0259833333333","6500500","新莊區"
"242008","349-TH","2019/11/28 08:59:22","新北市新莊區昌盛街83號","121.455583333333","25.0500833333333","6500500","新莊區"
"242033","350-TH","2019/11/28 08:59:33","新北市新莊區中正路318巷15號","121.446218333333","25.0359216666667","6500500","新莊區"
"242018","351-TH","2019/11/28 08:59:35","新北市新莊區銘德街83號","121.456261666667","25.043495","6500500","新莊區"
"244018","KED-0667","2019/11/28 08:59:29","新北市林口區文化一路一段30號","121.370738333333","25.0690983333333","6501700","林口區"
"233003","KEA-2870","2019/11/28 08:59:26","新北市烏來區屯鹿71號","121.492333333333","24.79167","6502900","烏來區"
"242045","281-VK","2019/11/28 08:59:27","新北市新莊區中正路803巷24號","121.421631666667","25.028015","6500500","新莊區"
"242010","280-VK","2019/11/28 08:59:39","新北市新莊區中信街65號","121.449135","25.0508616666667","6500500","新莊區"
