"lineid","car","time","location","longitude","latitude","cityid","cityname"
"244003","248-BX","2019/11/28 09:29:28","新北市林口區粉寮路二段160巷28號","121.405165","25.0907366666667","6501700","林口區"
"244012","KEA-2802","2019/11/28 09:29:28","新北市林口區麗園一街1號","121.37576","25.0730933333333","6501700","林口區"
"244022","483-VK","2019/11/28 09:29:30","新北市林口區佳林路221號","121.384018333333","25.0767166666667","6501700","林口區"
"244016","485-VK","2019/11/28 09:29:29","新北市林口區文化二路一段68巷33號","121.367035","25.068975","6501700","林口區"
"244008","656-BX","2019/11/28 09:29:42","新北市林口區竹林路340號","121.391366666667","25.083545","6501700","林口區"
"244010","701-TV","2019/11/28 09:29:23","新北市林口區中正路264巷25號","121.38841","25.0784166666667","6501700","林口區"
"244024","837-TS","2019/11/28 09:29:22","新北市林口區文化三路一段555巷50號","121.369746666667","25.077085","6501700","林口區"
"222006","289-BY","2019/11/28 09:28:02","新北市深坑區昇高坑路43號","121.62915","24.9972866666667","6501800","深坑區"
"231069","189-VK","2019/11/28 09:29:39","新北市新店區新潭路三段215巷25號","121.508103333333","24.904065","6500600","新店區"
"231008","192-VK","2019/11/28 09:28:56","新北市新店區平廣路一段221-2號","121.51098","24.8895933333333","6500600","新店區"
"223003","205-TH","2019/11/28 09:29:41","新北市石碇區北宜路五段11號","121.63102","24.955655","6501900","石碇區"
"223001","592-UM","2019/11/28 09:29:38","新北市石碇區北宜路五段12號","121.629413333333","24.9539183333333","6501900","石碇區"
"223004","660-BX","2019/11/28 09:29:33","新北市石碇區碇坪路二段41號","121.685933333333","24.975515","6501900","石碇區"
"252004","249-BX","2019/11/28 09:29:40","新北市三芝區店子里店子112-4號","121.51047","25.209655","6502100","三芝區"
"252007","AAC-283","2019/11/28 09:29:39","新北市三芝區新庄里新庄子113-9號","121.516203333333","25.2681166666667","6502100","三芝區"
"237013","760-BX","2019/11/28 09:29:35","新北市三峽區金敏3號","121.382921666667","24.87558","6500900","三峽區"
"242059","986-R7","2019/11/28 09:29:30","新北市新莊區瓊林路59-41號","121.441035","25.0232716666667","6500500","新莊區"
"242003","751-BX","2019/11/28 09:29:27","新北市新莊區化成路554巷28號","121.467466666667","25.0539766666667","6500500","新莊區"
"242026","613-BX","2019/11/28 09:29:26","新北市新莊區思源路33號","121.460155","25.0395833333333","6500500","新莊區"
"242057","612-BX","2019/11/28 09:29:41","新北市新莊區龍安路278巷2號","121.422173333333","25.0191566666667","6500500","新莊區"
"242047","566-BX","2019/11/28 09:29:27","新北市新莊區中正路877-5號","121.41794","25.0265083333333","6500500","新莊區"
"242040","442-UM","2019/11/28 09:29:37","新北市新莊區天祥街15巷14號","121.416378333333","25.0276783333333","6500500","新莊區"
"242001","441-UM","2019/11/28 09:29:37","新北市新莊區中正路育農巷1號","121.456943333333","25.0379216666667","6500500","新莊區"
"242043","415-TV","2019/11/28 09:29:32","新北市新莊區中正路新建巷28弄57號","121.413596666667","25.0213683333333","6500500","新莊區"
"242024","362-BY","2019/11/28 09:29:29","新北市新莊區化成路579巷1號","121.464315","25.0660283333333","6500500","新莊區"
"242055","172-VK","2019/11/28 09:29:27","新北市新莊區新莊路713巷7弄3號","121.443833333333","25.031975","6500500","新莊區"
"242030","175-VK","2019/11/28 09:29:36","新北市新莊區三泰路3號","121.440533333333","25.0339966666667","6500500","新莊區"
"242038","176-VK","2019/11/28 09:29:38","新北市新莊區瓊林北路15號","121.439193333333","25.0220666666667","6500500","新莊區"
"242020","347-TH","2019/11/28 09:29:16","新北市新莊區公園路48號","121.449078333333","25.039315","6500500","新莊區"
"242035","348-TH","2019/11/28 09:29:36","新北市新莊區後港一路84號","121.427348333333","25.0266366666667","6500500","新莊區"
"242033","350-TH","2019/11/28 09:29:39","新北市新莊區中正路319號","121.447915","25.035055","6500500","新莊區"
"244018","KED-0667","2019/11/28 09:29:29","新北市林口區忠孝路646巷29號","121.379123333333","25.0671916666667","6501700","林口區"
"233003","KEA-2870","2019/11/28 09:29:26","新北市烏來區卡拉模基2號","121.503846666667","24.777725","6502900","烏來區"
"242045","281-VK","2019/11/28 09:29:26","新北市新莊區裕民街90巷13號","121.417823333333","25.0237583333333","6500500","新莊區"
"242010","280-VK","2019/11/28 09:29:39","新北市新莊區中榮街124號","121.44658","25.0528516666667","6500500","新莊區"
