"lineid","car","time","location","longitude","latitude","cityid","cityname"
"234044","148-BY","2019/11/28 13:43:39","新北市永和區永利路358號","121.52615","25.003275","6500400","永和區"
"234078","298-R6","2019/11/28 13:43:34","新北市永和區林森路20巷24號","121.525683333333","25.005995","6500400","永和區"
"234036","336-UY","2019/11/28 13:43:41","新北市永和區民樂街39巷18弄2號","121.52852","24.9995033333333","6500400","永和區"
"234062","337-UY","2019/11/28 13:43:30","新北市永和區秀朗路一段192巷6弄14號","121.519161666667","25.0023066666667","6500400","永和區"
"234084","338-UY","2019/11/28 13:43:42","新北市永和區永亨路122號","121.524475","25.00405","6500400","永和區"
"234068","552-UM","2019/11/28 13:43:42","新北市永和區永和路二段243號","121.51577","25.01468","6500400","永和區"
"234015","745-BX","2019/11/28 13:43:38","新北市永和區永和路二段297號","121.516025","25.0160566666667","6500400","永和區"
"234028","746-BX","2019/11/28 13:43:42","新北市永和區民生路49號","121.522708333333","24.9978016666667","6500400","永和區"
"234052","KEA-2590","2019/11/28 13:43:40","新北市永和區竹林路39巷24弄22號","121.519258333333","25.013875","6500400","永和區"
"234005","KED-0605","2019/11/28 13:43:25","新北市永和區永和路一段85號","121.513313333333","25.0073566666667","6500400","永和區"
"234012","KEA-2591","2019/11/28 13:43:40","新北市永和區仁愛路168號","121.510145","25.0127083333333","6500400","永和區"
"234060","AAD-866","2019/11/28 13:43:41","新北市永和區中正路354號","121.517811666667","25.0005483333333","6500400","永和區"
"234040","862-TW","2019/11/28 13:43:37","新北市永和區中和路305巷4號","121.506723333333","25.00033","6500400","永和區"
"234048","863-TW","2019/11/28 13:43:42","新北市永和區環河西路一段105號","121.511035","25.0176166666667","6500400","永和區"
"234025","9372-KE","2019/11/28 13:43:28","新北市永和區永平路246號","121.50861","25.010985","6500400","永和區"
"234010","9373-KE","2019/11/28 13:43:34","新北市永和區保福路二段163巷12號","121.508903333333","25.0146566666667","6500400","永和區"
"248007","KED-0815","2019/11/28 13:43:22","新北市五股區中興路一段151巷32號","121.465203333333","25.072735","6501500","五股區"
"248017","KED-0813","2019/11/28 13:43:41","新北市五股區民義路二段48巷2-10號","121.415636666667","25.101885","6501500","五股區"
"248009","272-BY","2019/11/28 13:43:41","新北市五股區水碓三路63號","121.430295","25.071635","6501500","五股區"
"248003","677-BX","2019/11/28 13:43:34","新北市五股區民義路一段270號","121.425868333333","25.0927433333333","6501500","五股區"
"248001","678-BX","2019/11/28 13:43:32","新北市五股區成泰路三段483號","121.45063","25.0989633333333","6501500","五股區"
"234022","9380-KE","2019/11/28 13:43:39","新北市永和區中正路662巷23號","121.51758","25.00885","6500400","永和區"
"234076","969-R7","2019/11/28 13:43:34","新北市永和區民權路3號","121.520173333333","24.9983016666667","6500400","永和區"
"234072","AAC-211","2019/11/28 13:43:32","新北市永和區豫溪街189巷1號","121.522585","25.0103416666667","6500400","永和區"
"234066","AAC-212","2019/11/28 13:43:35","新北市永和區永平路173巷14弄2號","121.510188333333","25.0085216666667","6500400","永和區"
"234001","AAC-295","2019/11/28 13:43:41","新北市永和區自由街64號","121.513508333333","25.0056333333333","6500400","永和區"
"243004","AAD-798","2019/11/28 13:43:38","新北市泰山區福興三街13號","121.434435","25.0578233333333","6501600","泰山區"
"243001","KEA-2215","2019/11/28 13:43:41","新北市泰山區黎明路23-1號","121.421318333333","25.061115","6501600","泰山區"
"243007","680-BX","2019/11/28 13:43:36","新北市泰山區美寧街50號","121.430545","25.0644766666667","6501600","泰山區"
"231006","001-UM","2019/11/28 13:43:25","新北市新店區北宜路一段76號","121.538555","24.9558816666667","6500600","新店區"
"231030","002-UM","2019/11/28 13:43:27","新北市新店區安康路一段134號","121.526686666667","24.9628383333333","6500600","新店區"
"231005","046-UY","2019/11/28 13:43:27","新北市新店區寶中路72號","121.547843333333","24.9806166666667","6500600","新店區"
"231029","106-UY","2019/11/28 13:43:24","新北市新店區安康路二段160號","121.512181666667","24.9608533333333","6500600","新店區"
"231018","107-UY","2019/11/28 13:43:42","新北市新店區百忍街33號","121.533686666667","24.975795","6500600","新店區"
"231013","108-UY","2019/11/28 13:43:43","新北市新店區二十張路58-1號","121.536858333333","24.9803166666667","6500600","新店區"
"231036","110-UY","2019/11/28 13:43:34","新北市新店區安祥路147巷52號","121.476356666667","24.9565733333333","6500600","新店區"
"231023","260-TV","2019/11/28 13:43:43","新北市新店區新店路228號","121.53719","24.9568383333333","6500600","新店區"
"231003","268-BY","2019/11/28 13:43:27","新北市新店區中興路一段264號","121.544765","24.96727","6500600","新店區"
"231035","278-BY","2019/11/28 13:43:39","新北市新店區安忠路57巷2號","121.513448333333","24.9593066666667","6500600","新店區"
"231017","AAD-862","2019/11/28 13:43:40","新北市新店區竹林路2巷27弄11號","121.55101","24.9508816666667","6500600","新店區"
"231038","3712-VJ","2019/11/28 13:43:42","新北市新店區安華路30巷1號","121.519523333333","24.95927","6500600","新店區"
"231027","3713-VJ","2019/11/28 13:43:35","新北市新店區北宜路一段123-6號","121.540878333333","24.9537366666667","6500600","新店區"
"231024","4716-K9","2019/11/28 13:43:36","新北市新店區華興街40號","121.537001666667","24.9690266666667","6500600","新店區"
"231025","4715-K9","2019/11/28 13:43:33","新北市新店區中央路208號","121.530173333333","24.9739566666667","6500600","新店區"
"231021","513-UM","2019/11/28 13:43:35","新北市新店區北宜路一段116號","121.539186666667","24.9552633333333","6500600","新店區"
"231002","619-UM","2019/11/28 13:43:27","新北市新店區溪園路393號","121.52427","24.979015","6500600","新店區"
"231034","641-BX","2019/11/28 13:43:42","新北市新店區達觀路14巷5號","121.503628333333","24.9426083333333","6500600","新店區"
"231011","KED-0819","2019/11/28 13:43:38","新北市新店區德正街27巷11號","121.544933333333","24.9715633333333","6500600","新店區"
"231031","718-UY","2019/11/28 13:43:30","新北市新店區莒光路21號","121.526201666667","24.96032","6500600","新店區"
"231010","719-UM","2019/11/28 13:43:31","新北市新店區平等街54號","121.53596","24.9727433333333","6500600","新店區"
"231026","720-UM","2019/11/28 13:43:35","新北市新店區北新路一段150號","121.542593333333","24.9707466666667","6500600","新店區"
"231028","897-TW","2019/11/28 13:43:30","新北市新店區安和路二段77-1號","121.51848","24.9687066666667","6500600","新店區"
"231001","898-TW","2019/11/28 13:43:34","新北市新店區中正路397號","121.534555","24.9773116666667","6500600","新店區"
"231004","899-TW","2019/11/28 13:43:29","新北市新店區北新路二段70號","121.542931666667","24.9725833333333","6500600","新店區"
"231037","AKT-0513","2019/11/28 13:43:38","新北市新店區安康路三段312號","121.487155","24.951835","6500600","新店區"
"235030","003-UY","2019/11/28 13:43:36","新北市中和區水源路34巷21弄2號","121.50463","25.0026683333333","6500300","中和區"
"235028","005-UY","2019/11/28 13:43:39","新北市中和區連城路87號","121.496908333333","25.0003383333333","6500300","中和區"
"235027","006-UY","2019/11/28 13:43:34","新北市中和區錦和路103號","121.490148333333","24.9953783333333","6500300","中和區"
"235020","096-UM","2019/11/28 13:43:43","新北市中和區立德街329號","121.481506666667","25.01047","6500300","中和區"
"235003","097-UM","2019/11/28 13:43:40","新北市中和區大勇街29巷6號","121.516115","24.99439","6500300","中和區"
"235029","098-UM","2019/11/28 13:43:36","新北市中和區中山路二段2巷13弄14號","121.503143333333","25.0065116666667","6500300","中和區"
"235004","150-BY","2019/11/28 13:43:37","新北市中和區保健路50巷68號","121.509193333333","24.99513","6500300","中和區"
"235022","151-BY","2019/11/28 13:43:45","新北市中和區員山路143巷9號","121.480331666667","24.99595","6500300","中和區"
"235019","183-VK","2019/11/28 13:43:42","新北市中和區民生街72號","121.468783333333","25.0048383333333","6500300","中和區"
"235002","185-VK","2019/11/28 13:43:34","新北市中和區自強路60號","121.520116666667","24.99442","6500300","中和區"
"235031","255-BX","2019/11/28 13:43:25","新北市中和區連城路340巷14弄2號","121.483371666667","24.9972866666667","6500300","中和區"
"235008","293-VK","2019/11/28 13:43:42","新北市中和區復興路280巷15號","121.502308333333","24.9913516666667","6500300","中和區"
"235036","301-VK","2019/11/28 13:43:41","新北市中和區連城路2號","121.499256666667","25.0024816666667","6500300","中和區"
"235007","352-BY","2019/11/28 13:43:42","新北市中和區景平路21號","121.522708333333","24.9904483333333","6500300","中和區"
"235006","KEA-2878","2019/11/28 13:43:30","新北市中和區成功路72號","121.5258","24.991915","6500300","中和區"
"235014","4979-A6","2019/11/28 13:43:30","新北市中和區景新街496巷30弄7號","121.51317","24.9855383333333","6500300","中和區"
"235033","4980-A6","2019/11/28 13:43:25","新北市中和區中和路86號","121.501175","25.0005866666667","6500300","中和區"
"235032","551-UM","2019/11/28 13:43:37","新北市中和區圓通路265巷38號","121.496096666667","24.9924683333333","6500300","中和區"
"235034","558-UM","2019/11/28 13:43:32","新北市中和區南山路6號","121.501966666667","24.9986266666667","6500300","中和區"
"235009","565-BX","2019/11/28 13:43:34","新北市中和區興南路一段58號","121.510873333333","24.9904233333333","6500300","中和區"
"235024","KED-0823","2019/11/28 13:43:43","新北市中和區民治街19巷1號","121.47526","25.0027783333333","6500300","中和區"
"235018","640-BX","2019/11/28 13:43:33","新北市中和區民治街28號","121.475238333333","25.003805","6500300","中和區"
"235035","647-TV","2019/11/28 13:43:22","新北市中和區光環路二段309號","121.487325","25.013765","6500300","中和區"
"235011","732-UM","2019/11/28 13:43:25","新北市中和區興南路二段92號","121.505258333333","24.98449","6500300","中和區"
"235010","733-UM","2019/11/28 13:43:25","新北市中和區仁愛街36巷32號","121.511121666667","24.9868383333333","6500300","中和區"
"235026","800-TS","2019/11/28 13:43:30","新北市中和區中山路二段340巷17號","121.493341666667","25.0030166666667","6500300","中和區"
"235021","801-TS","2019/11/28 13:43:29","新北市中和區民安街53-5號","121.479551666667","24.9996316666667","6500300","中和區"
"235005","802-TS","2019/11/28 13:43:42","新北市永和區中和路525號","121.511241666667","25.0028566666667","6500300","中和區"
"235016","805-TS","2019/11/28 13:41:52","新北市中和區興南路三段95號","121.489875","24.9735033333333","6500300","中和區"
"235012","896-TW","2019/11/28 13:43:34","新北市中和區南山路273號","121.504001666667","24.99245","6500300","中和區"
"235017","900-TW","2019/11/28 13:43:45","新北市中和區華順街103巷1號","121.465421666667","24.997445","6500300","中和區"
"235015","157-BY","2019/11/28 13:43:26","新北市中和區華新街109巷11弄3-10號","121.508808333333","24.97974","6500300","中和區"
"235001","AAC-213","2019/11/28 13:43:24","新北市中和區自立路141巷29號","121.523981666667","24.99395","6500300","中和區"
"235023","AAC-215","2019/11/28 13:43:29","新北市中和區錦和路356號","121.490583333333","24.991485","6500300","中和區"
"220002","015-TV","2019/11/28 13:43:25","新北市板橋區南雅南路二段120-24號","121.452058333333","24.9987","6500100","板橋區"
"220034","073-UY","2019/11/28 13:43:25","新北市板橋區華東街328號","121.452806666667","25.003315","6500100","板橋區"
"220017","AAD-861","2019/11/28 13:43:33","新北市板橋區大華街100號","121.45911","25.0052383333333","6500100","板橋區"
"247011","337-TH","2019/11/28 13:43:39","新北市五股區中興路三段5號","121.449061666667","25.0797383333333","6501400","蘆洲區"
"247003","336-TH","2019/11/28 13:43:31","新北市蘆洲區中原路30號","121.460001666667","25.0828583333333","6501400","蘆洲區"
"247007","002-UY","2019/11/28 13:43:42","新北市蘆洲區國道路二段25號","121.47517","25.0737833333333","6501400","蘆洲區"
"235013","251-BX","2019/11/28 13:43:40","新北市中和區明義街16號","121.504558333333","24.9949333333333","6500300","中和區"
"228005","097-TW","2019/11/28 13:43:44","新北市貢寮區美豐里土地公嶺3號","121.89805","25.05682","6502600","貢寮區"
"228004","212-TW","2019/11/28 13:43:26","新北市貢寮區龍崗里嵩陽街8號","121.901843333333","25.0106116666667","6502600","貢寮區"
"253003","6232-TK","2019/11/28 13:43:35","新北市石門區尖子鹿5-1號","121.571936666667","25.2815016666667","6502200","石門區"
"253004","6251-TK","2019/11/28 13:43:28","新北市石門區阿里荖62-1號","121.607781666667","25.2691983333333","6502200","石門區"
"253002","637-UY","2019/11/28 13:43:30","新北市石門區九芎林36-1號","121.566046666667","25.2522683333333","6502200","石門區"
"253001","KEC-0718","2019/11/28 13:43:36","新北市石門區八甲60-5號","121.52619","25.2719683333333","6502200","石門區"
"207002","749-BX","2019/11/28 13:43:32","新北市萬里區崁腳里崁腳路166號","121.645113333333","25.1558883333333","6502800","萬里區"
"252005","073-UM","2019/11/28 13:43:29","新北市三芝區圓山里內柑宅25號","121.539168333333","25.2185233333333","6502100","三芝區"
"207001","662-BX","2019/11/28 13:43:27","新北市萬里區大鵬里萬里加投63號","121.640333333333","25.2131466666667","6502800","萬里區"
"236074","166-UM","2019/11/28 13:43:29","新北市土城區中華路二段134號","121.43757","24.97317","6501300","土城區"
"236029","253-BX","2019/11/28 13:43:42","新北市土城區城林路6巷80號","121.438486666667","24.97984","6501300","土城區"
"236012","270-VK","2019/11/28 13:43:40","新北市土城區城林路6巷80號","121.438623333333","24.9798033333333","6501300","土城區"
"236032","271-VK","2019/11/28 13:43:37","新北市土城區城林路6巷80號","121.438488333333","24.9797816666667","6501300","土城區"
"236068","KEA-2877","2019/11/28 13:43:30","新北市土城區城林路6巷80號","121.438666666667","24.9796716666667","6501300","土城區"
"236017","401-BY","2019/11/28 13:43:31","新北市土城區城林路6巷80號","121.438565","24.9797666666667","6501300","土城區"
"236057","912-UM","2019/11/28 13:43:33","新北市土城區中華路二段136號","121.437498333333","24.9729883333333","6501300","土城區"
"236054","AAC-216","2019/11/28 13:43:41","新北市土城區城林路6巷80號","121.43863","24.979745","6501300","土城區"
"220028","200-UY","2019/11/28 13:43:36","新北市板橋區大觀路二段431-1號","121.441591666667","24.9949116666667","6500100","板橋區"
"220030","610-BX","2019/11/28 13:43:31","新北市板橋區篤行路二段59號","121.431775","24.992335","6500100","板橋區"
"220050","245-BX","2019/11/28 13:43:37","新北市板橋區民生路二段188號","121.470016666667","25.0205883333333","6500100","板橋區"
"220004","276-BY","2019/11/28 13:43:37","新北市板橋區四川路一段147號","121.459963333333","25.00421","6500100","板橋區"
"220020","277-BY","2019/11/28 13:43:30","新北市板橋區大觀路三段5-4號","121.432713333333","24.9959166666667","6500100","板橋區"
"220043","283-UM","2019/11/28 13:43:26","新北市板橋區民生路二段120號","121.470388333333","25.019805","6500100","板橋區"
"220019","283-VK","2019/11/28 13:43:32","新北市板橋區四川路一段367號","121.458268333333","24.9995716666667","6500100","板橋區"
"220001","285-VK","2019/11/28 13:43:44","新北市板橋區民生路二段89-4號","121.470936666667","25.0182283333333","6500100","板橋區"
"220031","286-VK","2019/11/28 13:43:33","新北市板橋區大觀路二段20號","121.44655","25.0034833333333","6500100","板橋區"
"220029","287-VK","2019/11/28 13:43:34","新北市板橋區大觀路一段79號","121.447023333333","25.0041866666667","6500100","板橋區"
"220039","288-VK","2019/11/28 13:43:33","新北市板橋區民生路三段105號","121.466515","25.0251633333333","6500100","板橋區"
"220009","293-UM","2019/11/28 13:43:37","新北市板橋區太和街6巷2號","121.473845","25.019905","6500100","板橋區"
"220032","296-UM","2019/11/28 13:43:38","新北市板橋區大觀路二段148巷74號","121.441798333333","25.00091","6500100","板橋區"
"220023","303-R5","2019/11/28 13:43:26","新北市板橋區南雅西路二段123巷10號","121.451478333333","25.010835","6500100","板橋區"
"220010","305-R5","2019/11/28 13:43:27","新北市板橋區民生路二段161巷7號","121.470241666667","25.0197033333333","6500100","板橋區"
"220041","307-R5","2019/11/28 13:43:37","新北市板橋區漢生東路21號","121.465033333333","25.01723","6500100","板橋區"
"220047","317-R6","2019/11/28 13:43:26","新北市板橋區民生路二段120號","121.47058","25.0196816666667","6500100","板橋區"
"220013","461-BY","2019/11/28 13:43:29","新北市板橋區成都街103號","121.463478333333","25.005365","6500100","板橋區"
"220038","487-VK","2019/11/28 13:43:33","新北市板橋區文化路二段179號","121.470756666667","25.02779","6500100","板橋區"
"220037","491-VK","2019/11/28 13:43:36","新北市板橋區民生路二段120號","121.470516666667","25.0196066666667","6500100","板橋區"
"220104","560-BX","2019/11/28 13:43:38","新北市板橋區南雅西路二段203號","121.45165","25.0134783333333","6500100","板橋區"
"220052","561-BX","2019/11/28 13:43:32","新北市板橋區介壽街112號","121.469893333333","25.0179166666667","6500100","板橋區"
"220027","568-UM","2019/11/28 13:43:29","新北市板橋區南雅西路二段143號","121.452213333333","25.0116533333333","6500100","板橋區"
"220011","609-BX","2019/11/28 13:43:42","新北市板橋區民生路一段117號","121.47403","25.0147083333333","6500100","板橋區"
"220040","637-BX","2019/11/28 13:43:30","新北市板橋區民生路二段89-6號","121.470721666667","25.0192466666667","6500100","板橋區"
"220005","686-BX","2019/11/28 13:43:34","新北市板橋區館前西路4-1號","121.459081666667","25.007165","6500100","板橋區"
"220025","687-BX","2019/11/28 13:43:32","新北市板橋區大觀路三段180巷30號","121.429906666667","24.99372","6500100","板橋區"
"220051","KEA-2699","2019/11/28 13:43:30","新北市板橋區民生路二段120號","121.470495","25.0196216666667","6500100","板橋區"
"220003","827-TW","2019/11/28 13:43:40","新北市板橋區忠孝路89號","121.462196666667","25.0022166666667","6500100","板橋區"
"220105","829-TW","2019/11/28 13:43:36","新北市板橋區民生路二段188號","121.470011666667","25.0205766666667","6500100","板橋區"
"220016","830-TW","2019/11/28 13:43:27","新北市板橋區雙十路一段44巷36號","121.477543333333","25.0248866666667","6500100","板橋區"
"220022","895-R6","2019/11/28 13:43:40","新北市板橋區南門街30號","121.457176666667","25.008575","6500100","板橋區"
"220021","985-R7","2019/11/28 13:43:34","新北市板橋區館前西路68號","121.457695","25.00715","6500100","板橋區"
"220046","AAC-210","2019/11/28 13:43:35","新北市板橋區民生路二段120號","121.470593333333","25.0195766666667","6500100","板橋區"
"220012","AAC-253","2019/11/28 13:43:40","新北市板橋區中山路一段279號","121.469401666667","25.0137483333333","6500100","板橋區"
"235025","KEA-2875","2019/11/28 13:43:23","新北市中和區民享街69巷7號","121.474616666667","25.0022933333333","6500300","中和區"
