"lineid","car","time","location","longitude","latitude","cityid","cityname"
"248007","KED-0815","2019/11/28 15:13:42","新北市五股區四維路30巷31號","121.468653333333","25.0715","6501500","五股區"
"248017","KED-0813","2019/11/28 15:13:32","新北市五股區登林路114-5號","121.424133333333","25.0707583333333","6501500","五股區"
"243004","AAD-798","2019/11/28 15:13:38","新北市泰山區泰林路二段396號","121.427756666667","25.0641316666667","6501600","泰山區"
"243008","421-VK","2019/11/28 15:13:32","新北市泰山區明志路二段1號","121.430181666667","25.0538666666667","6501600","泰山區"
"231006","001-UM","2019/11/28 15:13:45","新北市新店區新坡一街18巷5弄8-1號","121.550726666667","24.9618483333333","6500600","新店區"
"231030","002-UM","2019/11/28 15:13:45","新北市新店區安民街341-1號","121.516785","24.9748716666667","6500600","新店區"
"231005","046-UY","2019/11/28 15:13:27","新北市新店區寶慶街68號","121.541801666667","24.9867383333333","6500600","新店區"
"231029","106-UY","2019/11/28 15:13:43","新北市新店區安康路三段571巷5-1號","121.474691666667","24.9427416666667","6500600","新店區"
"231018","107-UY","2019/11/28 15:13:41","新北市新店區中央七街87號","121.526761666667","24.977095","6500600","新店區"
"231036","110-UY","2019/11/28 15:13:34","新北市新店區安祥路69巷15號","121.481931666667","24.9614033333333","6500600","新店區"
"231039","187-VK","2019/11/28 15:13:30","新北市新店區寶元路一段65號","121.54226","24.9857683333333","6500600","新店區"
"231023","260-TV","2019/11/28 15:13:43","新北市新店區北新路一段64巷21號","121.541818333333","24.966135","6500600","新店區"
"231003","268-BY","2019/11/28 15:13:27","新北市新店區寶橋路218號","121.551083333333","24.9787166666667","6500600","新店區"
"231035","278-BY","2019/11/28 15:13:39","新北市新店區永平街16巷37號","121.517156666667","24.9845383333333","6500600","新店區"
"231017","AAD-862","2019/11/28 15:13:40","新北市新店區北宜路二段617號","121.570943333333","24.9568","6500600","新店區"
"231038","3712-VJ","2019/11/28 15:13:42","新北市新店區安一路一段1-1號","121.519815","24.9611266666667","6500600","新店區"
"231024","4716-K9","2019/11/28 15:13:36","新北市新店區北新路一段297巷12號","121.540903333333","24.967795","6500600","新店區"
"231025","4715-K9","2019/11/28 15:13:33","新北市新店區環河路105-3號","121.532253333333","24.9697566666667","6500600","新店區"
"231021","513-UM","2019/11/28 15:13:35","新北市新店區新烏路一段247號","121.547223333333","24.930125","6500600","新店區"
"231002","619-UM","2019/11/28 15:13:33","新北市新店區中正路671-1號","121.533811666667","24.9900783333333","6500600","新店區"
"231034","641-BX","2019/11/28 15:13:42","新北市新店區玫瑰路4-1號","121.493553333333","24.9514983333333","6500600","新店區"
"231011","KED-0819","2019/11/28 15:13:30","新北市新店區寶元路一段65號","121.542258333333","24.9858216666667","6500600","新店區"
"231031","718-UY","2019/11/28 15:13:30","新北市新店區安泰路60巷55弄125號","121.484516666667","24.9465633333333","6500600","新店區"
"231026","720-UM","2019/11/28 15:13:36","新北市新店區建安街17號","121.539661666667","24.9754616666667","6500600","新店區"
"231028","897-TW","2019/11/28 15:13:30","新北市新店區僑信路82號","121.499681666667","24.9482066666667","6500600","新店區"
"231001","898-TW","2019/11/28 15:13:34","新北市新店區中正路190號","121.540756666667","24.9723816666667","6500600","新店區"
"231004","899-TW","2019/11/28 15:13:28","新北市新店區博愛街13巷24號","121.540226666667","24.974055","6500600","新店區"
"231037","AKT-0513","2019/11/28 15:13:38","新北市新店區安民街365巷7弄2號","121.515995","24.9754466666667","6500600","新店區"
"241013","270-UM","2019/11/28 15:13:44","新北市三重區重新路四段121號","121.484895","25.052025","6500200","三重區"
"235030","003-UY","2019/11/28 15:13:36","新北市中和區南工路87號","121.507115","25.0030866666667","6500300","中和區"
"235019","183-VK","2019/11/28 15:13:34","新北市八里區商港路88-3號","121.394401666667","25.1477433333333","6500300","中和區"
"235036","301-VK","2019/11/28 15:13:41","新北市中和區板南路339號","121.493921666667","24.998355","6500300","中和區"
"235014","4979-A6","2019/11/28 15:13:30","新北市中和區景新街274巷10號","121.51051","24.9922016666667","6500300","中和區"
"235033","4980-A6","2019/11/28 15:13:25","新北市中和區圓通路198巷2弄3號","121.49622","24.9946533333333","6500300","中和區"
"235035","647-TV","2019/11/28 15:13:42","新北市中和區中山路二段437號","121.484805","25.0047466666667","6500300","中和區"
"235012","896-TW","2019/11/28 15:13:33","新北市中和區興南路一段55-1號","121.510781666667","24.9901266666667","6500300","中和區"
"235023","AAC-215","2019/11/28 15:13:28","新北市中和區圓通路367巷13弄1號","121.49251","24.9882183333333","6500300","中和區"
"220002","015-TV","2019/11/28 15:13:45","新北市板橋區實踐路93巷50號","121.465881666667","25.0051016666667","6500100","板橋區"
"253004","6251-TK","2019/11/28 15:13:28","新北市石門區坪林52-1號","121.596393333333","25.2742316666667","6502200","石門區"
"253002","637-UY","2019/11/28 15:13:30","新北市石門區中央路2-1號","121.565283333333","25.29111","6502200","石門區"
"207002","749-BX","2019/11/28 15:13:39","新北市萬里區崁腳里崁腳路27號","121.651736666667","25.160545","6502800","萬里區"
"207001","662-BX","2019/11/28 15:13:27","新北市萬里區磺潭里員潭路14-1號","121.646726666667","25.1989783333333","6502800","萬里區"
"236040","KED-0685","2019/11/28 15:13:34","新北市土城區金城路二段245巷56號","121.455003333333","24.9836883333333","6501300","土城區"
"236074","166-UM","2019/11/28 15:13:29","新北市土城區中州路27巷34-1號","121.413196666667","24.95714","6501300","土城區"
"236029","253-BX","2019/11/28 15:13:42","新北市土城區福祥街74號","121.441696666667","24.9818883333333","6501300","土城區"
"236024","269-VK","2019/11/28 15:13:43","新北市土城區中正路67巷27號","121.444301666667","24.9766066666667","6501300","土城區"
"236012","270-VK","2019/11/28 15:13:39","新北市土城區學府路一段23巷6號","121.458323333333","24.9876216666667","6501300","土城區"
"236068","KEA-2877","2019/11/28 15:13:30","新北市土城區學成路74-1號","121.451371666667","24.9881983333333","6501300","土城區"
"236017","401-BY","2019/11/28 15:13:30","新北市土城區峰廷街3號","121.469053333333","24.9873383333333","6501300","土城區"
"236045","752-BX","2019/11/28 15:13:43","新北市土城區清水路318號","121.463696666667","24.985155","6501300","土城區"
"236057","912-UM","2019/11/28 15:13:33","新北市土城區中央路二段227號","121.440298333333","24.972575","6501300","土城區"
"236060","915-UM","2019/11/28 15:13:38","新北市土城區延平街67號","121.467745","24.992905","6501300","土城區"
"236054","AAC-216","2019/11/28 15:13:44","新北市土城區學府路一段70號","121.456701666667","24.98837","6501300","土城區"
"238002","755-BX","2019/11/28 15:13:44","新北市樹林區大安路593號","121.411558333333","24.9830616666667","6500700","樹林區"
"238010","601-UM","2019/11/28 15:13:43","新北市樹林區中正路433-1號","121.414966666667","25.0076316666667","6500700","樹林區"
"238019","599-UM","2019/11/28 15:13:33","新北市樹林區八德街95號","121.420168333333","24.9811733333333","6500700","樹林區"
"238005","KEA-2217","2019/11/28 15:13:40","新北市樹林區中正路243號","121.430178333333","24.9985066666667","6500700","樹林區"
"238009","KEA-2213","2019/11/28 15:13:43","新北市樹林區和平街53號","121.423945","24.982315","6500700","樹林區"
"238008","KEA-2539","2019/11/28 15:13:38","新北市樹林區西圳街一段165巷20弄11號","121.395611666667","24.960185","6500700","樹林區"
"238012","303-VK","2019/11/28 15:13:41","新北市樹林區中山路二段10號","121.417588333333","24.9851466666667","6500700","樹林區"
"238004","283-BY","2019/11/28 15:13:26","新北市樹林區保安街一段195號","121.420795","24.995935","6500700","樹林區"
"238014","282-BY","2019/11/28 15:13:31","新北市樹林區大安路532號","121.413863333333","24.986035","6500700","樹林區"
"238013","172-UY","2019/11/28 15:13:41","新北市樹林區東順街79巷2號","121.409706666667","24.97654","6500700","樹林區"
"238003","169-UY","2019/11/28 15:13:32","新北市樹林區中山路二段10號","121.41754","24.985","6500700","樹林區"
"220028","200-UY","2019/11/28 15:13:43","新北市板橋區大觀路二段169巷2號","121.445388333333","25.0002066666667","6500100","板橋區"
"220030","610-BX","2019/11/28 15:13:27","新北市板橋區大觀路三段201號","121.431685","24.9933483333333","6500100","板橋區"
"220050","245-BX","2019/11/28 15:13:37","新北市板橋區雙十路二段47巷2弄21號","121.475453333333","25.0267866666667","6500100","板橋區"
"220004","276-BY","2019/11/28 15:13:43","新北市板橋區大觀路三段59巷17弄6-1號","121.435183333333","24.995615","6500100","板橋區"
"220031","286-VK","2019/11/28 15:13:37","新北市板橋區僑中二街92巷13號","121.445608333333","25.0088916666667","6500100","板橋區"
"220029","287-VK","2019/11/28 15:13:34","新北市板橋區僑中一街124巷20弄1號","121.446216666667","25.0140316666667","6500100","板橋區"
"220023","303-R5","2019/11/28 15:13:46","新北市板橋區金華街10巷90號","121.4582","25.0203933333333","6500100","板橋區"
"220010","305-R5","2019/11/28 15:13:27","新北市板橋區中山路二段392號","121.482485","25.0206816666667","6500100","板橋區"
"220013","461-BY","2019/11/28 15:13:28","新北市板橋區實踐路126號","121.464335","25.0031266666667","6500100","板橋區"
"220038","487-VK","2019/11/28 15:13:33","新北市板橋區四維路160號","121.464916666667","25.025965","6500100","板橋區"
"220037","491-VK","2019/11/28 15:13:36","新北市板橋區懷德街181巷3號","121.479468333333","25.03006","6500100","板橋區"
"220104","560-BX","2019/11/28 15:13:38","新北市板橋區新生街50號","121.456805","25.0210333333333","6500100","板橋區"
"220052","561-BX","2019/11/28 15:13:45","新北市板橋區漢生東路31號","121.465406666667","25.0170183333333","6500100","板橋區"
"220027","568-UM","2019/11/28 15:13:29","新北市板橋區建國街52號","121.458736666667","25.0170216666667","6500100","板橋區"
"220011","609-BX","2019/11/28 15:13:40","新北市板橋區三民路一段3巷2號","121.478911666667","25.02355","6500100","板橋區"
"220005","686-BX","2019/11/28 15:13:34","新北市板橋區四川路二段245巷71號","121.452705","24.9919866666667","6500100","板橋區"
"220025","687-BX","2019/11/28 15:13:32","新北市板橋區僑中一街124巷19弄2號","121.44616","25.0141866666667","6500100","板橋區"
"220003","827-TW","2019/11/28 15:13:34","新北市板橋區重慶路308巷20號","121.463455","24.99748","6500100","板橋區"
"220022","895-R6","2019/11/28 15:13:38","新北市板橋區明德街1-1號","121.459751666667","25.0102116666667","6500100","板橋區"
"220012","AAC-253","2019/11/28 15:13:40","新北市板橋區民族路258號","121.469436666667","25.0071866666667","6500100","板橋區"
