"lineid","car","time","location","longitude","latitude","cityid","cityname"
"249002","305-UY","2019/11/28 16:43:44","新北市八里區大堀湖8號","121.426126666667","25.1506666666667","6502300","八里區"
"249003","759-BX","2019/11/28 16:43:37","新北市八里區中山路二段289號","121.401555","25.148615","6502300","八里區"
"244009","656-BX","2019/11/28 16:43:47","新北市林口區粉寮69號","121.405025","25.0908216666667","6501700","林口區"
"231046","719-UM","2019/11/28 16:43:32","新北市新店區灣潭路10號","121.538361666667","24.9479466666667","6500600","新店區"
"241011","013-R5","2019/11/28 16:43:48","新北市三重區仁愛街53巷37號","121.497478333333","25.0721483333333","6500200","三重區"
"241028","022-UY","2019/11/28 16:43:41","新北市三重區重新路三段1號","121.495461666667","25.0617033333333","6500200","三重區"
"241008","059-VK","2019/11/28 16:43:44","新北市三重區永安北路一段19號","121.476498333333","25.075285","6500200","三重區"
"241031","061-VK","2019/11/28 16:42:53","新北市三重區中華路76巷26號","121.481448333333","25.0622866666667","6500200","三重區"
"241015","062-VK","2019/11/28 16:43:48","新北市三重區文化北路45號","121.49898","25.0654783333333","6500200","三重區"
"241017","063-VK","2019/11/28 16:43:40","新北市三重區中正北路25巷28號","121.493918333333","25.0634033333333","6500200","三重區"
"241024","065-VK","2019/11/28 16:43:36","新北市三重區中正北路315巷6弄84號","121.477361666667","25.0725383333333","6500200","三重區"
"241007","066-VK","2019/11/28 16:43:45","新北市三重區三和路四段384號","121.482556666667","25.0788933333333","6500200","三重區"
"241002","090-VK","2019/11/28 16:43:47","新北市三重區仁義街241巷47號","121.497438333333","25.083205","6500200","三重區"
"241003","091-VK","2019/11/28 16:43:39","新北市三重區五華街71巷27號","121.49317","25.0831533333333","6500200","三重區"
"241006","262-UM","2019/11/28 16:43:30","新北市三重區力行路二段182-3號","121.483438333333","25.07748","6500200","三重區"
"241016","266-UM","2019/11/28 16:43:38","新北市三重區大同北路95巷6號","121.494648333333","25.0640416666667","6500200","三重區"
"241009","267-UM","2019/11/28 16:43:47","新北市三重區三和路四段203巷141號","121.485166666667","25.0802933333333","6500200","三重區"
"241018","268-UM","2019/11/28 16:43:43","新北市三重區正義北路314巷30號","121.493933333333","25.069905","6500200","三重區"
"241032","269-UM","2019/11/28 16:43:43","新北市三重區中山路40巷1-1號","121.485815","25.06131","6500200","三重區"
"241013","270-UM","2019/11/28 16:43:44","新北市三重區三和路三段101巷74號","121.496563333333","25.0731","6500200","三重區"
"241030","KED-0822","2019/11/28 16:43:47","新北市三重區環河南路221巷1號","121.492475","25.0521916666667","6500200","三重區"
"241004","475-VK","2019/11/28 16:43:50","新北市三重區五福街46號","121.491951666667","25.08092","6500200","三重區"
"241020","478-VK","2019/11/28 16:43:44","新北市三重區忠孝路二段35號","121.485911666667","25.0710833333333","6500200","三重區"
"241026","480-VK","2019/11/28 16:43:38","新北市三重區文化南路3號","121.500033333333","25.0624583333333","6500200","三重區"
"241014","543-UM","2019/11/28 16:43:34","新北市三重區長榮路71號","121.502551666667","25.06897","6500200","三重區"
"241023","545-UM","2019/11/28 16:43:41","新北市三重區洛陽街58號","121.48155","25.063135","6500200","三重區"
"241001","547-UM","2019/11/28 16:43:40","新北市三重區仁政街84號","121.492555","25.0776966666667","6500200","三重區"
"241019","KEA-2593","2019/11/28 16:43:43","新北市三重區力行路一段179巷5號","121.48482","25.0698366666667","6500200","三重區"
"241005","AAD-863","2019/11/28 16:43:38","新北市三重區仁華街65號","121.484316666667","25.0828","6500200","三重區"
"241012","743-BX","2019/11/28 16:43:42","新北市三重區仁興街4巷15號","121.499511666667","25.0737166666667","6500200","三重區"
"241022","KED-0820","2019/11/28 16:43:49","新北市三重區中華路113號","121.483791666667","25.0634833333333","6500200","三重區"
"241025","KED-0670","2019/11/28 16:43:29","新北市三重區中正北路534號","121.471641666667","25.0717","6500200","三重區"
"241029","942-UM","2019/11/28 16:43:44","新北市三重區集美街210-5號","121.491476666667","25.0546033333333","6500200","三重區"
"241033","AAC-255","2019/11/28 16:43:36","新北市三重區光華路14號","121.470105","25.059785","6500200","三重區"
"247012","337-TH","2019/11/28 16:43:34","新北市五股區中興路三段2巷10號","121.449373333333","25.081025","6501400","蘆洲區"
"247014","056-VK","2019/11/28 16:43:40","新北市蘆洲區中正路501號","121.461798333333","25.096695","6501400","蘆洲區"
"247002","001-UY","2019/11/28 16:43:41","新北市五股區成泰路三段520號","121.452426666667","25.102665","6501400","蘆洲區"
"228002","663-BX","2019/11/28 16:43:34","新北市貢寮區貢寮里朝陽街27號","121.909325","25.0220033333333","6502600","貢寮區"
"224007","285-BY","2019/11/28 16:43:48","新北市瑞芳區月眉路51號","121.760385","25.110405","6501200","瑞芳區"
"224009","275-VK","2019/11/28 16:43:47","新北市瑞芳區民權街3-1號","121.809178333333","25.108365","6501200","瑞芳區"
"224005","271-BY","2019/11/28 16:43:30","新北市瑞芳區洞頂路157號","121.861301666667","25.1228783333333","6501200","瑞芳區"
"227001","642-TC","2019/11/28 16:43:33","新北市雙溪區牡丹里聖南25號","121.856841666667","25.0528716666667","6502500","雙溪區"
"227002","400-TW","2019/11/28 16:43:45","新北市雙溪區長源里柑腳8號","121.804686666667","25.0146083333333","6502500","雙溪區"
"251004","009-UM","2019/11/28 16:43:40","新北市淡水區中正路二段31號","121.419353333333","25.181665","6501000","淡水區"
"251016","180-VK","2019/11/28 16:43:44","新北市淡水區濱海路一段53號","121.443508333333","25.188915","6501000","淡水區"
"251008","181-VK","2019/11/28 16:43:43","新北市淡水區樹梅坑9號","121.472803333333","25.14268","6501000","淡水區"
"251013","182-VK","2019/11/28 16:43:32","新北市淡水區北新路三段171-1號","121.492191666667","25.1916333333333","6501000","淡水區"
"251007","442-VK","2019/11/28 16:43:32","新北市淡水區中正路二段31號","121.419391666667","25.1815933333333","6501000","淡水區"
"251014","577-R6","2019/11/28 16:43:32","新北市淡水區淡金路四段478號","121.45242","25.2239166666667","6501000","淡水區"
"251011","650-BX","2019/11/28 16:43:43","新北市淡水區中正路一段106號","121.42385","25.1779066666667","6501000","淡水區"
"252001","292-VK","2019/11/28 16:43:46","新北市三芝區埔坪里埔頭坑51號","121.50748","25.265595","6502100","三芝區"
"252002","KED-0821","2019/11/28 16:43:28","新北市三芝區芝柏路14號","121.512138333333","25.2553116666667","6502100","三芝區"
"242025","362-BY","2019/11/28 16:43:45","新北市新莊區新泰路255巷83號","121.442161666667","25.0389083333333","6500500","新莊區"
"242034","350-TH","2019/11/28 16:43:40","新北市新莊區新泰路255巷83號","121.442095","25.0389166666667","6500500","新莊區"
"238025","303-VK","2019/11/28 16:43:40","新北市樹林區中正路22-1號","121.427836666667","24.9994416666667","6500700","樹林區"
"238017","283-BY","2019/11/28 16:43:46","新北市樹林區中正路433-1號","121.41486","25.00811","6500700","樹林區"
"238001","282-BY","2019/11/28 16:43:31","新北市樹林區大慶街99-1號","121.427658333333","24.9996833333333","6500700","樹林區"
"239007","AAC-297","2019/11/28 16:43:36","新北市鶯歌區二甲路13-16號","121.344555","24.935295","6500800","鶯歌區"
"244019","KED-0667","2019/11/28 16:43:35","新北市林口區粉寮69號","121.405088333333","25.0907566666667","6501700","林口區"
"233001","KEA-2870","2019/11/28 16:43:43","新北市烏來區啦卡路70-1號","121.56518","24.855935","6502900","烏來區"
