"lineid","car","time","location","longitude","latitude","cityid","cityname"
"234046","148-BY","2019/11/28 18:59:36","新北市永和區永元路52巷38號","121.523928333333","25.00087","6500400","永和區"
"234081","298-R6","2019/11/28 18:59:36","新北市永和區國中路156號","121.522595","25.0067066666667","6500400","永和區"
"234038","336-UY","2019/11/28 18:59:37","新北市永和區成功路二段207號","121.526645","24.9958666666667","6500400","永和區"
"234064","337-UY","2019/11/28 18:59:29","新北市永和區秀朗路一段180號","121.51887","25.0033216666667","6500400","永和區"
"234086","338-UY","2019/11/28 18:59:32","新北市永和區永利路18號","121.518021666667","25.005815","6500400","永和區"
"234070","552-UM","2019/11/28 18:59:31","新北市永和區竹林路96巷11號","121.519071666667","25.0120433333333","6500400","永和區"
"234017","745-BX","2019/11/28 18:59:45","新北市永和區永和路二段308號","121.516168333333","25.015995","6500400","永和區"
"234030","746-BX","2019/11/28 18:59:40","新北市永和區四維街121號","121.523075","24.9983133333333","6500400","永和區"
"234054","KEA-2590","2019/11/28 18:59:35","新北市永和區竹林路64號","121.518195","25.0135483333333","6500400","永和區"
"234007","KED-0605","2019/11/28 18:59:34","新北市永和區永和路二段59號","121.514691666667","25.01096","6500400","永和區"
"234013","KEA-2591","2019/11/28 18:59:36","新北市永和區信義路17巷5號","121.514038333333","25.011745","6500400","永和區"
"234061","AAD-866","2019/11/28 18:59:37","新北市永和區福和路307號","121.516203333333","25.0071116666667","6500400","永和區"
"234042","862-TW","2019/11/28 18:59:42","新北市永和區永貞路306號","121.511871666667","25.0048316666667","6500400","永和區"
"234050","863-TW","2019/11/28 18:59:39","新北市永和區文化路194號","121.51068","25.0162683333333","6500400","永和區"
"234026","9371-KE","2019/11/28 18:59:40","新北市永和區安樂路451號","121.5143","25.004945","6500400","永和區"
"234011","9373-KE","2019/11/28 18:59:39","新北市永和區仁愛路109巷9號","121.512421666667","25.0126783333333","6500400","永和區"
"249005","172-UM","2019/11/28 18:59:40","新北市八里區長道坑14號","121.396051666667","25.1229566666667","6502300","八里區"
"249001","173-UM","2019/11/28 18:59:39","新北市八里區龍米路二段228-2號","121.432651666667","25.158445","6502300","八里區"
"249003","759-BX","2019/11/28 18:38:41","新北市八里區博物館路10-1號","121.415078333333","25.1639933333333","6502300","八里區"
"248016","026-BX","2019/11/28 18:59:33","新北市五股區成泰路三段559巷14弄2號","121.451378333333","25.1023916666667","6501500","五股區"
"248006","077-UY","2019/11/28 18:59:44","新北市五股區四維路173號","121.467916666667","25.0750716666667","6501500","五股區"
"248008","KED-0815","2019/11/28 18:59:46","新北市五股區中興路一段118巷6弄5號","121.466286666667","25.0742916666667","6501500","五股區"
"248020","KED-0813","2019/11/28 18:54:42","新北市五股區凌雲路三段57號","121.425301666667","25.1249766666667","6501500","五股區"
"248010","272-BY","2019/11/28 18:59:28","新北市五股區水碓一路23號","121.430596666667","25.0712616666667","6501500","五股區"
"248004","677-BX","2019/11/28 18:59:36","新北市五股區民義路二段50-2號","121.411706666667","25.1031083333333","6501500","五股區"
"248002","678-BX","2019/11/28 18:59:42","新北市五股區凌雲路一段158巷6號","121.447846666667","25.1027466666667","6501500","五股區"
"234023","9380-KE","2019/11/28 18:59:35","新北市永和區竹林路75巷43號","121.520833333333","25.0143033333333","6500400","永和區"
"234077","969-R7","2019/11/28 18:59:43","新北市永和區得和路106號","121.518033333333","25.0000433333333","6500400","永和區"
"234074","AAC-211","2019/11/28 18:59:43","新北市永和區環河東路二段92號","121.524413333333","25.010625","6500400","永和區"
"234067","AAC-212","2019/11/28 18:59:44","新北市永和區自由街47號","121.514078333333","25.00595","6500400","永和區"
"234003","AAC-295","2019/11/28 18:59:37","新北市永和區和平街44號","121.512888333333","25.00995","6500400","永和區"
"232011","375-UM","2019/11/28 18:59:38","新北市坪林區水聳淒坑25號","121.711501666667","24.9342116666667","6502000","坪林區"
"244013","KEA-2802","2019/11/28 18:59:43","新北市林口區文化一路一段126號","121.375643333333","25.07226","6501700","林口區"
"244023","483-VK","2019/11/28 18:59:35","新北市林口區文化三路二段211巷95號","121.375226666667","25.0847266666667","6501700","林口區"
"244017","485-VK","2019/11/28 18:59:41","新北市林口區忠孝路132-1號","121.366936666667","25.0737033333333","6501700","林口區"
"244009","656-BX","2019/11/28 18:59:27","新北市林口區林口路83-1號","121.389528333333","25.0800666666667","6501700","林口區"
"244011","701-TV","2019/11/28 18:59:28","新北市林口區中正路331號","121.388388333333","25.0776133333333","6501700","林口區"
"244025","837-TS","2019/11/28 18:59:48","新北市林口區南勢街190號","121.360831666667","25.07465","6501700","林口區"
"243012","AAD-798","2019/11/28 18:59:40","新北市泰山區泰林路二段73巷27號","121.434453333333","25.05785","6501600","泰山區"
"243010","297-R6","2019/11/28 18:59:41","新北市泰山區辭修路26巷6號","121.429221666667","25.0583783333333","6501600","泰山區"
"243014","KEA-2801","2019/11/28 18:59:32","新北市泰山區黎明路2-5號","121.420855","25.0625916666667","6501600","泰山區"
"243016","421-VK","2019/11/28 18:59:37","新北市泰山區明志路二段135號","121.427616666667","25.0507583333333","6501600","泰山區"
"243009","KEA-2215","2019/11/28 18:59:31","新北市泰山區泰林路二段362號","121.428705","25.0636416666667","6501600","泰山區"
"243011","KEA-2216","2019/11/28 18:59:44","新北市泰山區明志路二段259號","121.427001666667","25.0476166666667","6501600","泰山區"
"243013","646-TV","2019/11/28 18:59:30","新北市泰山區明志路三段239號","121.423515","25.0377566666667","6501600","泰山區"
"243015","680-BX","2019/11/28 18:59:30","新北市泰山區美寧街50號","121.430471666667","25.0644566666667","6501600","泰山區"
"222003","436-BY","2019/11/28 18:59:32","新北市深坑區深南路88巷1號","121.621466666667","25.010755","6501800","深坑區"
"222002","659-BX","2019/11/28 18:59:43","新北市深坑區文山路一段31巷2號","121.629868333333","25.003295","6501800","深坑區"
"231045","001-UM","2019/11/28 18:59:27","新北市新店區安康路一段77號","121.530005","24.9611666666667","6500600","新店區"
"231061","002-UM","2019/11/28 18:59:33","新北市新店區安華路1-1號","121.519606666667","24.9602433333333","6500600","新店區"
"231044","046-UY","2019/11/28 18:59:31","新北市新店區寶興路42巷37號","121.547661666667","24.9718716666667","6500600","新店區"
"231060","106-UY","2019/11/28 18:59:46","新北市新店區安忠路97號","121.511118333333","24.9563433333333","6500600","新店區"
"231051","107-UY","2019/11/28 18:59:38","新北市新店區中央路19號","121.533248333333","24.9781783333333","6500600","新店區"
"231049","108-UY","2019/11/28 18:59:33","新北市新店區二十張路143-2號","121.534975","24.9788183333333","6500600","新店區"
"231065","110-UY","2019/11/28 18:59:39","新北市新店區安祥路147巷64號","121.476071666667","24.956135","6500600","新店區"
"231054","260-TV","2019/11/28 18:59:35","新北市新店區新店路13號","121.540303333333","24.952905","6500600","新店區"
"231042","268-BY","2019/11/28 18:59:41","新北市新店區中興路一段280號","121.545556666667","24.9684983333333","6500600","新店區"
"231064","278-BY","2019/11/28 18:59:41","新北市新店區安康路一段266巷4號","121.519798333333","24.9639966666667","6500600","新店區"
"231050","AAD-862","2019/11/28 18:59:42","新北市新店區新烏路一段9-1號","121.54726","24.9513833333333","6500600","新店區"
"231058","3713-VJ","2019/11/28 18:59:32","新北市新店區中興路一段282號","121.545763333333","24.9686266666667","6500600","新店區"
"231055","4716-K9","2019/11/28 18:59:43","新北市新店區北新路一段271巷8號","121.54045","24.96684","6500600","新店區"
"231056","4715-K9","2019/11/28 18:59:21","新北市新店區二十張路46巷37弄21-5號","121.535418333333","24.9813516666667","6500600","新店區"
"231067","4772-VM","2019/11/28 18:59:46","新北市新店區安康路一段76巷10-1號","121.528486666667","24.9624083333333","6500600","新店區"
"231052","513-UM","2019/11/28 18:59:40","新北市新店區屈尺路2號","121.54926","24.9226183333333","6500600","新店區"
"231041","619-UM","2019/11/28 18:59:34","新北市新店區安康路一段11號","121.533401666667","24.9604666666667","6500600","新店區"
"231063","641-BX","2019/11/28 18:59:26","新北市新店區安華路1-1號","121.519486666667","24.9604433333333","6500600","新店區"
"231047","KED-0819","2019/11/28 18:59:32","新北市新店區德正街23巷15號","121.544825","24.97219","6500600","新店區"
"231062","718-UY","2019/11/28 18:59:27","新北市新店區安豐路48號","121.500658333333","24.954245","6500600","新店區"
"231046","719-UM","2019/11/28 18:59:44","新北市新店區直潭二街23號","121.535408333333","24.941975","6500600","新店區"
"231057","720-UM","2019/11/28 18:59:35","新北市新店區百齡一路12號","121.553081666667","24.9324516666667","6500600","新店區"
"231059","897-TW","2019/11/28 18:59:32","新北市新店區安華路28-1號","121.519518333333","24.9605266666667","6500600","新店區"
"231040","898-TW","2019/11/28 18:59:41","新北市新店區中央路81號","121.532285","24.9766066666667","6500600","新店區"
"231043","899-TW","2019/11/28 18:59:28","新北市新店區北新路一段150號","121.542518333333","24.9706083333333","6500600","新店區"
"231066","AKT-0513","2019/11/28 18:59:38","新北市新店區安豐路30-1號","121.500983333333","24.956765","6500600","新店區"
"241035","462-BY","2019/11/28 18:59:34","新北市三重區重新路四段121號","121.484811666667","25.0519733333333","6500200","三重區"
"241029","942-UM","2019/11/28 18:59:27","新北市三重區重安街24號","121.490365","25.0579816666667","6500200","三重區"
"235066","003-UY","2019/11/28 18:59:36","新北市中和區水源路6巷10號","121.503386666667","25.00335","6500300","中和區"
"235064","005-UY","2019/11/28 18:59:36","新北市中和區泰和街38巷41號","121.498235","25.0013783333333","6500300","中和區"
"235063","006-UY","2019/11/28 18:59:29","新北市中和區中正路585號","121.486215","24.9946","6500300","中和區"
"235056","096-UM","2019/11/28 18:59:43","新北市中和區員山路570號","121.478818333333","25.0112533333333","6500300","中和區"
"235039","097-UM","2019/11/28 18:59:31","新北市中和區自強路19號","121.520398333333","24.993275","6500300","中和區"
"235065","098-UM","2019/11/28 18:59:38","新北市中和區勝利路35巷2號","121.498693333333","25.007725","6500300","中和區"
"235040","150-BY","2019/11/28 18:59:38","新北市中和區宜安路1巷30弄2號","121.512228333333","24.9939933333333","6500300","中和區"
"235058","151-BY","2019/11/28 18:59:36","新北市中和區連城路523巷13弄1號","121.481656666667","24.9939816666667","6500300","中和區"
"235055","183-VK","2019/11/28 18:59:42","新北市中和區德光路12號","121.47153","25.00461","6500300","中和區"
"235038","185-VK","2019/11/28 18:59:39","新北市中和區立人街24-4號","121.518941666667","24.99417","6500300","中和區"
"235067","255-BX","2019/11/28 18:59:26","新北市中和區新生街176巷26號","121.482518333333","24.9998866666667","6500300","中和區"
"235044","293-VK","2019/11/28 18:59:32","新北市中和區中興街159號","121.500095","24.9908666666667","6500300","中和區"
"235072","301-VK","2019/11/28 18:59:36","新北市中和區中山路二段262號","121.497288333333","25.002495","6500300","中和區"
"235043","352-BY","2019/11/28 18:59:29","新北市中和區成功路139號","121.525623333333","24.9903366666667","6500300","中和區"
"235042","KEA-2878","2019/11/28 18:59:37","新北市中和區秀朗路三段50巷2弄7號","121.526071666667","24.99588","6500300","中和區"
"235050","4979-A6","2019/11/28 18:59:39","新北市中和區忠孝街35號","121.510671666667","24.9832683333333","6500300","中和區"
"235069","4980-A6","2019/11/28 18:59:34","新北市中和區景平路459巷1弄1號","121.500361666667","24.996375","6500300","中和區"
"235068","551-UM","2019/11/28 18:59:30","新北市中和區圓通路283號","121.49529","24.9930133333333","6500300","中和區"
"235070","558-UM","2019/11/28 18:59:38","新北市中和區中和路51號","121.500345","25.0011566666667","6500300","中和區"
"235045","565-BX","2019/11/28 18:59:27","新北市中和區景新街467巷35弄30號","121.513541666667","24.9887333333333","6500300","中和區"
"235060","KED-0823","2019/11/28 18:59:40","新北市中和區中山路三段105號","121.47505","25.0061016666667","6500300","中和區"
"235054","640-BX","2019/11/28 18:59:44","新北市中和區民德路153號","121.468675","25.0001116666667","6500300","中和區"
"235047","732-UM","2019/11/28 18:59:45","新北市中和區興南路二段123號","121.505465","24.9842216666667","6500300","中和區"
"235046","733-UM","2019/11/28 18:59:33","新北市中和區興南路二段29號","121.507786666667","24.98581","6500300","中和區"
"235062","800-TS","2019/11/28 18:59:43","新北市中和區中山路二段530號","121.485816666667","25.0049","6500300","中和區"
"235057","801-TS","2019/11/28 18:59:30","新北市中和區民利街80號","121.478166666667","24.9982066666667","6500300","中和區"
"235041","802-TS","2019/11/28 18:59:42","新北市中和區景安路65號","121.506998333333","24.9978133333333","6500300","中和區"
"235052","805-TS","2019/11/28 18:59:35","新北市中和區興南路二段252號","121.503051666667","24.981835","6500300","中和區"
"235048","896-TW","2019/11/28 18:59:30","新北市中和區華新街113巷4弄16號","121.507083333333","24.981245","6500300","中和區"
"235053","900-TW","2019/11/28 18:59:35","新北市板橋區和平路178號","121.46349","24.9954483333333","6500300","中和區"
"235051","157-BY","2019/11/28 18:59:43","新北市中和區忠孝街19巷24號","121.510036666667","24.9834633333333","6500300","中和區"
"235037","AAC-213","2019/11/28 18:59:44","新北市中和區秀朗路三段60巷40號","121.52499","24.9948966666667","6500300","中和區"
"235059","AAC-215","2019/11/28 18:59:34","新北市中和區圓通路369巷14弄8號","121.49041","24.987695","6500300","中和區"
"220054","015-TV","2019/11/28 18:59:39","新北市板橋區成都街89號","121.462983333333","25.005155","6500100","板橋區"
"220086","073-UY","2019/11/28 18:59:40","新北市板橋區中正路80巷5號","121.456936666667","25.014615","6500100","板橋區"
"220069","AAD-861","2019/11/28 18:59:39","新北市板橋區華興街74號","121.457183333333","25.0050116666667","6500100","板橋區"
"226004","312-R5","2019/11/28 18:59:28","新北市平溪區靜安路二段400號","121.738821666667","25.0244416666667","6502400","平溪區"
"235049","251-BX","2019/11/28 18:59:36","新北市中和區景安路163號","121.505476666667","24.99461","6500300","中和區"
"228003","097-TW","2019/11/28 18:59:45","新北市貢寮區和美里龍洞街47號","121.9118","25.1132333333333","6502600","貢寮區"
"228001","212-TW","2019/11/28 18:59:32","新北市貢寮區仁理村保健街85號","121.923911666667","25.0522216666667","6502600","貢寮區"
"228002","663-BX","2019/11/28 18:59:30","新北市貢寮區福隆里東興街106巷25弄1號","121.946421666667","25.018305","6502600","貢寮區"
"224006","676-BX","2019/11/28 18:59:43","新北市瑞芳區東和路2號","121.804308333333","25.1061683333333","6501200","瑞芳區"
"224007","285-BY","2019/11/28 18:59:28","新北市瑞芳區中央路48巷56-10號","121.759671666667","25.1038","6501200","瑞芳區"
"224009","275-VK","2019/11/28 18:59:47","新北市瑞芳區洞頂路131號","121.860503333333","25.117485","6501200","瑞芳區"
"224008","273-VK","2019/11/28 18:59:45","新北市瑞芳區逢甲路410號","121.801451666667","25.1173916666667","6501200","瑞芳區"
"224005","271-BY","2019/11/28 18:59:30","新北市瑞芳區瑞濱路185號","121.817231666667","25.1136466666667","6501200","瑞芳區"
"227001","642-TC","2019/11/28 18:59:47","新北市雙溪區牡丹里中正路60號","121.86612","25.0423116666667","6502500","雙溪區"
"227002","400-TW","2019/11/28 18:59:25","新北市雙溪區平林里外平林9-6號","121.859028333333","25.03798","6502500","雙溪區"
"253005","032-BX","2019/11/28 18:59:31","新北市石門區崁子腳76-1號","121.57093","25.2968833333333","6502200","石門區"
"253006","295-VK","2019/11/28 18:59:46","新北市石門區八甲4-1號","121.521195","25.2825316666667","6502200","石門區"
"222001","KEA-2212","2019/11/28 18:59:30","新北市深坑區北深路一段300號","121.624151666667","25.0057033333333","6501800","深坑區"
"208002","KEA-2872","2019/11/28 18:59:44","新北市金山區仁愛路69號","121.634876666667","25.2210433333333","6502700","金山區"
"208003","665-BX","2019/11/28 18:59:39","新北市金山區中正路57號","121.634258333333","25.2219066666667","6502700","金山區"
"251001","011-UM","2019/11/28 18:59:40","新北市淡水區自強路56-1號","121.463295","25.1275016666667","6501000","淡水區"
"251015","KEA-2871","2019/11/28 18:59:28","新北市淡水區糞箕湖62號","121.485236666667","25.1722716666667","6501000","淡水區"
"251016","180-VK","2019/11/28 18:59:43","新北市淡水區淡金路三段305號","121.448891666667","25.2052983333333","6501000","淡水區"
"251013","182-VK","2019/11/28 18:59:32","新北市淡水區安子內3號","121.487568333333","25.21561","6501000","淡水區"
"251010","413-VK","2019/11/28 18:59:37","新北市淡水區淡海路69巷8弄3號","121.42247","25.181345","6501000","淡水區"
"251012","441-VK","2019/11/28 18:59:31","新北市淡水區新興街109號","121.4406","25.18083","6501000","淡水區"
"251007","442-VK","2019/11/28 18:59:32","新北市淡水區民生路113巷1弄35號","121.463133333333","25.1386383333333","6501000","淡水區"
"251014","577-R6","2019/11/28 18:59:31","新北市淡水區小中寮22號","121.489365","25.2295616666667","6501000","淡水區"
"251011","650-BX","2019/11/28 18:59:43","新北市淡水區鄧公路36巷13號","121.456008333333","25.1691766666667","6501000","淡水區"
"251002","672-BX","2019/11/28 18:59:35","新北市淡水區中正東路49號","121.446658333333","25.1680283333333","6501000","淡水區"
"251003","673-BX","2019/11/28 18:59:47","新北市淡水區中山北路一段149巷27號","121.442995","25.1778933333333","6501000","淡水區"
"207003","681-TV","2019/11/28 18:59:39","新北市萬里區大鵬里頂社2-1號","121.660406666667","25.2072066666667","6502800","萬里區"
"207004","291-VK","2019/11/28 18:59:40","新北市萬里區萬里里獅頭路23號","121.693215","25.178305","6502800","萬里區"
"252003","249-BX","2019/11/28 18:59:43","新北市三芝區後厝里北勢子42-11號","121.471558333333","25.2520133333333","6502100","三芝區"
"252001","292-VK","2019/11/28 18:59:25","新北市三芝區中興街二段260號","121.501705","25.2530166666667","6502100","三芝區"
"237004","KEA-2597","2019/11/28 18:59:35","新北市三峽區有木153-1號","121.445821666667","24.84636","6500900","三峽區"
"237007","153-BY","2019/11/28 18:59:33","新北市三峽區中正路二段203號","121.365981666667","24.9134783333333","6500900","三峽區"
"237013","252-BX","2019/11/28 18:59:24","新北市三峽區光明路69巷25號","121.376813333333","24.9291633333333","6500900","三峽區"
"237012","275-BY","2019/11/28 18:59:44","新北市三峽區三樹路222巷72號","121.383053333333","24.942265","6500900","三峽區"
"237008","302-VK","2019/11/28 18:59:40","新北市三峽區大同路176號","121.37259","24.926665","6500900","三峽區"
"237014","433-BY","2019/11/28 18:59:28","新北市三峽區隆恩街170號","121.363126666667","24.9428333333333","6500900","三峽區"
"237006","5529-G3","2019/11/28 18:59:38","新北市三峽區溪東路233巷4弄19號","121.40725","24.93378","6500900","三峽區"
"237011","KEA-2596","2019/11/28 18:59:43","新北市三峽區介壽路三段233號","121.405925","24.946835","6500900","三峽區"
"237015","649-BX","2019/11/28 18:59:32","新北市三峽區建安71號","121.4488","24.9261066666667","6500900","三峽區"
"237010","706-TV","2019/11/28 18:59:38","新北市三峽區復興路176-8號","121.370401666667","24.9384866666667","6500900","三峽區"
"237005","AKY-6261","2019/11/28 18:59:38","新北市三峽區中山路459巷135號","121.348623333333","24.9329366666667","6500900","三峽區"
"236042","KED-0685","2019/11/28 18:59:43","新北市土城區學府路一段229巷10號","121.451565","24.9837416666667","6501300","土城區"
"233002","762-BX","2019/11/28 18:56:30","新北市新店區安康路二段320巷15弄2號","121.50441","24.9598083333333","6502900","烏來區"
"236078","166-UM","2019/11/28 18:59:45","新北市土城區中央路四段450號","121.410483333333","24.9512266666667","6501300","土城區"
"236030","253-BX","2019/11/28 18:59:28","新北市土城區中央路三段1號","121.439735","24.970795","6501300","土城區"
"236026","269-VK","2019/11/28 18:59:34","新北市土城區光明街41號","121.442176666667","24.9739333333333","6501300","土城區"
"236014","270-VK","2019/11/28 18:59:40","新北市土城區立德路45號","121.462686666667","24.9881133333333","6501300","土城區"
"236038","271-VK","2019/11/28 18:59:38","新北市土城區明德路一段240巷26弄9號","121.460543333333","24.97817","6501300","土城區"
"236070","KEA-2877","2019/11/28 18:59:38","新北市土城區清水路99巷13號","121.456776666667","24.98222","6501300","土城區"
"252002","KED-0821","2019/11/28 18:59:28","新北市三芝區中正路一段32號","121.503198333333","25.258435","6502100","三芝區"
"236021","401-BY","2019/11/28 18:59:42","新北市土城區延吉街170號","121.468343333333","24.9854266666667","6501300","土城區"
"236049","752-BX","2019/11/28 18:59:40","新北市土城區明德路一段280號","121.457816666667","24.97739","6501300","土城區"
"236059","912-UM","2019/11/28 18:59:32","新北市土城區金城路二段266號","121.458295","24.984135","6501300","土城區"
"236063","915-UM","2019/11/28 18:59:38","新北市土城區延和路41巷6弄18號","121.466696666667","24.9903216666667","6501300","土城區"
"236055","AAC-216","2019/11/28 18:59:34","新北市土城區學成路147號","121.448715","24.9895483333333","6501300","土城區"
"242061","986-R7","2019/11/28 18:59:30","新北市新莊區新樹路603號","121.433086666667","25.005705","6500500","新莊區"
"242029","615-BX","2019/11/28 18:59:37","新北市新莊區新泰路357巷3弄57號","121.44206","25.0392766666667","6500500","新莊區"
"242009","349-TH","2019/11/28 18:59:37","新北市樹林區八德街820號","121.394703333333","24.9687483333333","6500500","新莊區"
"238023","601-UM","2019/11/28 18:59:43","新北市樹林區大慶街150號","121.39674","25.013555","6500700","樹林區"
"238019","599-UM","2019/11/28 18:59:33","新北市樹林區中華路190-16號","121.411716666667","24.98051","6500700","樹林區"
"238022","KEA-2213","2019/11/28 18:59:31","新北市樹林區東興街43號","121.410615","24.977645","6500700","樹林區"
"238021","KEA-2539","2019/11/28 18:59:41","新北市樹林區柑園街二段314號","121.373391666667","24.951745","6500700","樹林區"
"238025","303-VK","2019/11/28 18:59:40","新北市樹林區中山路三段22號","121.39565","24.97293","6500700","樹林區"
"238014","282-BY","2019/11/28 18:59:31","新北市樹林區潭興街92號","121.425561666667","24.9994916666667","6500700","樹林區"
"238020","268-VK","2019/11/28 18:59:28","新北市樹林區俊英街240號","121.42463","25.0106083333333","6500700","樹林區"
"238026","172-UY","2019/11/28 18:59:31","新北市樹林區德和街26巷2號","121.39159","24.975625","6500700","樹林區"
"238016","169-UY","2019/11/28 18:59:32","新北市樹林區文化街27號","121.41906","24.987715","6500700","樹林區"
"239007","AAC-297","2019/11/28 18:59:36","新北市鶯歌區中正一路建德巷20號","121.364835","24.9573616666667","6500800","鶯歌區"
"239008","527-UM","2019/11/28 18:59:37","新北市鶯歌區朝陽街1號","121.33632","24.976585","6500800","鶯歌區"
"239005","526-UM","2019/11/28 18:59:32","新北市鶯歌區鳳吉一街18號","121.325325","24.973365","6500800","鶯歌區"
"239001","417-VK","2019/11/28 18:59:37","新北市鶯歌區二橋街53號","121.33698","24.9385966666667","6500800","鶯歌區"
"239003","360-BY","2019/11/28 18:59:35","新北市鶯歌區永和街99巷2號","121.33364","24.9684116666667","6500800","鶯歌區"
"239002","359-BY","2019/11/28 18:59:46","新北市鶯歌區中山路48號","121.352046666667","24.9570716666667","6500800","鶯歌區"
"239004","193-VK","2019/11/28 18:59:37","新北市鶯歌區中正三路156巷8-10號","121.332496666667","24.9410516666667","6500800","鶯歌區"
"221008","489-VK","2019/11/28 18:59:27","新北市汐止區康寧街582號","121.634993333333","25.0698633333333","6501100","汐止區"
"221036","130-UY","2019/11/28 18:59:47","新北市汐止區忠孝東路333號","121.665193333333","25.0697983333333","6501100","汐止區"
"221015","131-UY","2019/11/28 18:59:34","新北市汐止區鄉長路一段55巷22號","121.664735","25.0763366666667","6501100","汐止區"
"244019","KED-0667","2019/11/28 18:59:35","新北市林口區麗園一街13號","121.376945","25.0692783333333","6501700","林口區"
"221032","280-BY","2019/11/28 18:59:27","新北市汐止區橫科路407巷30弄21號","121.62716","25.0481233333333","6501100","汐止區"
"221029","298-VK","2019/11/28 18:59:38","新北市汐止區樟樹一路224號","121.642375","25.0665283333333","6501100","汐止區"
"221031","353-TW","2019/11/28 18:59:33","新北市汐止區福德一路300巷21號","121.630676666667","25.0640966666667","6501100","汐止區"
"221035","622-UM","2019/11/28 18:59:45","新北市汐止區大同路二段306號","121.655575","25.06672","6501100","汐止區"
"221002","707-TV","2019/11/28 18:59:35","新北市汐止區大同路一段2號","121.621058333333","25.0550366666667","6501100","汐止區"
"220079","145-BY","2019/11/28 18:59:29","新北市板橋區大智街71巷5弄1號","121.453283333333","25.015005","6500100","板橋區"
"220080","200-UY","2019/11/28 18:59:45","新北市板橋區大觀路二段265巷1弄52號","121.445148333333","24.9979","6500100","板橋區"
"220082","610-BX","2019/11/28 18:59:43","新北市板橋區滿平街111號","121.428423333333","24.9885183333333","6500100","板橋區"
"220101","245-BX","2019/11/28 18:59:46","新北市板橋區莊敬路220巷12號","121.472408333333","25.02067","6500100","板橋區"
"224002","257-TC","2019/11/28 18:59:44","新北市瑞芳區八分寮路21號","121.792516666667","25.0834516666667","6501200","瑞芳區"
"220056","276-BY","2019/11/28 18:59:39","新北市板橋區信義路161號","121.458575","24.9924083333333","6500100","板橋區"
"220072","277-BY","2019/11/28 18:59:37","新北市板橋區篤行路一段22號","121.431963333333","24.9943133333333","6500100","板橋區"
"220088","280-UM","2019/11/28 18:59:46","新北市板橋區文化路二段182巷5弄13-2號","121.472011666667","25.0274866666667","6500100","板橋區"
"220094","283-UM","2019/11/28 18:59:32","新北市板橋區光武街151號","121.465473333333","25.0293366666667","6500100","板橋區"
"220071","283-VK","2019/11/28 18:59:42","新北市板橋區忠孝路176巷25號","121.465458333333","25.0017983333333","6500100","板橋區"
"220053","285-VK","2019/11/28 18:59:44","新北市板橋區太和街5巷20號","121.473116666667","25.0197933333333","6500100","板橋區"
"220083","286-VK","2019/11/28 18:59:41","新北市板橋區大觀路一段38巷156弄67號","121.442236666667","25.007005","6500100","板橋區"
"220081","287-VK","2019/11/28 18:59:31","新北市板橋區光華街19巷78號","121.452628333333","25.0118616666667","6500100","板橋區"
"220090","288-VK","2019/11/28 18:59:32","新北市板橋區裕民街38號","121.461945","25.0289916666667","6500100","板橋區"
"220061","293-UM","2019/11/28 18:59:30","新北市板橋區中山路二段295巷17號","121.477775","25.0187633333333","6500100","板橋區"
"220084","296-UM","2019/11/28 18:59:39","新北市板橋區大觀路二段142-4號","121.442388333333","24.9988883333333","6500100","板橋區"
"220075","303-R5","2019/11/28 18:59:31","新北市板橋區茶館街17號","121.456593333333","25.0105783333333","6500100","板橋區"
"220062","305-R5","2019/11/28 18:59:36","新北市板橋區民享街118號","121.477736666667","25.0161183333333","6500100","板橋區"
"220098","317-R6","2019/11/28 18:59:44","新北市板橋區民生路二段234巷24弄2號","121.470193333333","25.0225416666667","6500100","板橋區"
"220065","461-BY","2019/11/28 18:59:46","新北市板橋區館前東路154號","121.464496666667","25.0079333333333","6500100","板橋區"
"220089","487-VK","2019/11/28 18:59:46","新北市板橋區文化路二段159號","121.4703","25.02719","6500100","板橋區"
"220035","560-BX","2019/11/28 18:59:41","新北市板橋區中正路341巷35號","121.454211666667","25.0197583333333","6500100","板橋區"
"220103","561-BX","2019/11/28 18:59:42","新北市板橋區文化路一段188巷7弄30號","121.467951666667","25.01954","6500100","板橋區"
"220063","609-BX","2019/11/28 18:59:42","新北市板橋區三民路二段37-2號","121.479438333333","25.0172416666667","6500100","板橋區"
"220091","637-BX","2019/11/28 18:59:32","新北市板橋區大同街26巷25號","121.478403333333","25.0265733333333","6500100","板橋區"
"220057","686-BX","2019/11/28 18:59:37","新北市板橋區重慶路286號","121.463181666667","24.9992366666667","6500100","板橋區"
"220077","687-BX","2019/11/28 18:59:28","新北市板橋區龍興街59號","121.44322","25.001155","6500100","板橋區"
"220102","KEA-2699","2019/11/28 18:59:38","新北市板橋區萬板路810號","121.48266","25.0272783333333","6500100","板橋區"
"220055","827-TW","2019/11/28 18:59:31","新北市板橋區中山路一段146號","121.463946666667","25.0109766666667","6500100","板橋區"
"220106","829-TW","2019/11/28 18:59:39","新北市板橋區雙十路三段10巷11號","121.47217","25.0308783333333","6500100","板橋區"
"220068","830-TW","2019/11/28 18:59:26","新北市板橋區中山路二段465巷104號","121.481141666667","25.02281","6500100","板橋區"
"220067","831-TW","2019/11/28 18:59:42","新北市板橋區民享街116巷3號","121.478236666667","25.0156633333333","6500100","板橋區"
"220074","895-R6","2019/11/28 18:59:46","新北市板橋區林園街31號","121.45379","25.0097766666667","6500100","板橋區"
"220073","985-R7","2019/11/28 18:59:38","新北市板橋區中正路163號","121.456445","25.0160483333333","6500100","板橋區"
"220097","AAC-210","2019/11/28 18:59:32","新北市板橋區新海路135巷4號","121.459768333333","25.022845","6500100","板橋區"
"220064","AAC-253","2019/11/28 18:59:42","新北市板橋區板新路28號","121.474103333333","25.013585","6500100","板橋區"
"235061","KEA-2875","2019/11/28 18:59:24","新北市中和區民有街73號","121.476505","25.0030983333333","6500300","中和區"
