"lineid","car","time","location","longitude","latitude","cityid","cityname"
"234046","148-BY","2019/11/28 19:29:36","新北市永和區秀朗路二段253號","121.52629","24.9993783333333","6500400","永和區"
"234081","298-R6","2019/11/28 19:29:36","新北市永和區環河東路三段60號","121.527013333333","25.0059316666667","6500400","永和區"
"234038","336-UY","2019/11/28 19:29:40","新北市永和區民樂街38號","121.527491666667","25.0007216666667","6500400","永和區"
"234064","337-UY","2019/11/28 19:29:30","新北市永和區得和路243巷28弄1號","121.520831666667","25.0013616666667","6500400","永和區"
"234086","338-UY","2019/11/28 19:29:32","新北市永和區成功路一段18巷20號","121.526136666667","25.0051916666667","6500400","永和區"
"234070","552-UM","2019/11/28 19:29:38","新北市永和區警光街20號","121.519336666667","25.0094483333333","6500400","永和區"
"234017","745-BX","2019/11/28 19:29:31","新北市永和區環河西路一段87-1號","121.512501666667","25.0179816666667","6500400","永和區"
"234030","746-BX","2019/11/28 19:29:40","新北市永和區民生路37巷9號","121.523741666667","24.9980766666667","6500400","永和區"
"234054","KEA-2590","2019/11/28 19:29:35","新北市永和區復興街21號","121.516075","25.01308","6500400","永和區"
"234007","KED-0605","2019/11/28 19:29:39","新北市永和區永和路一段102號","121.513255","25.0070516666667","6500400","永和區"
"234013","KEA-2591","2019/11/28 19:29:36","新北市永和區中山路一段138-1號","121.510266666667","25.00984","6500400","永和區"
"234061","AAD-866","2019/11/28 19:29:37","新北市永和區中正路526號","121.517281666667","25.0050383333333","6500400","永和區"
"234042","862-TW","2019/11/28 19:29:42","新北市永和區水源街39巷28號","121.510703333333","25.0031183333333","6500400","永和區"
"234050","863-TW","2019/11/28 19:29:39","新北市永和區信義路99號","121.512305","25.0142583333333","6500400","永和區"
"234026","9371-KE","2019/11/28 19:29:40","新北市永和區安樂路92號","121.514245","24.9990066666667","6500400","永和區"
"249003","759-BX","2019/11/28 19:29:25","新北市八里區商港六路11號","121.396996666667","25.1480616666667","6502300","八里區"
"248014","025-BX","2019/11/28 19:29:34","新北市五股區工商路158號","121.433461666667","25.0876816666667","6501500","五股區"
"248008","KED-0815","2019/11/28 19:29:46","新北市五股區中興路一段93號","121.466663333333","25.0727533333333","6501500","五股區"
"248020","KED-0813","2019/11/28 19:29:41","新北市五股區凌雲路三段41-2號","121.429853333333","25.1180616666667","6501500","五股區"
"248012","247-BX","2019/11/28 19:29:37","新北市五股區成泰路二段91巷11號","121.437541666667","25.084095","6501500","五股區"
"248004","677-BX","2019/11/28 19:29:36","新北市五股區工商路118號","121.436726666667","25.08568","6501500","五股區"
"248002","678-BX","2019/11/28 19:29:42","新北市五股區凌雲路一段158巷6號","121.447758333333","25.1029733333333","6501500","五股區"
"234023","9380-KE","2019/11/28 19:29:35","新北市永和區竹林路91巷48號","121.521348333333","25.012725","6500400","永和區"
"234077","969-R7","2019/11/28 19:29:43","新北市永和區民權路58巷5號","121.51948","24.9982633333333","6500400","永和區"
"234074","AAC-211","2019/11/28 19:29:43","新北市永和區竹林路75巷33弄47號","121.52125","25.014745","6500400","永和區"
"234067","AAC-212","2019/11/28 19:29:44","新北市永和區保平路125號","121.510615","25.0064216666667","6500400","永和區"
"234003","AAC-295","2019/11/28 19:29:37","新北市永和區永和路一段118號","121.514145","25.0077516666667","6500400","永和區"
"244023","483-VK","2019/11/28 19:29:35","新北市林口區民有街70號","121.372905","25.076985","6501700","林口區"
"243012","AAD-798","2019/11/28 19:29:40","新北市泰山區仁義路222號","121.432935","25.0535566666667","6501600","泰山區"
"243010","297-R6","2019/11/28 19:20:55","新北市泰山區明志路二段32巷1號","121.429356666667","25.0534316666667","6501600","泰山區"
"243014","KEA-2801","2019/11/28 19:29:31","新北市泰山區仁愛路6巷67號","121.431685","25.053325","6501600","泰山區"
"243016","421-VK","2019/11/28 19:29:37","新北市泰山區明志路三段196巷21弄31號","121.422458333333","25.03787","6501600","泰山區"
"243009","KEA-2215","2019/11/28 19:29:30","新北市泰山區半山雅3號","121.431331666667","25.0674616666667","6501600","泰山區"
"243011","KEA-2216","2019/11/28 19:29:44","新北市泰山區中山路二段567號","121.429675","25.040215","6501600","泰山區"
"243013","646-TV","2019/11/28 19:29:30","新北市泰山區貴子路36巷10號","121.42584","25.0414133333333","6501600","泰山區"
"243015","680-BX","2019/11/28 19:29:30","新北市泰山區明志路二段136巷1-1號","121.427356666667","25.051145","6501600","泰山區"
"222003","436-BY","2019/11/28 19:29:32","新北市深坑區深南路51-1號","121.621173333333","25.0098266666667","6501800","深坑區"
"222002","659-BX","2019/11/28 19:29:43","新北市深坑區北深路一段177號","121.632535","25.0108366666667","6501800","深坑區"
"231045","001-UM","2019/11/28 19:29:27","新北市新店區北宜路二段213號","121.553216666667","24.9533416666667","6500600","新店區"
"231061","002-UM","2019/11/28 19:29:33","新北市新店區安康路一段242號","121.52157","24.9638583333333","6500600","新店區"
"231044","046-UY","2019/11/28 19:29:31","新北市新店區中興路三段229號","121.542998333333","24.9833616666667","6500600","新店區"
"231060","106-UY","2019/11/28 19:29:26","新北市新店區安民街2號","121.515338333333","24.9637183333333","6500600","新店區"
"231051","107-UY","2019/11/28 19:29:38","新北市新店區中央路133巷15弄64號","121.531978333333","24.97462","6500600","新店區"
"231049","108-UY","2019/11/28 19:29:46","新北市新店區北新路3段65巷34弄29-1號","121.539998333333","24.9819483333333","6500600","新店區"
"231065","110-UY","2019/11/28 19:29:38","新北市新店區安祥路109巷6弄49號","121.475516666667","24.95726","6500600","新店區"
"231054","260-TV","2019/11/28 19:29:35","新北市新店區文中路40號","121.539705","24.9566216666667","6500600","新店區"
"231042","268-BY","2019/11/28 19:29:41","新北市新店區中興路一段146號","121.54245","24.963755","6500600","新店區"
"231064","278-BY","2019/11/28 19:29:41","新北市新店區安忠路2號","121.514431666667","24.9634666666667","6500600","新店區"
"231050","AAD-862","2019/11/28 19:29:42","新北市新店區北宜路二段82-40號","121.553421666667","24.953205","6500600","新店區"
"231058","3713-VJ","2019/11/28 19:29:31","新北市新店區中正路69號","121.543536666667","24.9701666666667","6500600","新店區"
"231056","4715-K9","2019/11/28 19:29:41","新北市新店區溪園路365-8號","121.52168","24.980575","6500600","新店區"
"231067","4772-VM","2019/11/28 19:29:46","新北市新店區安民街5號","121.515273333333","24.9642766666667","6500600","新店區"
"231052","513-UM","2019/11/28 19:29:40","新北市新店區新烏路二段315號","121.549586666667","24.9112116666667","6500600","新店區"
"231041","619-UM","2019/11/28 19:29:34","新北市新店區中正路610號","121.533873333333","24.9885116666667","6500600","新店區"
"231063","641-BX","2019/11/28 19:29:46","新北市新店區達觀路16號","121.50308","24.940815","6500600","新店區"
"231047","KED-0819","2019/11/28 19:29:32","新北市新店區五峰路120號","121.544938333333","24.966525","6500600","新店區"
"231062","718-UY","2019/11/28 19:29:27","新北市新店區莒光路87巷10號","121.5239","24.9556383333333","6500600","新店區"
"231046","719-UM","2019/11/28 19:29:32","新北市新店區光明街219號","121.540156666667","24.9640466666667","6500600","新店區"
"231057","720-UM","2019/11/28 19:29:35","新北市新店區花園一路二段15號","121.550795","24.9334516666667","6500600","新店區"
"231059","897-TW","2019/11/28 19:29:41","新北市新店區安和路三段68號","121.518051666667","24.98302","6500600","新店區"
"231040","898-TW","2019/11/28 19:29:41","新北市新店區中華路62號","121.53927","24.968945","6500600","新店區"
"231043","899-TW","2019/11/28 19:29:37","新北市新店區北新路二段198號","121.54298","24.97658","6500600","新店區"
"231066","AKT-0513","2019/11/28 19:29:38","新北市新店區安康路三段355巷26號","121.48466","24.9496","6500600","新店區"
"241011","013-R5","2019/11/28 19:29:35","新北市三重區河邊北街122-1號","121.50367","25.0713566666667","6500200","三重區"
"241028","022-UY","2019/11/28 19:29:28","新北市三重區中寮街31號","121.492676666667","25.058825","6500200","三重區"
"241008","059-VK","2019/11/28 19:29:32","新北市三重區永福街111巷35弄14號","121.477371666667","25.0767866666667","6500200","三重區"
"241031","061-VK","2019/11/28 19:29:32","新北市三重區重新路四段184巷40號","121.48821","25.05508","6500200","三重區"
"241007","066-VK","2019/11/28 19:29:39","新北市三重區溪尾街124-1號","121.489461666667","25.0793133333333","6500200","三重區"
"241006","262-UM","2019/11/28 19:29:30","新北市三重區車路頭街79號","121.484441666667","25.0741366666667","6500200","三重區"
"241009","267-UM","2019/11/28 19:29:27","新北市三重區溪尾街242巷76號","121.485985","25.0813983333333","6500200","三重區"
"241032","269-UM","2019/11/28 19:29:30","新北市三重區三陽路109號","121.483865","25.0588383333333","6500200","三重區"
"241013","270-UM","2019/11/28 19:29:31","新北市三重區仁愛街125巷2號","121.496373333333","25.075305","6500200","三重區"
"241030","KED-0822","2019/11/28 19:29:27","新北市三重區成功路41巷1號","121.4902","25.0513233333333","6500200","三重區"
"241035","462-BY","2019/11/28 19:29:34","新北市三重區信義西街1號","121.498076666667","25.0648516666667","6500200","三重區"
"241020","478-VK","2019/11/28 19:29:43","新北市三重區三和路四段20巷22號","121.490048333333","25.07364","6500200","三重區"
"241026","480-VK","2019/11/28 19:29:37","新北市三重區中央南路95巷25-3號","121.500388333333","25.0606016666667","6500200","三重區"
"241023","545-UM","2019/11/28 19:29:32","新北市三重區頂崁街99號","121.478016666667","25.0638133333333","6500200","三重區"
"241012","743-BX","2019/11/28 19:29:36","新北市三重區仁興街39巷14-8號","121.50006","25.076145","6500200","三重區"
"241022","KED-0820","2019/11/28 19:29:45","新北市三重區三民街175巷1號","121.483673333333","25.0653","6500200","三重區"
"241025","KED-0670","2019/11/28 19:29:41","新北市三重區頂崁街210巷28弄20號","121.475766666667","25.0671783333333","6500200","三重區"
"241029","942-UM","2019/11/28 19:29:27","新北市三重區中正南路281號","121.493238333333","25.052195","6500200","三重區"
"235066","003-UY","2019/11/28 19:29:36","新北市中和區景新街43號","121.504056666667","24.9992083333333","6500300","中和區"
"235064","005-UY","2019/11/28 19:29:36","新北市中和區南山路127巷34弄2號","121.50426","24.9977583333333","6500300","中和區"
"235063","006-UY","2019/11/28 19:29:29","新北市中和區連城路203巷10弄5號","121.494926666667","24.9972683333333","6500300","中和區"
"235056","096-UM","2019/11/28 19:29:43","新北市中和區員山路581巷31弄17號","121.476743333333","25.0103483333333","6500300","中和區"
"235039","097-UM","2019/11/28 19:29:31","新北市中和區秀峰街127巷2號","121.519693333333","24.9909766666667","6500300","中和區"
"235065","098-UM","2019/11/28 19:29:38","新北市中和區永和路1-4號","121.499685","25.0031866666667","6500300","中和區"
"235040","150-BY","2019/11/28 19:29:38","新北市中和區保健路46巷35號","121.508748333333","24.9957516666667","6500300","中和區"
"235058","151-BY","2019/11/28 19:29:36","新北市中和區員山路124巷17號","121.482088333333","24.9960233333333","6500300","中和區"
"235055","183-VK","2019/11/28 19:29:42","新北市中和區中山路三段179巷11號","121.473246666667","25.0058616666667","6500300","中和區"
"235038","185-VK","2019/11/28 19:29:39","新北市中和區自立路127號","121.52199","24.994075","6500300","中和區"
"235067","255-BX","2019/11/28 19:29:26","新北市中和區連城路340巷14弄22號","121.482826666667","24.9973266666667","6500300","中和區"
"235044","293-VK","2019/11/28 19:29:32","新北市中和區捷運路125號","121.507278333333","24.990725","6500300","中和區"
"235072","301-VK","2019/11/28 19:29:36","新北市中和區連城路265巷10弄1號","121.491681666667","24.995265","6500300","中和區"
"235043","352-BY","2019/11/28 19:29:45","新北市中和區安和路27號","121.510456666667","24.994315","6500300","中和區"
"235042","KEA-2878","2019/11/28 19:29:37","新北市中和區中和路350巷8弄3-1號","121.510368333333","25.000135","6500300","中和區"
"235068","551-UM","2019/11/28 19:29:30","新北市中和區圓通路158巷2號","121.497641666667","24.9961233333333","6500300","中和區"
"235070","558-UM","2019/11/28 19:29:38","新北市中和區連勝街37號","121.498218333333","24.9977883333333","6500300","中和區"
"235045","565-BX","2019/11/28 19:29:47","新北市中和區景新街500號","121.513875","24.9870333333333","6500300","中和區"
"235060","KED-0823","2019/11/28 19:29:40","新北市中和區中山路二段507號","121.482246666667","25.0050366666667","6500300","中和區"
"235054","640-BX","2019/11/28 19:29:24","新北市中和區莒光路65號","121.472298333333","25.0036533333333","6500300","中和區"
"235071","647-TV","2019/11/28 19:29:43","新北市中和區連城路469巷21弄22號","121.484128333333","24.9950766666667","6500300","中和區"
"235047","732-UM","2019/11/28 19:28:05","新北市中和區景平路241巷66號","121.507676666667","24.9922483333333","6500300","中和區"
"235046","733-UM","2019/11/28 19:29:31","新北市中和區忠孝街37巷67號","121.510598333333","24.98472","6500300","中和區"
"235057","801-TS","2019/11/28 19:29:30","新北市中和區員山路173號","121.481198333333","24.9969233333333","6500300","中和區"
"235041","802-TS","2019/11/28 19:29:42","新北市永和區中和路575號","121.51186","25.0037116666667","6500300","中和區"
"235052","805-TS","2019/11/28 19:29:35","新北市中和區華新街143巷67弄2號","121.506925","24.978805","6500300","中和區"
"235048","896-TW","2019/11/28 19:29:30","新北市中和區忠孝街74號","121.512043333333","24.9841533333333","6500300","中和區"
"235053","900-TW","2019/11/28 19:29:35","新北市中和區民德路126號","121.468776666667","25.000935","6500300","中和區"
"235051","157-BY","2019/11/28 19:29:24","新北市中和區景新街134號","121.505171666667","24.99795","6500300","中和區"
"235037","AAC-213","2019/11/28 19:29:44","新北市中和區秀朗路三段10巷29弄5號","121.525038333333","24.9959983333333","6500300","中和區"
"235059","AAC-215","2019/11/28 19:29:34","新北市中和區圓通路252巷6-2號","121.492798333333","24.9918883333333","6500300","中和區"
"220054","015-TV","2019/11/28 19:29:39","新北市板橋區實踐路116號","121.463916666667","25.0042183333333","6500100","板橋區"
"220086","073-UY","2019/11/28 19:29:44","新北市板橋區中正路216巷94號","121.458585","25.01914","6500100","板橋區"
"220069","AAD-861","2019/11/28 19:29:39","新北市板橋區貴興路106巷3號","121.455353333333","25.0025616666667","6500100","板橋區"
"247004","336-TH","2019/11/28 19:29:40","新北市蘆洲區長安街223號","121.459678333333","25.0825833333333","6501400","蘆洲區"
"226004","312-R5","2019/11/28 19:29:28","新北市平溪區十分里十分街132-1號","121.777393333333","25.043315","6502400","平溪區"
"235049","251-BX","2019/11/28 19:29:36","新北市中和區景新街287號","121.509891666667","24.9934416666667","6500300","中和區"
"228003","097-TW","2019/11/28 19:29:45","新北市貢寮區和美里和美街22-1號","121.912851666667","25.0826066666667","6502600","貢寮區"
"228001","212-TW","2019/11/28 19:29:32","新北市貢寮區真理里大澳街46號","121.925091666667","25.056395","6502600","貢寮區"
"228002","663-BX","2019/11/28 19:29:47","新北市貢寮區龍門里龍門街78號","121.931125","25.026865","6502600","貢寮區"
"224008","273-VK","2019/11/28 19:29:45","新北市瑞芳區一坑路317號","121.801396666667","25.1090283333333","6501200","瑞芳區"
"227001","642-TC","2019/11/28 19:29:26","新北市雙溪區新基里新基北街43號","121.868235","25.0397216666667","6502500","雙溪區"
"227002","400-TW","2019/11/28 19:29:45","新北市雙溪區雙溪里光復街3號","121.865218333333","25.0355333333333","6502500","雙溪區"
"222001","KEA-2212","2019/11/28 19:29:30","新北市深坑區北深路二段130號","121.61595","25.0029033333333","6501800","深坑區"
"208002","KEA-2872","2019/11/28 19:29:24","新北市金山區中山路313巷3號","121.635465","25.2234233333333","6502700","金山區"
"208003","665-BX","2019/11/28 19:29:34","新北市金山區中山路263巷14號","121.636388333333","25.2215716666667","6502700","金山區"
"251005","010-UM","2019/11/28 19:29:23","新北市淡水區水源街一段47巷39號","121.444048333333","25.1735766666667","6501000","淡水區"
"251001","011-UM","2019/11/28 19:29:40","新北市淡水區民權路141號","121.460096666667","25.1364383333333","6501000","淡水區"
"251015","KEA-2871","2019/11/28 19:29:28","新北市淡水區山子頂24-1號","121.491386666667","25.1871833333333","6501000","淡水區"
"251016","180-VK","2019/11/28 19:29:43","新北市淡水區下圭柔山119-51號","121.450738333333","25.208475","6501000","淡水區"
"251008","181-VK","2019/11/28 19:29:42","新北市淡水區中正路一段66號","121.425296666667","25.17694","6501000","淡水區"
"251013","182-VK","2019/11/28 19:29:32","新北市淡水區安子內18號","121.472823333333","25.2189283333333","6501000","淡水區"
"251010","413-VK","2019/11/28 19:29:37","新北市淡水區中正路二段150-6號","121.423335","25.1878183333333","6501000","淡水區"
"251007","442-VK","2019/11/28 19:29:32","新北市淡水區八勢路30巷1號","121.461741666667","25.1540583333333","6501000","淡水區"
"251006","561-UM","2019/11/28 19:29:28","新北市淡水區大信街52巷7弄1號","121.441391666667","25.1779816666667","6501000","淡水區"
"251014","577-R6","2019/11/28 19:29:31","新北市淡水區小中寮19-7號","121.484761666667","25.2295666666667","6501000","淡水區"
"251002","672-BX","2019/11/28 19:29:36","新北市淡水區新民街一段117號","121.428208333333","25.1877916666667","6501000","淡水區"
"251003","673-BX","2019/11/28 19:29:27","新北市淡水區中山北路二段182號","121.444283333333","25.1849216666667","6501000","淡水區"
"207003","681-TV","2019/11/28 19:29:39","新北市萬里區大鵬里萬里加投103-1號","121.645968333333","25.2129366666667","6502800","萬里區"
"207004","291-VK","2019/11/28 19:29:40","新北市萬里區萬里里瑪鋉路83-2號","121.688518333333","25.1767783333333","6502800","萬里區"
"252001","292-VK","2019/11/28 19:29:45","新北市三芝區長勤街63-1號","121.50012","25.256105","6502100","三芝區"
"237004","KEA-2597","2019/11/28 19:29:35","新北市三峽區有木206號","121.439111666667","24.8515966666667","6500900","三峽區"
"237007","153-BY","2019/11/28 19:29:33","新北市三峽區二鬮路136巷20弄85號","121.358328333333","24.9092366666667","6500900","三峽區"
"237009","210-TH","2019/11/28 19:29:45","新北市三峽區中山路31號","121.368395","24.9344266666667","6500900","三峽區"
"237013","252-BX","2019/11/28 19:29:28","新北市三峽區介壽路一段316號","121.380671666667","24.930215","6500900","三峽區"
"237012","275-BY","2019/11/28 19:29:44","新北市三峽區三樹路98巷169號","121.384591666667","24.9394816666667","6500900","三峽區"
"237008","302-VK","2019/11/28 19:29:40","新北市三峽區永安街95巷17號","121.37465","24.9284183333333","6500900","三峽區"
"237014","433-BY","2019/11/28 19:29:28","新北市三峽區中山路274號","121.361451666667","24.93777","6500900","三峽區"
"237006","5529-G3","2019/11/28 19:29:38","新北市三峽區中正路一段336巷15弄2號","121.369968333333","24.924945","6500900","三峽區"
"237011","KEA-2596","2019/11/28 19:29:43","新北市三峽區介壽路一段245號","121.379491666667","24.9303683333333","6500900","三峽區"
"237015","649-BX","2019/11/28 19:29:32","新北市三峽區建安64-5號","121.447993333333","24.9275016666667","6500900","三峽區"
"237010","706-TV","2019/11/28 19:29:38","新北市三峽區復興路30-2號","121.374318333333","24.9361916666667","6500900","三峽區"
"237005","AKY-6261","2019/11/28 19:29:38","新北市三峽區中山路219巷17弄1號","121.363365","24.9362216666667","6500900","三峽區"
"233002","762-BX","2019/11/28 19:27:47","新北市新店區新烏路二段202號","121.547528333333","24.9163416666667","6502900","烏來區"
"236078","166-UM","2019/11/28 19:29:45","新北市土城區中州路27巷39-1號","121.413193333333","24.9570683333333","6501300","土城區"
"236030","253-BX","2019/11/28 19:29:28","新北市土城區中央路二段8-3號","121.442921666667","24.980675","6501300","土城區"
"247011","KED-0683","2019/11/28 19:08:17","新北市五股區中興路三段163號","121.449193333333","25.08097","6501400","蘆洲區"
"236070","KEA-2877","2019/11/28 19:29:37","新北市土城區學府路一段161號","121.453176666667","24.9858066666667","6501300","土城區"
"252002","KED-0821","2019/11/28 19:29:28","新北市三芝區淡金路二段18-1號","121.502681666667","25.25954","6502100","三芝區"
"236021","401-BY","2019/11/28 19:29:37","新北市土城區峰廷街3號","121.469046666667","24.9873","6501300","土城區"
"236049","752-BX","2019/11/28 19:29:41","新北市土城區清水路200號","121.460418333333","24.9818716666667","6501300","土城區"
"236059","912-UM","2019/11/28 19:29:32","新北市土城區中央路二段63號","121.442696666667","24.978945","6501300","土城區"
"236055","AAC-216","2019/11/28 19:29:26","新北市土城區學府路一段276號","121.450115","24.9831666666667","6501300","土城區"
"242029","615-BX","2019/11/28 19:29:37","新北市新莊區新泰路357巷3弄57號","121.442071666667","25.0393016666667","6500500","新莊區"
"242009","349-TH","2019/11/28 19:29:37","新北市新莊區瓊泰路63巷16號","121.44238","25.0287833333333","6500500","新莊區"
"238015","755-BX","2019/11/28 19:29:40","新北市樹林區大安路502-3號","121.413641666667","24.986405","6500700","樹林區"
"238023","601-UM","2019/11/28 19:29:43","新北市樹林區中正路825號","121.409318333333","25.0171233333333","6500700","樹林區"
"238019","599-UM","2019/11/28 19:29:33","新北市樹林區東榮街28號","121.417585","24.9835533333333","6500700","樹林區"
"238024","5061-A6","2019/11/28 19:29:44","新北市樹林區福德街10號","121.400756666667","24.97552","6500700","樹林區"
"238018","KEA-2217","2019/11/28 19:29:40","新北市樹林區中華路211號","121.419788333333","24.9814133333333","6500700","樹林區"
"238022","KEA-2213","2019/11/28 19:29:31","新北市樹林區國凱街82號","121.421166666667","24.9792766666667","6500700","樹林區"
"238021","KEA-2539","2019/11/28 19:29:39","新北市樹林區佳園路三段217號","121.385145","24.946315","6500700","樹林區"
"238025","303-VK","2019/11/28 19:29:40","新北市樹林區中山路一段237號","121.42075","24.9867716666667","6500700","樹林區"
"238017","283-BY","2019/11/28 19:29:40","新北市樹林區光興街155巷26號","121.407156666667","25.0030983333333","6500700","樹林區"
"238014","282-BY","2019/11/28 19:29:31","新北市樹林區千歲街4號","121.42494","24.9955683333333","6500700","樹林區"
"238020","268-VK","2019/11/28 19:29:28","新北市樹林區俊英街111巷1-3號","121.424476666667","25.009725","6500700","樹林區"
"238026","172-UY","2019/11/28 19:29:41","新北市樹林區佳園路三段6號","121.388253333333","24.95517","6500700","樹林區"
"238016","169-UY","2019/11/28 19:29:32","新北市樹林區復興路446巷2弄2號","121.413433333333","24.9843233333333","6500700","樹林區"
"239007","AAC-297","2019/11/28 19:29:35","新北市鶯歌區中山路138巷3-4號","121.3496","24.9579983333333","6500800","鶯歌區"
"239006","891-R6","2019/11/28 19:29:26","新北市鶯歌區鶯桃路91巷25號","121.338251666667","24.952615","6500800","鶯歌區"
"239008","527-UM","2019/11/28 19:29:37","新北市鶯歌區國際二路6巷18號","121.339085","24.9738233333333","6500800","鶯歌區"
"239005","526-UM","2019/11/28 19:29:32","新北市鶯歌區中湖街55號","121.349666666667","24.973505","6500800","鶯歌區"
"239001","417-VK","2019/11/28 19:29:37","新北市鶯歌區永明街13號","121.33831","24.9551866666667","6500800","鶯歌區"
"239003","360-BY","2019/11/28 19:29:35","新北市鶯歌區鶯桃路379號","121.333643333333","24.9633633333333","6500800","鶯歌區"
"239002","359-BY","2019/11/28 19:29:46","新北市鶯歌區西湖街45巷1號","121.340248333333","24.9585133333333","6500800","鶯歌區"
"239004","193-VK","2019/11/28 19:29:37","新北市鶯歌區二橋新村47號","121.329415","24.9343883333333","6500800","鶯歌區"
"221008","489-VK","2019/11/28 19:29:47","新北市汐止區康寧街235號","121.623948333333","25.066825","6501100","汐止區"
"221027","281-BY","2019/11/28 19:29:33","新北市汐止區忠孝東路9號","121.658275","25.0659333333333","6501100","汐止區"
"221021","299-VK","2019/11/28 19:29:40","新北市汐止區新江北路19號","121.652828333333","25.0704033333333","6501100","汐止區"
"221031","353-TW","2019/11/28 19:29:33","新北市汐止區康寧街901號","121.650776666667","25.0753083333333","6501100","汐止區"
"221033","647-BX","2019/11/28 19:29:29","新北市汐止區南勢街3號","121.627078333333","25.03742","6501100","汐止區"
"221002","707-TV","2019/11/28 19:29:35","新北市汐止區大同路一段337巷16弄3號","121.637763333333","25.0600666666667","6501100","汐止區"
"220079","145-BY","2019/11/28 19:29:29","新北市板橋區民權路202巷12弄1號","121.460571666667","25.0156933333333","6500100","板橋區"
"220080","200-UY","2019/11/28 19:29:40","新北市板橋區大觀路二段19巷20號","121.447558333333","25.0031266666667","6500100","板橋區"
"220082","610-BX","2019/11/28 19:29:43","新北市板橋區金門街231號","121.43215","24.989655","6500100","板橋區"
"220101","245-BX","2019/11/28 19:29:46","新北市板橋區萬板路46巷27號","121.472763333333","25.022565","6500100","板橋區"
"220056","276-BY","2019/11/28 19:29:39","新北市板橋區干城路148-1號","121.45992","24.9928966666667","6500100","板橋區"
"220072","277-BY","2019/11/28 19:29:37","新北市板橋區篤行路二段141巷13號","121.430303333333","24.987935","6500100","板橋區"
"220088","280-UM","2019/11/28 19:29:46","新北市板橋區文化路二段578號","121.476671666667","25.0346116666667","6500100","板橋區"
"220094","283-UM","2019/11/28 19:29:36","新北市板橋區銘傳街64號","121.468856666667","25.031145","6500100","板橋區"
"220071","283-VK","2019/11/28 19:29:42","新北市板橋區忠孝路48巷9弄28號","121.461996666667","25.0001816666667","6500100","板橋區"
"220053","285-VK","2019/11/28 19:29:34","新北市板橋區富山街53巷1弄104號","121.47778","25.019785","6500100","板橋區"
"220083","286-VK","2019/11/28 19:29:41","新北市板橋區龍興街73巷23號","121.44288","25.002525","6500100","板橋區"
"220081","287-VK","2019/11/28 19:29:45","新北市板橋區南雅南路一段106號","121.454951666667","25.004335","6500100","板橋區"
"220090","288-VK","2019/11/28 19:29:32","新北市板橋區溪頭街2號","121.457481666667","25.0289166666667","6500100","板橋區"
"220061","293-UM","2019/11/28 19:29:35","新北市板橋區中山路一段265巷36弄2號","121.469116666667","25.0149733333333","6500100","板橋區"
"220084","296-UM","2019/11/28 19:29:39","新北市板橋區篤行路三段玉平巷69號","121.428418333333","24.986335","6500100","板橋區"
"220075","303-R5","2019/11/28 19:29:31","新北市板橋區中正路275巷93號","121.450733333333","25.01805","6500100","板橋區"
"220062","305-R5","2019/11/28 19:29:36","新北市板橋區三民路二段167號","121.479148333333","25.014545","6500100","板橋區"
"220098","317-R6","2019/11/28 19:29:44","新北市板橋區民有街61號","121.465298333333","25.0266466666667","6500100","板橋區"
"220065","461-BY","2019/11/28 19:29:46","新北市板橋區民族路170巷1號","121.467423333333","25.007615","6500100","板橋區"
"220089","487-VK","2019/11/28 19:29:43","新北市板橋區龍泉街81號","121.456658333333","25.0250566666667","6500100","板橋區"
"220035","560-BX","2019/11/28 19:29:41","新北市板橋區中正路433巷1號","121.454163333333","25.0232383333333","6500100","板橋區"
"220103","561-BX","2019/11/28 19:29:42","新北市板橋區陽明街29巷30號","121.463843333333","25.022595","6500100","板橋區"
"220063","609-BX","2019/11/28 19:29:38","新北市板橋區萬安街53巷39號","121.482428333333","25.0235033333333","6500100","板橋區"
"220091","637-BX","2019/11/28 19:29:46","新北市板橋區文聖街149巷41號","121.480071666667","25.029005","6500100","板橋區"
"220057","686-BX","2019/11/28 19:29:37","新北市板橋區和平路70號","121.461271666667","24.994525","6500100","板橋區"
"220077","687-BX","2019/11/28 19:29:36","新北市板橋區大觀路一段28巷78號","121.449808333333","25.0108033333333","6500100","板橋區"
"220102","KEA-2699","2019/11/28 19:29:40","新北市板橋區文化路二段410巷39號","121.47483","25.0303133333333","6500100","板橋區"
"220055","827-TW","2019/11/28 19:29:31","新北市板橋區重慶路278巷3-2號","121.462755","24.9996633333333","6500100","板橋區"
"220106","829-TW","2019/11/28 19:29:26","新北市板橋區文化路二段446號","121.474638333333","25.0323366666667","6500100","板橋區"
"220068","830-TW","2019/11/28 19:29:46","新北市板橋區萬安街96號","121.483845","25.0240833333333","6500100","板橋區"
"220067","831-TW","2019/11/28 19:29:42","新北市板橋區漢生東路299巷30號","121.472625","25.0087883333333","6500100","板橋區"
"220073","985-R7","2019/11/28 19:29:47","新北市板橋區中正路332-11號","121.454235","25.0232866666667","6500100","板橋區"
"220097","AAC-210","2019/11/28 19:29:32","新北市板橋區文化路一段285巷2弄1號","121.464646666667","25.019165","6500100","板橋區"
"220064","AAC-253","2019/11/28 19:29:42","新北市板橋區實踐路108號","121.464163333333","25.0045216666667","6500100","板橋區"
"235061","KEA-2875","2019/11/28 19:29:24","新北市中和區民安街2巷23號","121.480205","25.001465","6500300","中和區"
