"lineid","car","time","location","longitude","latitude","cityid","cityname"
"249001","173-UM","2019/11/28 20:43:41","新北市八里區下罟子9-8號","121.38277","25.1405716666667","6502300","八里區"
"249004","303-UY","2019/11/28 20:43:43","新北市八里區中山路一段191號","121.411771666667","25.1582866666667","6502300","八里區"
"234074","AAC-211","2019/11/28 20:43:43","新北市永和區竹林路75巷25弄34號","121.521103333333","25.0149716666667","6500400","永和區"
"222003","436-BY","2019/11/28 20:43:32","新北市深坑區文山路三段48-1號","121.609921666667","24.9984933333333","6501800","深坑區"
"222002","659-BX","2019/11/28 20:43:43","新北市深坑區北深路三段145號","121.603441666667","25.0028633333333","6501800","深坑區"
"231045","001-UM","2019/11/28 20:43:47","新北市新店區長春路39號","121.549831666667","24.957455","6500600","新店區"
"231061","002-UM","2019/11/28 20:43:33","新北市新店區新和街36號","121.519278333333","24.9849266666667","6500600","新店區"
"231044","046-UY","2019/11/28 20:43:31","新北市新店區建國路257號","121.537393333333","24.9833033333333","6500600","新店區"
"231060","106-UY","2019/11/28 20:43:46","新北市新店區安康路三段628號","121.478188333333","24.9456283333333","6500600","新店區"
"231051","107-UY","2019/11/28 20:43:38","新北市新店區中央四街84號","121.526096666667","24.9758683333333","6500600","新店區"
"231049","108-UY","2019/11/28 20:43:46","新北市新店區永業路81巷1弄1號","121.529648333333","24.9494516666667","6500600","新店區"
"231065","110-UY","2019/11/28 20:43:38","新北市新店區安祥路104巷6弄40號","121.483048333333","24.9634133333333","6500600","新店區"
"231068","187-VK","2019/11/28 20:43:36","新北市新店區寶元路一段95-1號","121.543683333333","24.9849383333333","6500600","新店區"
"231054","260-TV","2019/11/28 20:43:35","新北市新店區北新路一段311號","121.541613333333","24.9678683333333","6500600","新店區"
"231042","268-BY","2019/11/28 20:43:40","新北市新店區寶高路120巷1-1號","121.554663333333","24.9759566666667","6500600","新店區"
"231064","278-BY","2019/11/28 20:43:41","新北市新店區安民街365巷6號","121.516241666667","24.9757266666667","6500600","新店區"
"231050","AAD-862","2019/11/28 20:43:42","新北市新店區中正路247巷9號","121.538846666667","24.9727266666667","6500600","新店區"
"231056","4715-K9","2019/11/28 20:43:41","新北市新店區安興路69號","121.516091666667","24.974775","6500600","新店區"
"231067","4772-VM","2019/11/28 20:43:46","新北市新店區安康路二段68號","121.51468","24.96359","6500600","新店區"
"231052","513-UM","2019/11/28 20:43:39","新北市新店區新烏路二段300號","121.547851666667","24.9125666666667","6500600","新店區"
"231041","619-UM","2019/11/28 20:43:43","新北市新店區中正路707號","121.533905","24.991125","6500600","新店區"
"231063","641-BX","2019/11/28 20:43:47","新北市新店區如意街4巷1號","121.495498333333","24.9491616666667","6500600","新店區"
"231047","KED-0819","2019/11/28 20:43:32","新北市新店區寶元路二段1巷2號","121.550186666667","24.98404","6500600","新店區"
"231062","718-UY","2019/11/28 20:43:27","新北市新店區安泰路60巷55弄131號","121.484541666667","24.9467383333333","6500600","新店區"
"231057","720-UM","2019/11/28 20:43:35","新北市新店區梅花一路2號","121.551866666667","24.9331966666667","6500600","新店區"
"231059","897-TW","2019/11/28 20:43:32","新北市新店區僑信路100號","121.499965","24.9474666666667","6500600","新店區"
"231040","898-TW","2019/11/28 20:43:41","新北市新店區中正路247巷4弄9號","121.538338333333","24.9731816666667","6500600","新店區"
"231043","899-TW","2019/11/28 20:43:27","新北市新店區建國路27號","121.540133333333","24.9740566666667","6500600","新店區"
"231066","AKT-0513","2019/11/28 20:43:38","新北市新店區安興路81號","121.515363333333","24.9754233333333","6500600","新店區"
"241011","013-R5","2019/11/28 20:43:35","新北市三重區龍濱路223號","121.501965","25.0721016666667","6500200","三重區"
"241028","022-UY","2019/11/28 20:43:28","新北市三重區中正南路50號","121.49396","25.0599466666667","6500200","三重區"
"241008","059-VK","2019/11/28 20:43:32","新北市三重區下竹圍街91號","121.48118","25.0748883333333","6500200","三重區"
"241031","061-VK","2019/11/28 20:29:52","新北市三重區過圳街31巷5號","121.489446666667","25.0603216666667","6500200","三重區"
"241015","062-VK","2019/11/28 20:43:44","新北市三重區三和路二段228號","121.497493333333","25.0696833333333","6500200","三重區"
"241024","065-VK","2019/11/28 20:43:36","新北市三重區自由街17巷26號","121.48001","25.0672316666667","6500200","三重區"
"241007","066-VK","2019/11/28 20:43:39","新北市三重區自強路四段34號","121.488768333333","25.0769933333333","6500200","三重區"
"241002","090-VK","2019/11/28 20:43:26","新北市三重區仁義街159巷1號","121.497358333333","25.08124","6500200","三重區"
"241003","091-VK","2019/11/28 20:43:37","新北市三重區集賢路87-1號","121.493611666667","25.08685","6500200","三重區"
"241006","262-UM","2019/11/28 20:43:30","新北市三重區車路頭街139巷12號","121.484231666667","25.0762216666667","6500200","三重區"
"241017","316-R6","2019/11/28 20:43:35","新北市三重區安慶街233號","121.490921666667","25.067805","6500200","三重區"
"241016","266-UM","2019/11/28 20:43:37","新北市三重區長壽西街49號","121.495978333333","25.0671966666667","6500200","三重區"
"241009","267-UM","2019/11/28 20:43:27","新北市三重區仁愛街602號","121.483756666667","25.0809866666667","6500200","三重區"
"241018","268-UM","2019/11/28 20:43:36","新北市三重區正義北路332號","121.49461","25.0707716666667","6500200","三重區"
"241032","269-UM","2019/11/28 20:43:30","新北市三重區重陽路一段120巷35號","121.485101666667","25.0601583333333","6500200","三重區"
"241013","270-UM","2019/11/28 20:43:31","新北市三重區仁賢街12-1號","121.495696666667","25.074885","6500200","三重區"
"241030","KED-0822","2019/11/28 20:43:27","新北市三重區成功路73巷28號","121.489615","25.052265","6500200","三重區"
"241035","462-BY","2019/11/28 20:43:34","新北市三重區文化北路248號","121.497308333333","25.069875","6500200","三重區"
"241004","475-VK","2019/11/28 20:43:44","新北市三重區仁愛街409號","121.490803333333","25.08115","6500200","三重區"
"241020","478-VK","2019/11/28 20:43:43","新北市三重區忠孝路一段101號","121.4895","25.07219","6500200","三重區"
"241026","480-VK","2019/11/28 20:43:37","新北市三重區和平街1號","121.500078333333","25.06225","6500200","三重區"
"241014","543-UM","2019/11/28 20:43:40","新北市三重區萬壽街56號","121.500566666667","25.069615","6500200","三重區"
"241023","545-UM","2019/11/28 20:43:32","新北市三重區忠孝路三段75巷5號","121.480346666667","25.0660516666667","6500200","三重區"
"241001","547-UM","2019/11/28 20:43:33","新北市三重區自強路三段110巷39號","121.485951666667","25.07469","6500200","三重區"
"241019","KEA-2593","2019/11/28 20:43:42","新北市三重區重陽路四段130號","121.492408333333","25.0713133333333","6500200","三重區"
"241005","AAD-863","2019/11/28 20:43:34","新北市三重區五華街213號","121.489388333333","25.0856883333333","6500200","三重區"
"241012","743-BX","2019/11/28 20:43:36","新北市三重區龍門路268號","121.501325","25.07389","6500200","三重區"
"241022","KED-0820","2019/11/28 20:43:45","新北市三重區貴陽街20號","121.484181666667","25.0620766666667","6500200","三重區"
"241025","KED-0670","2019/11/28 20:43:41","新北市三重區洛陽街24號","121.482633333333","25.0630366666667","6500200","三重區"
"241029","942-UM","2019/11/28 20:43:47","新北市三重區重安街170巷4號","121.49619","25.0546033333333","6500200","三重區"
"241033","AAC-255","2019/11/28 20:43:41","新北市三重區中興北街136巷27號","121.46802","25.055995","6500200","三重區"
"235055","183-VK","2019/11/28 20:41:42","新北市八里區荖阡坑路34-2號","121.401076666667","25.130375","6500300","中和區"
"247016","KEA-2869","2019/11/28 20:42:11","新北市蘆洲區中山二路309號","121.468861666667","25.0772783333333","6501400","蘆洲區"
"235069","4980-A6","2019/11/28 20:43:34","新北市中和區連城路467-3號","121.483866666667","24.9961716666667","6500300","中和區"
"247006","893-R6","2019/11/28 20:43:34","新北市蘆洲區和平路126號","121.46733","25.0803333333333","6501400","蘆洲區"
"247012","337-TH","2019/11/28 20:43:36","新北市蘆洲區中興街89號","121.48224","25.0882333333333","6501400","蘆洲區"
"247004","336-TH","2019/11/28 20:43:40","新北市蘆洲區長安街124號","121.460518333333","25.08188","6501400","蘆洲區"
"247024","057-VK","2019/11/28 20:43:43","新北市蘆洲區長樂路136號","121.462198333333","25.0901316666667","6501400","蘆洲區"
"247014","056-VK","2019/11/28 20:43:48","新北市蘆洲區成功路74號","121.47323","25.081095","6501400","蘆洲區"
"247021","007-UY","2019/11/28 20:43:44","新北市蘆洲區中正路187號","121.468555","25.085785","6501400","蘆洲區"
"247008","002-UY","2019/11/28 20:43:46","新北市蘆洲區永安北路二段8巷16號","121.480388333333","25.0809416666667","6501400","蘆洲區"
"247002","001-UY","2019/11/28 20:43:40","新北市蘆洲區長榮路343號","121.45955","25.0875133333333","6501400","蘆洲區"
"222001","KEA-2212","2019/11/28 20:43:29","新北市深坑區北深路三段208號","121.60128","25.00374","6501800","深坑區"
"251001","011-UM","2019/11/28 20:43:45","新北市淡水區淡金路一段8號","121.460735","25.1691616666667","6501000","淡水區"
"251015","KEA-2871","2019/11/28 20:43:39","新北市淡水區淡金路三段446號","121.450805","25.2143666666667","6501000","淡水區"
"251016","180-VK","2019/11/28 20:43:43","新北市淡水區後洲子3-4號","121.445455","25.2255866666667","6501000","淡水區"
"251013","182-VK","2019/11/28 20:43:31","新北市淡水區番子厝12-3號","121.458941666667","25.2025816666667","6501000","淡水區"
"251010","413-VK","2019/11/28 20:43:45","新北市淡水區沙崙路133號","121.42274","25.1827333333333","6501000","淡水區"
"251012","441-VK","2019/11/28 20:43:31","新北市淡水區興仁路103巷31號","121.45027","25.2171683333333","6501000","淡水區"
"251007","442-VK","2019/11/28 20:43:34","新北市淡水區學府路102巷121號","121.453588333333","25.171335","6501000","淡水區"
"251006","561-UM","2019/11/28 20:43:28","新北市淡水區商工路143號","121.44732","25.1882516666667","6501000","淡水區"
"251014","577-R6","2019/11/28 20:43:31","新北市淡水區公埔子32-8號","121.461645","25.2323783333333","6501000","淡水區"
"251011","650-BX","2019/11/28 20:43:42","新北市淡水區新市一路一段281巷2號","121.434666666667","25.1866933333333","6501000","淡水區"
"251002","672-BX","2019/11/28 20:43:35","新北市淡水區中正路32號","121.444001666667","25.169145","6501000","淡水區"
"251003","673-BX","2019/11/28 20:43:27","新北市淡水區新民街120巷54號","121.438788333333","25.1784716666667","6501000","淡水區"
"236030","253-BX","2019/11/28 20:43:28","新北市樹林區中山路三段210-2號","121.380828333333","24.9660683333333","6501300","土城區"
"252002","KED-0821","2019/11/28 20:43:48","新北市三芝區淡金路二段93號","121.504133333333","25.2609066666667","6502100","三芝區"
"242061","986-R7","2019/11/28 20:43:30","新北市新莊區新樹路258巷3號","121.432103333333","25.0155816666667","6500500","新莊區"
"242004","751-BX","2019/11/28 20:43:33","新北市新莊區福德二街1號","121.463128333333","25.05711","6500500","新莊區"
"242029","615-BX","2019/11/28 20:43:36","新北市新莊區中華路二段41號","121.45333","25.04659","6500500","新莊區"
"242027","613-BX","2019/11/28 20:43:30","新北市新莊區思源路167號","121.459826666667","25.0449","6500500","新莊區"
"242058","612-BX","2019/11/28 20:43:37","新北市新莊區民安路138號","121.424166666667","25.0253566666667","6500500","新莊區"
"242048","566-BX","2019/11/28 20:43:35","新北市新莊區中正路773號","121.421841666667","25.0285383333333","6500500","新莊區"
"242053","497-BY","2019/11/28 20:43:35","新北市新莊區民安西路213號","121.425991666667","25.0146066666667","6500500","新莊區"
"242013","442-UM","2019/11/28 20:43:42","新北市新莊區中和街191巷1-1號","121.44789","25.0511683333333","6500500","新莊區"
"242002","441-UM","2019/11/28 20:43:31","新北市新莊區中港路五守新村1巷1號","121.45504","25.0384433333333","6500500","新莊區"
"242044","415-TV","2019/11/28 20:43:39","新北市新莊區中正路新生巷85弄1號","121.417071666667","25.0217016666667","6500500","新莊區"
"242042","413-TV","2019/11/28 20:43:32","新北市新莊區天祥街15巷11號","121.416673333333","25.0275733333333","6500500","新莊區"
"242051","400-BY","2019/11/28 20:43:36","新北市新莊區民安西路171號","121.426105","25.01602","6500500","新莊區"
"242025","362-BY","2019/11/28 20:43:24","新北市三重區光復路二段206號","121.469436666667","25.0637383333333","6500500","新莊區"
"242023","353-BY","2019/11/28 20:43:35","新北市新莊區化成路205號","121.46589","25.0509716666667","6500500","新莊區"
"242015","132-UY","2019/11/28 20:43:37","新北市新莊區中和街6號","121.448598333333","25.04297","6500500","新莊區"
"242056","172-VK","2019/11/28 20:43:39","新北市新莊區瓊泰路94巷48號","121.444923333333","25.02941","6500500","新莊區"
"242017","173-VK","2019/11/28 20:43:46","新北市新莊區中港三街116號","121.448031666667","25.0460116666667","6500500","新莊區"
"242031","175-VK","2019/11/28 20:43:39","新北市新莊區三泰路48號","121.437595","25.0354433333333","6500500","新莊區"
"242039","176-VK","2019/11/28 20:43:39","新北市新莊區瓊林北路33-1號","121.438973333333","25.02161","6500500","新莊區"
"242007","346-TH","2019/11/28 20:43:32","新北市新莊區思源路287巷19號","121.45874","25.0482066666667","6500500","新莊區"
"242021","347-TH","2019/11/28 20:43:32","新北市新莊區公園路100號","121.450706666667","25.039885","6500500","新莊區"
"242036","348-TH","2019/11/28 20:43:40","新北市新莊區建安街10-1號","121.428485","25.0265033333333","6500500","新莊區"
"242009","349-TH","2019/11/28 20:43:42","新北市新莊區昌隆街108號","121.45681","25.0509183333333","6500500","新莊區"
"242034","350-TH","2019/11/28 20:43:41","新北市新莊區中正路369號","121.44646","25.0348316666667","6500500","新莊區"
"242019","351-TH","2019/11/28 20:43:34","新北市新莊區銘德街117號","121.455411666667","25.0432316666667","6500500","新莊區"
"238015","755-BX","2019/11/28 20:40:39","新北市樹林區中山路三段214號","121.379765","24.967495","6500700","樹林區"
"221008","489-VK","2019/11/28 20:43:27","新北市汐止區康寧街543號","121.634325","25.0691066666667","6501100","汐止區"
"221036","130-UY","2019/11/28 20:43:39","新北市汐止區新昌路25號","121.662058333333","25.067735","6501100","汐止區"
"221015","131-UY","2019/11/28 20:43:34","新北市汐止區建成路19號","121.664411666667","25.0726","6501100","汐止區"
"221012","278-VK","2019/11/28 20:43:38","新北市汐止區保新街283號","121.692726666667","25.0683133333333","6501100","汐止區"
"221023","279-VK","2019/11/28 20:43:30","新北市汐止區湖東街33巷1號","121.634551666667","25.0726516666667","6501100","汐止區"
"221027","281-BY","2019/11/28 20:43:32","新北市汐止區大同路二段447號","121.659478333333","25.0675066666667","6501100","汐止區"
"221029","298-VK","2019/11/28 20:43:38","新北市汐止區大同路一段421號","121.64266","25.0612133333333","6501100","汐止區"
"221021","299-VK","2019/11/28 20:43:40","新北市汐止區水源路一段284號","121.654198333333","25.0582783333333","6501100","汐止區"
"221031","353-TW","2019/11/28 20:43:33","新北市汐止區中興路27巷22號","121.634066666667","25.06081","6501100","汐止區"
"221035","622-UM","2019/11/28 20:43:45","新北市汐止區長江街101-5號","121.658758333333","25.0731816666667","6501100","汐止區"
"221033","647-BX","2019/11/28 20:43:29","新北市汐止區合順街18巷8弄5號","121.620353333333","25.0419383333333","6501100","汐止區"
"221002","707-TV","2019/11/28 20:43:35","新北市汐止區福德二路167號","121.630928333333","25.06518","6501100","汐止區"
"220083","286-VK","2019/11/28 20:43:41","新北市板橋區僑中二街108巷1號","121.445693333333","25.00731","6500100","板橋區"
"220081","287-VK","2019/11/28 20:43:45","新北市板橋區大觀路三段50巷49號","121.432245","24.99582","6500100","板橋區"
"242046","281-VK","2019/11/28 20:43:46","新北市新莊區裕民街61號","121.418718333333","25.02446","6500500","新莊區"
"242011","280-VK","2019/11/28 20:43:39","新北市新莊區中榮街122巷25號","121.44651","25.0536","6500500","新莊區"
