"lineid","car","time","location","longitude","latitude","cityid","cityname"
"231061","002-UM","2019/11/28 21:13:33","新北市新店區永平街34號","121.516351666667","24.9840716666667","6500600","新店區"
"231060","106-UY","2019/11/28 21:13:46","新北市新店區安康路二段317號","121.49938","24.9565566666667","6500600","新店區"
"231051","107-UY","2019/11/28 21:13:38","新北市新店區中正路700巷82號","121.535935","24.9932833333333","6500600","新店區"
"231065","110-UY","2019/11/28 21:13:38","新北市新店區安康路二段320巷15弄16號","121.50275","24.9591733333333","6500600","新店區"
"231054","260-TV","2019/11/28 21:13:35","新北市新店區安康路一段302-3號","121.517731666667","24.9640766666667","6500600","新店區"
"231042","268-BY","2019/11/28 21:13:40","新北市新店區薏仁坑路6-1號","121.499981666667","24.9583483333333","6500600","新店區"
"231050","AAD-862","2019/11/28 21:13:42","新北市新店區中華路141號","121.538173333333","24.9700583333333","6500600","新店區"
"231063","641-BX","2019/11/28 21:13:46","新北市新店區玫瑰路57巷47號","121.497448333333","24.9464483333333","6500600","新店區"
"231062","718-UY","2019/11/28 21:13:27","新北市新店區雙城路2巷2號","121.491233333333","24.9512933333333","6500600","新店區"
"231059","897-TW","2019/11/28 21:13:32","新北市新店區僑義路39號","121.500558333333","24.9502166666667","6500600","新店區"
"231040","898-TW","2019/11/28 21:13:41","新北市新店區光明街179-1號","121.53972","24.962955","6500600","新店區"
"241011","013-R5","2019/11/28 21:13:35","新北市三重區龍濱路114號","121.50221","25.0702333333333","6500200","三重區"
"241028","022-UY","2019/11/28 21:13:48","新北市三重區重安街70-10號","121.491593333333","25.05688","6500200","三重區"
"241008","059-VK","2019/11/28 21:13:32","新北市三重區自強路一段64號","121.497266666667","25.06663","6500200","三重區"
"241031","061-VK","2019/11/28 21:13:32","新北市三重區五谷王南街46巷37號","121.475771666667","25.0455183333333","6500200","三重區"
"241015","062-VK","2019/11/28 21:13:44","新北市三重區河邊北街23號","121.504293333333","25.0653333333333","6500200","三重區"
"241024","065-VK","2019/11/28 21:13:38","新北市三重區中正北路145巷5弄11號","121.484956666667","25.0673533333333","6500200","三重區"
"241007","066-VK","2019/11/28 21:13:39","新北市三重區車路頭街135-1號","121.484236666667","25.0761","6500200","三重區"
"241002","090-VK","2019/11/28 21:13:46","新北市三重區五華街22號","121.49476","25.080465","6500200","三重區"
"241003","091-VK","2019/11/28 21:13:37","新北市三重區仁義街228巷2號","121.494876666667","25.084765","6500200","三重區"
"241006","262-UM","2019/11/28 21:13:30","新北市三重區中正北路38號","121.4879","25.0636533333333","6500200","三重區"
"241017","316-R6","2019/11/28 21:13:35","新北市三重區大同北路132巷4號","121.492616666667","25.064665","6500200","三重區"
"241016","266-UM","2019/11/28 21:13:37","新北市三重區大智街12號","121.495233333333","25.0644983333333","6500200","三重區"
"241009","267-UM","2019/11/28 21:13:47","新北市三重區忠孝路三段84巷16號","121.480396666667","25.0649333333333","6500200","三重區"
"241018","268-UM","2019/11/28 21:13:34","新北市三重區忠孝路一段27號","121.49178","25.0718233333333","6500200","三重區"
"241032","269-UM","2019/11/28 21:13:30","新北市三重區中興北街134-1號","121.468963333333","25.055915","6500200","三重區"
"241013","270-UM","2019/11/28 21:13:31","新北市三重區仁愛街81號","121.496123333333","25.0731866666667","6500200","三重區"
"241030","KED-0822","2019/11/28 21:13:46","新北市三重區五谷王北街20巷15弄1號","121.475111666667","25.0484466666667","6500200","三重區"
"241004","475-VK","2019/11/28 21:13:42","新北市三重區仁愛街420號","121.490376666667","25.08141","6500200","三重區"
"241026","480-VK","2019/11/28 21:13:37","新北市三重區新北大道一段2號","121.49075","25.0614433333333","6500200","三重區"
"241014","543-UM","2019/11/28 21:13:40","新北市三重區長安街82-1號","121.501461666667","25.0677083333333","6500200","三重區"
"241023","545-UM","2019/11/28 21:13:31","新北市三重區中正北路176巷16號","121.482678333333","25.065925","6500200","三重區"
"241001","547-UM","2019/11/28 21:13:33","新北市三重區福隆路44號","121.492403333333","25.078435","6500200","三重區"
"241019","KEA-2593","2019/11/28 21:13:42","新北市三重區重陽路三段7-4號","121.489298333333","25.0664933333333","6500200","三重區"
"241005","AAD-863","2019/11/28 21:13:34","新北市三重區仁華街118巷6號","121.485655","25.0830083333333","6500200","三重區"
"241012","743-BX","2019/11/28 21:13:36","新北市三重區龍門路229號","121.50155","25.073935","6500200","三重區"
"241022","KED-0820","2019/11/28 21:13:44","新北市三重區中正北路64巷24號","121.486021666667","25.063705","6500200","三重區"
"241025","KED-0670","2019/11/28 21:13:41","新北市三重區中正北路208巷8號","121.482288333333","25.06695","6500200","三重區"
"241029","942-UM","2019/11/28 21:13:47","新北市三重區正義南路111號","121.498195","25.0585283333333","6500200","三重區"
"241033","AAC-255","2019/11/28 21:13:41","新北市三重區光復路二段131號","121.472088333333","25.05904","6500200","三重區"
"247016","KEA-2869","2019/11/28 21:13:36","新北市蘆洲區光華路46巷53號","121.467233333333","25.0848233333333","6501400","蘆洲區"
"247006","893-R6","2019/11/28 21:13:34","新北市蘆洲區長安街22巷6號","121.4644","25.0793933333333","6501400","蘆洲區"
"247020","546-UM","2019/11/28 21:13:31","新北市蘆洲區民族路436巷22號","121.47282","25.0929866666667","6501400","蘆洲區"
"247012","337-TH","2019/11/28 21:13:34","新北市蘆洲區復興路146號","121.477061666667","25.08767","6501400","蘆洲區"
"247004","336-TH","2019/11/28 21:13:40","新北市蘆洲區永安南路二段322號","121.456991666667","25.0826783333333","6501400","蘆洲區"
"247024","057-VK","2019/11/28 21:13:43","新北市蘆洲區長興路50巷1號","121.463793333333","25.0837583333333","6501400","蘆洲區"
"247014","056-VK","2019/11/28 21:13:48","新北市蘆洲區保和街17號","121.471098333333","25.0862833333333","6501400","蘆洲區"
"247018","053-VK","2019/11/28 21:13:37","新北市蘆洲區復興路105巷11號","121.476408333333","25.08842","6501400","蘆洲區"
"247021","007-UY","2019/11/28 21:13:44","新北市蘆洲區三民路202號","121.469148333333","25.0889716666667","6501400","蘆洲區"
"247008","002-UY","2019/11/28 21:10:26","新北市蘆洲區民生街26號","121.47494","25.0788933333333","6501400","蘆洲區"
"247002","001-UY","2019/11/28 21:13:39","新北市蘆洲區永樂街38巷40號","121.458563333333","25.0900166666667","6501400","蘆洲區"
"251004","009-UM","2019/11/28 21:13:49","新北市淡水區民族路33號","121.462301666667","25.1358516666667","6501000","淡水區"
"251005","010-UM","2019/11/28 21:13:43","新北市淡水區仁愛街7號","121.446056666667","25.1705466666667","6501000","淡水區"
"251001","011-UM","2019/11/28 21:13:40","新北市淡水區中山北路二段381巷124號","121.443168333333","25.1858183333333","6501000","淡水區"
"251015","KEA-2871","2019/11/28 21:13:39","新北市淡水區淡金路四段542巷83弄20號","121.4565","25.2266516666667","6501000","淡水區"
"251016","180-VK","2019/11/28 21:13:43","新北市淡水區前洲子28號","121.441041666667","25.2192366666667","6501000","淡水區"
"251008","181-VK","2019/11/28 21:13:42","新北市淡水區淡金路一段571號","121.45279","25.18062","6501000","淡水區"
"251013","182-VK","2019/11/28 21:13:31","新北市淡水區行忠路330號","121.460668333333","25.199895","6501000","淡水區"
"251010","413-VK","2019/11/28 21:13:37","新北市淡水區中正路一段63巷11號","121.422185","25.176925","6501000","淡水區"
"251012","441-VK","2019/11/28 21:13:31","新北市淡水區淡金路五段87號","121.455278333333","25.23454","6501000","淡水區"
"251009","575-R6","2019/11/28 21:13:46","新北市淡水區民族路112巷57號","121.462028333333","25.1343483333333","6501000","淡水區"
"251014","577-R6","2019/11/28 21:13:31","新北市淡水區六塊厝2-1號","121.45015","25.2404666666667","6501000","淡水區"
"251011","650-BX","2019/11/28 21:13:42","新北市淡水區新民街178巷42弄6號","121.4384","25.1796166666667","6501000","淡水區"
"251002","672-BX","2019/11/28 21:13:35","新北市淡水區水源街二段24號","121.449886666667","25.17336","6501000","淡水區"
"251003","673-BX","2019/11/28 21:13:47","新北市淡水區新春街118號","121.439663333333","25.1824633333333","6501000","淡水區"
"238015","755-BX","2019/11/28 21:04:19","新北市樹林區中山路三段214號","121.37949","24.9675316666667","6500700","樹林區"
