"lineid","car","time","location","longitude","latitude","cityid","cityname"
"247021","007-UY","2019/11/28 21:59:04","新北市八里區荖阡坑路34-2號","121.401338333333","25.129925","6501400","蘆洲區"
"251004","009-UM","2019/11/28 21:59:29","新北市淡水區自強路283-3號","121.461326666667","25.128185","6501000","淡水區"
"251005","010-UM","2019/11/28 21:59:43","新北市淡水區鄧公路30巷32-1號","121.454546666667","25.1695516666667","6501000","淡水區"
"251008","181-VK","2019/11/28 21:59:42","新北市淡水區水源街一段83巷149-15號","121.448416666667","25.1734566666667","6501000","淡水區"
"251010","413-VK","2019/11/28 21:59:37","新北市淡水區中正路二段206號","121.426235","25.18911","6501000","淡水區"
"251007","442-VK","2019/11/28 21:59:40","新北市淡水區北新路184巷19號","121.450198333333","25.17795","6501000","淡水區"
"251006","561-UM","2019/11/28 21:41:57","新北市淡水區中正路11巷3號","121.437896666667","25.1707633333333","6501000","淡水區"
"251011","650-BX","2019/11/28 21:59:42","新北市淡水區水碓街7號","121.443175","25.177135","6501000","淡水區"
"251003","673-BX","2019/11/28 21:59:47","新北市淡水區新春街88號","121.438816666667","25.1823383333333","6501000","淡水區"
