"lineid","car","time","location","longitude","latitude","cityid","cityname"
"232019","290-BY","2019/11/29 07:29:41","新北市坪林區大舌湖9號","121.73237","24.974265","6502000","坪林區"
"232008","291-BY","2019/11/29 07:29:36","新北市坪林區魚堀9-13號","121.704648333333","24.9071016666667","6502000","坪林區"
"232015","705-BZ","2019/11/29 07:29:40","新北市坪林區黃舉皮寮2號","121.690281666667","24.9425933333333","6502000","坪林區"
"244004","248-BX","2019/11/29 07:29:36","新北市林口區頂福里53-61號","121.341315","25.0875716666667","6501700","林口區"
"222004","289-BY","2019/11/29 07:29:35","新北市深坑區文化街39巷13號","121.61893","25.0011","6501800","深坑區"
"231065","KEA-2219","2019/11/29 07:29:31","新北市新店區新和街33號","121.51891","24.9847383333333","6500600","新店區"
"223003","205-TH","2019/11/29 07:23:37","新北市石碇區蓬菜寮16號","121.649586666667","24.97293","6501900","石碇區"
"223008","406-TH","2019/11/29 07:18:12","新北市石碇區靜安路一段337號","121.698836666667","25.0146033333333","6501900","石碇區"
"223001","592-UM","2019/11/29 07:29:28","新北市石碇區中楒子腳2-15號","121.638675","24.9734933333333","6501900","石碇區"
"223004","660-BX","2019/11/29 07:29:34","新北市石碇區八分寮35-1號","121.644906666667","25.0157816666667","6501900","石碇區"
"223007","661-BX","2019/11/29 07:29:34","新北市石碇區大溪墘16-1號","121.692968333333","25.0088383333333","6501900","石碇區"
"227003","282-VK","2019/11/29 07:29:41","新北市雙溪區新基里中華路90號","121.866148333333","25.0390433333333","6502500","雙溪區"
"237013","760-BX","2019/11/29 07:29:42","新北市三峽區白雞129-1號","121.397468333333","24.9072316666667","6500900","三峽區"
