"lineid","car","time","location","longitude","latitude","cityid","cityname"
"244001","658-BX","2019/08/13 09:49:39","新北市林口區菁埔35號","121.372748333333","25.1022483333333","6501700","林口區"
"231009","192-VK","2019/08/13 09:49:42","新北市新店區小坑一路22號","121.532435","24.914225","6500600","新店區"
"224009","275-VK","2019/08/13 09:49:29","新北市瑞芳區大寮路356-1號","121.784666666667","25.10319","6501200","瑞芳區"
"227004","282-VK","2019/08/13 09:49:48","新北市雙溪區長源里土地公山2-2號","121.795683333333","25.01091","6502500","雙溪區"
"227006","030-BX","2019/08/13 09:49:40","新北市雙溪區泰平里烏山路13-1號","121.79439","24.949825","6502500","雙溪區"
"252004","249-BX","2019/08/13 09:49:31","新北市三芝區圓山里石曹子坑64-28號","121.524415","25.210805","6502100","三芝區"
"252007","AAC-283","2019/08/13 09:49:38","新北市三芝區新庄里新庄子103號","121.516091666667","25.2691583333333","6502100","三芝區"
"237014","760-BX","2019/08/13 09:49:43","新北市三峽區介壽路三段1號","121.394961666667","24.9361466666667","6500900","三峽區"
