"lineid","car","time","location","longitude","latitude","cityid","cityname"
"244001","658-BX","2019/08/13 10:19:39","新北市林口區嘉溪雅坑5-8號","121.344813333333","25.1005066666667","6501700","林口區"
"231009","192-VK","2019/08/13 10:19:42","新北市新店區松林路16巷41號","121.546625","24.9078466666667","6500600","新店區"
"227004","282-VK","2019/08/13 10:19:28","新北市雙溪區長源里盤山坑6號","121.782998333333","25.0023383333333","6502500","雙溪區"
"227006","030-BX","2019/08/13 10:18:20","新北市坪林區鷺鶿岫15-2號","121.78941","24.94912","6502500","雙溪區"
"252007","AAC-283","2019/08/13 10:19:38","新北市三芝區新庄里番社后4-1號","121.501268333333","25.2686166666667","6502100","三芝區"
"237014","760-BX","2019/08/13 10:19:43","新北市鶯歌區三鶯路54號","121.356945","24.942165","6500900","三峽區"
