"lineid","car","time","location","longitude","latitude","cityid","cityname"
"244001","658-BX","2019/08/13 11:27:39","新北市林口區粉寮路二段160巷28號","121.405138333333","25.0907583333333","6501700","林口區"
"231007","189-VK","2019/08/13 11:27:48","新北市新店區新潭路一段142號","121.529016666667","24.9346033333333","6500600","新店區"
"231009","192-VK","2019/08/13 11:27:42","新北市新店區屈尺路6號","121.549506666667","24.9234066666667","6500600","新店區"
"235026","800-TS","2019/08/13 11:10:28","新北市中和區員山路36巷16-3號","121.48523","24.9912416666667","6500300","中和區"
"227004","282-VK","2019/08/13 11:27:48","新北市貢寮區貢寮里長泰路19號","121.890716666667","25.021885","6502500","雙溪區"
"237014","760-BX","2019/08/13 11:27:43","新北市三峽區成福路8-2號","121.41759","24.9275233333333","6500900","三峽區"
