"lineid","car","time","location","longitude","latitude","cityid","cityname"
"234044","148-BY","2019/08/13 14:09:39","新北市永和區得和路394號","121.525351666667","24.999195","6500400","永和區"
"234078","298-R6","2019/08/13 14:09:41","新北市永和區國中路109巷1弄1號","121.52413","25.0058383333333","6500400","永和區"
"234036","336-UY","2019/08/13 14:09:53","新北市永和區成功路一段47巷28號","121.527625","25.00381","6500400","永和區"
"234062","337-UY","2019/08/13 14:09:47","新北市永和區永利路146號","121.522318333333","25.0027766666667","6500400","永和區"
"234084","338-UY","2019/08/13 14:09:47","新北市永和區中正路541號","121.516866666667","25.00793","6500400","永和區"
"234068","552-UM","2019/08/13 14:09:38","新北市永和區永貞路10巷8號","121.520436666667","25.0073216666667","6500400","永和區"
"234015","745-BX","2019/08/13 14:09:48","新北市永和區仁愛路97號","121.51289","25.0131766666667","6500400","永和區"
"234028","746-BX","2019/08/13 14:09:54","新北市永和區民權路49巷5弄17號","121.520815","24.9977033333333","6500400","永和區"
"234052","KEA-2590","2019/08/13 14:09:53","新北市永和區博愛街18巷2號","121.51737","25.0158016666667","6500400","永和區"
"234005","KED-0605","2019/08/13 14:09:36","新北市永和區保平路198號","121.51012","25.0062133333333","6500400","永和區"
"234012","KEA-2591","2019/08/13 14:09:37","新北市永和區永貞路415號","121.507451666667","25.00933","6500400","永和區"
"234060","AAD-866","2019/08/13 14:09:38","新北市永和區得和路29號","121.515748333333","25.0003266666667","6500400","永和區"
"234040","862-TW","2019/08/13 14:09:52","新北市永和區雙和街52巷1號","121.508906666667","25.00324","6500400","永和區"
"234048","863-TW","2019/08/13 14:09:50","新北市永和區環河西路二段77號","121.506778333333","25.0151116666667","6500400","永和區"
"234025","9371-KE","2019/08/13 14:09:42","新北市永和區安樂路270號","121.51458","25.0041516666667","6500400","永和區"
"248017","KED-0813","2019/08/13 14:09:55","新北市五股區民義路一段226號","121.428638333333","25.0907083333333","6501500","五股區"
"234022","9380-KE","2019/08/13 14:09:44","新北市永和區博愛街32巷17-1號","121.518855","25.015265","6500400","永和區"
"234076","969-R7","2019/08/13 14:09:39","新北市永和區民族街67巷10號","121.518983333333","24.9971866666667","6500400","永和區"
"234072","AAC-211","2019/08/13 14:09:42","新北市永和區竹林路201巷24弄2號","121.52217","25.0095166666667","6500400","永和區"
"234066","AAC-212","2019/08/13 14:09:43","新北市永和區保平路266號","121.508613333333","25.0052516666667","6500400","永和區"
"234001","AAC-295","2019/08/13 14:09:46","新北市永和區中正路579號","121.516648333333","25.0088716666667","6500400","永和區"
"244002","248-BX","2019/08/13 14:09:39","新北市林口區南勢里34-8號","121.352506666667","25.0702483333333","6501700","林口區"
"231030","002-UM","2019/08/13 14:09:56","新北市新店區安民街115巷28號","121.515111666667","24.9675583333333","6500600","新店區"
"231024","0291-UT","2019/08/13 14:09:53","新北市新店區安興路131巷2號","121.515748333333","24.9793016666667","6500600","新店區"
"231005","046-UY","2019/08/13 14:09:55","新北市新店區中興路三段293號","121.542368333333","24.9849","6500600","新店區"
"231029","106-UY","2019/08/13 14:09:50","新北市新店區安康路二段161號","121.510195","24.9593233333333","6500600","新店區"
"231018","107-UY","2019/08/13 14:09:42","新北市新店區中央五街27號","121.529118333333","24.9746416666667","6500600","新店區"
"231013","108-UY","2019/08/13 14:09:49","新北市新店區北新路三段65巷34弄21號","121.540021666667","24.9817133333333","6500600","新店區"
"231036","110-UY","2019/08/13 14:09:50","新北市新店區安祥路109巷3弄13號","121.478473333333","24.9613216666667","6500600","新店區"
"231032","256-BX","2019/08/13 14:09:41","新北市新店區華城路36巷1-2號","121.52752","24.9555766666667","6500600","新店區"
"231023","260-TV","2019/08/13 14:09:39","新北市新店區文中路40號","121.539643333333","24.9566","6500600","新店區"
"231003","268-BY","2019/08/13 14:09:53","新北市新店區中興路一段110號","121.541156666667","24.962145","6500600","新店區"
"231035","278-BY","2019/08/13 14:09:43","新北市新店區安和路一段52巷2-1號","121.517668333333","24.96629","6500600","新店區"
"231015","AAD-862","2019/08/13 14:09:48","新北市新店區郵政路1巷6號","121.557336666667","24.952085","6500600","新店區"
"231006","355-BY","2019/08/13 14:09:40","新北市新店區北宜路二段207號","121.553118333333","24.9532383333333","6500600","新店區"
"231038","3712-VJ","2019/08/13 14:09:53","新北市新店區溪洲路121號","121.531246666667","24.9627666666667","6500600","新店區"
"231027","3713-VJ","2019/08/13 14:09:37","新北市新店區中興路一段34號","121.538631666667","24.9586466666667","6500600","新店區"
"231025","4715-K9","2019/08/13 14:09:50","新北市新店區自立街33號","121.537376666667","24.9796433333333","6500600","新店區"
"231020","513-UM","2019/08/13 14:09:38","新北市新店區屈尺路161-3號","121.542298333333","24.9225433333333","6500600","新店區"
"231001","617-UM","2019/08/13 14:09:50","新北市新店區三民路39號","121.537265","24.9708366666667","6500600","新店區"
"231002","619-UM","2019/08/13 14:09:36","新北市新店區中正路542-5號","121.533711666667","24.9855383333333","6500600","新店區"
"231034","641-BX","2019/08/13 14:09:51","新北市新店區黎明路3號","121.50317","24.9522183333333","6500600","新店區"
"231012","KED-0819","2019/08/13 14:09:35","新北市新店區中興路一段216號","121.543978333333","24.96578","6500600","新店區"
"231026","720-UM","2019/08/13 14:09:45","新北市新店區安康路一段44號","121.530826666667","24.9610666666667","6500600","新店區"
"231028","897-TW","2019/08/13 14:09:53","新北市新店區安和路三段153號","121.516525","24.9856433333333","6500600","新店區"
"231004","899-TW","2019/08/13 14:09:53","新北市新店區北新路二段156-1號","121.543001666667","24.9755483333333","6500600","新店區"
"231037","AKT-0513","2019/08/13 14:09:44","新北市新店區安康路三段165巷2弄12號","121.489081666667","24.95135","6500600","新店區"
"235030","003-UY","2019/08/13 14:09:45","新北市中和區廣福路112號","121.5022","25.0011283333333","6500300","中和區"
"235028","005-UY","2019/08/13 14:09:49","新北市中和區南山路27號","121.502095","24.9990033333333","6500300","中和區"
"235027","006-UY","2019/08/13 14:09:53","新北市中和區連勝街121巷12號","121.495011666667","24.9946716666667","6500300","中和區"
"235020","096-UM","2019/08/13 14:09:38","新北市中和區中正路1171號","121.481225","25.0095783333333","6500300","中和區"
"235003","097-UM","2019/08/13 14:09:55","新北市中和區秀峰街119巷6弄13號","121.519181666667","24.9901633333333","6500300","中和區"
"235029","098-UM","2019/08/13 14:09:35","新北市中和區中山路二段2巷3弄2號","121.5048","25.0062866666667","6500300","中和區"
"235004","150-BY","2019/08/13 14:09:33","新北市中和區宜安路120號","121.51012","24.998005","6500300","中和區"
"235022","151-BY","2019/08/13 14:09:46","新北市中和區連城路477巷6弄19號","121.48228","24.99474","6500300","中和區"
"235019","183-VK","2019/08/13 14:09:35","新北市中和區中山路三段205號","121.472116666667","25.006395","6500300","中和區"
"235013","186-VK","2019/08/13 14:09:52","新北市中和區景新街224-4號","121.507415","24.9949133333333","6500300","中和區"
"235031","255-BX","2019/08/13 14:09:52","新北市中和區中正路488-5號","121.488983333333","24.994395","6500300","中和區"
"235008","293-VK","2019/08/13 14:09:37","新北市中和區中興街263-1號","121.500083333333","24.9887716666667","6500300","中和區"
"235036","301-VK","2019/08/13 14:09:51","新北市中和區景平路742號","121.496491666667","25.0041683333333","6500300","中和區"
"235006","KEA-2878","2019/08/13 14:09:49","新北市中和區自強路7巷2號","121.520055","24.9936033333333","6500300","中和區"
"247013","KEA-2869","2019/08/13 14:09:44","新北市蘆洲區忠孝路37號","121.471383333333","25.0858383333333","6501400","蘆洲區"
"247007","KED-0682","2019/08/13 14:09:49","新北市蘆洲區中山一路417號","121.468763333333","25.0766966666667","6501400","蘆洲區"
"235014","4979-A6","2019/08/13 14:09:39","新北市中和區復興路263巷9弄10號","121.503166666667","24.9897416666667","6500300","中和區"
"235033","4980-A6","2019/08/13 14:09:50","新北市中和區中山路二段183號","121.500566666667","25.0025433333333","6500300","中和區"
"235034","558-UM","2019/08/13 14:09:37","新北市中和區連城路67號","121.497543333333","25.0013983333333","6500300","中和區"
"235009","565-BX","2019/08/13 14:09:48","新北市中和區景新街437巷1號","121.513338333333","24.9891216666667","6500300","中和區"
"235018","640-BX","2019/08/13 14:09:53","新北市中和區國光街102巷11弄20號","121.470653333333","25.00129","6500300","中和區"
"235011","732-UM","2019/08/13 14:09:39","新北市中和區興南路一段80號","121.510485","24.9899666666667","6500300","中和區"
"235010","733-UM","2019/08/13 14:09:36","新北市中和區華新街136號","121.508088333333","24.9826183333333","6500300","中和區"
"235035","783-BX","2019/08/13 14:09:34","新北市中和區建二路157號","121.48763","25.003655","6500300","中和區"
"235026","800-TS","2019/08/13 14:09:42","新北市中和區中山路二段472號","121.488273333333","25.004635","6500300","中和區"
"235021","801-TS","2019/08/13 14:09:38","新北市中和區員山路423巷15號","121.480386666667","25.002795","6500300","中和區"
"235016","805-TS","2019/08/13 14:09:43","新北市中和區興南路二段142巷19弄4號","121.502933333333","24.9834883333333","6500300","中和區"
"235012","896-TW","2019/08/13 14:09:47","新北市中和區工專路145號","121.50866","24.9791466666667","6500300","中和區"
"235017","900-TW","2019/08/13 14:09:48","新北市中和區華安街21巷9號","121.467453333333","24.9977516666667","6500300","中和區"
"235007","911-UM","2019/08/13 14:09:43","新北市中和區景平路302號","121.512866666667","24.9929333333333","6500300","中和區"
"235015","157-BY","2019/08/13 14:09:45","新北市中和區興南路一段67號","121.510233333333","24.9894","6500300","中和區"
"235001","AAC-213","2019/08/13 14:09:49","新北市中和區自立路15巷25號","121.523171666667","24.9959616666667","6500300","中和區"
"235023","AAC-215","2019/08/13 14:09:46","新北市中和區圓通路294巷17-5號","121.48859","24.9904183333333","6500300","中和區"
"220020","015-TV","2019/08/13 14:09:49","新北市板橋區金門街369巷55號","121.429143333333","24.9841916666667","6500100","板橋區"
"220013","072-UY","2019/08/13 14:09:48","新北市板橋區民族路219巷7號","121.46943","25.0078883333333","6500100","板橋區"
"220034","073-UY","2019/08/13 14:09:49","新北市板橋區中正路236巷29號","121.457241666667","25.0193383333333","6500100","板橋區"
"220105","075-UY","2019/08/13 14:09:44","新北市板橋區長江路二段280-8號","121.47003","25.0329083333333","6500100","板橋區"
"220017","AAD-861","2019/08/13 14:09:43","新北市板橋區大華街172號","121.459348333333","25.003555","6500100","板橋區"
"247003","893-R6","2019/08/13 14:09:41","新北市蘆洲區長安街205號","121.460003333333","25.0821483333333","6501400","蘆洲區"
"247017","546-UM","2019/08/13 14:09:39","新北市蘆洲區民族路203-1號","121.478068333333","25.0891766666667","6501400","蘆洲區"
"247019","341-TH","2019/08/13 14:09:53","新北市蘆洲區民族路426巷42號","121.473118333333","25.093195","6501400","蘆洲區"
"247023","337-TH","2019/08/13 14:09:47","新北市蘆洲區光明路139號","121.464066666667","25.08848","6501400","蘆洲區"
"247001","336-TH","2019/08/13 14:09:39","新北市蘆洲區永平街65號","121.457166666667","25.0916633333333","6501400","蘆洲區"
"247021","057-VK","2019/08/13 14:09:43","新北市蘆洲區保和街28號","121.470496666667","25.08652","6501400","蘆洲區"
"247011","056-VK","2019/08/13 14:09:50","新北市蘆洲區信義路270號","121.478058333333","25.0869833333333","6501400","蘆洲區"
"247015","053-VK","2019/08/13 14:09:48","新北市蘆洲區中正路185巷19號","121.467428333333","25.084715","6501400","蘆洲區"
"247005","002-UY","2019/08/13 14:09:48","新北市蘆洲區永安南路二段16巷18號","121.46805","25.07782","6501400","蘆洲區"
"235005","251-BX","2019/08/13 14:09:44","新北市中和區中安街178巷13弄6號","121.510305","24.9985916666667","6500300","中和區"
"228004","212-TW","2019/08/13 14:09:39","新北市貢寮區雙玉里德心街11-1號","121.918616666667","25.0156516666667","6502600","貢寮區"
"228005","828-UM","2019/08/13 14:09:47","新北市貢寮區美豐里土地公嶺13-1號","121.893551666667","25.0579833333333","6502600","貢寮區"
"207002","749-BX","2019/08/13 14:09:44","新北市萬里區溪底里溪底路12號","121.612151666667","25.14643","6502800","萬里區"
"207001","662-BX","2019/08/13 14:09:37","新北市萬里區磺潭里清水18號","121.637828333333","25.1975716666667","6502800","萬里區"
"252005","AAC-283","2019/08/13 14:09:54","新北市三芝區橫山里橫山21號","121.540116666667","25.2627333333333","6502100","三芝區"
"236040","KED-0685","2019/08/13 14:09:46","新北市土城區城林路6巷80號","121.43822","24.9796933333333","6501300","土城區"
"220038","KED-0812","2019/08/13 14:09:40","新北市板橋區文化路一段273號","121.464648333333","25.01839","6500100","板橋區"
"236074","166-UM","2019/08/13 14:09:51","新北市土城區永寧路27巷2號","121.430778333333","24.96373","6501300","土城區"
"236029","253-BX","2019/08/13 14:09:50","新北市土城區城林路6巷80號","121.438431666667","24.97975","6501300","土城區"
"236013","270-VK","2019/08/13 14:09:45","新北市土城區學府路一段52號","121.457438333333","24.9884816666667","6501300","土城區"
"236032","271-VK","2019/08/13 14:09:48","新北市土城區青雲路449號","121.458888333333","24.9750716666667","6501300","土城區"
"247009","KED-0683","2019/08/13 14:09:34","新北市蘆洲區三民路70號","121.475335","25.083665","6501400","蘆洲區"
"236065","KEA-2877","2019/08/13 14:09:39","新北市土城區明德路一段385-1號","121.452451666667","24.9796016666667","6501300","土城區"
"236017","401-BY","2019/08/13 14:09:39","新北市土城區中正路75號","121.445098333333","24.9757366666667","6501300","土城區"
"236024","752-BX","2019/08/13 14:09:37","新北市土城區承天路67號","121.43958","24.9635033333333","6501300","土城區"
"236057","912-UM","2019/08/13 14:09:37","新北市土城區中央路四段123號","121.41635","24.9576616666667","6501300","土城區"
"236045","913-UM","2019/08/13 14:09:39","新北市土城區明德路一段365-1號","121.453553333333","24.979045","6501300","土城區"
"236060","915-UM","2019/08/13 14:09:47","新北市土城區金城路三段176-2號","121.467825","24.9877483333333","6501300","土城區"
"236054","AAC-216","2019/08/13 14:09:53","新北市土城區中華路二段92號","121.438245","24.97473","6501300","土城區"
"221029","298-VK","2019/08/13 14:09:43","新北市汐止區大同路一段335號","121.638476666667","25.0593533333333","6501100","汐止區"
"220027","145-BY","2019/08/13 14:09:53","新北市板橋區民權路182號","121.459138333333","25.0134566666667","6500100","板橋區"
"220028","200-UY","2019/08/13 14:09:43","新北市板橋區合安一路77-6號","121.44831","24.9987566666667","6500100","板橋區"
"220030","610-BX","2019/08/13 14:09:41","新北市板橋區溪崑二街27號","121.428575","24.991285","6500100","板橋區"
"220050","245-BX","2019/08/13 14:09:33","新北市板橋區雙十路二段6-11號","121.476618333333","25.026455","6500100","板橋區"
"220032","256-TC","2019/08/13 14:09:50","新北市板橋區溪崑二街16巷11號","121.428023333333","24.9918983333333","6500100","板橋區"
"220004","276-BY","2019/08/13 14:09:38","新北市板橋區信義路110巷2弄3號","121.457846666667","24.9923516666667","6500100","板橋區"
"220019","283-VK","2019/08/13 14:09:52","新北市板橋區重慶路245巷50弄59號","121.465135","24.99904","6500100","板橋區"
"220043","285-UM","2019/08/13 14:09:42","新北市板橋區吳鳳路19巷18號","121.46684","25.03076","6500100","板橋區"
"220001","285-VK","2019/08/13 14:09:45","新北市板橋區懷仁街25巷9號","121.476765","25.019985","6500100","板橋區"
"220031","286-VK","2019/08/13 14:09:51","新北市板橋區大觀路二段174巷165弄2-1號","121.441601666667","25.0034083333333","6500100","板橋區"
"220029","287-VK","2019/08/13 14:09:39","","121.451735","25.01338","6500100","板橋區"
"220039","288-VK","2019/08/13 14:09:46","新北市板橋區長江路一段106巷12弄1號","121.460008333333","25.02904","6500100","板橋區"
"220009","293-UM","2019/08/13 14:09:35","新北市板橋區中山路二段318巷20弄19號","121.480915","25.0188333333333","6500100","板橋區"
"220023","303-R5","2019/08/13 14:09:38","新北市板橋區南雅西路二段2號","121.453343333333","25.0088816666667","6500100","板橋區"
"220010","305-R5","2019/08/13 14:09:40","新北市板橋區三民路二段居仁巷2弄23號","121.479916666667","25.0130166666667","6500100","板橋區"
"220041","307-R5","2019/08/13 14:09:53","新北市板橋區松江街72巷32號","121.46981","25.0277616666667","6500100","板橋區"
"220047","317-R6","2019/08/13 14:09:43","新北市板橋區四維路112巷36號","121.465313333333","25.02585","6500100","板橋區"
"220037","491-VK","2019/08/13 14:09:45","新北市板橋區文化路二段182巷1弄2號","121.471155","25.02728","6500100","板橋區"
"220104","560-BX","2019/08/13 14:09:50","新北市板橋區中正路379巷18號","121.453675","25.0218266666667","6500100","板橋區"
"220052","561-BX","2019/08/13 14:09:48","新北市板橋區介壽街9號","121.467311666667","25.02039","6500100","板橋區"
"220011","609-BX","2019/08/13 14:09:49","新北市板橋區三民路二段203-9號","121.479203333333","25.0133066666667","6500100","板橋區"
"220003","630-UY","2019/08/13 14:09:43","新北市板橋區民族路57號","121.464516666667","25.008985","6500100","板橋區"
"220040","637-BX","2019/08/13 14:09:39","新北市板橋區縣民大道三段223號","121.480516666667","25.0254416666667","6500100","板橋區"
"220005","686-BX","2019/08/13 14:09:43","新北市板橋區五權街61-4號","121.46484","24.9934316666667","6500100","板橋區"
"220025","687-BX","2019/08/13 14:09:37","新北市板橋區大觀路一段38巷148-2號","121.443338333333","25.004455","6500100","板橋區"
"220042","689-BX","2019/08/13 14:09:35","新北市板橋區漢生西路117號","121.462691666667","25.0202966666667","6500100","板橋區"
"220002","741-BX","2019/08/13 14:08:55","新北市板橋區重慶路89巷6號","121.46271","25.00635","6500100","板橋區"
"220051","KEA-2699","2019/08/13 14:09:50","新北市板橋區文聖街127號","121.478095","25.0287616666667","6500100","板橋區"
"220014","829-TW","2019/08/13 14:09:40","新北市板橋區中山路二段90巷43弄2號","121.47643","25.014875","6500100","板橋區"
"220016","831-TW","2019/08/13 14:09:52","新北市板橋區翠華街6巷16號","121.481051666667","25.02422","6500100","板橋區"
"220022","895-R6","2019/08/13 14:09:40","新北市板橋區林園街54號","121.453831666667","25.01073","6500100","板橋區"
"220021","985-R7","2019/08/13 14:09:37","新北市板橋區中正路149號","121.45649","25.0158533333333","6500100","板橋區"
"220046","AAC-210","2019/08/13 14:09:35","新北市板橋區幸福路60巷6號","121.460668333333","25.02095","6500100","板橋區"
"220012","AAC-253","2019/08/13 14:09:48","新北市板橋區漢生東路83巷2號","121.466855","25.0157233333333","6500100","板橋區"
"235032","KEA-2873","2019/08/13 14:09:35","新北市中和區景平路489號","121.50026","24.9976983333333","6500300","中和區"
"235025","KEA-2875","2019/08/13 14:09:56","新北市中和區民利街71號","121.47872","24.998305","6500300","中和區"
"235002","KEA-2876","2019/08/13 14:09:41","新北市中和區大仁街10巷29號","121.51924","24.9925666666667","6500300","中和區"
