"lineid","car","time","location","longitude","latitude","cityid","cityname"
"231030","002-UM","2019/08/13 15:49:38","新北市新店區永安街58-2號","121.518743333333","24.9868716666667","6500600","新店區"
"231018","107-UY","2019/08/13 15:49:42","新北市新店區中正路663巷1弄2號","121.532836666667","24.98994","6500600","新店區"
"231039","187-VK","2019/08/13 15:49:29","新北市新店區安康路一段355號","121.519648333333","24.9631283333333","6500600","新店區"
"231032","256-BX","2019/08/13 15:49:25","新北市新店區雙城路45巷16號","121.493005","24.9481366666667","6500600","新店區"
"231023","260-TV","2019/08/13 15:49:39","新北市新店區安康路一段302-2號","121.517423333333","24.96401","6500600","新店區"
"231003","268-BY","2019/08/13 15:49:32","新北市新店區寶興路60巷6號","121.54968","24.9718","6500600","新店區"
"231035","278-BY","2019/08/13 15:49:23","新北市新店區安民街365巷10弄20號","121.515985","24.9759733333333","6500600","新店區"
"231015","AAD-862","2019/08/13 15:49:28","新北市新店區中華路61號","121.539846666667","24.9680666666667","6500600","新店區"
"231020","513-UM","2019/08/13 15:49:33","新北市新店區新烏路一段87巷3號","121.54614","24.9418583333333","6500600","新店區"
"231034","641-BX","2019/08/13 15:49:31","新北市新店區玫瑰路51巷20號","121.497141666667","24.94806","6500600","新店區"
"231026","720-UM","2019/08/13 15:49:23","新北市新店區中正路489號","121.533801666667","24.9822433333333","6500600","新店區"
"231037","AKT-0513","2019/08/13 15:49:24","新北市新店區安興路69號","121.516171666667","24.9748266666667","6500600","新店區"
"241011","013-R5","2019/08/13 15:49:31","新北市三重區文化北路133號","121.497808333333","25.0689883333333","6500200","三重區"
"241028","022-UY","2019/08/13 15:49:32","新北市三重區中正南路98號","121.494346666667","25.058605","6500200","三重區"
"241013","060-VK","2019/08/13 15:49:27","新北市三重區六張街2號","121.49586","25.0707333333333","6500200","三重區"
"241015","062-VK","2019/08/13 15:49:31","新北市三重區重新路四段121號","121.485168333333","25.0519583333333","6500200","三重區"
"241017","063-VK","2019/08/13 15:49:25","新北市三重區大仁街5號","121.491663333333","25.063765","6500200","三重區"
"241024","065-VK","2019/08/13 15:49:26","新北市三重區重新路四段121號","121.484856666667","25.0526166666667","6500200","三重區"
"241002","090-VK","2019/08/13 15:49:24","新北市三重區重新路四段121號","121.485116666667","25.0521316666667","6500200","三重區"
"241020","742-BX","2019/08/13 15:49:32","新北市三重區忠孝路二段48號","121.485108333333","25.0703283333333","6500200","三重區"
"241032","269-UM","2019/08/13 15:49:37","新北市三重區三陽路100巷3弄13號","121.483001666667","25.058125","6500200","三重區"
"241007","398-BY","2019/08/13 15:49:29","新北市三重區忠孝路二段94號","121.48355","25.0694216666667","6500200","三重區"
"241014","543-UM","2019/08/13 15:49:29","新北市三重區重新路四段121號","121.485126666667","25.0519216666667","6500200","三重區"
"241005","AAD-863","2019/08/13 15:49:22","新北市三重區重新路四段121號","121.484626666667","25.0520966666667","6500200","三重區"
"241022","KED-0820","2019/08/13 15:49:32","新北市三重區忠孝路三段52號","121.48066","25.0657616666667","6500200","三重區"
"241012","941-UM","2019/08/13 15:49:40","新北市三重區正義北路107巷68號","121.498656666667","25.06612","6500200","三重區"
"241029","942-UM","2019/08/13 15:49:39","新北市三重區大同南路246號","121.496935","25.05579","6500200","三重區"
"241033","AAC-255","2019/08/13 15:49:22","新北市三重區光復路一段122號","121.471836666667","25.051565","6500200","三重區"
"235033","4980-A6","2019/08/13 15:49:30","新北市中和區連城路469巷44弄12號","121.482745","24.9944783333333","6500300","中和區"
"235054","640-BX","2019/08/13 15:49:33","新北市中和區員山路36巷16-2號","121.485281666667","24.991555","6500300","中和區"
"235026","800-TS","2019/08/13 15:49:42","新北市中和區建八路142號","121.48965","24.99857","6500300","中和區"
"235023","AAC-215","2019/08/13 15:49:26","新北市中和區員山路49-7號","121.48064","24.9913866666667","6500300","中和區"
"224007","285-BY","2019/08/13 15:49:36","新北市瑞芳區大寮路356-1號","121.784851666667","25.10353","6501200","瑞芳區"
"224005","271-BY","2019/08/13 15:49:26","新北市瑞芳區傑魚坑路76號","121.792878333333","25.1105","6501200","瑞芳區"
"227002","642-TC","2019/08/13 15:49:25","新北市雙溪區平林里外平林45-3號","121.851506666667","25.03591","6502500","雙溪區"
"227001","400-TW","2019/08/13 15:49:28","新北市雙溪區三港里雙澳路38-2號","121.872393333333","25.051365","6502500","雙溪區"
"236074","166-UM","2019/08/13 15:49:31","新北市土城區民權街8號","121.415505","24.963055","6501300","土城區"
"236065","KEA-2877","2019/08/13 15:49:39","新北市土城區中山路38號","121.425286666667","24.9642066666667","6501300","土城區"
"236057","912-UM","2019/08/13 15:49:37","新北市土城區中央路二段154號","121.44199","24.9767466666667","6501300","土城區"
