"lineid","car","time","location","longitude","latitude","cityid","cityname"
"249005","172-UM","2019/08/13 16:39:32","新北市八里區忠孝路185號","121.42283","25.1607633333333","6502300","八里區"
"249002","305-UY","2019/08/13 16:39:22","新北市八里區渡船頭9-2號","121.426238333333","25.1531833333333","6502300","八里區"
"249003","593-UM","2019/08/13 16:39:32","新北市八里區中山路二段356巷16號","121.401016666667","25.149435","6502300","八里區"
"244019","402-UM","2019/08/13 16:39:32","新北市林口區粉寮69號","121.40503","25.0908583333333","6501700","林口區"
"231046","719-UM","2019/08/13 16:39:17","新北市新店區灣潭路3-5號","121.538101666667","24.9508033333333","6500600","新店區"
"241011","013-R5","2019/08/13 16:39:31","新北市三重區仁愛街39號","121.496581666667","25.0716333333333","6500200","三重區"
"241028","022-UY","2019/08/13 16:39:31","新北市三重區重新路三段40號","121.494523333333","25.061375","6500200","三重區"
"241008","059-VK","2019/08/13 16:39:27","新北市三重區永安北路一段27巷54號","121.477981666667","25.0755633333333","6500200","三重區"
"241013","060-VK","2019/08/13 16:39:28","新北市三重區三和路三段101巷114號","121.497756666667","25.07341","6500200","三重區"
"241031","061-VK","2019/08/13 16:39:33","新北市三重區重新路四段55號","121.487508333333","25.057445","6500200","三重區"
"241015","062-VK","2019/08/13 16:39:31","新北市三重區文化北路39巷17號","121.499478333333","25.0652216666667","6500200","三重區"
"241017","063-VK","2019/08/13 16:39:25","新北市三重區中正北路25巷9-1號","121.49271","25.062385","6500200","三重區"
"241024","065-VK","2019/08/13 16:39:26","新北市三重區中正北路315巷6弄53號","121.476616666667","25.072245","6500200","三重區"
"241002","090-VK","2019/08/13 16:39:24","新北市三重區自強路五段99號","121.495543333333","25.0823366666667","6500200","三重區"
"241003","091-VK","2019/08/13 16:39:36","新北市三重區五華街71巷67號","121.493816666667","25.083585","6500200","三重區"
"241020","742-BX","2019/08/13 16:39:32","新北市三重區忠孝路二段35號","121.485885","25.0710566666667","6500200","三重區"
"241006","262-UM","2019/08/13 16:39:38","","121.48341","25.075985","6500200","三重區"
"241009","267-UM","2019/08/13 16:39:23","新北市三重區三和路四段203巷88號","121.484151666667","25.0800183333333","6500200","三重區"
"241018","268-UM","2019/08/13 16:39:35","新北市三重區六張街71號","121.49364","25.0701316666667","6500200","三重區"
"241032","269-UM","2019/08/13 16:39:37","新北市三重區中山路40巷1-1號","121.48578","25.06125","6500200","三重區"
"241025","271-UM","2019/08/13 16:39:24","新北市三重區中正北路291號","121.474678333333","25.071105","6500200","三重區"
"241007","398-BY","2019/08/13 16:39:29","新北市三重區仁美街84號","121.485943333333","25.0795466666667","6500200","三重區"
"241030","KED-0822","2019/08/13 16:39:36","新北市三重區環河南路255號","121.49118","25.0504366666667","6500200","三重區"
"241004","475-VK","2019/08/13 16:39:33","新北市三重區五福街6號","121.493113333333","25.0816666666667","6500200","三重區"
"241026","480-VK","2019/08/13 16:39:31","新北市三重區和平街29號","121.500838333333","25.0624666666667","6500200","三重區"
"241014","543-UM","2019/08/13 16:39:29","新北市三重區龍濱路28號","121.502865","25.0680366666667","6500200","三重區"
"241001","547-UM","2019/08/13 16:39:32","新北市三重區仁政街88號","121.492431666667","25.0776133333333","6500200","三重區"
"241019","KEA-2593","2019/08/13 16:39:34","新北市三重區力行路一段147號","121.485545","25.068595","6500200","三重區"
"241005","AAD-863","2019/08/13 16:39:22","","121.485241666667","25.0821716666667","6500200","三重區"
"241022","KED-0820","2019/08/13 16:39:32","新北市三重區貴陽街20號","121.484271666667","25.06207","6500200","三重區"
"241016","887-TS","2019/08/13 16:39:26","新北市三重區大智街24號","121.49469","25.06477","6500200","三重區"
"241012","941-UM","2019/08/13 16:39:20","新北市三重區三和路三段101巷171號","121.499326666667","25.0738566666667","6500200","三重區"
"241029","942-UM","2019/08/13 16:39:19","新北市三重區集美街112巷11號","121.489401666667","25.054115","6500200","三重區"
"241033","AAC-255","2019/08/13 16:39:22","","121.472071666667","25.056075","6500200","三重區"
"235064","005-UY","2019/08/13 16:35:49","新北市中和區員山路36巷16-3號","121.485121666667","24.9914216666667","6500300","中和區"
"235054","640-BX","2019/08/13 16:39:32","新北市中和區員山路36巷16-2號","121.485298333333","24.991615","6500300","中和區"
"235062","800-TS","2019/08/13 16:11:50","","121.485023333333","24.9914","6500300","中和區"
"247020","341-TH","2019/08/13 16:39:34","新北市五股區中興路三段163號","121.449113333333","25.08083","6501400","蘆洲區"
"247024","337-TH","2019/08/13 16:39:36","新北市五股區成泰路三段436號","121.451853333333","25.0989633333333","6501400","蘆洲區"
"247022","057-VK","2019/08/13 16:39:25","新北市五股區中興路三段163號","121.448273333333","25.0801283333333","6501400","蘆洲區"
"247012","056-VK","2019/08/13 16:39:28","新北市五股區中興路三段163號","121.449366666667","25.0807183333333","6501400","蘆洲區"
"224007","285-BY","2019/08/13 16:39:36","新北市瑞芳區瑞竹路122號","121.761995","25.1039766666667","6501200","瑞芳區"
"224009","275-VK","2019/08/13 16:39:26","新北市瑞芳區民權街3-1號","121.809343333333","25.1083133333333","6501200","瑞芳區"
"224005","271-BY","2019/08/13 16:39:25","新北市瑞芳區明里路122號","121.863691666667","25.1225383333333","6501200","瑞芳區"
"227002","642-TC","2019/08/13 16:39:25","新北市雙溪區長源里內柑腳20號","121.80137","25.0144666666667","6502500","雙溪區"
"227001","400-TW","2019/08/13 16:39:28","新北市雙溪區牡丹里聖南3號","121.860098333333","25.050925","6502500","雙溪區"
"251015","KEA-2871","2019/08/13 16:39:30","新北市淡水區水源街一段101號","121.44603","25.172235","6501000","淡水區"
"251016","179-VK","2019/08/13 16:39:30","新北市淡水區淡金路一段569號","121.453083333333","25.1806833333333","6501000","淡水區"
"251013","180-VK","2019/08/13 16:38:51","新北市淡水區楓樹湖12-7號","121.498355","25.18822","6501000","淡水區"
"251008","181-VK","2019/08/13 16:39:26","新北市淡水區樹梅坑6號","121.472396666667","25.145335","6501000","淡水區"
"251014","577-R6","2019/08/13 16:39:38","新北市淡水區淡金路四段472巷22號","121.452478333333","25.2239166666667","6501000","淡水區"
"252002","178-VK","2019/08/13 16:39:26","新北市三芝區芝柏路93號","121.510901666667","25.257345","6502100","三芝區"
"247010","KED-0683","2019/08/13 16:39:36","新北市五股區中興路三段163號","121.449165","25.080815","6501400","蘆洲區"
"252001","KED-0821","2019/08/13 16:39:34","新北市三芝區埔坪里埔頭坑56號","121.507135","25.2644666666667","6502100","三芝區"
"239007","AAC-297","2019/08/13 16:39:41","新北市鶯歌區二甲路13-16號","121.345033333333","24.9351633333333","6500800","鶯歌區"
"239005","526-UM","2019/08/13 16:26:46","","121.345263333333","24.935435","6500800","鶯歌區"
"233001","KEA-2870","2019/08/13 16:39:31","新北市烏來區啦卡路70-1號","121.565163333333","24.8560333333333","6502900","烏來區"
"242009","280-VK","2019/08/13 16:39:28","新北市新莊區三和路12-21號","121.441866666667","25.0381283333333","6500500","新莊區"
