"lineid","car","time","location","longitude","latitude","cityid","cityname"
"249005","172-UM","2019/08/13 17:19:32","新北市八里區荖阡坑路50-1號","121.411346666667","25.12171","6502300","八里區"
"249001","173-UM","2019/08/13 17:19:29","新北市八里區中華路二段165巷3號","121.407691666667","25.1508333333333","6502300","八里區"
"249004","303-UY","2019/08/13 17:19:39","新北市八里區賢三街86號","121.417491666667","25.1579366666667","6502300","八里區"
"249002","305-UY","2019/08/13 17:19:42","新北市八里區龍米路二段117巷37號","121.44336","25.1418283333333","6502300","八里區"
"249003","593-UM","2019/08/13 17:19:32","新北市八里區中山路二段449號","121.396596666667","25.1457366666667","6502300","八里區"
"244007","080-UY","2019/08/13 17:19:32","新北市林口區湖子15-5號","121.386173333333","25.0907666666667","6501700","林口區"
"244019","402-UM","2019/08/13 17:19:32","新北市林口區公園路225-3號","121.374276666667","25.07485","6501700","林口區"
"244023","483-VK","2019/08/13 17:19:39","新北市林口區隆林街40號","121.387866666667","25.0754583333333","6501700","林口區"
"244017","485-VK","2019/08/13 17:19:36","新北市林口區粉寮路一段105號","121.398028333333","25.080395","6501700","林口區"
"244009","656-BX","2019/08/13 17:19:33","新北市林口區文化一路二段303號","121.385645","25.085735","6501700","林口區"
"244011","657-BX","2019/08/13 17:19:23","新北市林口區中山路73號","121.39265","25.0786116666667","6501700","林口區"
"244025","837-TS","2019/08/13 17:19:25","新北市林口區民族路157號","121.36681","25.0762383333333","6501700","林口區"
"244021","838-TS","2019/08/13 17:19:39","新北市林口區粉寮路15-3號","121.398218333333","25.080575","6501700","林口區"
"231046","719-UM","2019/08/13 17:12:17","新北市新店區直潭路77號","121.532136666667","24.942145","6500600","新店區"
"241011","013-R5","2019/08/13 17:19:31","新北市三重區河邊北街108號","121.503676666667","25.070805","6500200","三重區"
"241028","022-UY","2019/08/13 17:19:31","新北市三重區仁化街107號","121.49434","25.0580566666667","6500200","三重區"
"241008","059-VK","2019/08/13 17:19:38","新北市三重區永福街72巷29號","121.480031666667","25.07642","6500200","三重區"
"241013","060-VK","2019/08/13 17:19:27","新北市三重區仁愛街141巷21號","121.49661","25.0758533333333","6500200","三重區"
"241015","062-VK","2019/08/13 17:19:31","新北市三重區福德北路89號","121.501861666667","25.0662383333333","6500200","三重區"
"241017","063-VK","2019/08/13 17:19:25","新北市三重區大同北路83號","121.49487","25.0635933333333","6500200","三重區"
"241024","065-VK","2019/08/13 17:19:26","新北市三重區中正北路193巷11弄30號","121.478046666667","25.0704916666667","6500200","三重區"
"241002","090-VK","2019/08/13 17:19:44","新北市三重區自強路五段41號","121.493968333333","25.0812416666667","6500200","三重區"
"241003","091-VK","2019/08/13 17:19:36","新北市三重區富福街26號","121.490495","25.0836216666667","6500200","三重區"
"241020","742-BX","2019/08/13 17:19:32","新北市三重區三和路四段20巷100號","121.488668333333","25.0730583333333","6500200","三重區"
"241006","262-UM","2019/08/13 17:19:38","新北市三重區力行路二段29號","121.481891666667","25.072975","6500200","三重區"
"241009","267-UM","2019/08/13 17:19:43","新北市三重區慈愛街10號","121.484535","25.0784566666667","6500200","三重區"
"241018","268-UM","2019/08/13 17:19:35","新北市三重區安慶街226-2號","121.492546666667","25.068155","6500200","三重區"
"241032","269-UM","2019/08/13 17:19:37","新北市三重區新北大道一段133巷12號","121.48241","25.06081","6500200","三重區"
"241025","271-UM","2019/08/13 17:19:31","新北市三重區中正北路233號","121.475848333333","25.07036","6500200","三重區"
"241007","398-BY","2019/08/13 17:19:29","新北市三重區慈愛街8號","121.484383333333","25.07853","6500200","三重區"
"241030","KED-0822","2019/08/13 17:19:36","新北市三重區集美街117號","121.489993333333","25.052755","6500200","三重區"
"241004","475-VK","2019/08/13 17:19:33","新北市三重區五華街79號","121.492248333333","25.0830733333333","6500200","三重區"
"241026","480-VK","2019/08/13 17:19:39","新北市三重區正義南路20號","121.498126666667","25.0614533333333","6500200","三重區"
"241014","543-UM","2019/08/13 17:19:29","新北市三重區長興街10號","121.50004","25.0687133333333","6500200","三重區"
"241019","KEA-2593","2019/08/13 17:19:34","新北市三重區自強路二段74巷19號","121.487951666667","25.06991","6500200","三重區"
"241005","AAD-863","2019/08/13 17:19:42","新北市三重區永安北路二段5巷20號","121.482341666667","25.0811933333333","6500200","三重區"
"241022","KED-0820","2019/08/13 17:19:32","新北市三重區重陽路二段34巷4號","121.48668","25.06311","6500200","三重區"
"241016","887-TS","2019/08/13 17:19:26","新北市三重區大同北路54巷1號","121.494128333333","25.0634966666667","6500200","三重區"
"241012","941-UM","2019/08/13 17:19:39","新北市三重區公園街49號","121.498485","25.0748266666667","6500200","三重區"
"241033","AAC-255","2019/08/13 17:19:22","新北市三重區光復路二段102巷59號","121.469091666667","25.058205","6500200","三重區"
"235064","005-UY","2019/08/13 17:19:31","新北市中和區員山路36巷16-3號","121.485113333333","24.9911816666667","6500300","中和區"
"247014","KEA-2869","2019/08/13 17:19:26","新北市蘆洲區中正路54-1號","121.47066","25.0829533333333","6501400","蘆洲區"
"247008","KED-0682","2019/08/13 17:19:40","新北市蘆洲區永安北路一段72巷54號","121.476096666667","25.0769066666667","6501400","蘆洲區"
"235054","640-BX","2019/08/13 16:50:19","","121.485405","24.991645","6500300","中和區"
"247004","893-R6","2019/08/13 17:19:26","新北市蘆洲區中原路70號","121.458421666667","25.082015","6501400","蘆洲區"
"247018","546-UM","2019/08/13 17:19:33","新北市蘆洲區民權路98號","121.474206666667","25.0880983333333","6501400","蘆洲區"
"247002","500-BY","2019/08/13 17:19:24","新北市蘆洲區永樂街38巷33弄12號","121.457551666667","25.0896233333333","6501400","蘆洲區"
"247020","341-TH","2019/08/13 17:19:34","新北市蘆洲區民族路331-19號","121.473348333333","25.091785","6501400","蘆洲區"
"247024","337-TH","2019/08/13 17:19:36","新北市蘆洲區光榮路2號","121.460325","25.0860866666667","6501400","蘆洲區"
"247022","057-VK","2019/08/13 17:19:25","新北市蘆洲區水湳街70號","121.470435","25.0898633333333","6501400","蘆洲區"
"247012","056-VK","2019/08/13 17:19:28","新北市蘆洲區信義路319巷8號","121.477806666667","25.0862433333333","6501400","蘆洲區"
"247016","053-VK","2019/08/13 17:19:27","新北市蘆洲區正和街96巷28號","121.467655","25.08138","6501400","蘆洲區"
"247006","002-UY","2019/08/13 17:19:30","新北市蘆洲區長安街73巷22-1號","121.461916666667","25.07929","6501400","蘆洲區"
"228001","212-TW","2019/08/13 17:19:37","新北市貢寮區仁理村尖山腳街18-3號","121.925501666667","25.048305","6502600","貢寮區"
"228002","663-BX","2019/08/13 17:19:33","新北市貢寮區雙玉里下雙溪街28號","121.924996666667","25.0117316666667","6502600","貢寮區"
"228003","828-UM","2019/08/13 17:19:42","新北市貢寮區福隆里興隆街24-1號","121.944321666667","25.016905","6502600","貢寮區"
"224006","676-BX","2019/08/13 17:19:41","新北市瑞芳區大寮路20號","121.783385","25.09917","6501200","瑞芳區"
"224009","275-VK","2019/08/13 17:19:26","新北市瑞芳區八號巷20號","121.84282","25.1106333333333","6501200","瑞芳區"
"224008","273-VK","2019/08/13 17:19:40","新北市瑞芳區侯硐路48號","121.825826666667","25.0831516666667","6501200","瑞芳區"
"224005","271-BY","2019/08/13 17:19:44","新北市瑞芳區南雅路1號","121.894388333333","25.1197166666667","6501200","瑞芳區"
"227002","642-TC","2019/08/13 17:19:25","新北市雙溪區雙溪里大同街17號","121.864518333333","25.0351533333333","6502500","雙溪區"
"227001","400-TW","2019/08/13 17:19:28","新北市雙溪區三貂里定福路1-2號","121.850196666667","25.0638533333333","6502500","雙溪區"
"251004","009-UM","2019/08/13 17:19:34","新北市淡水區中正路253號","121.433375","25.1744283333333","6501000","淡水區"
"251005","010-UM","2019/08/13 17:19:27","新北市淡水區鄧公路30-6號","121.451913333333","25.1689583333333","6501000","淡水區"
"251010","012-UM","2019/08/13 17:19:23","新北市淡水區中正路一段22巷100號","121.426713333333","25.185585","6501000","淡水區"
"251015","KEA-2871","2019/08/13 17:19:45","新北市淡水區樹林口14-2號","121.478898333333","25.16831","6501000","淡水區"
"251016","179-VK","2019/08/13 17:19:30","新北市淡水區社厝坑5-1號","121.470405","25.1896066666667","6501000","淡水區"
"251013","180-VK","2019/08/13 17:19:31","新北市淡水區破瓦厝子3-3號","121.472345","25.1973866666667","6501000","淡水區"
"251008","181-VK","2019/08/13 17:19:26","新北市淡水區大同路260號","121.466921666667","25.141925","6501000","淡水區"
"251012","441-VK","2019/08/13 17:19:37","新北市淡水區中山北路一段158號","121.444218333333","25.1778816666667","6501000","淡水區"
"251007","442-VK","2019/08/13 17:19:31","新北市淡水區民生路47-4號","121.462026666667","25.1379983333333","6501000","淡水區"
"251006","561-UM","2019/08/13 17:19:41","新北市淡水區中山北路一段6號","121.441606666667","25.1746083333333","6501000","淡水區"
"251009","575-R6","2019/08/13 17:19:29","新北市淡水區三民街19號","121.438958333333","25.1718816666667","6501000","淡水區"
"251014","577-R6","2019/08/13 17:19:38","新北市淡水區番子田120-1號","121.46464","25.2280283333333","6501000","淡水區"
"251011","650-BX","2019/08/13 17:19:25","新北市淡水區坪頂路70巷6號","121.45937","25.1629283333333","6501000","淡水區"
"251003","766-UM","2019/08/13 17:19:40","新北市淡水區中正路二段16號","121.420221666667","25.18092","6501000","淡水區"
"207003","291-VK","2019/08/13 17:19:40","新北市萬里區萬里里獅頭路23號","121.693525","25.1782033333333","6502800","萬里區"
"252002","178-VK","2019/08/13 17:19:26","新北市三芝區忠孝街1-14號","121.505525","25.25392","6502100","三芝區"
"233002","762-BX","2019/08/13 17:19:25","新北市烏來區環山路82巷35號","121.548008333333","24.863405","6502900","烏來區"
"247010","KED-0683","2019/08/13 17:19:36","新北市蘆洲區中山一路120巷7弄32號","121.47725","25.082235","6501400","蘆洲區"
"252001","KED-0821","2019/08/13 17:19:34","新北市三芝區長安街119號","121.497996666667","25.259655","6502100","三芝區"
"242039","AAC-296","2019/08/13 17:19:31","新北市新莊區新樹路157號","121.436613333333","25.025375","6500500","新莊區"
"242061","986-R7","2019/08/13 17:19:34","新北市新莊區中正路384號","121.441976666667","25.0344516666667","6500500","新莊區"
"242002","751-BX","2019/08/13 17:19:40","新北市新莊區瓊林路100巷1號","121.443461666667","25.0263883333333","6500500","新莊區"
"242029","615-BX","2019/08/13 17:19:38","新北市新莊區幸福路608號","121.451818333333","25.0492866666667","6500500","新莊區"
"242027","613-BX","2019/08/13 17:19:42","新北市新莊區復興路二段6號","121.453676666667","25.0438866666667","6500500","新莊區"
"242058","612-BX","2019/08/13 17:19:35","新北市新莊區新泰路357巷3弄57號","121.442116666667","25.0391116666667","6500500","新莊區"
"242046","566-BX","2019/08/13 17:19:40","新北市新莊區三和路12-21號","121.442333333333","25.0383583333333","6500500","新莊區"
"242051","497-BY","2019/08/13 17:19:37","新北市新莊區瓊林南路12-5號","121.436183333333","25.0186416666667","6500500","新莊區"
"242017","442-UM","2019/08/13 17:19:44","新北市新莊區新泰路502巷57號","121.444471666667","25.0464333333333","6500500","新莊區"
"242056","441-UM","2019/08/13 17:19:43","新北市新莊區中正路400號","121.441971666667","25.03433","6500500","新莊區"
"242005","440-UM","2019/08/13 17:19:40","新北市新莊區中平路82巷9號","121.445371666667","25.044905","6500500","新莊區"
"242042","415-TV","2019/08/13 17:19:29","新北市新莊區新樹路52-5號","121.437166666667","25.0271","6500500","新莊區"
"242048","400-BY","2019/08/13 17:19:32","新北市新莊區龍安路120號","121.418985","25.0202516666667","6500500","新莊區"
"242025","362-BY","2019/08/13 17:19:29","新北市新莊區中平路82巷2號","121.444921666667","25.04481","6500500","新莊區"
"242023","353-BY","2019/08/13 17:19:44","新北市新莊區新泰路502巷57號","121.444548333333","25.0464566666667","6500500","新莊區"
"242013","132-UY","2019/08/13 17:19:38","新北市新莊區新泰路502巷1號","121.44318","25.0466983333333","6500500","新莊區"
"242037","135-UY","2019/08/13 17:19:28","新北市新莊區新樹路157號","121.436696666667","25.0254833333333","6500500","新莊區"
"242054","172-VK","2019/08/13 17:19:40","新北市新莊區新莊路773號","121.441881666667","25.0328716666667","6500500","新莊區"
"242015","173-VK","2019/08/13 17:19:43","新北市新莊區三和路12-21號","121.442123333333","25.0385766666667","6500500","新莊區"
"242021","175-VK","2019/08/13 17:19:26","新北市新莊區中港一街12號","121.451626666667","25.0457816666667","6500500","新莊區"
"242019","346-TH","2019/08/13 17:19:45","新北市新莊區新泰路277巷2號","121.44551","25.04044","6500500","新莊區"
"242034","348-TH","2019/08/13 17:19:43","新北市新莊區中正路473-1號","121.441918333333","25.0330383333333","6500500","新莊區"
"238015","755-BX","2019/08/13 17:19:27","新北市樹林區大安路267號","121.419046666667","24.9936783333333","6500700","樹林區"
"238023","601-UM","2019/08/13 17:19:30","新北市樹林區中正路433號","121.415031666667","25.0086183333333","6500700","樹林區"
"238019","599-UM","2019/08/13 17:19:34","新北市樹林區八德街365-5號","121.418031666667","24.9722716666667","6500700","樹林區"
"238024","5061-A6","2019/08/13 17:19:40","新北市樹林區保安街一段48巷36號","121.426686666667","24.995615","6500700","樹林區"
"238018","KEA-2217","2019/08/13 17:19:42","新北市樹林區樹中街63號","121.421726666667","24.9851783333333","6500700","樹林區"
"238022","KEA-2213","2019/08/13 17:19:41","新北市樹林區信義街63號","121.424535","24.9829466666667","6500700","樹林區"
"238021","KEA-2539","2019/08/13 17:19:33","新北市樹林區西圳街一段98-2號","121.400066666667","24.9635783333333","6500700","樹林區"
"238025","303-VK","2019/08/13 17:19:43","新北市樹林區保安二街34號","121.424691666667","24.9947916666667","6500700","樹林區"
"238017","283-BY","2019/08/13 17:19:26","新北市樹林區光武街30巷2號","121.416301666667","25.005565","6500700","樹林區"
"238014","282-BY","2019/08/13 17:19:42","新北市樹林區長壽街70巷33弄3號","121.421275","24.994975","6500700","樹林區"
"238020","268-VK","2019/08/13 17:19:39","新北市樹林區千歲街101-2號","121.428506666667","25.0008883333333","6500700","樹林區"
"238016","169-UY","2019/08/13 17:19:40","新北市樹林區中山路二段10號","121.417556666667","24.9850116666667","6500700","樹林區"
"239007","AAC-297","2019/08/13 17:19:41","新北市鶯歌區行政路3-1號","121.350775","24.955295","6500800","鶯歌區"
"239006","891-R6","2019/08/13 17:19:23","新北市鶯歌區德昌二街127號","121.33298","24.9561983333333","6500800","鶯歌區"
"239008","527-UM","2019/08/13 17:19:34","新北市鶯歌區中山路78號","121.35128","24.9570716666667","6500800","鶯歌區"
"239005","526-UM","2019/08/13 17:19:38","新北市鶯歌區鶯桃路561號","121.330115","24.9682066666667","6500800","鶯歌區"
"239001","417-VK","2019/08/13 17:19:28","新北市鶯歌區尖山路173巷1號","121.345038333333","24.9474683333333","6500800","鶯歌區"
"239003","360-BY","2019/08/13 17:19:12","新北市鶯歌區德昌二街72號","121.33245","24.958195","6500800","鶯歌區"
"239002","359-BY","2019/08/13 17:19:29","新北市鶯歌區建國路282-2號","121.345591666667","24.9529266666667","6500800","鶯歌區"
"239004","193-VK","2019/08/13 17:19:23","新北市鶯歌區文化路501號","121.352968333333","24.9487066666667","6500800","鶯歌區"
"233001","KEA-2870","2019/08/13 17:19:31","新北市烏來區瀑布路15號","121.551301666667","24.84786","6502900","烏來區"
"242044","281-VK","2019/08/13 17:19:42","新北市新莊區中正路713號","121.425285","25.0297966666667","6500500","新莊區"
"242009","280-VK","2019/08/13 17:19:28","新北市新莊區新泰路421-7號","121.442476666667","25.044935","6500500","新莊區"
"235061","KEA-2875","2019/08/13 17:14:08","新北市中和區員山路36巷16-2號","121.485303333333","24.99169","6500300","中和區"
