"lineid","car","time","location","longitude","latitude","cityid","cityname"
"234026","9371-KE","2019/08/13 17:39:26","新北市永和區中正路704號","121.516211666667","25.0099683333333","6500400","永和區"
"249005","172-UM","2019/08/13 17:39:31","新北市八里區荖阡坑路34-1號","121.402741666667","25.1297466666667","6502300","八里區"
"249001","173-UM","2019/08/13 17:39:29","新北市八里區渡船頭街2號","121.434615","25.1581583333333","6502300","八里區"
"249004","303-UY","2019/08/13 17:39:39","新北市八里區賢二街29號","121.418848333333","25.1581966666667","6502300","八里區"
"249002","305-UY","2019/08/13 17:39:42","新北市八里區石壁腳19號","121.44171","25.1353683333333","6502300","八里區"
"249003","593-UM","2019/08/13 17:39:32","新北市八里區中山路二段270號","121.404938333333","25.1510616666667","6502300","八里區"
"248002","678-BX","2019/08/13 17:39:33","新北市五股區中興路二段83巷26-3號","121.460035","25.07543","6501500","五股區"
"232011","375-UM","2019/08/13 17:39:41","新北市坪林區北宜路八段103號","121.70608","24.9347966666667","6502000","坪林區"
"244007","080-UY","2019/08/13 17:39:32","新北市林口區林口路270號","121.386283333333","25.0845916666667","6501700","林口區"
"244019","402-UM","2019/08/13 17:39:32","新北市林口區忠孝路533號","121.371826666667","25.06922","6501700","林口區"
"244013","KEA-2802","2019/08/13 17:39:33","新北市林口區中正路525巷17號","121.38339","25.0768666666667","6501700","林口區"
"244023","483-VK","2019/08/13 17:39:00","","121.390695","25.0698866666667","6501700","林口區"
"244017","485-VK","2019/08/13 17:39:44","新北市林口區文化二路一段220號","121.369446666667","25.07237","6501700","林口區"
"244009","656-BX","2019/08/13 17:39:33","新北市林口區寶林路40-1號","121.38548","25.0845066666667","6501700","林口區"
"244011","657-BX","2019/08/13 17:39:43","新北市林口區中正路443號","121.384648333333","25.0775783333333","6501700","林口區"
"244025","837-TS","2019/08/13 17:39:25","","121.365126666667","25.0737516666667","6501700","林口區"
"244021","838-TS","2019/08/13 17:39:39","新北市林口區仁愛路一段83巷42號","121.397356666667","25.0706133333333","6501700","林口區"
"222003","436-BY","2019/08/13 17:39:24","","121.621396666667","25.0094366666667","6501800","深坑區"
"222002","659-BX","2019/08/13 17:39:25","新北市深坑區深南路88巷1號","121.6211","25.0114016666667","6501800","深坑區"
"231046","719-UM","2019/08/13 17:12:17","新北市新店區直潭路77號","121.532136666667","24.942145","6500600","新店區"
"241015","062-VK","2019/08/13 17:39:31","新北市三重區三和路二段36號","121.500276666667","25.0677516666667","6500200","三重區"
"241017","063-VK","2019/08/13 17:39:25","","121.495448333333","25.06225","6500200","三重區"
"241024","065-VK","2019/08/13 17:39:35","新北市三重區大勇街45號","121.482108333333","25.0717616666667","6500200","三重區"
"241009","267-UM","2019/08/13 17:39:43","新北市八里區荖阡坑路20-9號","121.398485","25.13658","6500200","三重區"
"241007","398-BY","2019/08/13 17:39:29","新北市三重區國道路一段138號","121.476056666667","25.0734983333333","6500200","三重區"
"241030","KED-0822","2019/08/13 17:39:36","新北市三重區頂崁街23號","121.476345","25.0570966666667","6500200","三重區"
"241014","543-UM","2019/08/13 17:39:29","新北市三重區龍濱路197號","121.501928333333","25.0714466666667","6500200","三重區"
"241016","887-TS","2019/08/13 17:39:26","","121.49783","25.0627","6500200","三重區"
"241033","AAC-255","2019/08/13 17:39:42","新北市三重區光復路一段138-1號","121.472053333333","25.0527616666667","6500200","三重區"
"235064","005-UY","2019/08/13 17:39:31","新北市中和區員山路36巷16-3號","121.48511","24.9912533333333","6500300","中和區"
"247014","KEA-2869","2019/08/13 17:39:26","新北市蘆洲區中山二路119-1號","121.472306666667","25.081565","6501400","蘆洲區"
"247008","KED-0682","2019/08/13 17:39:40","新北市蘆洲區民生街127號","121.472728333333","25.0790283333333","6501400","蘆洲區"
"247004","893-R6","2019/08/13 17:39:26","","121.458415","25.0830816666667","6501400","蘆洲區"
"247018","546-UM","2019/08/13 17:39:33","新北市蘆洲區民權路61巷4弄2號","121.473475","25.0879316666667","6501400","蘆洲區"
"247002","500-BY","2019/08/13 17:39:44","新北市蘆洲區永平街33號","121.458438333333","25.0910033333333","6501400","蘆洲區"
"247020","341-TH","2019/08/13 17:39:34","新北市蘆洲區民族路452號","121.472255","25.0920983333333","6501400","蘆洲區"
"247024","337-TH","2019/08/13 17:39:36","新北市蘆洲區長樂路125-1號","121.46213","25.08803","6501400","蘆洲區"
"247022","057-VK","2019/08/13 17:39:45","新北市蘆洲區中正路210號","121.466501666667","25.0885216666667","6501400","蘆洲區"
"247012","056-VK","2019/08/13 17:39:28","新北市蘆洲區民權路54-1號","121.475378333333","25.086935","6501400","蘆洲區"
"247016","053-VK","2019/08/13 17:39:27","新北市蘆洲區光華路70巷8號","121.467783333333","25.0833816666667","6501400","蘆洲區"
"247006","002-UY","2019/08/13 17:39:36","新北市蘆洲區長安街26號","121.464028333333","25.07924","6501400","蘆洲區"
"228001","212-TW","2019/08/13 17:39:37","新北市貢寮區仁理村仁愛路95-1號","121.927666666667","25.0554283333333","6502600","貢寮區"
"228002","663-BX","2019/08/13 17:39:33","新北市貢寮區福隆里龜壽谷街13號","121.957311666667","25.00536","6502600","貢寮區"
"228003","828-UM","2019/08/13 17:39:42","新北市貢寮區仁理村仁和路236號","121.924046666667","25.0537516666667","6502600","貢寮區"
"224010","AGQ-8101","2019/08/13 17:39:42","新北市瑞芳區岳王路146號","121.809023333333","25.111375","6501200","瑞芳區"
"224006","676-BX","2019/08/13 17:39:41","新北市瑞芳區中山路257號","121.797346666667","25.1098133333333","6501200","瑞芳區"
"224009","275-VK","2019/08/13 17:39:26","新北市瑞芳區山尖路174號","121.847831666667","25.1119083333333","6501200","瑞芳區"
"224008","273-VK","2019/08/13 17:39:39","新北市瑞芳區九芎橋路198號","121.834536666667","25.09873","6501200","瑞芳區"
"224005","271-BY","2019/08/13 17:39:44","新北市瑞芳區海濱路27號","121.830931666667","25.124945","6501200","瑞芳區"
"227002","642-TC","2019/08/13 17:21:48","新北市雙溪區共和里東榮街29號","121.866105","25.0336533333333","6502500","雙溪區"
"227001","400-TW","2019/08/13 17:39:28","","121.850761666667","25.0633666666667","6502500","雙溪區"
"251004","009-UM","2019/08/13 17:39:34","新北市淡水區中正東路二段163號","121.459258333333","25.14541","6501000","淡水區"
"251005","010-UM","2019/08/13 17:39:27","新北市淡水區鄧公路32巷2號","121.45138","25.171345","6501000","淡水區"
"251010","012-UM","2019/08/13 17:39:23","","121.419188333333","25.18899","6501000","淡水區"
"251015","KEA-2871","2019/08/13 17:39:30","新北市淡水區樹林口14-2號","121.478746666667","25.1681583333333","6501000","淡水區"
"251016","179-VK","2019/08/13 17:39:29","新北市淡水區埤島39-15號","121.452748333333","25.1959033333333","6501000","淡水區"
"251013","180-VK","2019/08/13 17:39:30","新北市淡水區演戲埔腳3號","121.472195","25.1935283333333","6501000","淡水區"
"251008","181-VK","2019/08/13 17:39:26","新北市淡水區八勢路50巷78號","121.462055","25.1490183333333","6501000","淡水區"
"251012","441-VK","2019/08/13 17:39:37","新北市淡水區北新路200巷8號","121.45171","25.1796883333333","6501000","淡水區"
"251007","442-VK","2019/08/13 17:39:30","新北市淡水區民族路35巷4號","121.464555","25.137105","6501000","淡水區"
"251006","561-UM","2019/08/13 17:39:41","新北市淡水區大信街32號","121.442095","25.1770766666667","6501000","淡水區"
"251009","575-R6","2019/08/13 17:39:29","新北市淡水區中正路156號","121.440711666667","25.1697283333333","6501000","淡水區"
"251014","577-R6","2019/08/13 17:39:34","新北市淡水區公埔子15-1號","121.479411666667","25.2266566666667","6501000","淡水區"
"251011","650-BX","2019/08/13 17:39:25","","121.482505","25.1584433333333","6501000","淡水區"
"251002","672-BX","2019/08/13 17:39:25","","121.438938333333","25.1728966666667","6501000","淡水區"
"251003","766-UM","2019/08/13 17:39:40","新北市淡水區中山北路一段49號","121.44169","25.1754666666667","6501000","淡水區"
"207004","681-TV","2019/08/13 17:39:26","新北市萬里區萬里里景美路1號","121.683281666667","25.1706383333333","6502800","萬里區"
"207003","291-VK","2019/08/13 17:39:40","新北市萬里區龜吼里漁澳路61-1號","121.687246666667","25.1952766666667","6502800","萬里區"
"252002","178-VK","2019/08/13 17:39:26","","121.504518333333","25.25544","6502100","三芝區"
"237004","KEA-2597","2019/08/13 17:39:32","新北市三峽區中山路459巷135號","121.349043333333","24.9331783333333","6500900","三峽區"
"237013","252-BX","2019/08/13 17:39:36","新北市三峽區愛國路33-9號","121.374896666667","24.933015","6500900","三峽區"
"237014","433-BY","2019/08/13 17:39:39","新北市三峽區中山路459巷135號","121.348708333333","24.9329783333333","6500900","三峽區"
"237010","706-TV","2019/08/13 17:39:30","新北市三峽區中山路236號","121.362476666667","24.9374116666667","6500900","三峽區"
"233002","762-BX","2019/08/13 17:39:25","新北市烏來區烏來街29號","121.551203333333","24.86531","6502900","烏來區"
"236079","166-UM","2019/08/13 17:39:43","新北市土城區城林路6巷80號","121.438451666667","24.97966","6501300","土城區"
"236014","270-VK","2019/08/13 17:39:33","新北市土城區城林路6巷80號","121.438476666667","24.97962","6501300","土城區"
"236038","271-VK","2019/08/13 17:39:30","新北市土城區城林路6巷80號","121.438366666667","24.9797433333333","6501300","土城區"
"247010","KED-0683","2019/08/13 17:39:36","新北市蘆洲區中山一路74巷53號","121.479748333333","25.0814916666667","6501400","蘆洲區"
"236070","KEA-2877","2019/08/13 17:39:32","新北市土城區城林路6巷80號","121.438285","24.9796183333333","6501300","土城區"
"252001","KED-0821","2019/08/13 17:39:34","新北市三芝區淡金路一段83號","121.502101666667","25.258985","6502100","三芝區"
"236021","401-BY","2019/08/13 17:39:40","新北市土城區城林路6巷80號","121.438413333333","24.9796233333333","6501300","土城區"
"242039","AAC-296","2019/08/13 17:39:31","新北市新莊區民全街16號","121.429103333333","25.0219166666667","6500500","新莊區"
"242061","986-R7","2019/08/13 17:39:34","新北市新莊區瓊林南路103巷8弄19號","121.435226666667","25.0115116666667","6500500","新莊區"
"242002","751-BX","2019/08/13 17:39:40","新北市新莊區新莊路294號","121.451216666667","25.0337866666667","6500500","新莊區"
"242029","615-BX","2019/08/13 17:39:38","新北市新莊區復興路一段145號","121.450278333333","25.0432883333333","6500500","新莊區"
"242027","613-BX","2019/08/13 17:39:41","新北市新莊區福壽街93號","121.458118333333","25.050335","6500500","新莊區"
"242058","612-BX","2019/08/13 17:39:36","新北市新莊區中正路606號","121.426611666667","25.0302516666667","6500500","新莊區"
"242046","566-BX","2019/08/13 17:39:40","新北市新莊區福營路88號","121.437851666667","25.032615","6500500","新莊區"
"242051","497-BY","2019/08/13 17:39:37","新北市新莊區西盛街189號","121.428896666667","25.0171733333333","6500500","新莊區"
"242017","442-UM","2019/08/13 17:39:24","","121.448511666667","25.0438316666667","6500500","新莊區"
"242056","441-UM","2019/08/13 17:39:23","","121.448341666667","25.03181","6500500","新莊區"
"242005","440-UM","2019/08/13 17:39:40","新北市新莊區自立街178號","121.455996666667","25.04544","6500500","新莊區"
"242042","415-TV","2019/08/13 17:39:29","新北市新莊區建國一路23號","121.43396","25.03144","6500500","新莊區"
"242011","413-TV","2019/08/13 17:39:33","新北市新莊區中港路568號","121.45145","25.0531466666667","6500500","新莊區"
"242048","400-BY","2019/08/13 17:39:32","新北市新莊區萬安街153號","121.420378333333","25.0214566666667","6500500","新莊區"
"242025","362-BY","2019/08/13 17:39:36","新北市新莊區思源路110號","121.460131666667","25.04659","6500500","新莊區"
"242023","353-BY","2019/08/13 17:39:35","新北市新莊區公園路129-13號","121.457498333333","25.0410566666667","6500500","新莊區"
"242013","132-UY","2019/08/13 17:39:38","新北市新莊區中誠街122號","121.449278333333","25.0476833333333","6500500","新莊區"
"242037","135-UY","2019/08/13 17:39:28","","121.428913333333","25.027165","6500500","新莊區"
"242054","172-VK","2019/08/13 17:39:40","新北市新莊區新樹路412號","121.432116666667","25.0024016666667","6500500","新莊區"
"242015","173-VK","2019/08/13 17:39:23","","121.445621666667","25.04068","6500500","新莊區"
"242021","175-VK","2019/08/13 17:39:28","","121.452193333333","25.0393366666667","6500500","新莊區"
"242019","346-TH","2019/08/13 17:39:25","","121.454926666667","25.041865","6500500","新莊區"
"242034","348-TH","2019/08/13 17:39:43","新北市新莊區新莊路520號","121.445796666667","25.0331783333333","6500500","新莊區"
"242007","349-TH","2019/08/13 17:39:37","新北市新莊區福樂街69號","121.4571","25.0478016666667","6500500","新莊區"
"242032","350-TH","2019/08/13 17:39:45","新北市新莊區新泰路361巷23號","121.442446666667","25.043015","6500500","新莊區"
"238015","755-BX","2019/08/13 17:39:27","新北市樹林區啟智街59號","121.420296666667","24.9924583333333","6500700","樹林區"
"238023","601-UM","2019/08/13 17:39:29","新北市樹林區三福街114號","121.40645","25.0162883333333","6500700","樹林區"
"238019","599-UM","2019/08/13 17:39:34","新北市樹林區八德街37-3號","121.419148333333","24.9830666666667","6500700","樹林區"
"238024","5061-A6","2019/08/13 17:39:40","新北市樹林區八德街369-1號","121.416255","24.9716083333333","6500700","樹林區"
"238018","KEA-2217","2019/08/13 17:39:42","新北市樹林區鎮前街124號","121.424881666667","24.9909466666667","6500700","樹林區"
"238022","KEA-2213","2019/08/13 17:39:21","","121.420926666667","24.9808233333333","6500700","樹林區"
"238021","KEA-2539","2019/08/13 17:39:33","新北市樹林區柑園街一段253巷26號","121.396848333333","24.9535333333333","6500700","樹林區"
"238025","303-VK","2019/08/13 17:39:43","新北市樹林區保安街二段162號","121.413183333333","25.004605","6500700","樹林區"
"238017","283-BY","2019/08/13 17:39:46","新北市樹林區中正路458號","121.412961666667","25.0123766666667","6500700","樹林區"
"238014","282-BY","2019/08/13 17:39:25","","121.417005","24.997435","6500700","樹林區"
"238020","268-VK","2019/08/13 17:39:39","新北市樹林區俊英街116巷41弄23號","121.428486666667","25.006905","6500700","樹林區"
"238026","172-UY","2019/08/13 17:39:44","新北市樹林區新興街19巷6號","121.40044","24.9728733333333","6500700","樹林區"
"238016","169-UY","2019/08/13 17:39:40","新北市樹林區育英街129號","121.41981","24.989325","6500700","樹林區"
"239007","AAC-297","2019/08/13 17:39:41","新北市鶯歌區鶯桃路182巷96弄8號","121.339945","24.9573683333333","6500800","鶯歌區"
"239006","891-R6","2019/08/13 17:39:43","新北市鶯歌區鶯桃路500號","121.331988333333","24.9660583333333","6500800","鶯歌區"
"239008","527-UM","2019/08/13 17:39:34","桃園市龜山區宏德司法新村8號","121.331806666667","24.9789333333333","6500800","鶯歌區"
"239005","526-UM","2019/08/13 17:39:18","","121.325196666667","24.97211","6500800","鶯歌區"
"239001","417-VK","2019/08/13 17:39:28","新北市鶯歌區高職西街113號","121.336203333333","24.940165","6500800","鶯歌區"
"239003","360-BY","2019/08/13 17:39:32","新北市鶯歌區鶯桃路188-2號","121.338196666667","24.9584133333333","6500800","鶯歌區"
"239002","359-BY","2019/08/13 17:39:29","新北市鶯歌區育才街89號","121.346836666667","24.9544733333333","6500800","鶯歌區"
"239004","193-VK","2019/08/13 17:39:23","","121.358013333333","24.94292","6500800","鶯歌區"
"221029","298-VK","2019/08/13 17:39:35","新北市汐止區汐萬路一段256巷1號","121.65161","25.0748133333333","6501100","汐止區"
"233001","KEA-2870","2019/08/13 17:39:31","新北市烏來區娃娃谷15-7號","121.527043333333","24.8394433333333","6502900","烏來區"
"242044","281-VK","2019/08/13 17:39:42","新北市新莊區富國路20號","121.418493333333","25.0263466666667","6500500","新莊區"
"242009","280-VK","2019/08/13 17:39:28","","121.457333333333","25.053235","6500500","新莊區"
"235061","KEA-2875","2019/08/13 17:14:08","新北市中和區員山路36巷16-2號","121.485303333333","24.99169","6500300","中和區"
