"lineid","car","time","location","longitude","latitude","cityid","cityname"
"244018","403-UM","2019/11/25 10:13:58","新北市林口區粉寮69號","121.404956666667","25.0908533333333","6501700","林口區"
"244022","483-VK","2019/11/25 10:13:45","新北市林口區仁愛路二段377號","121.37034","25.0800266666667","6501700","林口區"
"244020","838-TS","2019/11/25 10:13:38","新北市林口區粉寮路二段160巷28號","121.405208333333","25.0907716666667","6501700","林口區"
"231007","189-VK","2019/11/25 10:13:42","新北市新店區新潭路二段62巷22號","121.520201666667","24.9273116666667","6500600","新店區"
"231008","192-VK","2019/11/25 10:13:49","新北市新店區廣興路15號","121.541401666667","24.9118233333333","6500600","新店區"
"227003","030-BX","2019/11/25 10:05:49","新北市雙溪區泰平里灣潭路35-1號","121.812496666667","24.9291183333333","6502500","雙溪區"
"252006","AAC-283","2019/11/25 10:13:50","新北市三芝區車新路87號","121.493833333333","25.26727","6502100","三芝區"
"237013","760-BX","2019/11/25 10:13:41","新北市三峽區中山路459巷66號","121.355875","24.9365466666667","6500900","三峽區"
