"lineid","car","time","location","longitude","latitude","cityid","cityname"
"234044","148-BY","2019/11/25 12:59:39","新北市永和區得和路373巷29號","121.525075","25.00035","6500400","永和區"
"234078","298-R6","2019/11/25 12:59:51","新北市永和區永貞路41號","121.52094","25.0064883333333","6500400","永和區"
"234036","336-UY","2019/11/25 12:59:42","新北市永和區成功路二段207號","121.526526666667","24.9959566666667","6500400","永和區"
"234062","337-UY","2019/11/25 12:59:46","新北市永和區秀朗路一段146號","121.518293333333","25.003365","6500400","永和區"
"234084","338-UY","2019/11/25 12:59:58","新北市永和區永寧街131巷1號","121.518061666667","25.005245","6500400","永和區"
"234068","552-UM","2019/11/25 12:59:45","新北市永和區中興街92號","121.518751666667","25.0120033333333","6500400","永和區"
"234015","745-BX","2019/11/25 12:59:50","新北市永和區永和路二段299號","121.515963333333","25.0161483333333","6500400","永和區"
"234028","746-BX","2019/11/25 12:59:40","新北市永和區得和路418號","121.52618","24.9989333333333","6500400","永和區"
"234052","KEA-2590","2019/11/25 12:59:55","新北市永和區竹林路64號","121.518366666667","25.0136033333333","6500400","永和區"
"234005","KED-0605","2019/11/25 12:59:50","新北市永和區永和路二段105號","121.514998333333","25.0119783333333","6500400","永和區"
"234012","KEA-2591","2019/11/25 12:59:39","新北市永和區信義路17巷20號","121.513348333333","25.01117","6500400","永和區"
"234060","AAD-866","2019/11/25 12:59:58","新北市永和區福和路301號","121.516416666667","25.0072533333333","6500400","永和區"
"234066","748-BX","2019/11/25 12:59:53","新北市永和區自由街53號","121.51371","25.005575","6500400","永和區"
"234040","862-TW","2019/11/25 12:59:53","新北市永和區永貞路267號","121.511878333333","25.004725","6500400","永和區"
"234048","863-TW","2019/11/25 12:59:39","新北市永和區文化路194號","121.510765","25.0162233333333","6500400","永和區"
"234025","9371-KE","2019/11/25 12:59:46","新北市永和區永貞路302號","121.51219","25.0047983333333","6500400","永和區"
"234010","9373-KE","2019/11/25 12:59:40","新北市永和區文化路113巷21弄2號","121.513295","25.0140566666667","6500400","永和區"
"248015","026-BX","2019/11/25 12:59:44","新北市五股區中興路二段83巷26-6號","121.45975","25.075335","6501500","五股區"
"248005","077-UY","2019/11/25 12:59:50","新北市五股區中興路二段147-1號","121.458275","25.0778883333333","6501500","五股區"
"248007","KED-0815","2019/11/25 12:59:48","新北市五股區中興路二段150號","121.458603333333","25.0785683333333","6501500","五股區"
"248019","KED-0813","2019/11/25 12:59:40","新北市五股區中興路二段83巷26-3號","121.460136666667","25.07539","6501500","五股區"
"248013","261-SL","2019/11/25 12:59:45","新北市五股區中興路四段17號","121.440323333333","25.08227","6501500","五股區"
"248003","677-BX","2019/11/25 12:59:42","新北市五股區中興路二段180-1號","121.457463333333","25.078005","6501500","五股區"
"248001","678-BX","2019/11/25 12:59:41","新北市五股區中興路二段83巷26-6號","121.46004","25.0753316666667","6501500","五股區"
"248009","682-TV","2019/11/25 12:59:50","新北市五股區中興路二段83巷26-6號","121.46018","25.07516","6501500","五股區"
"234022","9380-KE","2019/11/25 12:59:47","新北市永和區竹林路75巷15-1號","121.519603333333","25.0138716666667","6500400","永和區"
"234076","969-R7","2019/11/25 12:59:50","新北市永和區民享街4號","121.515086666667","24.9954966666667","6500400","永和區"
"234001","AAC-295","2019/11/25 12:59:54","新北市永和區永平路28號","121.513225","25.0088116666667","6500400","永和區"
"244001","248-BX","2019/11/25 12:59:58","新北市林口區粉寮路60-16號","121.404288333333","25.090015","6501700","林口區"
"231029","106-UY","2019/11/25 12:59:44","新北市新店區安華路28-1號","121.519631666667","24.9609133333333","6500600","新店區"
"231036","110-UY","2019/11/25 12:59:55","新北市新店區安華路28-1號","121.519598333333","24.960955","6500600","新店區"
"231023","260-TV","2019/11/25 12:59:57","新北市新店區安華路28-1號","121.519233333333","24.960835","6500600","新店區"
"231003","268-BY","2019/11/25 12:59:47","新北市新店區安華路1-1號","121.519331666667","24.960525","6500600","新店區"
"231035","278-BY","2019/11/25 12:59:39","新北市新店區安一路一段1-1號","121.519601666667","24.9611683333333","6500600","新店區"
"231014","AAD-862","2019/11/25 12:59:42","新北市新店區安一路一段1-1號","121.519583333333","24.9610733333333","6500600","新店區"
"231025","4715-K9","2019/11/25 12:59:40","新北市新店區安華路28-1號","121.519403333333","24.9606433333333","6500600","新店區"
"231019","513-UM","2019/11/25 12:59:46","新北市新店區安一路一段1-1號","121.519501666667","24.9611683333333","6500600","新店區"
"231001","617-UM","2019/11/25 12:59:49","新北市新店區安華路30巷1號","121.519323333333","24.95957","6500600","新店區"
"231034","641-BX","2019/11/25 12:59:55","新北市新店區安華路28-1號","121.519433333333","24.9606016666667","6500600","新店區"
"231011","KED-0819","2019/11/25 12:59:41","新北市新店區安一路一段1-1號","121.519605","24.9612433333333","6500600","新店區"
"231026","720-UM","2019/11/25 12:59:43","新北市新店區安一路一段1-1號","121.519055","24.9612","6500600","新店區"
"231004","899-TW","2019/11/25 12:59:55","新北市新店區安華路28-1號","121.519276666667","24.9607466666667","6500600","新店區"
"235028","005-UY","2019/11/25 12:59:49","新北市中和區錦和路350-1號","121.490521666667","24.993595","6500300","中和區"
"235027","006-UY","2019/11/25 12:59:30","新北市中和區員山路36巷16-3號","121.48494","24.9912683333333","6500300","中和區"
"235029","098-UM","2019/11/25 12:59:46","新北市中和區板南路386號","121.493355","24.9991633333333","6500300","中和區"
"235022","151-BY","2019/11/25 12:59:42","新北市中和區圓通路367巷33弄22號","121.494171666667","24.9846583333333","6500300","中和區"
"235002","185-VK","2019/11/25 12:59:57","新北市中和區成功路23號","121.526266666667","24.99361","6500300","中和區"
"235031","255-BX","2019/11/25 12:59:41","新北市中和區中山路二段550號","121.483803333333","25.0053166666667","6500300","中和區"
"235008","293-VK","2019/11/25 12:59:42","新北市中和區員山路36巷16-3號","121.485251666667","24.99115","6500300","中和區"
"235033","4980-A6","2019/11/25 12:59:41","新北市中和區和城路一段271巷1號","121.485426666667","24.9917883333333","6500300","中和區"
"235034","558-UM","2019/11/25 12:59:45","新北市中和區員山路36巷16-2號","121.485253333333","24.9915833333333","6500300","中和區"
"235009","565-BX","2019/11/25 12:59:46","新北市中和區員山路36巷13號","121.48417","24.9909516666667","6500300","中和區"
"235024","KED-0823","2019/11/25 12:59:40","新北市中和區員山路36巷16-2號","121.48534","24.9916183333333","6500300","中和區"
"235018","640-BX","2019/11/25 12:59:42","新北市中和區連城路607號","121.477746666667","24.9928566666667","6500300","中和區"
"235035","647-TV","2019/11/25 12:59:48","新北市中和區新生街272號","121.48374","24.9969716666667","6500300","中和區"
"235021","801-TS","2019/11/25 12:59:53","新北市中和區員山路173號","121.481151666667","24.99697","6500300","中和區"
"235005","802-TS","2019/11/25 12:59:48","新北市中和區和城路一段271巷1號","121.48548","24.9917866666667","6500300","中和區"
"235001","AAC-213","2019/11/25 12:59:48","新北市中和區景平路261號","121.508413333333","24.9930216666667","6500300","中和區"
"253004","6251-TK","2019/11/25 12:59:46","新北市石門區中山路64-1號","121.56757","25.2902716666667","6502200","石門區"
"253001","KEC-0718","2019/11/25 12:59:47","新北市石門區老崩山9號","121.553018333333","25.2914016666667","6502200","石門區"
"207002","749-BX","2019/11/25 12:59:38","新北市萬里區雙興里大坪路39-6號","121.630776666667","25.168945","6502800","萬里區"
"252005","073-UM","2019/11/25 12:59:55","新北市三芝區埔坪里埔頭坑41號","121.504576666667","25.264605","6502100","三芝區"
"207001","662-BX","2019/11/25 12:59:43","新北市萬里區萬里里獅頭路22-1號","121.69305","25.1783333333333","6502800","萬里區"
"237013","760-BX","2019/11/25 12:59:50","新北市三峽區中山路459巷131號","121.35084","24.9344383333333","6500900","三峽區"
