"lineid","car","time","location","longitude","latitude","cityid","cityname"
"234026","9371-KE","2019/11/25 17:43:32","新北市永和區永和路184-1號","121.514263333333","25.0091233333333","6500400","永和區"
"249005","172-UM","2019/11/25 17:43:28","新北市八里區荖阡坑路34-1號","121.402766666667","25.1297583333333","6502300","八里區"
"249001","173-UM","2019/11/25 17:43:28","新北市八里區龍米路二段153-8號","121.440168333333","25.1534733333333","6502300","八里區"
"249004","303-UY","2019/11/25 17:43:33","新北市八里區中華路一段79巷11號","121.421035","25.1564016666667","6502300","八里區"
"249002","305-UY","2019/11/25 17:43:30","新北市八里區頂寮二街121巷22號","121.446435","25.1282566666667","6502300","八里區"
"249003","759-BX","2019/11/25 17:43:30","新北市八里區中山路二段212號","121.405386666667","25.1518466666667","6502300","八里區"
"248008","KED-0815","2019/11/25 17:43:29","新北市五股區中興路二段63巷17號","121.460245","25.0752483333333","6501500","五股區"
"248010","682-TV","2019/11/25 17:43:25","新北市五股區中興路二段37巷28號","121.460096666667","25.0749733333333","6501500","五股區"
"232011","375-UM","2019/11/25 17:43:16","新北市坪林區北宜路八段82號","121.705576666667","24.9350766666667","6502000","坪林區"
"244007","080-UY","2019/11/25 17:43:12","新北市林口區佳林路1號","121.387221666667","25.0824466666667","6501700","林口區"
"244019","403-UM","2019/11/25 17:43:31","新北市林口區忠孝路554號","121.374055","25.0679283333333","6501700","林口區"
"244013","KEA-2802","2019/11/25 17:43:25","新北市林口區中山路151號","121.386906666667","25.0791833333333","6501700","林口區"
"244023","483-VK","2019/11/25 17:43:22","新北市林口區興林路366號","121.388956666667","25.0691633333333","6501700","林口區"
"244017","485-VK","2019/11/25 17:43:22","新北市林口區忠孝路371-1號","121.36901","25.0719933333333","6501700","林口區"
"244009","656-BX","2019/11/25 17:43:24","新北市林口區文化一路二段189號","121.383711666667","25.0818116666667","6501700","林口區"
"244011","701-TV","2019/11/25 17:43:24","新北市林口區中正路263號","121.390316666667","25.0775916666667","6501700","林口區"
"244025","837-TS","2019/11/25 17:43:15","新北市林口區文化三路一段225巷13號","121.361903333333","25.0713566666667","6501700","林口區"
"244021","838-TS","2019/11/25 17:43:30","新北市林口區仁愛路一段167巷38號","121.397221666667","25.072735","6501700","林口區"
"222002","659-BX","2019/11/25 17:43:31","新北市深坑區北深路二段127號","121.61545","25.002665","6501800","深坑區"
"231046","719-UM","2019/11/25 17:43:21","新北市新店區直潭路92號","121.530958333333","24.9375883333333","6500600","新店區"
"241015","062-VK","2019/11/25 17:43:27","新北市三重區新北大道一段7號","121.489681666667","25.0612816666667","6500200","三重區"
"241007","066-VK","2019/11/25 17:43:26","新北市三重區國道路一段109號","121.478256666667","25.0731183333333","6500200","三重區"
"241006","262-UM","2019/11/25 17:43:16","新北市八里區中山路三段383號","121.372326666667","25.137835","6500200","三重區"
"241016","266-UM","2019/11/25 17:43:20","新北市三重區重新路二段124號","121.49632","25.0616216666667","6500200","三重區"
"241024","462-BY","2019/11/25 17:43:17","新北市三重區力行路二段9巷12號","121.483013333333","25.0721766666667","6500200","三重區"
"241014","543-UM","2019/11/25 17:43:30","新北市三重區龍濱路287號","121.500926666667","25.0737416666667","6500200","三重區"
"241019","KEA-2593","2019/11/25 17:43:19","新北市三重區六張街255巷6號","121.487151666667","25.0682366666667","6500200","三重區"
"241033","AAC-255","2019/11/25 17:43:17","新北市三重區光復路一段7號","121.472128333333","25.047095","6500200","三重區"
"247016","KEA-2869","2019/11/25 17:43:22","新北市蘆洲區中正路185巷31弄48號","121.467206666667","25.0829983333333","6501400","蘆洲區"
"247010","KED-0682","2019/11/25 17:43:29","新北市蘆洲區三民路2號","121.47599","25.0819566666667","6501400","蘆洲區"
"247006","893-R6","2019/11/25 17:43:33","新北市蘆洲區長安街23巷21號","121.4634","25.07842","6501400","蘆洲區"
"247020","546-UM","2019/11/25 17:43:21","新北市蘆洲區民義街101巷17-1號","121.473023333333","25.0913033333333","6501400","蘆洲區"
"247022","341-TH","2019/11/25 17:43:12","新北市蘆洲區中正路264巷21號","121.466136666667","25.090085","6501400","蘆洲區"
"247012","337-TH","2019/11/25 17:43:16","新北市蘆洲區復興路60巷1弄24號","121.475625","25.0863516666667","6501400","蘆洲區"
"247004","336-TH","2019/11/25 17:43:25","新北市蘆洲區長安街249巷13號","121.458368333333","25.0828633333333","6501400","蘆洲區"
"247024","057-VK","2019/11/25 17:43:28","新北市蘆洲區光榮路101巷28號","121.464033333333","25.090155","6501400","蘆洲區"
"247014","056-VK","2019/11/25 17:43:19","新北市蘆洲區中正路32號","121.47123","25.0822833333333","6501400","蘆洲區"
"247018","053-VK","2019/11/25 17:43:35","新北市蘆洲區民權路66號","121.475001666667","25.0872266666667","6501400","蘆洲區"
"247002","001-UY","2019/11/25 17:43:19","新北市蘆洲區永平街32巷13號","121.458825","25.0913833333333","6501400","蘆洲區"
"228003","097-TW","2019/11/25 17:43:34","新北市貢寮區仁理村仁和路35號","121.923931666667","25.0539033333333","6502600","貢寮區"
"228002","663-BX","2019/11/25 17:43:33","新北市貢寮區福隆里外隆林街14號","121.959075","25.0036016666667","6502600","貢寮區"
"224006","676-BX","2019/11/25 17:43:28","新北市瑞芳區靜安路四段98號","121.793381666667","25.1104916666667","6501200","瑞芳區"
"224009","275-VK","2019/11/25 17:43:30","新北市瑞芳區崙頂路1-6號","121.846906666667","25.1062683333333","6501200","瑞芳區"
"224008","273-VK","2019/11/25 17:43:19","新北市瑞芳區明燈路一段13號","121.82652","25.1069283333333","6501200","瑞芳區"
"224005","271-BY","2019/11/25 17:43:14","新北市瑞芳區籠山路26號","121.832315","25.1230233333333","6501200","瑞芳區"
"227001","642-TC","2019/11/25 17:23:35","新北市雙溪區三貂里政光路3-1號","121.850786666667","25.0633983333333","6502500","雙溪區"
"227002","400-TW","2019/11/25 17:43:22","新北市雙溪區共和里東榮街52號","121.866315","25.0336216666667","6502500","雙溪區"
"222001","KEA-2212","2019/11/25 17:43:22","新北市深坑區阿柔洋51-2號","121.609561666667","24.9985033333333","6501800","深坑區"
"251009","008-UM","2019/11/25 17:43:21","新北市淡水區中正路38-1號","121.443756666667","25.1692733333333","6501000","淡水區"
"251004","009-UM","2019/11/25 17:43:21","新北市淡水區民權路39號","121.459331666667","25.1408266666667","6501000","淡水區"
"251005","010-UM","2019/11/25 17:43:29","新北市淡水區鄧公路35巷2號","121.451596666667","25.1713216666667","6501000","淡水區"
"251015","KEA-2871","2019/11/25 17:43:14","新北市淡水區樹林口13-1號","121.47998","25.1684566666667","6501000","淡水區"
"251016","180-VK","2019/11/25 17:43:17","新北市淡水區埤島39-15號","121.452773333333","25.1958783333333","6501000","淡水區"
"251008","181-VK","2019/11/25 17:43:26","新北市淡水區八勢路50巷2-3號","121.462978333333","25.1528266666667","6501000","淡水區"
"251013","182-VK","2019/11/25 17:43:19","新北市淡水區社厝坑3-9號","121.474863333333","25.1897333333333","6501000","淡水區"
"251010","413-VK","2019/11/25 17:43:21","新北市淡水區淡海路280巷33弄34-2號","121.418735","25.1886066666667","6501000","淡水區"
"251012","441-VK","2019/11/25 17:43:31","新北市淡水區北新路一段16號","121.45414","25.1810033333333","6501000","淡水區"
"251007","442-VK","2019/11/25 17:43:24","新北市淡水區民生路124巷4弄7號","121.463603333333","25.1379183333333","6501000","淡水區"
"251006","561-UM","2019/11/25 17:43:36","新北市淡水區大信街24巷2號","121.441958333333","25.1765883333333","6501000","淡水區"
"251014","577-R6","2019/11/25 17:43:14","新北市淡水區北勢子19-1號","121.47994","25.227525","6501000","淡水區"
"251011","650-BX","2019/11/25 17:43:17","新北市淡水區坪頂路718號","121.482546666667","25.15846","6501000","淡水區"
"251002","672-BX","2019/11/25 17:43:17","新北市淡水區中山路141號","121.440896666667","25.1718766666667","6501000","淡水區"
"251003","673-BX","2019/11/25 17:43:28","新北市淡水區中山北路一段109號","121.442523333333","25.1765883333333","6501000","淡水區"
"207003","681-TV","2019/11/25 17:43:23","新北市萬里區龜吼里漁澳路25-1號","121.686253333333","25.1947633333333","6502800","萬里區"
"207004","291-VK","2019/11/25 17:43:23","新北市萬里區中幅里中福路6-2號","121.686905","25.1630916666667","6502800","萬里區"
"252001","292-VK","2019/11/25 17:43:22","新北市三芝區育英街25號","121.501461666667","25.2580116666667","6502100","三芝區"
"237004","KEA-2597","2019/11/25 17:43:27","新北市三峽區中山路459巷66號","121.355285","24.9363133333333","6500900","三峽區"
"237013","252-BX","2019/11/25 17:43:28","新北市三峽區愛國路12號","121.374153333333","24.9337166666667","6500900","三峽區"
"237014","433-BY","2019/11/25 17:43:25","新北市三峽區中山路184巷8號","121.364103333333","24.9366866666667","6500900","三峽區"
"237011","KEA-2596","2019/11/25 17:43:21","新北市三峽區仁愛街18號","121.368295","24.9324766666667","6500900","三峽區"
"237010","706-TV","2019/11/25 17:43:35","新北市三峽區中山路133號","121.36527","24.9360583333333","6500900","三峽區"
"237005","AKY-6261","2019/11/25 17:43:14","新北市三峽區中山路459巷135號","121.348703333333","24.9329283333333","6500900","三峽區"
"236042","KED-0685","2019/11/25 17:43:27","新北市土城區城林路6巷80號","121.438485","24.97956","6501300","土城區"
"233002","762-BX","2019/11/25 17:43:17","新北市烏來區烏來街29號","121.551213333333","24.86531","6502900","烏來區"
"236078","166-UM","2019/11/25 17:43:34","新北市土城區中央路三段62號","121.436796666667","24.9673666666667","6501300","土城區"
"236014","270-VK","2019/11/25 17:43:29","新北市土城區城林路6巷80號","121.438458333333","24.9795483333333","6501300","土城區"
"236039","271-VK","2019/11/25 17:43:24","新北市土城區城林路6巷80號","121.43846","24.9797383333333","6501300","土城區"
"247008","KED-0683","2019/11/25 17:43:31","新北市蘆洲區和平路19巷17號","121.472273333333","25.0783566666667","6501400","蘆洲區"
"252002","KED-0821","2019/11/25 17:43:24","新北市三芝區智成街73號","121.504498333333","25.2559933333333","6502100","三芝區"
"236020","401-BY","2019/11/25 17:43:22","新北市土城區城林路6巷80號","121.438791666667","24.979615","6501300","土城區"
"236059","912-UM","2019/11/25 17:43:33","新北市土城區城林路6巷80號","121.438515","24.9796983333333","6501300","土城區"
"236063","915-UM","2019/11/25 17:43:21","新北市土城區城林路6巷80號","121.438476666667","24.979715","6501300","土城區"
"242060","986-R7","2019/11/25 17:43:25","新北市新莊區瓊林南路75-19號","121.4347","25.013885","6500500","新莊區"
"242029","615-BX","2019/11/25 17:43:26","新北市新莊區復興路一段77號","121.448151666667","25.0426083333333","6500500","新莊區"
"242027","613-BX","2019/11/25 17:43:25","新北市新莊區福壽街126號","121.45773","25.0513033333333","6500500","新莊區"
"242058","612-BX","2019/11/25 17:43:29","新北市新莊區中正路618號","121.423761666667","25.0293333333333","6500500","新莊區"
"242048","566-BX","2019/11/25 17:43:26","新北市新莊區萬安街100號","121.420613333333","25.022385","6500500","新莊區"
"242053","497-BY","2019/11/25 17:43:30","新北市新莊區新樹路653號","121.432751666667","25.0031683333333","6500500","新莊區"
"242013","442-UM","2019/11/25 17:43:35","新北市新莊區中誠街144號","121.448743333333","25.0475983333333","6500500","新莊區"
"242002","441-UM","2019/11/25 17:43:32","新北市新莊區新莊路397號","121.451135","25.0336966666667","6500500","新莊區"
"242042","413-TV","2019/11/25 17:43:28","新北市新莊區福營路103號","121.433743333333","25.032065","6500500","新莊區"
"242050","400-BY","2019/11/25 17:43:33","新北市新莊區西盛街201巷14號","121.42896","25.0168366666667","6500500","新莊區"
"242025","362-BY","2019/11/25 17:43:19","新北市新莊區中原東路208號","121.460051666667","25.0550766666667","6500500","新莊區"
"242023","353-BY","2019/11/25 17:43:29","新北市新莊區民樂街74號","121.45794","25.0435266666667","6500500","新莊區"
"242015","132-UY","2019/11/25 17:43:28","新北市新莊區新泰路394號","121.44404","25.043485","6500500","新莊區"
"242039","135-UY","2019/11/25 17:43:32","新北市新莊區民安西路1號","121.426663333333","25.0219616666667","6500500","新莊區"
"242056","172-VK","2019/11/25 17:43:31","新北市新莊區瓊林路40巷2號","121.448016666667","25.0302433333333","6500500","新莊區"
"242017","173-VK","2019/11/25 17:43:24","新北市新莊區復興路一段147號","121.450338333333","25.0432466666667","6500500","新莊區"
"242031","175-VK","2019/11/25 17:43:14","新北市新莊區新泰路336號","121.444805","25.0420583333333","6500500","新莊區"
"242044","176-VK","2019/11/25 17:43:27","新北市新莊區富國路20號","121.418495","25.026235","6500500","新莊區"
"242021","KED-0687","2019/11/25 17:43:34","新北市新莊區中華路一段118號","121.45254","25.0406016666667","6500500","新莊區"
"242007","346-TH","2019/11/25 17:43:23","新北市新莊區福樂街118巷2號","121.457268333333","25.0480183333333","6500500","新莊區"
"242004","347-TH","2019/11/25 17:43:25","新北市新莊區自立街200號","121.456723333333","25.0454616666667","6500500","新莊區"
"242036","348-TH","2019/11/25 17:43:33","新北市新莊區建福路69巷28號","121.42818","25.02723","6500500","新莊區"
"242009","349-TH","2019/11/25 17:43:32","新北市新莊區昌明街14巷7弄16號","121.456848333333","25.0535416666667","6500500","新莊區"
"242034","350-TH","2019/11/25 17:43:26","新北市新莊區新莊路693號","121.444171666667","25.0328633333333","6500500","新莊區"
"242019","351-TH","2019/11/25 17:43:29","新北市新莊區中港路176號","121.45491","25.04188","6500500","新莊區"
"238015","755-BX","2019/11/25 17:43:23","新北市樹林區長壽街70巷1弄2號","121.421116666667","24.99474","6500700","樹林區"
"238023","601-UM","2019/11/25 17:43:32","新北市樹林區福興街13巷7號","121.404256666667","25.0167683333333","6500700","樹林區"
"238019","599-UM","2019/11/25 17:43:29","新北市樹林區太平路127巷12號","121.419783333333","24.9806133333333","6500700","樹林區"
"238024","5061-A6","2019/11/25 17:43:16","新北市樹林區中山路三段204號","121.387208333333","24.9683","6500700","樹林區"
"238018","KEA-2217","2019/11/25 17:43:13","新北市樹林區博愛街71號","121.427185","24.9921583333333","6500700","樹林區"
"238022","KEA-2213","2019/11/25 17:43:31","新北市樹林區太元街58號","121.418258333333","24.9793816666667","6500700","樹林區"
"238021","KEA-2539","2019/11/25 17:43:13","新北市樹林區柑園街一段137號","121.400916666667","24.959175","6500700","樹林區"
"238025","303-VK","2019/11/25 17:43:18","新北市樹林區三俊街32號","121.411715","25.0153883333333","6500700","樹林區"
"238017","283-BY","2019/11/25 17:43:23","新北市樹林區三德街30巷17號","121.414731666667","25.0125883333333","6500700","樹林區"
"238014","282-BY","2019/11/25 17:43:32","新北市樹林區保安街一段289巷56號","121.417265","24.9961916666667","6500700","樹林區"
"238020","268-VK","2019/11/25 17:43:30","新北市樹林區俊英街210號","121.425238333333","25.0093916666667","6500700","樹林區"
"238026","172-UY","2019/11/25 17:43:23","新北市樹林區中山路三段27巷3弄12-4號","121.401918333333","24.9734983333333","6500700","樹林區"
"238016","169-UY","2019/11/25 17:43:22","新北市樹林區復興路337號","121.41774","24.9878","6500700","樹林區"
"239007","AAC-297","2019/11/25 17:43:15","新北市鶯歌區鶯桃路182巷24號","121.337478333333","24.95622","6500800","鶯歌區"
"239006","891-R6","2019/11/25 17:43:24","新北市鶯歌區永和街117號","121.333718333333","24.9686","6500800","鶯歌區"
"239008","527-UM","2019/11/25 17:43:18","新北市鶯歌區大湖路391號","121.330958333333","24.9788583333333","6500800","鶯歌區"
"239001","417-VK","2019/11/25 17:43:24","新北市鶯歌區高職西街112號","121.335933333333","24.9411416666667","6500800","鶯歌區"
"239003","360-BY","2019/11/25 17:43:20","新北市鶯歌區鶯桃路179號","121.337851666667","24.9586066666667","6500800","鶯歌區"
"239002","359-BY","2019/11/25 17:43:21","新北市鶯歌區育英街15號","121.346875","24.9552616666667","6500800","鶯歌區"
"239004","193-VK","2019/11/25 17:43:15","新北市鶯歌區三鶯路87號","121.358685","24.9435383333333","6500800","鶯歌區"
"221008","489-VK","2019/11/25 17:43:26","新北市汐止區康寧街901號","121.651501666667","25.0750366666667","6501100","汐止區"
"221010","269-BY","2019/11/25 17:43:21","新北市汐止區汐萬路一段418巷27號","121.650143333333","25.0788916666667","6501100","汐止區"
"221029","298-VK","2019/11/25 17:43:20","新北市汐止區汐萬路一段256巷1號","121.651741666667","25.074885","6501100","汐止區"
"233001","KEA-2870","2019/11/25 17:43:33","新北市烏來區信福路79號","121.526251666667","24.8368533333333","6502900","烏來區"
"224002","257-TC","2019/11/25 17:36:25","新北市瑞芳區明燈路二段46號","121.80953","25.1081583333333","6501200","瑞芳區"
"242046","281-VK","2019/11/25 17:43:17","新北市新莊區福營路103號","121.433915","25.0322916666667","6500500","新莊區"
"242011","280-VK","2019/11/25 17:43:17","新北市新莊區榮華路二段2號","121.45085","25.05584","6500500","新莊區"
