"lineid","car","time","location","longitude","latitude","cityid","cityname"
"234007","KED-0605","2019/11/25 18:13:24","新北市永和區仁愛路306巷35弄2號","121.502013333333","25.0086783333333","6500400","永和區"
"234026","9371-KE","2019/11/25 18:13:32","新北市永和區自強街8巷5弄2號","121.514743333333","25.007545","6500400","永和區"
"249005","172-UM","2019/11/25 18:13:28","新北市八里區荖阡坑路15-40號","121.401743333333","25.1398266666667","6502300","八里區"
"249001","173-UM","2019/11/25 18:13:31","新北市八里區龍米路一段245號","121.451053333333","25.1333133333333","6502300","八里區"
"249004","303-UY","2019/11/25 18:13:17","新北市八里區龍米路二段200巷5號","121.433816666667","25.1591733333333","6502300","八里區"
"249002","305-UY","2019/11/25 18:13:29","新北市八里區龍形一街3號","121.450738333333","25.1306833333333","6502300","八里區"
"249003","759-BX","2019/11/25 18:13:30","新北市八里區商港路48號","121.395795","25.1451683333333","6502300","八里區"
"248016","026-BX","2019/11/25 18:13:19","新北市五股區新五路三段1號","121.444458333333","25.08936","6501500","五股區"
"248006","077-UY","2019/11/25 18:13:17","新北市五股區中興路一段169號","121.464576666667","25.073775","6501500","五股區"
"248008","KED-0815","2019/11/25 18:13:30","新北市五股區更洲路32巷8弄14號","121.459228333333","25.0796183333333","6501500","五股區"
"248018","KED-0813","2019/11/25 18:13:29","新北市五股區成泰路三段74號","121.444306666667","25.0897516666667","6501500","五股區"
"248012","247-BX","2019/11/25 18:13:26","新北市五股區新五路三段1號","121.444375","25.0894166666667","6501500","五股區"
"248014","261-SL","2019/11/25 18:13:21","新北市五股區成泰路一段171巷13號","121.43441","25.0744716666667","6501500","五股區"
"248004","677-BX","2019/11/25 18:13:26","新北市五股區中興路四段49號","121.43821","25.0828566666667","6501500","五股區"
"248002","678-BX","2019/11/25 18:13:20","新北市五股區新五路三段1號","121.444406666667","25.0889966666667","6501500","五股區"
"248010","682-TV","2019/11/25 18:13:25","新北市五股區成泰路一段219-19號","121.434601666667","25.0776616666667","6501500","五股區"
"232011","375-UM","2019/11/25 18:13:28","新北市坪林區下坑子口5-9號","121.71336","24.94212","6502000","坪林區"
"244007","080-UY","2019/11/25 18:13:32","新北市林口區林口路222號","121.386906666667","25.0836516666667","6501700","林口區"
"244019","403-UM","2019/11/25 18:13:31","新北市林口區忠孝路552巷19-8號","121.374751666667","25.0668866666667","6501700","林口區"
"244013","KEA-2802","2019/11/25 18:13:25","新北市林口區佳林路101巷36號","121.38699","25.0800233333333","6501700","林口區"
"244023","483-VK","2019/11/25 18:13:22","新北市林口區東湖路153巷135號","121.382245","25.0735766666667","6501700","林口區"
"244017","485-VK","2019/11/25 18:13:14","新北市林口區公園路21號","121.366793333333","25.067655","6501700","林口區"
"244009","656-BX","2019/11/25 18:13:24","新北市林口區文林二街30號","121.376373333333","25.0881766666667","6501700","林口區"
"244011","701-TV","2019/11/25 18:13:24","新北市林口區新寮1-61號","121.392803333333","25.0764516666667","6501700","林口區"
"244025","837-TS","2019/11/25 18:13:35","新北市林口區文化北路一段299巷20號","121.35939","25.0733683333333","6501700","林口區"
"244021","838-TS","2019/11/25 18:13:30","新北市林口區自強五街23號","121.400155","25.0757616666667","6501700","林口區"
"243007","680-BX","2019/11/25 17:47:06","新北市泰山區犁頭窠3-1號","121.422193333333","25.06058","6501600","泰山區"
"222003","436-BY","2019/11/25 18:13:23","新北市深坑區文山路二段31號","121.616388333333","24.9987716666667","6501800","深坑區"
"222002","659-BX","2019/11/25 18:13:31","新北市深坑區文化街13號","121.62034","25.0012583333333","6501800","深坑區"
"231055","0291-UT","2019/11/25 18:13:29","新北市新店區安華路28-1號","121.519611666667","24.9606666666667","6500600","新店區"
"231060","106-UY","2019/11/25 18:13:14","新北市新店區安華路28-1號","121.519591666667","24.960845","6500600","新店區"
"231062","256-BX","2019/11/25 18:13:18","新北市新店區安一路一段1-1號","121.51967","24.9610883333333","6500600","新店區"
"231054","260-TV","2019/11/25 18:13:16","新北市新店區安一路一段1-1號","121.519221666667","24.9612033333333","6500600","新店區"
"231042","268-BY","2019/11/25 18:13:15","新北市新店區安華路28-1號","121.519403333333","24.960565","6500600","新店區"
"231064","278-BY","2019/11/25 18:13:18","新北市新店區安華路28-1號","121.519991666667","24.9610066666667","6500600","新店區"
"231050","AAD-862","2019/11/25 18:13:16","新北市新店區安華路28-1號","121.520111666667","24.960995","6500600","新店區"
"231045","355-BY","2019/11/25 18:13:19","新北市新店區安一路一段1-1號","121.518973333333","24.9610633333333","6500600","新店區"
"231058","3713-VJ","2019/11/25 18:13:18","新北市新店區安華路28-1號","121.518995","24.9609016666667","6500600","新店區"
"231056","4715-K9","2019/11/25 18:13:23","新北市新店區秀山路20號","121.53253","24.9603783333333","6500600","新店區"
"231052","513-UM","2019/11/25 18:13:30","新北市新店區安康路一段355-3號","121.519825","24.962325","6500600","新店區"
"231040","617-UM","2019/11/25 18:13:31","新北市新店區安一路一段1-1號","121.519236666667","24.961025","6500600","新店區"
"231046","719-UM","2019/11/25 18:13:21","新北市新店區康雅崙路7號","121.536233333333","24.9258966666667","6500600","新店區"
"231057","720-UM","2019/11/25 18:13:20","新北市新店區安一路一段1-1號","121.518943333333","24.9617116666667","6500600","新店區"
"231043","899-TW","2019/11/25 18:13:23","新北市新店區安華路28-1號","121.519235","24.9607733333333","6500600","新店區"
"241006","262-UM","2019/11/25 18:13:16","新北市五股區中興路三段5號","121.450036666667","25.0796266666667","6500200","三重區"
"235066","003-UY","2019/11/25 18:13:23","新北市中和區和城路一段271巷1號","121.485413333333","24.9919416666667","6500300","中和區"
"235064","005-UY","2019/11/25 18:13:18","新北市中和區中正路166-1號","121.498355","24.9939483333333","6500300","中和區"
"235063","006-UY","2019/11/25 18:13:31","新北市中和區中正路585號","121.485991666667","24.9945483333333","6500300","中和區"
"235056","096-UM","2019/11/25 18:13:20","新北市中和區中正路748號","121.485525","24.9985066666667","6500300","中和區"
"235039","097-UM","2019/11/25 18:13:31","新北市中和區中正路277號","121.495335","24.99386","6500300","中和區"
"235065","098-UM","2019/11/25 18:13:25","新北市中和區莊敬路49巷18號","121.501683333333","25.0061066666667","6500300","中和區"
"235040","150-BY","2019/11/25 18:13:24","新北市中和區景安路79巷1號","121.506688333333","24.9973383333333","6500300","中和區"
"235058","151-BY","2019/11/25 18:13:33","新北市中和區圓通路385號","121.490218333333","24.9892233333333","6500300","中和區"
"235055","183-VK","2019/11/25 18:13:19","新北市中和區新生街249號","121.483853333333","24.9987083333333","6500300","中和區"
"235038","185-VK","2019/11/25 18:13:31","新北市中和區大智街57號","121.521203333333","24.9920566666667","6500300","中和區"
"235044","293-VK","2019/11/25 18:13:30","新北市中和區和城路一段271巷1號","121.485413333333","24.99193","6500300","中和區"
"235072","301-VK","2019/11/25 18:13:23","新北市中和區錦和路101號","121.490068333333","24.9954183333333","6500300","中和區"
"235043","352-BY","2019/11/25 18:13:23","新北市中和區景平路381號","121.503945","24.9933766666667","6500300","中和區"
"235042","KEA-2878","2019/11/25 18:12:41","新北市中和區景平路123號","121.515555","24.9919433333333","6500300","中和區"
"235050","4979-A6","2019/11/25 18:13:27","新北市中和區中正路277-2號","121.49526","24.9935566666667","6500300","中和區"
"235069","4980-A6","2019/11/25 18:13:19","新北市中和區連城路169號","121.49549","24.9983033333333","6500300","中和區"
"235070","558-UM","2019/11/25 18:13:21","新北市中和區圓通路115號","121.49935","24.9964183333333","6500300","中和區"
"235045","565-BX","2019/11/25 18:13:21","新北市中和區景安路200巷9號","121.503185","24.9918066666667","6500300","中和區"
"235060","KED-0823","2019/11/25 18:13:22","新北市中和區員山路168號","121.481321666667","24.99984","6500300","中和區"
"235054","640-BX","2019/11/25 18:13:21","新北市中和區民享街86巷28號","121.473275","25.0006","6500300","中和區"
"235047","732-UM","2019/11/25 18:10:29","新北市中和區中正路426號","121.491526666667","24.9935633333333","6500300","中和區"
"235046","733-UM","2019/11/25 18:13:13","新北市中和區員山路36巷13號","121.484096666667","24.990935","6500300","中和區"
"235062","800-TS","2019/11/25 18:13:21","新北市中和區中正路832號","121.484766666667","25.004205","6500300","中和區"
"235057","801-TS","2019/11/25 18:13:20","新北市中和區民享街97巷19號","121.475431666667","24.99956","6500300","中和區"
"235041","802-TS","2019/11/25 18:13:16","新北市中和區中正路589巷15號","121.48563","24.9935566666667","6500300","中和區"
"235052","805-TS","2019/11/25 18:13:18","新北市中和區南山路287號","121.504333333333","24.992095","6500300","中和區"
"235048","896-TW","2019/11/25 18:13:30","新北市中和區員山路36巷16-2號","121.485255","24.99167","6500300","中和區"
"235051","157-BY","2019/11/25 18:13:22","新北市中和區信義街61號","121.511563333333","24.988305","6500300","中和區"
"235037","AAC-213","2019/11/25 18:13:28","新北市中和區景平路151巷37號","121.514596666667","24.99075","6500300","中和區"
"226004","312-R5","2019/11/25 18:12:51","新北市平溪區薯榔里薯榔寮30號","121.713538333333","25.0191716666667","6502400","平溪區"
"228003","097-TW","2019/11/25 18:13:14","新北市貢寮區真理里美艷山街12-8號","121.927998333333","25.0638783333333","6502600","貢寮區"
"228002","663-BX","2019/11/25 18:13:31","新北市貢寮區福連里馬崗街10號","122.001876666667","25.013765","6502600","貢寮區"
"228001","670-TC","2019/11/25 18:13:28","新北市貢寮區真理里新港街26巷55弄2-1號","121.927435","25.0528333333333","6502600","貢寮區"
"224006","676-BX","2019/11/25 18:13:33","新北市瑞芳區東和路35號","121.805101666667","25.105985","6501200","瑞芳區"
"224007","285-BY","2019/11/25 18:13:22","新北市瑞芳區四腳亭坑路49-1號","121.768248333333","25.1060433333333","6501200","瑞芳區"
"224009","275-VK","2019/11/25 18:13:30","新北市瑞芳區金光路217號","121.852355","25.10716","6501200","瑞芳區"
"224008","273-VK","2019/11/25 18:13:19","新北市瑞芳區國中新村18號","121.817233333333","25.1073566666667","6501200","瑞芳區"
"224005","271-BY","2019/11/25 18:13:34","新北市瑞芳區建基路二段54號","121.81521","25.1286616666667","6501200","瑞芳區"
"227001","642-TC","2019/11/25 18:13:31","新北市雙溪區三貂里政光路3號","121.851415","25.0630416666667","6502500","雙溪區"
"227002","400-TW","2019/11/25 18:13:22","新北市雙溪區雙溪里太平路16號","121.864391666667","25.0352016666667","6502500","雙溪區"
"253005","032-BX","2019/11/25 18:13:36","新北市石門區中央路37-2號","121.568515","25.2947066666667","6502200","石門區"
"253006","295-VK","2019/11/25 18:13:23","新北市石門區老梅路52巷19號","121.546341666667","25.2886066666667","6502200","石門區"
"222001","KEA-2212","2019/11/25 18:13:22","新北市深坑區北深路二段109號","121.617135","25.003325","6501800","深坑區"
"208002","KEA-2872","2019/11/25 18:13:22","新北市金山區法鼓路91號","121.624908333333","25.23405","6502700","金山區"
"208003","665-BX","2019/11/25 18:13:34","新北市金山區民生路2號","121.649895","25.2252866666667","6502700","金山區"
"251004","009-UM","2019/11/25 18:13:21","新北市淡水區民族路110巷12弄1號","121.461965","25.1355016666667","6501000","淡水區"
"251005","010-UM","2019/11/25 18:13:29","新北市淡水區水源街一段120號","121.447306666667","25.1717433333333","6501000","淡水區"
"251015","KEA-2871","2019/11/25 18:13:14","新北市淡水區興福寮88巷1號","121.48529","25.1649016666667","6501000","淡水區"
"251016","180-VK","2019/11/25 18:13:16","新北市淡水區淡金路三段70巷1號","121.448421666667","25.2000933333333","6501000","淡水區"
"251008","181-VK","2019/11/25 18:13:26","新北市淡水區中正東路二段7號","121.457933333333","25.158625","6501000","淡水區"
"251013","182-VK","2019/11/25 18:13:33","新北市淡水區破瓦厝子1-12號","121.475885","25.1987416666667","6501000","淡水區"
"251010","413-VK","2019/11/25 18:13:20","新北市淡水區中正路二段52號","121.419666666667","25.183205","6501000","淡水區"
"251012","441-VK","2019/11/25 18:13:31","新北市淡水區北新路三段162號","121.49239","25.1919316666667","6501000","淡水區"
"251001","559-UM","2019/11/25 18:13:20","新北市淡水區自立路8號","121.462746666667","25.12958","6501000","淡水區"
"251006","561-UM","2019/11/25 18:13:16","新北市淡水區新民街76巷2號","121.438816666667","25.17647","6501000","淡水區"
"251014","577-R6","2019/11/25 18:13:34","新北市淡水區北勢子8-2號","121.484865","25.2237533333333","6501000","淡水區"
"251011","650-BX","2019/11/25 18:13:17","新北市淡水區坪頂路762號","121.484533333333","25.15745","6501000","淡水區"
"251002","672-BX","2019/11/25 18:13:17","新北市淡水區中正東路一段68號","121.452983333333","25.1614933333333","6501000","淡水區"
"251003","673-BX","2019/11/25 18:13:28","新北市淡水區北新路182巷37號","121.448485","25.1774533333333","6501000","淡水區"
"207003","681-TV","2019/11/25 18:13:23","新北市萬里區港東路野柳風景區攤販98號","121.690988333333","25.2055916666667","6502800","萬里區"
"207004","291-VK","2019/11/25 18:13:23","新北市萬里區中幅里中福路157號","121.67383","25.1662733333333","6502800","萬里區"
"252003","249-BX","2019/11/25 18:13:33","新北市三芝區古庄里四棧橋18-3號","121.489761666667","25.2611033333333","6502100","三芝區"
"252001","292-VK","2019/11/25 18:13:22","新北市三芝區中興街二段6號","121.498471666667","25.256595","6502100","三芝區"
"208001","170-UY","2019/11/25 18:13:24","新北市金山區磺港里磺港路75號","121.64756","25.2267466666667","6502700","金山區"
"237004","KEA-2597","2019/11/25 18:13:27","新北市三峽區大埔路353號","121.371123333333","24.8958083333333","6500900","三峽區"
"237007","153-BY","2019/11/25 18:13:31","新北市三峽區中正路二段412巷6-1號","121.364873333333","24.90841","6500900","三峽區"
"237009","210-TH","2019/11/25 18:13:24","新北市三峽區大仁路64號","121.364973333333","24.93743","6500900","三峽區"
"237013","252-BX","2019/11/25 18:13:28","新北市三峽區長泰街20號","121.378841666667","24.9316766666667","6500900","三峽區"
"237012","275-BY","2019/11/25 18:13:17","新北市三峽區民生街1巷3-12號","121.377791666667","24.936305","6500900","三峽區"
"237008","302-VK","2019/11/25 18:13:26","新北市三峽區白雞68-47號","121.3919","24.90921","6500900","三峽區"
"237014","433-BY","2019/11/25 18:13:25","新北市三峽區復興路110巷4弄2號","121.37305","24.93845","6500900","三峽區"
"237006","5529-G3","2019/11/25 18:13:31","新北市三峽區溪東路178巷13弄10號","121.406158333333","24.9322266666667","6500900","三峽區"
"237011","KEA-2596","2019/11/25 18:13:21","新北市三峽區介壽路三段16號","121.39577","24.9362583333333","6500900","三峽區"
"237015","649-BX","2019/11/25 18:13:20","新北市三峽區紫新路32巷1號","121.422383333333","24.9218733333333","6500900","三峽區"
"237010","706-TV","2019/11/25 18:13:15","新北市三峽區中園街3號","121.368585","24.9274783333333","6500900","三峽區"
"237005","AKY-6261","2019/11/25 18:13:34","新北市三峽區文化路65巷12號","121.372086666667","24.9355016666667","6500900","三峽區"
"236042","KED-0685","2019/11/25 18:13:27","新北市土城區裕生路84巷2號","121.447345","24.9853833333333","6501300","土城區"
"233002","762-BX","2019/11/25 18:13:17","新北市烏來區新烏路五段46號","121.542916666667","24.8779733333333","6502900","烏來區"
"236078","166-UM","2019/11/25 18:13:14","新北市土城區永安街82號","121.431868333333","24.9637516666667","6501300","土城區"
"236030","253-BX","2019/11/25 18:13:16","新北市土城區城林路6巷80號","121.438281666667","24.9798816666667","6501300","土城區"
"236026","269-VK","2019/11/25 18:13:15","新北市土城區承天路18號","121.439496666667","24.9633516666667","6501300","土城區"
"236014","270-VK","2019/11/25 18:13:29","新北市土城區青雲路39巷7號","121.460298333333","24.987405","6501300","土城區"
"236039","271-VK","2019/11/25 18:13:24","新北市土城區明德路一段375-3號","121.454498333333","24.97833","6501300","土城區"
"236069","KEA-2877","2019/11/25 18:13:21","新北市土城區明德路一段128巷2號","121.463186666667","24.9789716666667","6501300","土城區"
"252002","KED-0821","2019/11/25 18:13:24","新北市三芝區中山路二段41號","121.50297","25.25509","6502100","三芝區"
"236020","401-BY","2019/11/25 18:13:22","新北市土城區明德路一段385-1號","121.452565","24.9796566666667","6501300","土城區"
"236048","752-BX","2019/11/25 18:13:21","新北市土城區明德路一段365-1號","121.453563333333","24.9790133333333","6501300","土城區"
"236059","912-UM","2019/11/25 18:13:36","新北市土城區中央路四段376號","121.41298","24.9546616666667","6501300","土城區"
"236063","915-UM","2019/11/25 18:13:21","新北市土城區金城路二段384號","121.463463333333","24.9855783333333","6501300","土城區"
"236055","AAC-216","2019/11/25 18:13:28","新北市土城區中華路二段92號","121.43824","24.9747466666667","6501300","土城區"
"242060","986-R7","2019/11/25 18:13:15","新北市新莊區新樹路259號","121.434631666667","25.0215633333333","6500500","新莊區"
"242027","613-BX","2019/11/25 18:13:25","新北市新莊區幸福路599號","121.45339","25.0491866666667","6500500","新莊區"
"242058","612-BX","2019/11/25 18:13:29","新北市新莊區天祥街120巷3弄9號","121.41381","25.030475","6500500","新莊區"
"242048","566-BX","2019/11/25 18:13:26","新北市新莊區富國路156號","121.42329","25.024895","6500500","新莊區"
"242053","497-BY","2019/11/25 18:13:34","新北市新莊區民安西路400號","121.42872","25.010145","6500500","新莊區"
"242013","442-UM","2019/11/25 18:13:15","新北市新莊區瓊泰路63巷23弄9號","121.44217","25.028115","6500500","新莊區"
"242002","441-UM","2019/11/25 18:13:15","新北市新莊區新莊路90號","121.45667","25.036235","6500500","新莊區"
"242042","413-TV","2019/11/25 18:13:28","新北市新莊區壽山路31號","121.419965","25.0286866666667","6500500","新莊區"
"242050","400-BY","2019/11/25 18:13:33","新北市新莊區民本街11巷28號","121.429008333333","25.0202833333333","6500500","新莊區"
"242025","362-BY","2019/11/25 18:13:19","新北市新莊區五工一路98號","121.460536666667","25.06805","6500500","新莊區"
"242023","353-BY","2019/11/25 18:13:29","新北市新莊區幸福路858號","121.443865","25.0489733333333","6500500","新莊區"
"242015","132-UY","2019/11/25 18:13:28","新北市新莊區中平路152巷11號","121.445451666667","25.0474266666667","6500500","新莊區"
"242039","135-UY","2019/11/25 18:10:52","新北市新莊區民安東路157號","121.432825","25.0205433333333","6500500","新莊區"
"242056","172-VK","2019/11/25 18:13:31","新北市新莊區豐年街55-10號","121.44653","25.0307066666667","6500500","新莊區"
"242031","175-VK","2019/11/25 18:13:33","新北市新莊區新泰路277巷11號","121.445236666667","25.0402866666667","6500500","新莊區"
"242044","176-VK","2019/11/25 18:13:27","新北市新莊區中正路887-3號","121.416758333333","25.0247033333333","6500500","新莊區"
"242021","KED-0687","2019/11/25 18:13:27","新北市新莊區新興街35號","121.450753333333","25.0376583333333","6500500","新莊區"
"242007","346-TH","2019/11/25 18:13:23","新北市新莊區自立街79巷12號","121.454463333333","25.0458633333333","6500500","新莊區"
"242004","347-TH","2019/11/25 18:13:25","新北市新莊區自立街108號","121.455108333333","25.0453433333333","6500500","新莊區"
"242036","348-TH","2019/11/25 18:13:33","新北市新莊區後港一路49巷3弄11號","121.425185","25.026655","6500500","新莊區"
"242009","349-TH","2019/11/25 18:13:32","新北市新莊區昌平街59巷34號","121.453798333333","25.0533733333333","6500500","新莊區"
"242034","350-TH","2019/11/25 18:13:26","新北市新莊區新泰路51號","121.44942","25.0337933333333","6500500","新莊區"
"242019","351-TH","2019/11/25 18:13:29","新北市新莊區公園路154號","121.453231666667","25.0401266666667","6500500","新莊區"
"238015","755-BX","2019/11/25 18:13:23","新北市樹林區文化街112巷6號","121.417041666667","24.99028","6500700","樹林區"
"238023","601-UM","2019/11/25 18:13:27","新北市樹林區忠義街18號","121.40955","25.0142916666667","6500700","樹林區"
"238019","599-UM","2019/11/25 18:13:29","新北市樹林區忠孝街103-1號","121.424635","24.9809583333333","6500700","樹林區"
"238018","KEA-2217","2019/11/25 18:13:33","新北市樹林區博愛街109號","121.42673","24.9908883333333","6500700","樹林區"
"238025","303-VK","2019/11/25 18:13:18","新北市樹林區保安街二段2-10號","121.41657","24.9997933333333","6500700","樹林區"
"238017","283-BY","2019/11/25 18:13:22","新北市樹林區中正路592號","121.410623333333","25.0155033333333","6500700","樹林區"
"238014","282-BY","2019/11/25 18:13:32","新北市樹林區大安路111巷26弄2號","121.423678333333","24.99718","6500700","樹林區"
"238020","268-VK","2019/11/25 18:13:30","新北市樹林區三俊街69號","121.413513333333","25.016295","6500700","樹林區"
"238026","172-UY","2019/11/25 18:13:28","新北市樹林區佳園路一段90巷5號","121.393048333333","24.969135","6500700","樹林區"
"238016","169-UY","2019/11/25 18:13:22","新北市樹林區復興路340號","121.4162","24.9865033333333","6500700","樹林區"
"239007","AAC-297","2019/11/25 18:13:36","新北市鶯歌區尖山埔路163號","121.346073333333","24.95087","6500800","鶯歌區"
"239006","891-R6","2019/11/25 18:13:24","新北市鶯歌區鶯桃路365巷10號","121.333185","24.9628616666667","6500800","鶯歌區"
"239008","527-UM","2019/11/25 18:13:17","新北市鶯歌區朝陽街48巷1號","121.33737","24.9776383333333","6500800","鶯歌區"
"239001","417-VK","2019/11/25 18:13:24","新北市鶯歌區中正三路448號","121.323336666667","24.934505","6500800","鶯歌區"
"239003","360-BY","2019/11/25 18:13:20","新北市鶯歌區鶯桃路379號","121.333716666667","24.96345","6500800","鶯歌區"
"239002","359-BY","2019/11/25 18:13:25","新北市鶯歌區光明街48巷10號","121.348018333333","24.956385","6500800","鶯歌區"
"221008","489-VK","2019/11/25 18:13:26","新北市汐止區明峰街218號","121.62679","25.068765","6501100","汐止區"
"221036","130-UY","2019/11/25 18:13:11","新北市汐止區大同路三段116號","121.672113333333","25.076705","6501100","汐止區"
"221015","131-UY","2019/11/25 18:13:15","新北市汐止區長江街333號","121.66676","25.081755","6501100","汐止區"
"221010","269-BY","2019/11/25 18:13:21","新北市汐止區汐萬路二段275巷3弄1號","121.645261666667","25.08875","6501100","汐止區"
"221012","278-VK","2019/11/25 18:13:16","新北市汐止區保一街81-1號","121.67479","25.0802833333333","6501100","汐止區"
"221023","279-VK","2019/11/25 18:13:31","新北市汐止區中興路295號","121.627765","25.070175","6501100","汐止區"
"221032","280-BY","2019/11/25 18:13:25","新北市汐止區橫科路25號","121.618036666667","25.0511633333333","6501100","汐止區"
"221027","281-BY","2019/11/25 18:13:24","新北市汐止區和平街6巷1弄2號","121.66341","25.071185","6501100","汐止區"
"221029","298-VK","2019/11/25 18:13:20","新北市汐止區樟樹二路320號","121.641428333333","25.0700033333333","6501100","汐止區"
"221021","299-VK","2019/11/25 18:13:33","新北市汐止區復興路22號","121.656018333333","25.0638766666667","6501100","汐止區"
"221031","353-TW","2019/11/25 18:13:24","新北市汐止區中興路181巷14弄10號","121.629931666667","25.0667483333333","6501100","汐止區"
"221035","622-UM","2019/11/25 18:13:32","新北市汐止區新江北路17號","121.652906666667","25.07046","6501100","汐止區"
"221025","623-UM","2019/11/25 18:13:21","新北市汐止區秀峰路151巷1號","121.66087","25.06195","6501100","汐止區"
"221038","646-BX","2019/11/25 18:13:32","新北市汐止區環山路20號","121.657371666667","25.0600816666667","6501100","汐止區"
"221033","647-BX","2019/11/25 18:13:22","新北市汐止區宜興街40巷22弄2號","121.622501666667","25.0410666666667","6501100","汐止區"
"221002","707-TV","2019/11/25 18:13:22","新北市汐止區福德一路197號","121.635483333333","25.0655283333333","6501100","汐止區"
"221018","753-BX","2019/11/25 18:13:18","新北市汐止區忠孝東路337號","121.665378333333","25.0699","6501100","汐止區"
"233001","KEA-2870","2019/11/25 18:13:33","新北市烏來區新烏路五段82號","121.547851666667","24.8718933333333","6502900","烏來區"
"224002","257-TC","2019/11/25 18:13:28","新北市瑞芳區三爪子坑路149巷22-14號","121.811658333333","25.1059","6501200","瑞芳區"
"242046","281-VK","2019/11/25 18:13:24","新北市新莊區福營路297號","121.426933333333","25.0290733333333","6500500","新莊區"
"242011","280-VK","2019/11/25 18:13:31","新北市新莊區中榮街54號","121.449306666667","25.052735","6500500","新莊區"
"235061","KEA-2875","2019/11/25 18:13:14","新北市中和區國光街215巷71-2號","121.467885","24.999535","6500300","中和區"
