"lineid","car","time","location","longitude","latitude","cityid","cityname"
"234046","148-BY","2019/11/25 18:59:29","新北市永和區得和路373巷16弄2號","121.525241666667","25.0001266666667","6500400","永和區"
"234081","298-R6","2019/11/25 18:59:31","新北市永和區國中路150號","121.522635","25.006785","6500400","永和區"
"234038","336-UY","2019/11/25 18:59:33","新北市永和區成功路二段207號","121.526611666667","24.9958683333333","6500400","永和區"
"234064","337-UY","2019/11/25 18:59:25","新北市永和區秀朗路一段140號","121.51805","25.0033633333333","6500400","永和區"
"234086","338-UY","2019/11/25 18:59:17","新北市永和區中正路395號","121.517251666667","25.004125","6500400","永和區"
"234070","552-UM","2019/11/25 18:59:15","新北市永和區竹林路96巷9號","121.51912","25.0120383333333","6500400","永和區"
"234017","745-BX","2019/11/25 18:59:19","新北市永和區永和路二段310號","121.516143333333","25.0160583333333","6500400","永和區"
"234030","746-BX","2019/11/25 18:59:35","新北市永和區秀朗路二段291號","121.526168333333","24.9980133333333","6500400","永和區"
"234054","KEA-2590","2019/11/25 18:59:17","新北市永和區竹林路64號","121.518211666667","25.0135333333333","6500400","永和區"
"234007","KED-0605","2019/11/25 18:59:24","新北市永和區永和路二段61號","121.51476","25.011175","6500400","永和區"
"234013","KEA-2591","2019/11/25 18:59:22","新北市永和區信義路17巷9弄1號","121.51393","25.0116883333333","6500400","永和區"
"234061","AAD-866","2019/11/25 18:59:30","新北市永和區福和路313號","121.516176666667","25.007125","6500400","永和區"
"234042","862-TW","2019/11/25 18:59:22","新北市永和區永貞路306號","121.511875","25.0048566666667","6500400","永和區"
"234050","863-TW","2019/11/25 18:59:22","新北市永和區文化路147號","121.510743333333","25.0161916666667","6500400","永和區"
"234026","9371-KE","2019/11/25 18:59:32","新北市永和區安樂路304巷7號","121.514381666667","25.005165","6500400","永和區"
"234011","9373-KE","2019/11/25 18:59:20","新北市永和區文化路75號","121.513815","25.01515","6500400","永和區"
"249005","172-UM","2019/11/25 18:59:28","新北市八里區長道坑11號","121.395243333333","25.1216783333333","6502300","八里區"
"249001","173-UM","2019/11/25 18:59:28","新北市八里區龍米路二段228-1號","121.432796666667","25.1584433333333","6502300","八里區"
"249003","759-BX","2019/11/25 18:37:49","新北市八里區博物館路10-1號","121.415108333333","25.1639383333333","6502300","八里區"
"248016","026-BX","2019/11/25 18:59:30","新北市五股區成泰路三段559巷14弄4號","121.451458333333","25.1025883333333","6501500","五股區"
"248006","077-UY","2019/11/25 18:59:17","新北市五股區四維路173號","121.46793","25.0750516666667","6501500","五股區"
"248008","KED-0815","2019/11/25 18:59:29","新北市五股區中興路一段128巷27號","121.465661666667","25.0747533333333","6501500","五股區"
"248018","KED-0813","2019/11/25 18:59:28","新北市五股區民義路二段22巷26-2號","121.423848333333","25.09888","6501500","五股區"
"248004","677-BX","2019/11/25 18:59:26","新北市五股區民義路二段52-3號","121.410163333333","25.10458","6501500","五股區"
"248002","678-BX","2019/11/25 18:59:19","新北市五股區凌雲路一段156巷1號","121.448968333333","25.1026066666667","6501500","五股區"
"234023","9380-KE","2019/11/25 18:59:28","新北市永和區竹林路75巷33弄1號","121.52056","25.0142733333333","6500400","永和區"
"234077","969-R7","2019/11/25 18:59:18","新北市永和區民治街82號","121.51747","24.99837","6500400","永和區"
"234067","AAC-212","2019/11/25 18:59:26","新北市永和區自由街70-8號","121.513513333333","25.0054766666667","6500400","永和區"
"234003","AAC-295","2019/11/25 18:59:14","新北市永和區和平街25號","121.513296666667","25.00991","6500400","永和區"
"232011","375-UM","2019/11/25 18:59:36","新北市坪林區水聳淒坑19-1號","121.712886666667","24.9351866666667","6502000","坪林區"
"244019","403-UM","2019/11/25 18:59:31","新北市林口區麗園一街4巷1號","121.376566666667","25.0712266666667","6501700","林口區"
"244013","KEA-2802","2019/11/25 18:59:25","新北市林口區麗園一街4巷1號","121.376516666667","25.0712966666667","6501700","林口區"
"244023","483-VK","2019/11/25 18:59:22","新北市林口區文化三路二段211巷95-1號","121.375463333333","25.08457","6501700","林口區"
"244017","485-VK","2019/11/25 18:59:34","新北市林口區公園路131巷3號","121.369035","25.0705633333333","6501700","林口區"
"244011","701-TV","2019/11/25 18:59:24","新北市林口區竹林路58號","121.387513333333","25.0781633333333","6501700","林口區"
"244025","837-TS","2019/11/25 18:59:15","新北市林口區南勢一街22號","121.360866666667","25.0755283333333","6501700","林口區"
"243010","297-R6","2019/11/25 18:59:28","新北市泰山區辭修路22號","121.429145","25.0583066666667","6501600","泰山區"
"243014","KEA-2801","2019/11/25 18:59:20","新北市泰山區黎明路23號","121.420893333333","25.062615","6501600","泰山區"
"243016","421-VK","2019/11/25 18:59:14","新北市泰山區明志路二段135號","121.427628333333","25.050775","6501600","泰山區"
"243009","KEA-2215","2019/11/25 18:59:33","新北市泰山區泰林路二段362號","121.428731666667","25.063655","6501600","泰山區"
"243011","KEA-2216","2019/11/25 18:59:18","新北市泰山區明志路二段226號","121.42724","25.0484033333333","6501600","泰山區"
"222003","436-BY","2019/11/25 18:59:19","新北市深坑區深南路88巷1號","121.62142","25.0108216666667","6501800","深坑區"
"222002","659-BX","2019/11/25 18:59:31","新北市深坑區文山路一段31巷2號","121.629818333333","25.0033233333333","6501800","深坑區"
"231061","002-UM","2019/11/25 18:59:27","新北市新店區安華路28-1號","121.519555","24.9605483333333","6500600","新店區"
"231055","0291-UT","2019/11/25 18:59:29","新北市新店區新生街11號","121.540058333333","24.9661283333333","6500600","新店區"
"231044","046-UY","2019/11/25 18:59:23","新北市新店區寶中路72號","121.547888333333","24.9805683333333","6500600","新店區"
"231060","106-UY","2019/11/25 18:59:34","新北市新店區安忠路57巷11弄14號","121.515313333333","24.95793","6500600","新店區"
"231051","107-UY","2019/11/25 18:59:30","新北市新店區中正路347號","121.535405","24.9758783333333","6500600","新店區"
"231049","108-UY","2019/11/25 18:59:32","新北市新店區二十張路142-1號","121.535006666667","24.9788266666667","6500600","新店區"
"231065","110-UY","2019/11/25 18:59:31","新北市新店區安祥路147巷66號","121.47603","24.956025","6500600","新店區"
"231062","256-BX","2019/11/25 18:59:18","新北市新店區車子路10-4號","121.504986666667","24.9545583333333","6500600","新店區"
"231054","260-TV","2019/11/25 18:59:16","新北市新店區北宜路一段106號","121.53899","24.95527","6500600","新店區"
"231042","268-BY","2019/11/25 18:59:16","新北市新店區中興路一段282號","121.545791666667","24.96857","6500600","新店區"
"231064","278-BY","2019/11/25 18:59:18","新北市新店區安康路一段355號","121.5199","24.9638683333333","6500600","新店區"
"231050","AAD-862","2019/11/25 18:59:16","新北市新店區新烏路一段11巷7號","121.547373333333","24.9513116666667","6500600","新店區"
"231045","355-BY","2019/11/25 18:59:20","新北市新店區秀山路66號","121.53085","24.9609616666667","6500600","新店區"
"231058","3713-VJ","2019/11/25 18:59:18","新北市新店區中正路5號","121.545768333333","24.969075","6500600","新店區"
"231056","4715-K9","2019/11/25 18:59:23","新北市新店區二十張路46巷37弄21-5號","121.535423333333","24.98131","6500600","新店區"
"231067","4772-VM","2019/11/25 18:59:28","新北市新店區安康路一段76巷28-2號","121.528165","24.9630883333333","6500600","新店區"
"231052","513-UM","2019/11/25 18:59:30","新北市新店區屈尺路2號","121.549188333333","24.922605","6500600","新店區"
"231040","617-UM","2019/11/25 18:59:31","新北市新店區中央路67號","121.532363333333","24.9769866666667","6500600","新店區"
"231041","619-UM","2019/11/25 18:59:19","新北市新店區秀山路20號","121.532533333333","24.960375","6500600","新店區"
"231063","641-BX","2019/11/25 18:59:17","新北市新店區安華路1-1號","121.519533333333","24.9603983333333","6500600","新店區"
"231047","KED-0819","2019/11/25 18:59:36","新北市新店區德正街23巷12-1號","121.54465","24.9721816666667","6500600","新店區"
"231046","719-UM","2019/11/25 18:59:21","新北市新店區直潭二街43號","121.535181666667","24.9408616666667","6500600","新店區"
"231057","720-UM","2019/11/25 18:59:21","新北市新店區百齡一路12號","121.553098333333","24.932465","6500600","新店區"
"231059","897-TW","2019/11/25 18:59:28","新北市新店區安華路28-1號","121.519486666667","24.96056","6500600","新店區"
"231043","899-TW","2019/11/25 18:59:22","新北市新店區北新路一段140號","121.5425","24.970455","6500600","新店區"
"231066","AKT-0513","2019/11/25 18:59:17","新北市新店區安豐路21號","121.501093333333","24.9567816666667","6500600","新店區"
"241006","262-UM","2019/11/25 18:59:36","新北市三重區車路頭街141號","121.483973333333","25.0764466666667","6500200","三重區"
"241029","316-R6","2019/11/25 18:59:22","新北市三重區重安街1號","121.490118333333","25.0582033333333","6500200","三重區"
"235066","003-UY","2019/11/25 18:59:24","新北市中和區水源路6巷6號","121.503516666667","25.0034633333333","6500300","中和區"
"235064","005-UY","2019/11/25 18:59:17","新北市中和區泰和街28號","121.499431666667","25.0005366666667","6500300","中和區"
"235063","006-UY","2019/11/25 18:59:31","新北市中和區中正路536號","121.487546666667","24.99445","6500300","中和區"
"235056","096-UM","2019/11/25 18:59:20","新北市中和區員山路570號","121.478891666667","25.011445","6500300","中和區"
"235039","097-UM","2019/11/25 18:59:31","新北市中和區景平路64巷13弄22號","121.521466666667","24.9915133333333","6500300","中和區"
"235065","098-UM","2019/11/25 18:59:25","新北市中和區福祥路129號","121.49856","25.0071633333333","6500300","中和區"
"235040","150-BY","2019/11/25 18:59:23","新北市中和區安樂路83號","121.51268","24.9944933333333","6500300","中和區"
"235058","151-BY","2019/11/25 18:59:33","新北市中和區連城路569巷9弄13號","121.479985","24.9942533333333","6500300","中和區"
"235055","183-VK","2019/11/25 18:59:29","新北市中和區德光路20號","121.471021666667","25.0044533333333","6500300","中和區"
"235038","185-VK","2019/11/25 18:59:31","新北市中和區立人街12號","121.519405","24.994325","6500300","中和區"
"235067","255-BX","2019/11/25 18:59:24","新北市中和區新生街166巷23號","121.482583333333","25.0001783333333","6500300","中和區"
"235044","293-VK","2019/11/25 18:59:30","新北市中和區中興街178號","121.499676666667","24.9909816666667","6500300","中和區"
"235072","301-VK","2019/11/25 18:59:22","新北市中和區中山路二段258號","121.497451666667","25.002525","6500300","中和區"
"235043","352-BY","2019/11/25 18:59:23","新北市中和區成功路139號","121.525793333333","24.990525","6500300","中和區"
"235042","KEA-2878","2019/11/25 18:59:22","新北市中和區秀朗路三段22巷9號","121.525835","24.996115","6500300","中和區"
"235050","4979-A6","2019/11/25 18:59:27","新北市中和區忠孝街39-1號","121.511451666667","24.9836533333333","6500300","中和區"
"235069","4980-A6","2019/11/25 18:59:25","新北市中和區圓通路109巷7號","121.500093333333","24.9963116666667","6500300","中和區"
"235070","558-UM","2019/11/25 18:59:21","新北市中和區中和路59號","121.500536666667","25.00109","6500300","中和區"
"235045","565-BX","2019/11/25 18:59:21","新北市中和區景新街467巷20弄29號","121.514748333333","24.98762","6500300","中和區"
"235060","KED-0823","2019/11/25 18:59:15","新北市中和區中山路三段129號","121.474301666667","25.006125","6500300","中和區"
"235054","640-BX","2019/11/25 18:59:21","新北市中和區民德路81號","121.468913333333","25.001185","6500300","中和區"
"235047","732-UM","2019/11/25 18:59:29","新北市中和區興南路二段101號","121.506033333333","24.9845966666667","6500300","中和區"
"235046","733-UM","2019/11/25 18:59:33","新北市中和區興南路二段33號","121.507793333333","24.985775","6500300","中和區"
"235062","800-TS","2019/11/25 18:59:21","新北市中和區中山路二段440號","121.489178333333","25.0042333333333","6500300","中和區"
"235057","801-TS","2019/11/25 18:59:20","新北市中和區民利街80號","121.478175","24.9981516666667","6500300","中和區"
"235041","802-TS","2019/11/25 18:59:16","新北市中和區景安路2號","121.507746666667","24.9992133333333","6500300","中和區"
"235052","805-TS","2019/11/25 18:59:18","新北市中和區興南路二段114巷2號","121.504266666667","24.9842483333333","6500300","中和區"
"235048","896-TW","2019/11/25 18:59:30","新北市中和區華新街113巷4弄16號","121.50715","24.9811333333333","6500300","中和區"
"235053","900-TW","2019/11/25 18:59:22","新北市板橋區和平路190巷24號","121.464903333333","24.99469","6500300","中和區"
"235051","157-BY","2019/11/25 18:59:22","新北市中和區忠孝街19巷35號","121.509566666667","24.9848","6500300","中和區"
"235037","AAC-213","2019/11/25 18:59:27","新北市中和區秀朗路三段60巷43號","121.524911666667","24.9948583333333","6500300","中和區"
"235059","AAC-215","2019/11/25 18:59:32","新北市中和區圓通路369巷33弄5號","121.491013333333","24.9880666666667","6500300","中和區"
"220054","015-TV","2019/11/25 18:59:24","新北市板橋區重慶路139巷21號","121.463686666667","25.0047216666667","6500100","板橋區"
"220086","073-UY","2019/11/25 18:59:19","新北市板橋區大智街14號","121.455968333333","25.014845","6500100","板橋區"
"220069","AAD-861","2019/11/25 18:59:22","新北市板橋區華興街18號","121.459353333333","25.0047016666667","6500100","板橋區"
"226004","312-R5","2019/11/25 18:59:31","新北市平溪區靜安路二段430號","121.73972","25.0246566666667","6502400","平溪區"
"235049","251-BX","2019/11/25 18:59:25","新北市中和區景安路128號","121.505201666667","24.9945733333333","6500300","中和區"
"228003","097-TW","2019/11/25 18:59:34","新北市貢寮區和美里龍洞街60號","121.914281666667","25.1162683333333","6502600","貢寮區"
"228002","663-BX","2019/11/25 18:59:24","新北市貢寮區福隆里東興街106巷23弄1號","121.946211666667","25.018095","6502600","貢寮區"
"228001","670-TC","2019/11/25 18:59:28","新北市貢寮區仁理村保健街71號","121.923746666667","25.05164","6502600","貢寮區"
"224010","AGQ-8101","2019/11/25 18:59:24","新北市瑞芳區基山街34號","121.8449","25.108345","6501200","瑞芳區"
"224006","676-BX","2019/11/25 18:59:16","新北市瑞芳區民權街6巷27號","121.806755","25.1067683333333","6501200","瑞芳區"
"224007","285-BY","2019/11/25 18:59:22","新北市瑞芳區大埔路290-1號","121.758678333333","25.1024166666667","6501200","瑞芳區"
"224009","275-VK","2019/11/25 18:59:30","新北市瑞芳區長仁路40號","121.864975","25.1182283333333","6501200","瑞芳區"
"224008","273-VK","2019/11/25 18:59:30","新北市瑞芳區逢甲路410號","121.801248333333","25.117155","6501200","瑞芳區"
"224005","271-BY","2019/11/25 18:59:14","新北市瑞芳區海濱路147號","121.830245","25.12224","6501200","瑞芳區"
"227001","642-TC","2019/11/25 18:59:31","新北市雙溪區牡丹里中正路60號","121.866143333333","25.0423883333333","6502500","雙溪區"
"227002","400-TW","2019/11/25 18:59:22","新北市雙溪區平林里外平林10-1號","121.858856666667","25.037975","6502500","雙溪區"
"253005","032-BX","2019/11/25 18:59:35","新北市石門區尖子鹿76號","121.572193333333","25.29691","6502200","石門區"
"253006","295-VK","2019/11/25 18:59:23","新北市石門區下員坑28-2號","121.518986666667","25.28057","6502200","石門區"
"222001","KEA-2212","2019/11/25 18:59:22","新北市深坑區北深路一段300號","121.624066666667","25.0057933333333","6501800","深坑區"
"208002","KEA-2872","2019/11/25 18:59:22","新北市金山區仁愛路67巷4號","121.634581666667","25.22093","6502700","金山區"
"208003","665-BX","2019/11/25 18:59:33","新北市金山區中正路26號","121.63584","25.2222433333333","6502700","金山區"
"251009","008-UM","2019/11/25 18:59:21","新北市淡水區重建街122號","121.4403","25.17307","6501000","淡水區"
"251015","KEA-2871","2019/11/25 18:59:14","新北市淡水區糞箕湖62號","121.485241666667","25.1722766666667","6501000","淡水區"
"251016","180-VK","2019/11/25 18:59:22","新北市淡水區淡金路三段325號","121.448973333333","25.2060866666667","6501000","淡水區"
"251013","182-VK","2019/11/25 18:59:19","新北市淡水區安子內3號","121.488485","25.2150966666667","6501000","淡水區"
"251010","413-VK","2019/11/25 18:59:28","新北市淡水區中正路一段156巷12號","121.421816666667","25.180795","6501000","淡水區"
"251012","441-VK","2019/11/25 18:59:31","新北市淡水區新春街126巷15弄17號","121.440596666667","25.1808883333333","6501000","淡水區"
"251007","442-VK","2019/11/25 18:59:24","新北市淡水區民生路113巷1弄34號","121.46328","25.13866","6501000","淡水區"
"251001","559-UM","2019/11/25 18:59:20","新北市淡水區自強路58號","121.463175","25.127455","6501000","淡水區"
"251014","577-R6","2019/11/25 18:59:19","新北市淡水區小中寮22號","121.48935","25.22934","6501000","淡水區"
"251011","650-BX","2019/11/25 18:59:17","新北市淡水區鄧公路36巷3號","121.457123333333","25.1689866666667","6501000","淡水區"
"251002","672-BX","2019/11/25 18:59:17","新北市淡水區中正東路53號","121.446783333333","25.1679783333333","6501000","淡水區"
"251003","673-BX","2019/11/25 18:59:28","新北市淡水區中山北路一段149巷24號","121.442988333333","25.1780133333333","6501000","淡水區"
"207003","681-TV","2019/11/25 18:59:23","新北市萬里區大鵬里頂社2-1號","121.660363333333","25.2072116666667","6502800","萬里區"
"207004","291-VK","2019/11/25 18:59:23","新北市萬里區萬里里獅頭路23號","121.693273333333","25.1782566666667","6502800","萬里區"
"252003","249-BX","2019/11/25 18:59:33","新北市三芝區後厝里北勢子42-11號","121.471593333333","25.252065","6502100","三芝區"
"252001","292-VK","2019/11/25 18:59:22","新北市三芝區中興街二段260號","121.501723333333","25.2530116666667","6502100","三芝區"
"208001","170-UY","2019/11/25 18:59:24","新北市金山區民生路61號","121.640808333333","25.2206016666667","6502700","金山區"
"237004","KEA-2597","2019/11/25 18:59:27","新北市三峽區有木212號","121.440925","24.85191","6500900","三峽區"
"237007","153-BY","2019/11/25 18:59:31","新北市三峽區中正路二段295號","121.365991666667","24.9109233333333","6500900","三峽區"
"237013","252-BX","2019/11/25 18:59:28","新北市三峽區大同路52號","121.376833333333","24.9290016666667","6500900","三峽區"
"237012","275-BY","2019/11/25 18:59:17","新北市三峽區三樹路222巷60號","121.382366666667","24.9423366666667","6500900","三峽區"
"237008","302-VK","2019/11/25 18:59:26","新北市三峽區大同路174巷25號","121.372788333333","24.9276516666667","6500900","三峽區"
"237014","433-BY","2019/11/25 18:59:25","新北市三峽區隆恩街166-7號","121.363241666667","24.94312","6500900","三峽區"
"237006","5529-G3","2019/11/25 18:59:31","新北市三峽區溪東路233巷4弄29號","121.407818333333","24.93385","6500900","三峽區"
"237011","KEA-2596","2019/11/25 18:59:21","新北市三峽區介壽路三段146號","121.40099","24.94311","6500900","三峽區"
"237015","649-BX","2019/11/25 18:59:20","新北市三峽區建安89-3號","121.455123333333","24.9209733333333","6500900","三峽區"
"237010","706-TV","2019/11/25 18:59:15","新北市三峽區復興路311-2號","121.365263333333","24.93881","6500900","三峽區"
"237005","AKY-6261","2019/11/25 18:59:34","新北市三峽區中山路459巷135號","121.348683333333","24.93276","6500900","三峽區"
"236042","KED-0685","2019/11/25 18:59:34","新北市土城區學府路一段229巷4號","121.451435","24.9838666666667","6501300","土城區"
"220089","KED-0812","2019/11/25 18:59:25","新北市板橋區文化路二段347號","121.472615","25.030465","6500100","板橋區"
"236078","166-UM","2019/11/25 18:59:34","新北市土城區中央路四段450號","121.410505","24.9512466666667","6501300","土城區"
"236030","253-BX","2019/11/25 18:59:16","新北市土城區興城路75號","121.440088333333","24.9708","6501300","土城區"
"236026","269-VK","2019/11/25 18:59:15","新北市土城區光明街4號","121.441898333333","24.9745716666667","6501300","土城區"
"236014","270-VK","2019/11/25 18:59:30","新北市土城區立德路36號","121.4634","24.9874416666667","6501300","土城區"
"236039","271-VK","2019/11/25 18:59:24","新北市土城區仁愛路18號","121.460728333333","24.9803316666667","6501300","土城區"
"236069","KEA-2877","2019/11/25 18:59:21","新北市土城區清水路99巷13號","121.456856666667","24.9824116666667","6501300","土城區"
"252002","KED-0821","2019/11/25 18:59:24","新北市三芝區中正路一段30號","121.503166666667","25.2584383333333","6502100","三芝區"
"236020","401-BY","2019/11/25 18:59:33","新北市土城區延吉街168巷9號","121.468101666667","24.98587","6501300","土城區"
"236048","752-BX","2019/11/25 18:59:32","新北市土城區青雲路322巷2弄4號","121.458098333333","24.9773166666667","6501300","土城區"
"236059","912-UM","2019/11/25 18:59:33","新北市土城區金城路二段234號","121.456698333333","24.9829433333333","6501300","土城區"
"236063","915-UM","2019/11/25 18:59:21","新北市土城區金城路三段161號","121.469018333333","24.9884116666667","6501300","土城區"
"236055","AAC-216","2019/11/25 18:59:28","新北市土城區學成路106號","121.449813333333","24.989155","6501300","土城區"
"238023","601-UM","2019/11/25 18:59:27","新北市樹林區大慶街156號","121.396951666667","25.0133116666667","6500700","樹林區"
"238019","599-UM","2019/11/25 18:59:26","新北市樹林區東榮街179號","121.413711666667","24.98136","6500700","樹林區"
"238022","KEA-2213","2019/11/25 18:59:31","新北市樹林區東興街41號","121.410691666667","24.9778233333333","6500700","樹林區"
"238021","KEA-2539","2019/11/25 18:59:25","新北市樹林區柑園街二段294號","121.373788333333","24.95189","6500700","樹林區"
"238025","303-VK","2019/11/25 18:59:34","新北市樹林區中山路三段22號","121.39557","24.9729033333333","6500700","樹林區"
"238017","283-BY","2019/11/25 18:59:22","新北市樹林區八德街1172號","121.390281666667","24.9683083333333","6500700","樹林區"
"238014","282-BY","2019/11/25 18:59:12","新北市樹林區潭興街143巷1-1號","121.425736666667","24.9997033333333","6500700","樹林區"
"238020","268-VK","2019/11/25 18:59:30","新北市樹林區俊英街238號","121.424773333333","25.010415","6500700","樹林區"
"238026","172-UY","2019/11/25 18:59:23","新北市樹林區中和街11號","121.392061666667","24.9729216666667","6500700","樹林區"
"238016","169-UY","2019/11/25 18:59:22","新北市樹林區文化街28號","121.419293333333","24.9876633333333","6500700","樹林區"
"239007","AAC-297","2019/11/25 18:59:15","新北市鶯歌區中正一路建德巷26號","121.364695","24.9576583333333","6500800","鶯歌區"
"239008","527-UM","2019/11/25 18:59:17","新北市鶯歌區朝陽街1號","121.336296666667","24.9765833333333","6500800","鶯歌區"
"239005","526-UM","2019/11/25 18:59:28","新北市鶯歌區鳳吉一街18號","121.325286666667","24.9733666666667","6500800","鶯歌區"
"239001","417-VK","2019/11/25 18:59:24","新北市鶯歌區二甲路光照巷1-2號","121.338546666667","24.940385","6500800","鶯歌區"
"239003","360-BY","2019/11/25 18:59:19","新北市鶯歌區鶯桃路399號","121.33328","24.96412","6500800","鶯歌區"
"239002","359-BY","2019/11/25 18:59:20","新北市鶯歌區國慶街35號","121.349516666667","24.956","6500800","鶯歌區"
"239004","193-VK","2019/11/25 18:59:35","新北市鶯歌區中正三路146號","121.336168333333","24.9398583333333","6500800","鶯歌區"
"221008","489-VK","2019/11/25 18:59:26","新北市汐止區康寧街615號","121.636393333333","25.0711766666667","6501100","汐止區"
"221036","130-UY","2019/11/25 18:59:32","新北市汐止區水碓街55號","121.665188333333","25.0692516666667","6501100","汐止區"
"221015","131-UY","2019/11/25 18:59:35","新北市汐止區鄉長路一段297號","121.669196666667","25.0792216666667","6501100","汐止區"
"221032","280-BY","2019/11/25 18:59:21","新北市汐止區橫科路221巷19-1號","121.621768333333","25.0493883333333","6501100","汐止區"
"221029","298-VK","2019/11/25 18:59:20","新北市汐止區樟樹一路228號","121.642363333333","25.066545","6501100","汐止區"
"221031","353-TW","2019/11/25 18:59:24","新北市汐止區福德一路300巷35號","121.630456666667","25.0643783333333","6501100","汐止區"
"221035","622-UM","2019/11/25 18:59:32","新北市汐止區大同路二段300號","121.655318333333","25.0665966666667","6501100","汐止區"
"221002","707-TV","2019/11/25 18:59:22","新北市汐止區大同路一段2號","121.62099","25.0549883333333","6501100","汐止區"
"220080","200-UY","2019/11/25 18:59:34","新北市板橋區大觀路二段265巷3弄47號","121.444806666667","24.997745","6500100","板橋區"
"220082","610-BX","2019/11/25 18:59:31","新北市板橋區滿平街123號","121.428676666667","24.98836","6500100","板橋區"
"220101","245-BX","2019/11/25 18:59:32","新北市板橋區民生路二段188號","121.47024","25.0207866666667","6500100","板橋區"
"224002","257-TC","2019/11/25 18:59:28","新北市瑞芳區八分寮路21號","121.79239","25.0834816666667","6501200","瑞芳區"
"220056","276-BY","2019/11/25 18:59:32","新北市板橋區信義路185號","121.459001666667","24.9919333333333","6500100","板橋區"
"220072","277-BY","2019/11/25 18:59:16","新北市樹林區樹新路106巷1號","121.429963333333","24.9977666666667","6500100","板橋區"
"220094","283-UM","2019/11/25 18:59:31","新北市板橋區光武街115號","121.466495","25.0278033333333","6500100","板橋區"
"220071","283-VK","2019/11/25 18:59:20","新北市板橋區館前東路104號","121.46286","25.0078866666667","6500100","板橋區"
"220053","285-VK","2019/11/25 18:59:18","新北市板橋區中山路二段89巷39號","121.47367","25.0171116666667","6500100","板橋區"
"220083","286-VK","2019/11/25 18:59:33","新北市板橋區大觀路一段38巷156弄15號","121.44252","25.0052966666667","6500100","板橋區"
"220081","287-VK","2019/11/25 18:59:19","新北市板橋區光華街19巷36號","121.453225","25.012005","6500100","板橋區"
"220090","288-VK","2019/11/25 18:59:29","新北市板橋區裕民街6號","121.462401666667","25.02921","6500100","板橋區"
"220061","293-UM","2019/11/25 18:59:18","新北市板橋區中山路二段295巷17號","121.477766666667","25.0187616666667","6500100","板橋區"
"220084","296-UM","2019/11/25 18:59:30","新北市板橋區龍興街59號","121.443265","25.0013033333333","6500100","板橋區"
"220075","303-R5","2019/11/25 18:59:27","新北市板橋區茶館街26號","121.456441666667","25.0106283333333","6500100","板橋區"
"220062","305-R5","2019/11/25 18:59:27","新北市板橋區民享街130號","121.478","25.0162766666667","6500100","板橋區"
"220092","307-R5","2019/11/25 18:59:29","新北市板橋區文化路二段225巷60弄52號","121.469105","25.0295983333333","6500100","板橋區"
"220098","317-R6","2019/11/25 18:59:31","新北市板橋區民生路二段226巷31弄2號","121.47123","25.0221966666667","6500100","板橋區"
"220065","461-BY","2019/11/25 18:59:15","新北市板橋區漢生東路324號","121.471731666667","25.0079016666667","6500100","板橋區"
"220088","491-VK","2019/11/25 18:59:16","新北市板橋區莒光路165巷42-1號","121.474426666667","25.0250566666667","6500100","板橋區"
"220035","560-BX","2019/11/25 18:59:15","新北市板橋區中正路273-1號","121.455463333333","25.0188783333333","6500100","板橋區"
"220103","561-BX","2019/11/25 18:59:33","新北市板橋區介壽街61號","121.469293333333","25.0195416666667","6500100","板橋區"
"220079","568-UM","2019/11/25 18:59:30","新北市板橋區大智街71巷5弄1號","121.453285","25.0149883333333","6500100","板橋區"
"220063","609-BX","2019/11/25 18:59:30","新北市板橋區三民路二段31號","121.479288333333","25.01783","6500100","板橋區"
"220091","637-BX","2019/11/25 18:59:16","新北市板橋區大同街8巷54號","121.477983333333","25.0261683333333","6500100","板橋區"
"220057","686-BX","2019/11/25 18:59:34","新北市板橋區重慶路308巷4號","121.463403333333","24.9979333333333","6500100","板橋區"
"220077","687-BX","2019/11/25 18:59:34","新北市板橋區龍興街69號","121.443736666667","25.0016233333333","6500100","板橋區"
"220102","KEA-2699","2019/11/25 18:59:22","新北市板橋區田單街2巷38號","121.48191","25.0275266666667","6500100","板橋區"
"220055","827-TW","2019/11/25 18:59:32","新北市板橋區中山路一段128號","121.463355","25.0108716666667","6500100","板橋區"
"220106","829-TW","2019/11/25 18:59:17","新北市板橋區文化路二段319號","121.472261666667","25.0299416666667","6500100","板橋區"
"220068","830-TW","2019/11/25 18:59:17","新北市板橋區三民路一段31巷42號","121.481125","25.0229633333333","6500100","板橋區"
"220067","831-TW","2019/11/25 18:59:32","新北市板橋區民享街116巷2號","121.47789","25.015735","6500100","板橋區"
"220074","895-R6","2019/11/25 18:59:27","新北市板橋區林園街10號","121.453953333333","25.0095333333333","6500100","板橋區"
"220073","985-R7","2019/11/25 18:59:15","新北市板橋區民權路258-2號","121.458088333333","25.0151166666667","6500100","板橋區"
"220097","AAC-210","2019/11/25 18:59:34","新北市板橋區新海路135巷4號","121.45977","25.0228666666667","6500100","板橋區"
"220064","AAC-253","2019/11/25 18:59:21","新北市板橋區板新路10號","121.47488","25.0131683333333","6500100","板橋區"
"235061","KEA-2875","2019/11/25 18:59:14","新北市中和區民享街6號","121.474038333333","25.005005","6500300","中和區"
"235068","KEA-2876","2019/11/25 18:59:09","新北市中和區圓通路265巷30號","121.49575","24.9925816666667","6500300","中和區"
