"lineid","car","time","location","longitude","latitude","cityid","cityname"
"234046","148-BY","2019/11/25 19:59:31","新北市永和區成功路一段2號","121.526965","25.005605","6500400","永和區"
"234081","298-R6","2019/11/25 19:59:31","新北市永和區永利路81巷21號","121.52224","25.0038683333333","6500400","永和區"
"234038","336-UY","2019/11/25 19:59:13","新北市永和區成功路二段187號","121.526623333333","24.9965366666667","6500400","永和區"
"234064","337-UY","2019/11/25 19:59:31","新北市永和區中正路412巷20弄10號","121.518746666667","25.0015916666667","6500400","永和區"
"234086","338-UY","2019/11/25 19:59:17","新北市永和區中正路503號","121.516928333333","25.0069066666667","6500400","永和區"
"234070","552-UM","2019/11/25 19:59:15","新北市永和區國光路6號","121.519798333333","25.0084966666667","6500400","永和區"
"234017","745-BX","2019/11/25 19:59:36","新北市永和區文化路53號","121.514306666667","25.0150683333333","6500400","永和區"
"234030","746-BX","2019/11/25 19:59:35","新北市永和區民權路1巷34號","121.521975","24.9979216666667","6500400","永和區"
"234054","KEA-2590","2019/11/25 19:59:17","新北市永和區環河東路一段122號","121.520653333333","25.0154566666667","6500400","永和區"
"234007","KED-0605","2019/11/25 19:59:24","新北市永和區保生路22巷21號","121.507181666667","25.0082283333333","6500400","永和區"
"234013","KEA-2591","2019/11/25 19:59:22","新北市永和區保生路55號","121.504676666667","25.01058","6500400","永和區"
"234061","AAD-866","2019/11/25 19:59:30","新北市永和區中正路283巷11號","121.516915","25.0005233333333","6500400","永和區"
"234042","862-TW","2019/11/25 19:59:22","新北市永和區雙和街17巷17號","121.508995","25.0014366666667","6500400","永和區"
"234050","863-TW","2019/11/25 19:59:22","新北市永和區保安路264號","121.505901666667","25.0123183333333","6500400","永和區"
"234026","9371-KE","2019/11/25 19:59:32","新北市永和區水源街33巷1號","121.510773333333","25.0043433333333","6500400","永和區"
"234011","9373-KE","2019/11/25 19:59:20","新北市永和區仁愛路352巷122弄32號","121.500928333333","25.009175","6500400","永和區"
"249005","172-UM","2019/11/25 19:59:28","新北市八里區楓林路4號","121.381855","25.1298516666667","6502300","八里區"
"249001","173-UM","2019/11/25 19:59:24","新北市八里區中華路二段249-3號","121.404163333333","25.148615","6502300","八里區"
"249004","303-UY","2019/11/25 19:59:26","新北市八里區中華路一段333-1號","121.41334","25.153765","6502300","八里區"
"249002","305-UY","2019/11/25 19:59:30","新北市八里區頂寮一街50號","121.450488333333","25.1242016666667","6502300","八里區"
"249003","759-BX","2019/11/25 19:59:29","新北市八里區訊塘路7號","121.398065","25.1447533333333","6502300","八里區"
"248016","026-BX","2019/11/25 19:59:19","新北市五股區成泰路三段577巷80弄7號","121.449475","25.1042766666667","6501500","五股區"
"248008","KED-0815","2019/11/25 19:59:29","新北市五股區四維路30巷34弄1號","121.468636666667","25.0714716666667","6501500","五股區"
"248018","KED-0813","2019/11/25 19:59:28","新北市五股區登林路93-11號","121.41779","25.074315","6501500","五股區"
"248012","247-BX","2019/11/25 19:59:26","新北市五股區民義路一段109號","121.43406","25.086485","6501500","五股區"
"248004","677-BX","2019/11/25 19:59:26","新北市五股區成泰路一段6號","121.43456","25.0672366666667","6501500","五股區"
"248002","678-BX","2019/11/25 19:59:19","新北市五股區成泰路三段487號","121.450706666667","25.0992566666667","6501500","五股區"
"248010","682-TV","2019/11/25 19:59:25","新北市五股區登林路46巷2號","121.432031666667","25.0686466666667","6501500","五股區"
"234023","9380-KE","2019/11/25 19:59:30","新北市永和區中正路700號","121.516321666667","25.0100016666667","6500400","永和區"
"234077","969-R7","2019/11/25 19:59:29","新北市永和區智光街101號","121.516245","24.9968716666667","6500400","永和區"
"234074","AAC-211","2019/11/25 19:59:17","新北市永和區豫溪街207巷22號","121.52331","25.0102933333333","6500400","永和區"
"234067","AAC-212","2019/11/25 19:59:26","新北市永和區永貞路376號","121.509861666667","25.0068433333333","6500400","永和區"
"234003","AAC-295","2019/11/25 19:59:14","新北市永和區中正路708號","121.516148333333","25.01002","6500400","永和區"
"243014","KEA-2801","2019/11/25 19:59:20","新北市泰山區泰林路二段33-1號","121.435923333333","25.056875","6501600","泰山區"
"243016","421-VK","2019/11/25 19:59:34","新北市泰山區貴陽街3號","121.420973333333","25.0336016666667","6501600","泰山區"
"243009","KEA-2215","2019/11/25 19:59:13","新北市泰山區楓江路16巷23號","121.434006666667","25.0615033333333","6501600","泰山區"
"243011","KEA-2216","2019/11/25 19:59:18","新北市泰山區工專路64號","121.422856666667","25.0402866666667","6501600","泰山區"
"222003","436-BY","2019/11/25 19:59:19","新北市深坑區埔新街14號","121.620723333333","25.003965","6501800","深坑區"
"222002","659-BX","2019/11/25 19:59:31","新北市深坑區北深路二段81巷8弄3號","121.618291666667","25.0030083333333","6501800","深坑區"
"231061","002-UM","2019/11/25 19:59:27","新北市新店區安民街254號","121.517688333333","24.9732583333333","6500600","新店區"
"231055","0291-UT","2019/11/25 19:59:29","新北市新店區力行路14巷12號","121.539221666667","24.965155","6500600","新店區"
"231044","046-UY","2019/11/25 19:59:23","新北市新店區復興路60號","121.537925","24.986815","6500600","新店區"
"231060","106-UY","2019/11/25 19:59:14","新北市新店區安康路二段341巷1號","121.496903333333","24.9553233333333","6500600","新店區"
"231051","107-UY","2019/11/25 19:59:30","新北市新店區中央路149號","121.530001666667","24.9731933333333","6500600","新店區"
"231049","108-UY","2019/11/25 19:59:34","新北市新店區明德路89號","121.541536666667","24.978335","6500600","新店區"
"231065","110-UY","2019/11/25 19:59:31","新北市新店區安祥路104-10號","121.479063333333","24.9620266666667","6500600","新店區"
"231068","187-VK","2019/11/25 19:59:29","新北市新店區安康路一段355-3號","121.519775","24.962215","6500600","新店區"
"231062","256-BX","2019/11/25 19:59:18","新北市新店區永業路103號","121.528596666667","24.9485883333333","6500600","新店區"
"231054","260-TV","2019/11/25 19:59:16","新北市新店區光明街167號","121.539708333333","24.9625216666667","6500600","新店區"
"231042","268-BY","2019/11/25 19:59:16","新北市新店區中正路2號","121.545811666667","24.9692833333333","6500600","新店區"
"231064","278-BY","2019/11/25 19:59:18","新北市新店區安光路10-1號","121.513841666667","24.9641683333333","6500600","新店區"
"231050","AAD-862","2019/11/25 19:59:16","新北市新店區北宜路二段106號","121.555686666667","24.9536666666667","6500600","新店區"
"231045","355-BY","2019/11/25 19:59:20","新北市新店區北宜路二段212號","121.559423333333","24.9543983333333","6500600","新店區"
"231056","4715-K9","2019/11/25 19:59:23","新北市新店區北新路二段29巷3弄1號","121.542243333333","24.97301","6500600","新店區"
"231067","4772-VM","2019/11/25 19:59:28","新北市新店區秀山路11巷28號","121.53148","24.9585616666667","6500600","新店區"
"231052","513-UM","2019/11/25 19:59:30","新北市新店區新烏路三段225號","121.547295","24.8966433333333","6500600","新店區"
"231040","617-UM","2019/11/25 19:59:31","新北市新店區北新路一段96巷23號","121.542981666667","24.9688616666667","6500600","新店區"
"231041","619-UM","2019/11/25 19:59:30","新北市新店區中正路366號","121.535325","24.9760116666667","6500600","新店區"
"231063","641-BX","2019/11/25 19:59:17","新北市新店區車子路11號","121.50309","24.95196","6500600","新店區"
"231047","KED-0819","2019/11/25 19:59:16","新北市新店區寶宏路38號","121.549406666667","24.97547","6500600","新店區"
"231046","719-UM","2019/11/25 19:59:21","新北市新店區安和路三段1-1號","121.517136666667","24.9795216666667","6500600","新店區"
"231057","720-UM","2019/11/25 19:59:21","新北市新店區花園二路一段11號","121.555463333333","24.9325083333333","6500600","新店區"
"231059","897-TW","2019/11/25 19:59:28","新北市新店區安和路一段15號","121.516821666667","24.96425","6500600","新店區"
"231043","899-TW","2019/11/25 19:59:22","新北市新店區中正路263-5號","121.538205","24.97387","6500600","新店區"
"231066","AKT-0513","2019/11/25 19:59:17","新北市新店區薏仁坑路自強巷6號","121.496651666667","24.9583583333333","6500600","新店區"
"241011","013-R5","2019/11/25 19:59:21","新北市三重區三和路二段222號","121.497853333333","25.0695733333333","6500200","三重區"
"241028","022-UY","2019/11/25 19:59:27","新北市三重區中正南路83號","121.494306666667","25.058465","6500200","三重區"
"241008","059-VK","2019/11/25 19:59:21","新北市三重區永福街179巷28號","121.478033333333","25.0748","6500200","三重區"
"241031","061-VK","2019/11/25 19:59:32","新北市三重區重新路四段150號","121.486835","25.0558383333333","6500200","三重區"
"241015","062-VK","2019/11/25 19:59:29","新北市三重區長安街73號","121.50141","25.0674483333333","6500200","三重區"
"241017","063-VK","2019/11/25 19:59:16","新北市三重區重陽路四段1號","121.491015","25.068715","6500200","三重區"
"241024","065-VK","2019/11/25 19:59:30","新北市三重區力行路一段277號","121.482111666667","25.071665","6500200","三重區"
"241007","066-VK","2019/11/25 19:59:17","新北市三重區溪尾街169號","121.488998333333","25.080105","6500200","三重區"
"241003","091-VK","2019/11/25 19:59:26","新北市三重區五華街128號","121.491748333333","25.0835","6500200","三重區"
"241006","262-UM","2019/11/25 19:59:32","新北市三重區力行路二段37號","121.482043333333","25.0737766666667","6500200","三重區"
"241029","316-R6","2019/11/25 19:59:22","新北市三重區重安街14號","121.490161666667","25.0581633333333","6500200","三重區"
"241016","266-UM","2019/11/25 19:59:20","新北市三重區正義北路36巷12號","121.496678333333","25.063305","6500200","三重區"
"241009","267-UM","2019/11/25 19:59:26","新北市三重區三和路四段197號","121.482083333333","25.0792033333333","6500200","三重區"
"241018","268-UM","2019/11/25 19:59:25","新北市三重區雙園街56號","121.495891666667","25.0677233333333","6500200","三重區"
"241032","269-UM","2019/11/25 19:59:30","新北市三重區朝陽街46號","121.483263333333","25.0570566666667","6500200","三重區"
"241013","270-UM","2019/11/25 19:59:29","新北市三重區三和路三段139巷1號","121.492671666667","25.07354","6500200","三重區"
"241030","KED-0822","2019/11/25 19:59:20","新北市三重區成功路171號","121.485965","25.0524283333333","6500200","三重區"
"241035","462-BY","2019/11/25 19:59:17","新北市三重區大榮街7號","121.498146666667","25.0631466666667","6500200","三重區"
"241004","475-VK","2019/11/25 19:59:25","新北市三重區仁愛街397巷116號","121.492955","25.0823516666667","6500200","三重區"
"241020","478-VK","2019/11/25 19:59:17","新北市三重區忠孝路一段101號","121.489623333333","25.07216","6500200","三重區"
"241026","480-VK","2019/11/25 19:59:32","新北市三重區福德南路26號","121.502856666667","25.0631066666667","6500200","三重區"
"241014","543-UM","2019/11/25 19:59:30","新北市三重區三和路二段156號","121.499435","25.06837","6500200","三重區"
"241023","545-UM","2019/11/25 19:59:25","新北市三重區頂崁街168號","121.477658333333","25.0658816666667","6500200","三重區"
"241001","547-UM","2019/11/25 19:59:31","新北市三重區溪尾街58號","121.490371666667","25.0774416666667","6500200","三重區"
"241019","KEA-2593","2019/11/25 19:59:25","新北市三重區重陽路四段7號","121.490978333333","25.0690783333333","6500200","三重區"
"241005","AAD-863","2019/11/25 19:59:28","新北市三重區溪尾街327號","121.48845","25.0848316666667","6500200","三重區"
"241012","743-BX","2019/11/25 19:59:15","新北市三重區仁興街39巷4號","121.499313333333","25.0758666666667","6500200","三重區"
"241025","KED-0670","2019/11/25 19:59:27","新北市三重區頂崁街210巷18號","121.476348333333","25.06779","6500200","三重區"
"241033","AAC-255","2019/11/25 19:59:21","新北市三重區中興北街101號","121.469661666667","25.0483716666667","6500200","三重區"
"235066","003-UY","2019/11/25 19:59:24","新北市中和區中山路二段68號","121.503863333333","25.00461","6500300","中和區"
"235056","096-UM","2019/11/25 19:59:19","新北市中和區中山路三段168號","121.472938333333","25.0065533333333","6500300","中和區"
"235039","097-UM","2019/11/25 19:59:31","新北市中和區景平路278巷16弄28號","121.514433333333","24.9938666666667","6500300","中和區"
"235065","098-UM","2019/11/25 19:59:25","新北市中和區永和路90巷2弄1號","121.497366666667","25.0058566666667","6500300","中和區"
"235040","150-BY","2019/11/25 19:59:23","新北市中和區保健路10巷21弄2號","121.50781","24.996765","6500300","中和區"
"235058","151-BY","2019/11/25 19:59:33","新北市中和區員山路150巷2弄59號","121.481746666667","24.997385","6500300","中和區"
"235055","183-VK","2019/11/25 19:59:19","新北市中和區中山路三段13號","121.479648333333","25.0059966666667","6500300","中和區"
"235044","293-VK","2019/11/25 19:59:30","新北市中和區復興路56號","121.503893333333","24.9904566666667","6500300","中和區"
"247016","KEA-2869","2019/11/25 19:59:28","新北市蘆洲區中正路103號","121.469791666667","25.0841416666667","6501400","蘆洲區"
"235050","4979-A6","2019/11/25 19:59:27","新北市中和區景平路241巷64弄1號","121.507668333333","24.992425","6500300","中和區"
"235070","558-UM","2019/11/25 19:59:21","新北市中和區中正路570號","121.486491666667","24.994725","6500300","中和區"
"235046","733-UM","2019/11/25 19:59:13","新北市中和區興南路一段105巷20弄6號","121.510348333333","24.9855666666667","6500300","中和區"
"235051","157-BY","2019/11/25 19:59:28","新北市中和區景安路247號","121.5042","24.9906216666667","6500300","中和區"
"235037","AAC-213","2019/11/25 19:59:27","新北市中和區自強路54號","121.520091666667","24.9947116666667","6500300","中和區"
"235059","AAC-215","2019/11/25 19:59:32","新北市中和區圓通路343號","121.49154","24.9903666666667","6500300","中和區"
"220054","015-TV","2019/11/25 19:59:24","新北市板橋區忠孝路192號","121.465135","25.002655","6500100","板橋區"
"220086","073-UY","2019/11/25 19:59:15","新北市板橋區中正路216巷8號","121.456335","25.0183883333333","6500100","板橋區"
"220069","AAD-861","2019/11/25 19:59:22","新北市板橋區貴興路111號","121.455826666667","25.002615","6500100","板橋區"
"247006","893-R6","2019/11/25 19:59:31","新北市蘆洲區九芎街111號","121.465566666667","25.0796733333333","6501400","蘆洲區"
"247020","546-UM","2019/11/25 19:59:13","新北市蘆洲區民義街66號","121.472916666667","25.089745","6501400","蘆洲區"
"247012","337-TH","2019/11/25 19:59:30","新北市蘆洲區民族路155號","121.479351666667","25.0879333333333","6501400","蘆洲區"
"247004","336-TH","2019/11/25 19:59:25","新北市蘆洲區環堤大道92號","121.455521666667","25.085175","6501400","蘆洲區"
"247024","057-VK","2019/11/25 19:59:29","新北市蘆洲區光復路59號","121.463615","25.08522","6501400","蘆洲區"
"247014","056-VK","2019/11/25 19:59:34","新北市蘆洲區中山二路101號","121.472681666667","25.0818666666667","6501400","蘆洲區"
"247018","053-VK","2019/11/25 19:59:17","新北市蘆洲區民族路290巷15號","121.478586666667","25.0899083333333","6501400","蘆洲區"
"247002","001-UY","2019/11/25 19:59:31","新北市蘆洲區長安街274巷4號","121.45769","25.0870183333333","6501400","蘆洲區"
"226004","312-R5","2019/11/25 19:59:30","新北市平溪區靜安路三段90號","121.770475","25.0354316666667","6502400","平溪區"
"235049","251-BX","2019/11/25 19:59:25","新北市中和區明禮街2號","121.505305","24.99579","6500300","中和區"
"228003","097-TW","2019/11/25 19:59:13","新北市貢寮區仁理村仁和路19號","121.923831666667","25.053525","6502600","貢寮區"
"224010","AGQ-8101","2019/11/25 19:59:24","新北市瑞芳區輕便路294號","121.843665","25.109165","6501200","瑞芳區"
"227001","642-TC","2019/11/25 19:59:31","新北市雙溪區新基里新基南街25號","121.866238333333","25.038155","6502500","雙溪區"
"227002","400-TW","2019/11/25 19:59:22","新北市雙溪區雙溪里長安街16號","121.864963333333","25.0347016666667","6502500","雙溪區"
"222001","KEA-2212","2019/11/25 19:59:22","新北市深坑區北深路三段165-1號","121.602203333333","25.003345","6501800","深坑區"
"208002","KEA-2872","2019/11/25 19:59:22","新北市金山區環金路462號","121.630128333333","25.2248016666667","6502700","金山區"
"208003","665-BX","2019/11/25 19:59:34","新北市金山區永興里忠義路3號","121.63235","25.2599933333333","6502700","金山區"
"251009","008-UM","2019/11/25 19:59:21","新北市淡水區英專路21巷21號","121.444855","25.169735","6501000","淡水區"
"251004","009-UM","2019/11/25 19:59:21","新北市淡水區民權路177巷13號","121.460766666667","25.13516","6501000","淡水區"
"251005","010-UM","2019/11/25 19:59:29","新北市淡水區學府路136巷33號","121.451715","25.1727433333333","6501000","淡水區"
"251015","KEA-2871","2019/11/25 19:59:31","新北市淡水區大埤頭1-2號","121.49282","25.1946216666667","6501000","淡水區"
"251016","180-VK","2019/11/25 19:56:03","新北市淡水區淡金路三段446號","121.450738333333","25.2143116666667","6501000","淡水區"
"251008","181-VK","2019/11/25 19:59:26","新北市淡水區淡海路63巷10-1號","121.42265","25.1807583333333","6501000","淡水區"
"251013","182-VK","2019/11/25 19:59:19","新北市淡水區下圭柔山63-7號","121.451878333333","25.2061716666667","6501000","淡水區"
"251012","441-VK","2019/11/25 19:59:31","新北市淡水區下圭柔山91巷6號","121.437663333333","25.21047","6501000","淡水區"
"251001","559-UM","2019/11/25 19:59:20","新北市淡水區水源街二段177巷32弄20號","121.455306666667","25.1782516666667","6501000","淡水區"
"251006","561-UM","2019/11/25 19:59:16","新北市淡水區水碓街15號","121.443506666667","25.17696","6501000","淡水區"
"251014","577-R6","2019/11/25 19:59:34","新北市淡水區石頭厝2-1號","121.458113333333","25.2357266666667","6501000","淡水區"
"251011","650-BX","2019/11/25 19:59:20","新北市淡水區淡金路二段270-1號","121.446985","25.1888033333333","6501000","淡水區"
"251002","672-BX","2019/11/25 19:59:17","新北市淡水區新市一路一段6號","121.42915","25.1874916666667","6501000","淡水區"
"207003","681-TV","2019/11/25 19:59:23","新北市萬里區大鵬里萬里加投51-1號","121.641971666667","25.2114416666667","6502800","萬里區"
"207004","291-VK","2019/11/25 19:59:23","新北市萬里區北基里忠一街1號","121.686818333333","25.1763766666667","6502800","萬里區"
"252001","292-VK","2019/11/25 19:59:22","新北市三芝區公正街66號","121.49976","25.2574616666667","6502100","三芝區"
"237004","KEA-2597","2019/11/25 19:59:27","新北市三峽區嘉添227-5號","121.370331666667","24.9097416666667","6500900","三峽區"
"237009","210-TH","2019/11/25 19:59:23","新北市三峽區民族街78巷18號","121.368258333333","24.9295366666667","6500900","三峽區"
"237013","252-BX","2019/11/25 19:59:27","新北市三峽區介壽路二段153-1號","121.393366666667","24.9357816666667","6500900","三峽區"
"237012","275-BY","2019/11/25 19:59:17","新北市三峽區中華路5-1號","121.374546666667","24.932685","6500900","三峽區"
"237008","302-VK","2019/11/25 19:59:26","新北市三峽區中正路一段174巷1弄2號","121.372271666667","24.9287233333333","6500900","三峽區"
"237014","433-BY","2019/11/25 19:59:25","新北市三峽區添福141號","121.37532","24.9009766666667","6500900","三峽區"
"237006","5529-G3","2019/11/25 19:59:31","新北市三峽區中正路二段168號","121.366035","24.915665","6500900","三峽區"
"237015","649-BX","2019/11/25 19:59:20","新北市三峽區介壽路三段13號","121.395698333333","24.93636","6500900","三峽區"
"237005","AKY-6261","2019/11/25 19:59:14","新北市三峽區民生街1巷20號","121.379463333333","24.934695","6500900","三峽區"
"236042","KED-0685","2019/11/25 19:59:27","新北市土城區學府路一段98巷23-1號","121.45529","24.988695","6501300","土城區"
"220089","KED-0812","2019/11/25 19:59:25","新北市板橋區四維路253號","121.463406666667","25.027855","6500100","板橋區"
"236078","166-UM","2019/11/25 19:59:17","新北市土城區福安街55巷25號","121.419475","24.96317","6501300","土城區"
"236030","253-BX","2019/11/25 19:59:16","新北市土城區中華路一段203巷5號","121.443331666667","24.984975","6501300","土城區"
"236026","269-VK","2019/11/25 19:59:35","新北市土城區中央路二段91號","121.442361666667","24.978025","6501300","土城區"
"236014","270-VK","2019/11/25 19:59:29","新北市土城區廣福街123號","121.456223333333","24.99286","6501300","土城區"
"236039","271-VK","2019/11/25 19:59:16","新北市土城區國際路60號","121.466563333333","24.9775516666667","6501300","土城區"
"247008","KED-0683","2019/11/25 19:59:23","新北市蘆洲區中山一路95巷20弄1號","121.477373333333","25.0805533333333","6501400","蘆洲區"
"236069","KEA-2877","2019/11/25 19:59:21","新北市土城區忠義路111-1號","121.443896666667","24.9632733333333","6501300","土城區"
"252002","KED-0821","2019/11/25 19:59:24","新北市三芝區三民街39巷5號","121.505348333333","25.25764","6502100","三芝區"
"236020","401-BY","2019/11/25 19:59:22","新北市土城區延吉街109號","121.471366666667","24.9867183333333","6501300","土城區"
"236048","752-BX","2019/11/25 19:59:09","新北市土城區金城路三段248號","121.473928333333","24.9906066666667","6501300","土城區"
"236059","912-UM","2019/11/25 19:59:33","新北市土城區中央路一段300號","121.443383333333","24.9820616666667","6501300","土城區"
"236063","915-UM","2019/11/25 19:59:21","新北市土城區金城路三段73巷4弄32號","121.466231666667","24.988345","6501300","土城區"
"236055","AAC-216","2019/11/25 19:59:28","新北市土城區學府路一段35號","121.45793","24.9883766666667","6501300","土城區"
"242060","986-R7","2019/11/25 19:59:35","新北市新莊區瓊林路96巷2號","121.444268333333","25.027525","6500500","新莊區"
"242029","615-BX","2019/11/25 19:59:26","新北市新莊區中平路375號","121.444668333333","25.0524533333333","6500500","新莊區"
"242058","612-BX","2019/11/25 19:59:19","新北市新莊區八德街102號","121.424233333333","25.0212916666667","6500500","新莊區"
"242048","566-BX","2019/11/25 19:59:25","新北市新莊區民安路201號","121.426331666667","25.0224366666667","6500500","新莊區"
"242053","497-BY","2019/11/25 19:59:28","新北市新莊區西盛街420號","121.427195","25.0121266666667","6500500","新莊區"
"242013","442-UM","2019/11/25 19:59:33","新北市新莊區中港路417巷9號","121.451616666667","25.0474916666667","6500500","新莊區"
"242002","441-UM","2019/11/25 19:59:15","新北市新莊區中正路170號","121.450998333333","25.03588","6500500","新莊區"
"242042","413-TV","2019/11/25 19:59:15","新北市新莊區青山路一段8號","121.411733333333","25.0275816666667","6500500","新莊區"
"242050","400-BY","2019/11/25 19:59:31","新北市新莊區西盛街186號","121.428188333333","25.0185666666667","6500500","新莊區"
"242025","362-BY","2019/11/25 19:59:16","新北市新莊區五工二路94巷12號","121.459968333333","25.0669183333333","6500500","新莊區"
"242023","353-BY","2019/11/25 19:59:31","新北市新莊區化成路380-1號","121.465895","25.050055","6500500","新莊區"
"242015","132-UY","2019/11/25 19:59:26","新北市新莊區復興路一段47巷9號","121.4468","25.0426433333333","6500500","新莊區"
"242039","135-UY","2019/11/25 19:59:25","新北市新莊區民安路298號","121.428116666667","25.0219033333333","6500500","新莊區"
"242056","172-VK","2019/11/25 19:59:31","新北市新莊區中正路347巷18號","121.44714","25.0343566666667","6500500","新莊區"
"242017","173-VK","2019/11/25 19:59:24","新北市新莊區中安街1號","121.452776666667","25.0452633333333","6500500","新莊區"
"242031","175-VK","2019/11/25 19:59:33","新北市新莊區公園一路37號","121.443306666667","25.0355216666667","6500500","新莊區"
"242044","176-VK","2019/11/25 19:59:27","新北市新莊區新北大道七段712號","121.412365","25.02654","6500500","新莊區"
"242021","KED-0687","2019/11/25 19:59:19","新北市新莊區建中街16巷18號","121.449395","25.0383683333333","6500500","新莊區"
"242007","346-TH","2019/11/25 19:59:28","新北市新莊區中原路2號","121.458688333333","25.0562866666667","6500500","新莊區"
"242004","347-TH","2019/11/25 19:59:25","新北市新莊區化成路314巷17號","121.466886666667","25.0483166666667","6500500","新莊區"
"242036","348-TH","2019/11/25 19:59:16","新北市新莊區建安街27號","121.429006666667","25.02598","6500500","新莊區"
"242034","350-TH","2019/11/25 19:59:25","新北市新莊區建中街107號","121.446358333333","25.0365283333333","6500500","新莊區"
"238021","KEA-2539","2019/11/25 19:59:25","新北市樹林區佳園路二段41號","121.391636666667","24.9626683333333","6500700","樹林區"
"238017","283-BY","2019/11/25 19:59:22","新北市樹林區保安街二段45巷22號","121.415068333333","25.0001333333333","6500700","樹林區"
"239007","AAC-297","2019/11/25 19:59:35","新北市鶯歌區中山路131號","121.349413333333","24.9570166666667","6500800","鶯歌區"
"239006","891-R6","2019/11/25 19:59:24","新北市鶯歌區文化路66號","121.356098333333","24.9545133333333","6500800","鶯歌區"
"239001","417-VK","2019/11/25 19:59:24","新北市鶯歌區建國路367巷1號","121.339146666667","24.9495616666667","6500800","鶯歌區"
"239002","359-BY","2019/11/25 19:59:20","新北市鶯歌區大湖路185巷22號","121.342673333333","24.9705033333333","6500800","鶯歌區"
"239004","193-VK","2019/11/25 19:59:34","新北市鶯歌區二甲路83號","121.339193333333","24.9331616666667","6500800","鶯歌區"
"221008","489-VK","2019/11/25 19:59:26","新北市汐止區康寧街141巷1弄1號","121.621466666667","25.0670166666667","6501100","汐止區"
"221015","131-UY","2019/11/25 19:59:35","新北市汐止區橋東街16號","121.666491666667","25.0758","6501100","汐止區"
"221010","269-BY","2019/11/25 19:59:21","新北市汐止區汐萬路一段355-1號","121.650095","25.0774933333333","6501100","汐止區"
"221012","278-VK","2019/11/25 19:59:16","新北市汐止區保長路273巷1號","121.681076666667","25.074075","6501100","汐止區"
"221023","279-VK","2019/11/25 19:59:34","新北市汐止區民族三街42號","121.629628333333","25.070085","6501100","汐止區"
"221027","281-BY","2019/11/25 19:59:24","新北市汐止區中正路90號","121.661378333333","25.0694866666667","6501100","汐止區"
"221029","298-VK","2019/11/25 19:59:20","新北市汐止區樟樹一路139巷23號","121.641068333333","25.0660266666667","6501100","汐止區"
"221021","299-VK","2019/11/25 19:59:33","新北市汐止區水源路一段183號","121.654916666667","25.06161","6501100","汐止區"
"221031","353-TW","2019/11/25 19:59:24","新北市汐止區福德二路55巷6弄11號","121.634655","25.0664283333333","6501100","汐止區"
"221035","622-UM","2019/11/25 19:59:32","新北市汐止區長江街9號","121.654696666667","25.0711683333333","6501100","汐止區"
"221025","623-UM","2019/11/25 19:59:21","新北市汐止區仁愛路77巷2弄23號","121.661685","25.0637283333333","6501100","汐止區"
"221038","646-BX","2019/11/25 19:59:20","新北市汐止區忠孝東路472號","121.666148333333","25.0733516666667","6501100","汐止區"
"221033","647-BX","2019/11/25 19:59:22","新北市汐止區東勢街190巷5號","121.63389","25.04158","6501100","汐止區"
"220080","200-UY","2019/11/25 19:59:21","新北市板橋區大觀路二段79巷2弄16號","121.447361666667","25.00163","6500100","板橋區"
"220082","610-BX","2019/11/25 19:59:29","新北市板橋區存德街9號","121.42997","24.9920383333333","6500100","板橋區"
"220101","245-BX","2019/11/25 19:59:12","新北市板橋區大同街50巷59號","121.478895","25.025765","6500100","板橋區"
"224002","257-TC","2019/11/25 19:59:28","新北市瑞芳區三爪子坑路335號","121.819006666667","25.1048033333333","6501200","瑞芳區"
"220056","276-BY","2019/11/25 19:59:32","新北市板橋區四川路二段78號","121.452263333333","24.9947683333333","6500100","板橋區"
"220072","277-BY","2019/11/25 19:59:16","新北市板橋區金門街127巷14號","121.433636666667","24.9910566666667","6500100","板橋區"
"220093","280-UM","2019/11/25 19:59:26","新北市板橋區長江路一段1號","121.45747","25.0285316666667","6500100","板橋區"
"220094","283-UM","2019/11/25 19:59:31","新北市板橋區文化路一段160號","121.465543333333","25.0192183333333","6500100","板橋區"
"220071","283-VK","2019/11/25 19:59:20","新北市板橋區和平路174巷40弄4號","121.46533","24.993585","6500100","板橋區"
"220053","285-VK","2019/11/25 19:59:26","新北市板橋區永豐街163號","121.4755","25.02042","6500100","板橋區"
"220083","286-VK","2019/11/25 19:59:28","新北市板橋區僑中二街10巷20號","121.446198333333","25.0111633333333","6500100","板橋區"
"220081","287-VK","2019/11/25 19:59:19","新北市板橋區大觀路一段28巷75號","121.450085","25.011165","6500100","板橋區"
"220090","288-VK","2019/11/25 19:59:29","新北市板橋區新海路72巷5弄35-2號","121.461381666667","25.0232233333333","6500100","板橋區"
"220061","293-UM","2019/11/25 19:59:35","新北市板橋區民生路二段15號","121.472485","25.0160216666667","6500100","板橋區"
"220084","296-UM","2019/11/25 19:59:30","新北市板橋區溪崑二街96巷14號","121.426473333333","24.9894233333333","6500100","板橋區"
"220075","303-R5","2019/11/25 19:59:22","新北市板橋區金華街10巷48弄56號","121.459088333333","25.0201366666667","6500100","板橋區"
"220062","305-R5","2019/11/25 19:59:27","新北市板橋區光復街33巷17號","121.48203","25.0190433333333","6500100","板橋區"
"220092","307-R5","2019/11/25 19:59:34","新北市板橋區文化路一段45巷10號","121.460258333333","25.01373","6500100","板橋區"
"220098","317-R6","2019/11/25 19:59:31","新北市板橋區裕民街132號","121.458765","25.0273066666667","6500100","板橋區"
"220065","461-BY","2019/11/25 19:59:35","新北市板橋區民族路220號","121.468606666667","25.0074716666667","6500100","板橋區"
"242011","280-VK","2019/11/25 19:59:17","新北市新莊區中港路531巷12號","121.450598333333","25.05156","6500500","新莊區"
"220088","491-VK","2019/11/25 19:59:16","新北市板橋區民治街59號","121.479535","25.0332366666667","6500100","板橋區"
"220035","560-BX","2019/11/25 19:59:15","新北市板橋區新生街29巷7號","121.456473333333","25.0215383333333","6500100","板橋區"
"220103","561-BX","2019/11/25 19:59:33","新北市板橋區新海路138號","121.460936666667","25.0234433333333","6500100","板橋區"
"220079","568-UM","2019/11/25 19:59:21","新北市板橋區民權路202巷18弄1號","121.46079","25.0166033333333","6500100","板橋區"
"220063","609-BX","2019/11/25 19:59:30","新北市板橋區中山路二段121號","121.474836666667","25.01627","6500100","板橋區"
"220091","637-BX","2019/11/25 19:59:27","新北市板橋區文聖街89巷32號","121.478468333333","25.0303616666667","6500100","板橋區"
"220057","686-BX","2019/11/25 19:59:23","新北市板橋區四川路二段239號","121.450816666667","24.9938366666667","6500100","板橋區"
"220077","687-BX","2019/11/25 19:59:16","新北市板橋區僑中一街96號","121.446888333333","25.0116633333333","6500100","板橋區"
"220102","KEA-2699","2019/11/25 19:59:22","新北市板橋區文化路一段370號","121.469945","25.0236066666667","6500100","板橋區"
"220055","827-TW","2019/11/25 19:59:31","新北市板橋區國慶路149巷37弄8號","121.460446666667","24.9980466666667","6500100","板橋區"
"220106","829-TW","2019/11/25 19:59:25","新北市板橋區民治街126巷9號","121.477571666667","25.0313716666667","6500100","板橋區"
"220068","830-TW","2019/11/25 19:59:17","新北市板橋區中山路二段408號","121.48278","25.0207866666667","6500100","板橋區"
"220067","831-TW","2019/11/25 19:59:32","新北市板橋區中山路一段206巷74號","121.472391666667","25.01344","6500100","板橋區"
"220074","895-R6","2019/11/25 19:59:27","新北市板橋區縣民大道二段1號","121.461601666667","25.01177","6500100","板橋區"
"220073","985-R7","2019/11/25 19:59:31","新北市板橋區南雅西路二段283號","121.451978333333","25.0153033333333","6500100","板橋區"
"220097","AAC-210","2019/11/25 19:59:30","新北市板橋區建國街118號","121.460931666667","25.0175833333333","6500100","板橋區"
"220064","AAC-253","2019/11/25 19:59:17","新北市板橋區區運路82號","121.466831666667","25.01035","6500100","板橋區"
"235068","KEA-2876","2019/11/25 19:59:09","新北市中和區莊敬路16巷10號","121.499975","25.00385","6500300","中和區"
