"lineid","car","time","location","longitude","latitude","cityid","cityname"
"234081","298-R6","2019/11/25 20:29:31","新北市永和區永貞路19號","121.520965","25.007135","6500400","永和區"
"234038","336-UY","2019/11/25 20:29:33","新北市永和區民樂街31巷8弄13號","121.528908333333","25.0012866666667","6500400","永和區"
"234064","337-UY","2019/11/25 20:29:24","新北市永和區中正路433號","121.517018333333","25.0050633333333","6500400","永和區"
"234086","338-UY","2019/11/25 20:29:17","新北市永和區永和路二段237-1號","121.515631666667","25.0144166666667","6500400","永和區"
"234070","552-UM","2019/11/25 20:29:35","新北市永和區永亨路7號","121.51937","25.0057066666667","6500400","永和區"
"234030","746-BX","2019/11/25 20:29:35","新北市新店區安和路三段1號","121.517596666667","24.9798966666667","6500400","永和區"
"234054","KEA-2590","2019/11/25 20:29:17","新北市永和區環河東路一段76號","121.519471666667","25.016625","6500400","永和區"
"234007","KED-0605","2019/11/25 20:29:24","新北市新店區安興路39號","121.516476666667","24.9710566666667","6500400","永和區"
"234061","AAD-866","2019/11/25 20:29:30","新北市永和區得和路13巷5號","121.515388333333","25.0011266666667","6500400","永和區"
"234042","862-TW","2019/11/25 20:29:22","新北市永和區安樂路250號","121.51466","25.00355","6500400","永和區"
"234050","863-TW","2019/11/25 20:29:22","新北市永和區新生路149號","121.507331666667","25.014885","6500400","永和區"
"249005","172-UM","2019/11/25 20:29:28","新北市八里區中山路三段247號","121.381708333333","25.1404116666667","6502300","八里區"
"249001","173-UM","2019/11/25 20:29:20","新北市八里區中山路三段106號","121.390898333333","25.1421833333333","6502300","八里區"
"249004","303-UY","2019/11/25 20:29:26","新北市八里區中山路一段129巷37號","121.41408","25.158455","6502300","八里區"
"249002","305-UY","2019/11/25 20:29:30","新北市八里區龍米路二段58-2號","121.448376666667","25.1411183333333","6502300","八里區"
"249003","759-BX","2019/11/25 20:29:35","新北市八里區中山路二段339號","121.399736666667","25.1472083333333","6502300","八里區"
"248002","678-BX","2019/11/25 20:29:19","新北市五股區新五路二段337號","121.443756666667","25.0874066666667","6501500","五股區"
"234023","9380-KE","2019/11/25 20:29:27","新北市永和區博愛街32巷17-1號","121.51885","25.01522","6500400","永和區"
"234074","AAC-211","2019/11/25 20:29:17","新北市永和區竹林路119巷30弄11號","121.522655","25.0116166666667","6500400","永和區"
"234067","AAC-212","2019/11/25 20:29:26","新北市永和區保平路292巷40弄2號","121.507765","25.0050766666667","6500400","永和區"
"243012","AAD-798","2019/11/25 20:29:31","新北市泰山區楓江路10號","121.43364","25.062435","6501600","泰山區"
"243010","297-R6","2019/11/25 20:18:28","新北市泰山區明志路二段254巷14號","121.42612","25.0480083333333","6501600","泰山區"
"243014","KEA-2801","2019/11/25 20:29:19","新北市泰山區泰林路二段455號","121.425701666667","25.0640916666667","6501600","泰山區"
"243016","421-VK","2019/11/25 20:29:34","新北市泰山區文程路117號","121.430718333333","25.048105","6501600","泰山區"
"243009","KEA-2215","2019/11/25 20:29:13","新北市泰山區憲訓路3號","121.428911666667","25.0642333333333","6501600","泰山區"
"243011","KEA-2216","2019/11/25 20:29:18","新北市泰山區漢口街50號","121.424343333333","25.036205","6501600","泰山區"
"243013","646-TV","2019/11/25 20:29:29","新北市泰山區中央路5巷14號","121.427153333333","25.04342","6501600","泰山區"
"243015","680-BX","2019/11/25 20:29:25","新北市泰山區仁德路80號","121.432911666667","25.0564033333333","6501600","泰山區"
"222003","436-BY","2019/11/25 20:29:19","新北市深坑區深坑街77號","121.614686666667","25.0016516666667","6501800","深坑區"
"222002","659-BX","2019/11/25 20:29:31","新北市深坑區萬福路16巷16號","121.607008333333","25.008135","6501800","深坑區"
"231061","002-UM","2019/11/25 20:29:27","新北市新店區安興路33-1號","121.515785","24.970435","6500600","新店區"
"231055","0291-UT","2019/11/25 20:29:29","新北市新店區安康路一段152號","121.526318333333","24.963","6500600","新店區"
"231044","046-UY","2019/11/25 20:29:23","新北市新店區民族路9號","121.54192","24.978795","6500600","新店區"
"231060","106-UY","2019/11/25 20:29:34","新北市新店區錦秀路11巷88號","121.480516666667","24.9433583333333","6500600","新店區"
"231051","107-UY","2019/11/25 20:29:30","新北市新店區中央七街85號","121.52682","24.97707","6500600","新店區"
"231049","108-UY","2019/11/25 20:29:22","新北市新店區永業路81巷60號","121.529258333333","24.9480533333333","6500600","新店區"
"231065","110-UY","2019/11/25 20:29:31","新北市新店區安祥路102巷46弄37號","121.485848333333","24.9636683333333","6500600","新店區"
"231068","187-VK","2019/11/25 20:29:29","新北市新店區中興路三段238號","121.543291666667","24.983535","6500600","新店區"
"231062","256-BX","2019/11/25 20:29:18","新北市新店區安泰路7巷16號","121.485681666667","24.9509483333333","6500600","新店區"
"231054","260-TV","2019/11/25 20:29:16","新北市新店區檳榔路109號","121.544498333333","24.9615266666667","6500600","新店區"
"231042","268-BY","2019/11/25 20:29:16","新北市新店區寶橋路236號","121.551563333333","24.9788583333333","6500600","新店區"
"231064","278-BY","2019/11/25 20:29:18","新北市新店區新和街59巷17號","121.51922","24.9860016666667","6500600","新店區"
"231050","AAD-862","2019/11/25 20:29:36","新北市新店區建興街9巷11號","121.539888333333","24.9762866666667","6500600","新店區"
"231045","355-BY","2019/11/25 20:29:20","新北市新店區新坡一街32號","121.549153333333","24.962255","6500600","新店區"
"231058","3713-VJ","2019/11/25 20:29:18","新北市新店區中央三街123號","121.524333333333","24.976265","6500600","新店區"
"231056","4715-K9","2019/11/25 20:29:23","新北市新店區中央路2號","121.533948333333","24.978985","6500600","新店區"
"231067","4772-VM","2019/11/25 20:29:28","新北市新店區安華路28-1號","121.519733333333","24.9608883333333","6500600","新店區"
"231052","513-UM","2019/11/25 20:29:30","新北市新店區松林路36號","121.546233333333","24.9103183333333","6500600","新店區"
"231040","617-UM","2019/11/25 20:29:31","新北市新店區三民路81號","121.535863333333","24.9716733333333","6500600","新店區"
"231041","619-UM","2019/11/25 20:29:32","新北市新店區民權路139號","121.534695","24.98268","6500600","新店區"
"231063","641-BX","2019/11/25 20:29:17","新北市新店區玫瑰路4-1號","121.493581666667","24.9513783333333","6500600","新店區"
"231047","KED-0819","2019/11/25 20:29:16","新北市新店區寶慶街58巷21-1號","121.541986666667","24.98723","6500600","新店區"
"231057","720-UM","2019/11/25 20:29:01","新北市新店區花園十二路8號","121.555258333333","24.9336916666667","6500600","新店區"
"231059","897-TW","2019/11/25 20:29:28","新北市新店區安德街164號","121.508475","24.9591583333333","6500600","新店區"
"231043","899-TW","2019/11/25 20:29:22","新北市新店區建國路88號","121.540423333333","24.9771316666667","6500600","新店區"
"231066","AKT-0513","2019/11/25 20:29:17","新北市新店區安民街325號","121.517445","24.9745466666667","6500600","新店區"
"241011","013-R5","2019/11/25 20:29:21","新北市三重區龍門路42號","121.496105","25.0724366666667","6500200","三重區"
"241028","022-UY","2019/11/25 20:29:27","新北市三重區光興街91號","121.497415","25.0599566666667","6500200","三重區"
"241008","059-VK","2019/11/25 20:29:21","新北市三重區下竹圍街91號","121.481125","25.0749133333333","6500200","三重區"
"241031","061-VK","2019/11/25 20:27:12","新北市永和區環河西路二段239號","121.500355","25.0102433333333","6500200","三重區"
"241015","062-VK","2019/11/25 20:29:29","新北市三重區文化北路47號","121.498853333333","25.065505","6500200","三重區"
"241017","063-VK","2019/11/25 20:29:36","新北市三重區自強路一段288號","121.491551666667","25.0681233333333","6500200","三重區"
"241024","065-VK","2019/11/25 20:29:16","新北市三重區忠孝路三段15巷28號","121.480366666667","25.067835","6500200","三重區"
"241007","066-VK","2019/11/25 20:29:17","新北市三重區自強路四段45號","121.489576666667","25.0776466666667","6500200","三重區"
"241002","090-VK","2019/11/25 20:29:25","新北市三重區五華街21巷43號","121.496581666667","25.0816183333333","6500200","三重區"
"241003","091-VK","2019/11/25 20:29:26","新北市三重區富華街168號","121.492633333333","25.08464","6500200","三重區"
"241006","262-UM","2019/11/25 20:29:32","新北市三重區車路頭街139巷12號","121.484226666667","25.0762666666667","6500200","三重區"
"241029","316-R6","2019/11/25 20:29:22","新北市三重區集美街223號","121.491998333333","25.055005","6500200","三重區"
"241016","266-UM","2019/11/25 20:29:20","新北市三重區正義北路190巷24號","121.495726666667","25.06672","6500200","三重區"
"241009","267-UM","2019/11/25 20:29:26","新北市三重區三和路四段382巷129號","121.479601666667","25.078105","6500200","三重區"
"241018","268-UM","2019/11/25 20:29:25","新北市三重區正義北路216巷5號","121.495911666667","25.0675016666667","6500200","三重區"
"241032","269-UM","2019/11/25 20:29:30","新北市三重區重陽路一段120巷35號","121.48511","25.0601683333333","6500200","三重區"
"241013","270-UM","2019/11/25 20:29:29","新北市三重區溪尾街10-1號","121.491571666667","25.0746133333333","6500200","三重區"
"241030","KED-0822","2019/11/25 20:29:20","新北市三重區成功路70號","121.488528333333","25.0509583333333","6500200","三重區"
"241035","462-BY","2019/11/25 20:29:17","新北市三重區正義北路188號","121.496423333333","25.0669383333333","6500200","三重區"
"241004","475-VK","2019/11/25 20:29:25","新北市三重區慈愛街141號","121.489225","25.0800816666667","6500200","三重區"
"241020","478-VK","2019/11/25 20:29:17","新北市三重區重陽路四段146號","121.492996666667","25.0717866666667","6500200","三重區"
"241026","480-VK","2019/11/25 20:29:32","新北市三重區福德南路24巷11號","121.503335","25.0631683333333","6500200","三重區"
"241014","543-UM","2019/11/25 20:29:10","新北市三重區長興街98號","121.501736666667","25.0693283333333","6500200","三重區"
"241023","545-UM","2019/11/25 20:29:25","新北市三重區自由街16號","121.479845","25.0665516666667","6500200","三重區"
"241001","547-UM","2019/11/25 20:29:31","新北市三重區三和路四段160巷79號","121.485695","25.0749383333333","6500200","三重區"
"241019","KEA-2593","2019/11/25 20:29:25","新北市三重區重陽路四段77號","121.492581666667","25.0709316666667","6500200","三重區"
"241005","AAD-863","2019/11/25 20:29:28","新北市三重區仁義街288號","121.49344","25.0861483333333","6500200","三重區"
"241012","743-BX","2019/11/25 20:29:35","新北市三重區龍濱路285號","121.501055","25.0733683333333","6500200","三重區"
"241022","KED-0820","2019/11/25 20:29:20","新北市三重區重陽路二段19巷12號","121.488083333333","25.06246","6500200","三重區"
"241025","KED-0670","2019/11/25 20:29:33","新北市三重區頂崁街210巷36號","121.475761666667","25.0679316666667","6500200","三重區"
"241033","AAC-255","2019/11/25 20:29:21","新北市三重區五谷王北街80巷59號","121.474703333333","25.0529","6500200","三重區"
"235055","183-VK","2019/11/25 20:29:19","新北市林口區太平里180號","121.368141666667","25.1345283333333","6500300","中和區"
"247016","KEA-2869","2019/11/25 20:29:28","新北市蘆洲區光華路160號","121.465521666667","25.0823183333333","6501400","蘆洲區"
"247010","KED-0682","2019/11/25 20:29:27","新北市蘆洲區民族路75號","121.479253333333","25.08593","6501400","蘆洲區"
"235050","4979-A6","2019/11/25 20:29:27","新北市中和區景新街160巷14號","121.50506","24.99678","6500300","中和區"
"235069","4980-A6","2019/11/25 20:29:19","新北市中和區中正路446號","121.490963333333","24.9943433333333","6500300","中和區"
"235059","AAC-215","2019/11/25 20:29:32","新北市中和區員山路66-4號","121.48176","24.9918666666667","6500300","中和區"
"247006","893-R6","2019/11/25 20:29:27","新北市蘆洲區九芎街126號","121.465226666667","25.0792133333333","6501400","蘆洲區"
"247020","546-UM","2019/11/25 20:29:33","新北市蘆洲區仁愛街132號","121.469128333333","25.0945216666667","6501400","蘆洲區"
"247022","341-TH","2019/11/25 20:29:27","新北市蘆洲區中正路314號","121.464681666667","25.0911333333333","6501400","蘆洲區"
"247012","337-TH","2019/11/25 20:29:30","新北市蘆洲區復興路252號","121.479888333333","25.089645","6501400","蘆洲區"
"247004","336-TH","2019/11/25 20:29:25","新北市蘆洲區長安街299巷31號","121.456593333333","25.0845133333333","6501400","蘆洲區"
"247024","057-VK","2019/11/25 20:29:29","新北市蘆洲區長興路50巷37號","121.464868333333","25.0846966666667","6501400","蘆洲區"
"247014","056-VK","2019/11/25 20:29:34","新北市蘆洲區中山二路42號","121.474226666667","25.0820983333333","6501400","蘆洲區"
"247018","053-VK","2019/11/25 20:29:24","新北市蘆洲區民族路314巷3弄13號","121.476913333333","25.0906166666667","6501400","蘆洲區"
"247002","001-UY","2019/11/25 20:29:31","新北市蘆洲區長安街361巷24號","121.45612","25.08759","6501400","蘆洲區"
"222001","KEA-2212","2019/11/25 20:29:21","新北市深坑區北深路三段329號","121.597235","25.0050516666667","6501800","深坑區"
"251015","KEA-2871","2019/11/25 20:29:14","新北市淡水區埤島3-20號","121.446996666667","25.1914916666667","6501000","淡水區"
"251016","180-VK","2019/11/25 20:29:22","新北市淡水區新埔子11-11號","121.447043333333","25.2287366666667","6501000","淡水區"
"251008","181-VK","2019/11/25 20:29:26","新北市淡水區淡海路210巷13號","121.421733333333","25.186135","6501000","淡水區"
"251013","182-VK","2019/11/25 20:29:19","新北市淡水區後坑子6號","121.463353333333","25.20672","6501000","淡水區"
"251010","413-VK","2019/11/25 20:29:20","新北市淡水區沙崙路181巷15號","121.423961666667","25.184345","6501000","淡水區"
"251012","441-VK","2019/11/25 20:29:32","新北市淡水區頂田寮路109號","121.457623333333","25.2160983333333","6501000","淡水區"
"251001","559-UM","2019/11/25 20:29:20","新北市淡水區水源街二段177巷32弄20號","121.45537","25.17826","6501000","淡水區"
"251006","561-UM","2019/11/25 20:29:15","新北市淡水區商工路398號","121.473421666667","25.18475","6501000","淡水區"
"251014","577-R6","2019/11/25 20:29:34","新北市淡水區石頭厝9-2號","121.458773333333","25.236585","6501000","淡水區"
"251002","672-BX","2019/11/25 20:29:17","新北市淡水區中正路63號","121.441526666667","25.1694766666667","6501000","淡水區"
"251003","673-BX","2019/11/25 20:29:27","新北市淡水區新生街29號","121.439445","25.17516","6501000","淡水區"
"207003","681-TV","2019/11/25 20:29:23","新北市萬里區萬里里瑪鋉路197號","121.690558333333","25.1789933333333","6502800","萬里區"
"207004","291-VK","2019/11/25 20:29:23","新北市萬里區北基里忠三街18號","121.68478","25.17564","6502800","萬里區"
"252001","292-VK","2019/11/25 20:29:22","新北市三芝區中山路一段14號","121.500701666667","25.2581033333333","6502100","三芝區"
"247008","KED-0683","2019/11/25 20:29:24","新北市蘆洲區永安北路二段76巷11號","121.482841666667","25.0851866666667","6501400","蘆洲區"
"252002","KED-0821","2019/11/25 20:29:24","新北市三芝區淡金路二段47-2號","121.503756666667","25.2605433333333","6502100","三芝區"
"242060","986-R7","2019/11/25 20:29:15","新北市新莊區民安東路139巷6號","121.431356666667","25.0211716666667","6500500","新莊區"
"242029","615-BX","2019/11/25 20:29:26","新北市新莊區中華路二段151號","121.452763333333","25.0514766666667","6500500","新莊區"
"242027","613-BX","2019/11/25 20:29:24","新北市新莊區幸福路575號","121.453963333333","25.0492816666667","6500500","新莊區"
"242058","612-BX","2019/11/25 20:29:23","新北市新莊區四維路183號","121.422155","25.0210283333333","6500500","新莊區"
"242048","566-BX","2019/11/25 20:29:25","新北市新莊區成功街204號","121.421555","25.0177316666667","6500500","新莊區"
"242053","497-BY","2019/11/25 20:29:33","新北市新莊區民安西路229巷8弄9號","121.426721666667","25.013685","6500500","新莊區"
"242013","442-UM","2019/11/25 20:29:22","新北市新莊區中平路270巷7弄6號","121.445458333333","25.0505283333333","6500500","新莊區"
"242002","441-UM","2019/11/25 20:29:24","新北市新莊區中正路74號","121.458761666667","25.0379466666667","6500500","新莊區"
"242042","413-TV","2019/11/25 20:29:34","新北市新莊區天祥街54巷1弄1號","121.41658","25.02922","6500500","新莊區"
"242050","400-BY","2019/11/25 20:29:31","新北市新莊區民安西路189巷17號","121.426803333333","25.015375","6500500","新莊區"
"242025","362-BY","2019/11/25 20:29:16","新北市新莊區五工二路62巷26號","121.46133","25.0662766666667","6500500","新莊區"
"242023","353-BY","2019/11/25 20:29:29","新北市新莊區化成路896號","121.464643333333","25.0615916666667","6500500","新莊區"
"242015","132-UY","2019/11/25 20:29:29","新北市新莊區中平路46巷19號","121.445656666667","25.0438583333333","6500500","新莊區"
"242039","135-UY","2019/11/25 20:29:25","新北市新莊區民安路232號","121.426143333333","25.02221","6500500","新莊區"
"242056","172-VK","2019/11/25 20:29:31","新北市新莊區新莊路606號","121.443656666667","25.0328683333333","6500500","新莊區"
"242017","173-VK","2019/11/25 20:29:24","新北市新莊區中港二街131號","121.44842","25.045595","6500500","新莊區"
"242031","175-VK","2019/11/25 20:29:23","新北市泰山區新生路181-5號","121.436073333333","25.0391716666667","6500500","新莊區"
"242044","176-VK","2019/11/25 20:29:32","新北市新莊區中正路新建巷30號","121.414276666667","25.0217783333333","6500500","新莊區"
"242021","KED-0687","2019/11/25 20:29:19","新北市新莊區公園路10巷1號","121.447885","25.0387933333333","6500500","新莊區"
"242007","346-TH","2019/11/25 20:29:28","新北市新莊區福壽街124巷30號","121.458885","25.05127","6500500","新莊區"
"242004","347-TH","2019/11/25 20:29:25","新北市新莊區頭前路15巷14號","121.46789","25.0516833333333","6500500","新莊區"
"242036","348-TH","2019/11/25 20:29:30","新北市新莊區後港一路76巷10弄3號","121.426988333333","25.0259516666667","6500500","新莊區"
"242009","349-TH","2019/11/25 20:29:12","新北市新莊區昌盛街85號","121.455595","25.05012","6500500","新莊區"
"242034","350-TH","2019/11/25 20:29:25","新北市新莊區新泰路164號","121.447558333333","25.0376316666667","6500500","新莊區"
"221008","489-VK","2019/11/25 20:29:26","新北市汐止區康寧街165號","121.622725","25.0666483333333","6501100","汐止區"
"221036","130-UY","2019/11/25 20:29:31","新北市汐止區福安街37巷8號","121.66321","25.06503","6501100","汐止區"
"221015","131-UY","2019/11/25 20:29:34","新北市汐止區建成路142巷19弄13號","121.66192","25.0738866666667","6501100","汐止區"
"221010","269-BY","2019/11/25 20:29:21","新北市汐止區八連路二段36巷10號","121.637421666667","25.0943333333333","6501100","汐止區"
"221012","278-VK","2019/11/25 20:29:16","新北市汐止區汐平路二段66號","121.698333333333","25.061075","6501100","汐止區"
"221023","279-VK","2019/11/25 20:29:34","新北市汐止區湖前街110巷2弄8號","121.631751666667","25.07166","6501100","汐止區"
"221032","280-BY","2019/11/25 20:29:21","新北市汐止區民權街二段79-1號","121.619296666667","25.0485016666667","6501100","汐止區"
"221027","281-BY","2019/11/25 20:29:24","新北市汐止區中正路214號","121.658173333333","25.0689","6501100","汐止區"
"221029","298-VK","2019/11/25 20:29:20","新北市汐止區樟樹一路129巷32號","121.640551666667","25.0651233333333","6501100","汐止區"
"221021","299-VK","2019/11/25 20:29:33","新北市汐止區水源路一段293號","121.654411666667","25.0583316666667","6501100","汐止區"
"221031","353-TW","2019/11/25 20:29:24","新北市汐止區原興路51號","121.632865","25.065025","6501100","汐止區"
"221035","622-UM","2019/11/25 20:29:32","新北市汐止區長江街97號","121.658205","25.072885","6501100","汐止區"
"221025","623-UM","2019/11/25 20:29:21","新北市汐止區水源路二段90號","121.65648","25.0560266666667","6501100","汐止區"
"221038","646-BX","2019/11/25 20:29:20","新北市汐止區水源路一段72號","121.656801666667","25.0652816666667","6501100","汐止區"
"221033","647-BX","2019/11/25 20:29:22","新北市汐止區林森街124號","121.624585","25.0406216666667","6501100","汐止區"
"221002","707-TV","2019/11/25 20:29:22","新北市汐止區福德二路47號","121.63433","25.0673016666667","6501100","汐止區"
"221018","753-BX","2019/11/25 20:29:18","新北市汐止區茄苳路225巷11弄23號","121.67072","25.0698833333333","6501100","汐止區"
"220083","286-VK","2019/11/25 20:29:28","新北市板橋區僑中二街102巷1-4號","121.445858333333","25.0082533333333","6500100","板橋區"
"220081","287-VK","2019/11/25 20:29:19","新北市板橋區龍興街99巷2號","121.444306666667","25.0030183333333","6500100","板橋區"
"242046","281-VK","2019/11/25 20:29:17","新北市新莊區裕民街77號","121.418558333333","25.0239783333333","6500500","新莊區"
"242011","280-VK","2019/11/25 20:29:19","新北市新莊區中義街23號","121.45062","25.05117","6500500","新莊區"
"220079","568-UM","2019/11/25 20:29:21","新北市板橋區建國街73號","121.45922","25.0172633333333","6500100","板橋區"
"235068","KEA-2876","2019/11/25 20:29:09","新北市中和區勝利路35巷1弄36號","121.500386666667","25.0079233333333","6500300","中和區"
