"lineid","car","time","location","longitude","latitude","cityid","cityname"
"234044","148-BY","2019/12/17 13:13:48","新北市永和區秀朗路二段148巷12弄1號","121.525275","25.000685","6500400","永和區"
"234078","298-R6","2019/12/17 13:13:32","新北市永和區永貞路39巷9弄11號","121.52211","25.0069283333333","6500400","永和區"
"234036","336-UY","2019/12/17 13:13:39","新北市永和區環河東路四段84號","121.5283","24.9978","6500400","永和區"
"234062","337-UY","2019/12/17 13:13:32","新北市永和區永元路58號","121.522336666667","25.0012816666667","6500400","永和區"
"234084","338-UY","2019/12/17 13:13:37","新北市永和區永貞路108號","121.519006666667","25.0045316666667","6500400","永和區"
"234068","552-UM","2019/12/17 13:13:46","新北市永和區豫溪街137號","121.519855","25.0104566666667","6500400","永和區"
"234015","745-BX","2019/12/17 13:13:50","新北市永和區文化路90巷54號","121.512688333333","25.0168066666667","6500400","永和區"
"234028","746-BX","2019/12/17 13:13:45","新北市永和區民生路23號","121.522888333333","24.998845","6500400","永和區"
"234052","KEA-2590","2019/12/17 13:13:39","新北市永和區竹林路78號","121.519311666667","25.0129033333333","6500400","永和區"
"234005","KED-0605","2019/12/17 13:13:42","新北市永和區中山路一段273號","121.507101666667","25.0071766666667","6500400","永和區"
"234012","KEA-2591","2019/12/17 13:13:44","新北市永和區仁愛路122號","121.511683333333","25.0131716666667","6500400","永和區"
"234060","AAD-866","2019/12/17 13:13:35","新北市永和區秀朗路一段147號","121.516305","25.0045966666667","6500400","永和區"
"234040","862-TW","2019/12/17 13:13:48","新北市永和區保平路203巷6弄1號","121.509361666667","25.00447","6500400","永和區"
"234048","863-TW","2019/12/17 13:13:35","新北市永和區保福路二段105號","121.510371666667","25.013335","6500400","永和區"
"234025","9371-KE","2019/12/17 13:13:36","新北市永和區豫溪街28巷22號","121.515038333333","25.0089483333333","6500400","永和區"
"234010","9373-KE","2019/12/17 13:13:50","新北市永和區文化路126巷23弄10號","121.512766666667","25.016375","6500400","永和區"
"248017","KED-0813","2019/12/17 13:13:44","新北市五股區新五路二段367號","121.444321666667","25.088015","6501500","五股區"
"234022","9380-KE","2019/12/17 13:13:32","新北市永和區竹林路124巷28號","121.518323333333","25.0113133333333","6500400","永和區"
"234076","969-R7","2019/12/17 13:13:46","新北市永和區民有街20號","121.516573333333","24.9964766666667","6500400","永和區"
"234072","AAC-211","2019/12/17 13:13:46","新北市永和區竹林路104號","121.519681666667","25.0118916666667","6500400","永和區"
"234066","AAC-212","2019/12/17 13:13:46","新北市永和區保平路50巷8弄14號","121.511575","25.0077016666667","6500400","永和區"
"234001","AAC-295","2019/12/17 13:13:42","新北市永和區和平街60號","121.512253333333","25.009995","6500400","永和區"
"244002","248-BX","2019/12/17 13:13:37","新北市林口區頭湖73-8號","121.370581666667","25.0883483333333","6501700","林口區"
"231005","001-UM","2019/12/17 13:13:46","新北市新店區安華路28-1號","121.519526666667","24.961015","6500600","新店區"
"231029","106-UY","2019/12/17 13:13:48","新北市新店區安華路28-1號","121.519698333333","24.9608583333333","6500600","新店區"
"231018","107-UY","2019/12/17 13:13:47","新北市新店區安一路一段1-1號","121.519491666667","24.9613266666667","6500600","新店區"
"231013","108-UY","2019/12/17 13:13:47","新北市新店區安一路一段1-1號","121.519546666667","24.96105","6500600","新店區"
"231036","110-UY","2019/12/17 13:13:48","新北市新店區安豐路78號","121.495816666667","24.952605","6500600","新店區"
"231015","KEA-2219","2019/12/17 13:13:37","新北市新店區安一路一段1-1號","121.519891666667","24.9611666666667","6500600","新店區"
"231032","256-BX","2019/12/17 13:13:32","新北市新店區安一路一段1-1號","121.519668333333","24.9611566666667","6500600","新店區"
"231023","260-TV","2019/12/17 13:13:36","新北市新店區安一路一段1-1號","121.519341666667","24.9611933333333","6500600","新店區"
"231003","268-BY","2019/12/17 13:13:50","新北市新店區安一路一段1-1號","121.519701666667","24.9613466666667","6500600","新店區"
"231035","278-BY","2019/12/17 13:13:49","新北市新店區安一路一段1-1號","121.519628333333","24.9611633333333","6500600","新店區"
"231024","4716-K9","2019/12/17 13:13:39","新北市新店區安華路28-1號","121.51941","24.960745","6500600","新店區"
"231025","4715-K9","2019/12/17 13:13:48","新北市新店區安康路一段52巷2號","121.530066666667","24.9612066666667","6500600","新店區"
"231020","515-UM","2019/12/17 13:13:40","新北市新店區安一路一段1-1號","121.519256666667","24.9611616666667","6500600","新店區"
"231001","617-UM","2019/12/17 13:13:30","新北市新店區安華路28-1號","121.519403333333","24.9609866666667","6500600","新店區"
"231002","619-UM","2019/12/17 13:13:35","新北市新店區安華路28-1號","121.519496666667","24.960925","6500600","新店區"
"231034","641-BX","2019/12/17 13:13:44","新北市新店區安華路28-1號","121.519558333333","24.96057","6500600","新店區"
"231010","719-UM","2019/12/17 13:13:47","新北市新店區安一路一段1-1號","121.519681666667","24.96129","6500600","新店區"
"231026","720-UM","2019/12/17 13:13:33","新北市新店區安一路一段1-1號","121.519431666667","24.961365","6500600","新店區"
"231028","897-TW","2019/12/17 13:13:37","新北市新店區安華路28-1號","121.519638333333","24.9607383333333","6500600","新店區"
"231004","899-TW","2019/12/17 13:13:43","新北市新店區安華路28-1號","121.519266666667","24.960905","6500600","新店區"
"235028","005-UY","2019/12/17 13:13:48","新北市中和區圓通路141巷48弄17號","121.498178333333","24.9942933333333","6500300","中和區"
"235027","006-UY","2019/12/17 13:13:38","新北市中和區員山路36巷16-3號","121.485033333333","24.9913366666667","6500300","中和區"
"235003","097-UM","2019/12/17 13:13:40","新北市中和區中正路18號","121.502765","24.9935733333333","6500300","中和區"
"235029","098-UM","2019/12/17 13:13:44","新北市中和區莊敬路49巷20弄24號","121.50292","25.005885","6500300","中和區"
"235004","150-BY","2019/12/17 13:13:34","新北市中和區中正路305號","121.492461666667","24.9937883333333","6500300","中和區"
"235022","151-BY","2019/12/17 13:13:34","新北市中和區圓通路367巷59弄16號","121.493051666667","24.98373","6500300","中和區"
"235019","183-VK","2019/12/17 13:13:45","新北市中和區連城路599號","121.478733333333","24.9932683333333","6500300","中和區"
"235002","185-VK","2019/12/17 13:13:33","新北市中和區大智街57號","121.521231666667","24.992125","6500300","中和區"
"235031","255-BX","2019/12/17 13:13:34","新北市中和區新生街132號","121.48356","25.0010566666667","6500300","中和區"
"235036","301-VK","2019/12/17 13:13:43","新北市中和區錦和路113號","121.490268333333","24.99497","6500300","中和區"
"235007","352-BY","2019/12/17 13:13:40","新北市中和區南山路231號","121.503606666667","24.9934616666667","6500300","中和區"
"235006","KEA-2878","2019/12/17 13:13:46","新北市中和區景平路352號","121.511376666667","24.99273","6500300","中和區"
"235033","4980-A6","2019/12/17 13:13:40","新北市中和區中正路271-5號","121.495783333333","24.9932233333333","6500300","中和區"
"235034","558-UM","2019/12/17 13:13:35","新北市中和區圓通路115號","121.49935","24.99642","6500300","中和區"
"235009","565-BX","2019/12/17 13:13:35","新北市中和區復興路262-1號","121.50341","24.9903016666667","6500300","中和區"
"235024","KED-0823","2019/12/17 13:13:42","新北市中和區員山路312號","121.481286666667","25.0028466666667","6500300","中和區"
"235018","640-BX","2019/12/17 13:13:37","新北市中和區民享街91-6號","121.474475","25.0010483333333","6500300","中和區"
"235035","647-TV","2019/12/17 13:13:50","新北市中和區中板路5巷9號","121.485358333333","25.0104566666667","6500300","中和區"
"235011","732-UM","2019/12/17 13:13:37","新北市中和區中興街118巷10號","121.499918333333","24.99322","6500300","中和區"
"235010","733-UM","2019/12/17 13:13:39","新北市中和區員山路36巷13號","121.48439","24.9911066666667","6500300","中和區"
"235026","800-TS","2019/12/17 13:13:32","新北市中和區景平路999巷2號","121.49523","25.0063616666667","6500300","中和區"
"235005","802-TS","2019/12/17 13:13:32","新北市中和區中正路2-1號","121.503393333333","24.9936","6500300","中和區"
"235016","805-TS","2019/12/17 13:13:52","新北市中和區中正路49號","121.50188","24.99346","6500300","中和區"
"235015","157-BY","2019/12/17 13:13:33","新北市中和區信義街59號","121.51142","24.9884983333333","6500300","中和區"
"235001","AAC-213","2019/12/17 13:13:33","新北市中和區景平路151巷59號","121.514898333333","24.990045","6500300","中和區"
"235013","251-BX","2019/12/17 13:13:52","新北市中和區建八路1號","121.485393333333","24.998565","6500300","中和區"
"223001","592-UM","2019/12/17 13:12:39","新北市新店區檳榔路97號","121.544691666667","24.9619866666667","6501900","石碇區"
"228004","212-TW","2019/12/17 13:13:44","新北市貢寮區吉林里內寮街71號","121.89166","24.9733083333333","6502600","貢寮區"
"228005","828-UM","2019/12/17 13:13:39","新北市貢寮區仁理村仁和路19號","121.92236","25.053635","6502600","貢寮區"
"207002","749-BX","2019/12/17 13:13:37","新北市萬里區崁腳里崁腳路166號","121.645013333333","25.1559083333333","6502800","萬里區"
"207001","662-BX","2019/12/17 13:13:37","新北市萬里區龜吼里翡翠路17號","121.683308333333","25.1875333333333","6502800","萬里區"
"252005","AAC-283","2019/12/17 13:13:46","新北市三芝區八賢里八連溪1-7號","121.507175","25.249085","6502100","三芝區"
"220029","287-VK","2019/12/17 13:13:33","新北市板橋區華東街1-10號","121.448276666667","24.9950566666667","6500100","板橋區"
"220108","985-R7","2019/12/17 13:13:46","新北市板橋區華東街1-10號","121.448336666667","24.9949583333333","6500100","板橋區"
"220064","AAC-253","2019/12/17 13:13:51","新北市板橋區華東街1-10號","121.448391666667","24.9949883333333","6500100","板橋區"
"235025","KEA-2875","2019/12/17 13:13:28","新北市中和區國光街215巷10弄12號","121.466851666667","25.0005116666667","6500300","中和區"
