"lineid","car","time","location","longitude","latitude","cityid","cityname"
"234044","148-BY","2019/12/17 13:29:48","新北市永和區秀朗路二段232號","121.52621","24.99941","6500400","永和區"
"234078","298-R6","2019/12/17 13:29:49","新北市永和區福和路7巷11弄16號","121.525876666667","25.007925","6500400","永和區"
"234036","336-UY","2019/12/17 13:29:46","新北市永和區民樂街35巷1號","121.527596666667","25.0009883333333","6500400","永和區"
"234062","337-UY","2019/12/17 13:29:52","新北市永和區中正路368巷1弄75號","121.520521666667","25.00081","6500400","永和區"
"234084","338-UY","2019/12/17 13:29:37","新北市永和區林森路62號","121.52402","25.0041833333333","6500400","永和區"
"234068","552-UM","2019/12/17 13:29:46","新北市永和區警光街12號","121.519718333333","25.0095716666667","6500400","永和區"
"234015","745-BX","2019/12/17 13:29:46","新北市永和區永和路二段425巷18號","121.514763333333","25.0177016666667","6500400","永和區"
"234028","746-BX","2019/12/17 13:29:45","新北市永和區民生路69號","121.522661666667","24.9973","6500400","永和區"
"234052","KEA-2590","2019/12/17 13:29:39","新北市永和區復興街19巷2號","121.516178333333","25.0131333333333","6500400","永和區"
"234005","KED-0605","2019/12/17 13:29:42","新北市永和區保平路268巷51弄12號","121.506463333333","25.006465","6500400","永和區"
"234012","KEA-2591","2019/12/17 13:29:49","新北市永和區永平路203巷1號","121.509301666667","25.00985","6500400","永和區"
"234060","AAD-866","2019/12/17 13:29:35","新北市永和區中正路401號","121.517195","25.0044583333333","6500400","永和區"
"234040","862-TW","2019/12/17 13:29:48","新北市永和區水源街39巷28號","121.510688333333","25.0031216666667","6500400","永和區"
"234048","863-TW","2019/12/17 13:29:35","新北市永和區保福路二段78號","121.510505","25.0132766666667","6500400","永和區"
"234025","9371-KE","2019/12/17 13:29:36","新北市永和區和平街36號","121.513055","25.0100416666667","6500400","永和區"
"234010","9373-KE","2019/12/17 13:29:50","新北市永和區仁愛路141巷30弄5號","121.511961666667","25.0115716666667","6500400","永和區"
"248017","KED-0813","2019/12/17 13:29:44","新北市五股區御史路300號","121.41715","25.1087533333333","6501500","五股區"
"234022","9380-KE","2019/12/17 13:29:32","新北市永和區環河東路二段20號","121.522523333333","25.0129833333333","6500400","永和區"
"234076","969-R7","2019/12/17 13:29:46","新北市永和區得和路104巷1弄2號","121.5181","24.99974","6500400","永和區"
"234072","AAC-211","2019/12/17 13:29:46","新北市永和區環河東路二段90號","121.523958333333","25.01065","6500400","永和區"
"234066","AAC-212","2019/12/17 13:29:45","新北市永和區保平路123號","121.510648333333","25.0064683333333","6500400","永和區"
"234001","AAC-295","2019/12/17 13:29:42","新北市永和區永和路一段136號","121.514015","25.007985","6500400","永和區"
"244002","248-BX","2019/12/17 13:29:37","新北市林口區頂福里71-91號","121.35125","25.0823033333333","6501700","林口區"
"231005","001-UM","2019/12/17 13:29:26","新北市新店區新店路262-3號","121.537151666667","24.9583133333333","6500600","新店區"
"231030","002-UM","2019/12/17 13:29:43","新北市新店區安華路16號","121.517363333333","24.9580933333333","6500600","新店區"
"231027","0293-UT","2019/12/17 13:29:46","新北市新店區北宜路一段3號","121.538085","24.9583866666667","6500600","新店區"
"231029","106-UY","2019/12/17 13:29:48","新北市新店區安華路3號","121.519181666667","24.9594716666667","6500600","新店區"
"231018","107-UY","2019/12/17 13:29:47","新北市新店區環河路120號","121.536601666667","24.9682416666667","6500600","新店區"
"231013","108-UY","2019/12/17 13:29:46","新北市新店區中央路210號","121.530073333333","24.97368","6500600","新店區"
"231036","110-UY","2019/12/17 13:29:48","新北市新店區安祥路156巷48號","121.473583333333","24.95392","6500600","新店區"
"231015","KEA-2219","2019/12/17 13:29:37","新北市新店區光明街22號","121.538053333333","24.9588133333333","6500600","新店區"
"231032","256-BX","2019/12/17 13:29:32","新北市新店區安豐路60-1號","121.497813333333","24.9535833333333","6500600","新店區"
"231023","260-TV","2019/12/17 13:29:36","新北市新店區新店路13號","121.540293333333","24.952915","6500600","新店區"
"231003","268-BY","2019/12/17 13:29:30","新北市新店區中興路二段203號","121.548121666667","24.9741583333333","6500600","新店區"
"231035","278-BY","2019/12/17 13:29:49","新北市新店區安康路一段266巷4號","121.51982","24.9640516666667","6500600","新店區"
"231006","355-BY","2019/12/17 13:29:40","新北市新店區安華路28-1號","121.519328333333","24.9609283333333","6500600","新店區"
"231024","4716-K9","2019/12/17 13:29:39","新北市新店區中正路128巷11號","121.542623333333","24.9721416666667","6500600","新店區"
"231025","4715-K9","2019/12/17 13:29:48","新北市新店區中央五街39號","121.52851","24.9750383333333","6500600","新店區"
"231020","515-UM","2019/12/17 13:29:40","新北市新店區安一路一段1-1號","121.519318333333","24.961145","6500600","新店區"
"231001","617-UM","2019/12/17 13:29:50","新北市新店區安華路28-1號","121.519433333333","24.9608616666667","6500600","新店區"
"231002","619-UM","2019/12/17 13:29:36","新北市新店區安康路一段222-2號","121.522931666667","24.9636666666667","6500600","新店區"
"231034","641-BX","2019/12/17 13:29:44","新北市新店區安華路28-1號","121.5195","24.960625","6500600","新店區"
"231012","718-UY","2019/12/17 13:29:35","新北市新店區北新路二段98號","121.542995","24.9732683333333","6500600","新店區"
"231010","719-UM","2019/12/17 13:29:47","新北市新店區自由街19號","121.535136666667","24.9745983333333","6500600","新店區"
"231026","720-UM","2019/12/17 13:29:33","新北市新店區安一路一段1-1號","121.519685","24.9615566666667","6500600","新店區"
"231028","897-TW","2019/12/17 13:29:37","新北市新店區安一路一段1-1號","121.519648333333","24.9610516666667","6500600","新店區"
"231004","899-TW","2019/12/17 13:29:43","新北市新店區安一路一段1-1號","121.519655","24.9610816666667","6500600","新店區"
"231037","AKT-0513","2019/12/17 13:29:47","新北市新店區薏仁坑路51號","121.49396","24.9647","6500600","新店區"
"235030","003-UY","2019/12/17 13:29:34","新北市中和區中山路二段110號","121.50292","25.00393","6500300","中和區"
"235028","005-UY","2019/12/17 13:29:48","新北市中和區連城路75巷2號","121.497433333333","24.999885","6500300","中和區"
"235027","006-UY","2019/12/17 13:29:38","新北市中和區連城路347巷6弄2號","121.488343333333","24.9953366666667","6500300","中和區"
"235020","096-UM","2019/12/17 13:29:39","新北市中和區新民街5號","121.48239","25.0056883333333","6500300","中和區"
"235003","097-UM","2019/12/17 13:29:40","新北市中和區大勇街34號","121.51732","24.9935083333333","6500300","中和區"
"235029","098-UM","2019/12/17 13:29:44","新北市中和區中山路二段64巷16弄2號","121.503278333333","25.0058483333333","6500300","中和區"
"235004","150-BY","2019/12/17 13:29:34","新北市中和區保健路50巷66號","121.509208333333","24.9952216666667","6500300","中和區"
"235022","151-BY","2019/12/17 13:29:37","新北市中和區圓通路369巷72號","121.490198333333","24.9822716666667","6500300","中和區"
"235019","183-VK","2019/12/17 13:29:45","新北市中和區國光街102巷27號","121.471306666667","25.00077","6500300","中和區"
"235002","185-VK","2019/12/17 13:29:50","新北市中和區自強路20號","121.520175","24.9953933333333","6500300","中和區"
"235031","255-BX","2019/12/17 13:29:34","新北市中和區員山路148巷49號","121.482798333333","24.997205","6500300","中和區"
"235036","301-VK","2019/12/17 13:29:43","新北市中和區連城路241號","121.49372","24.9972533333333","6500300","中和區"
"235007","352-BY","2019/12/17 13:29:40","新北市中和區景平路239巷1號","121.5099","24.9927066666667","6500300","中和區"
"235006","KEA-2878","2019/12/17 13:29:46","新北市中和區自立路68號","121.523801666667","24.9911883333333","6500300","中和區"
"235014","4979-A6","2019/12/17 13:29:45","新北市中和區景新街362巷5號","121.511941666667","24.9900833333333","6500300","中和區"
"235033","4980-A6","2019/12/17 13:29:40","新北市中和區連城路89巷7-1號","121.497233333333","24.999235","6500300","中和區"
"235032","551-UM","2019/12/17 13:29:47","新北市中和區中正路211巷13弄7號","121.497093333333","24.993145","6500300","中和區"
"235034","558-UM","2019/12/17 13:29:35","新北市中和區景平路572號","121.501705","24.9954783333333","6500300","中和區"
"235009","565-BX","2019/12/17 13:29:35","新北市中和區復興路49巷2號","121.504556666667","24.9898233333333","6500300","中和區"
"235024","KED-0823","2019/12/17 13:29:42","新北市中和區中山路三段41號","121.477355","25.00555","6500300","中和區"
"235018","640-BX","2019/12/17 13:29:39","新北市中和區民享街54巷2號","121.473823333333","25.0024416666667","6500300","中和區"
"235035","647-TV","2019/12/17 13:29:38","新北市板橋區光環路二段22-3號","121.482508333333","25.0142016666667","6500300","中和區"
"235011","732-UM","2019/12/17 13:29:37","新北市中和區南山路282號","121.507876666667","24.987835","6500300","中和區"
"235010","733-UM","2019/12/17 13:29:39","新北市中和區興南路一段86號","121.509833333333","24.9893116666667","6500300","中和區"
"235026","800-TS","2019/12/17 13:29:32","新北市中和區景平路720號","121.496661666667","25.003005","6500300","中和區"
"235021","801-TS","2019/12/17 13:29:47","新北市中和區民安街42巷1號","121.478593333333","25.0014816666667","6500300","中和區"
"235005","802-TS","2019/12/17 13:29:52","新北市中和區中和路322號","121.509733333333","25.000725","6500300","中和區"
"235016","805-TS","2019/12/17 13:29:32","新北市中和區興南路二段108號","121.504713333333","24.98397","6500300","中和區"
"235012","896-TW","2019/12/17 13:29:47","新北市中和區錦和路350-1號","121.490528333333","24.993575","6500300","中和區"
"235017","900-TW","2019/12/17 13:29:52","新北市中和區連城路518巷1號","121.476775","24.9919333333333","6500300","中和區"
"235015","157-BY","2019/12/17 13:29:49","新北市中和區興南路二段114巷12號","121.503786666667","24.9845116666667","6500300","中和區"
"235001","AAC-213","2019/12/17 13:29:53","新北市中和區景德街40號","121.517753333333","24.99148","6500300","中和區"
"235023","AAC-215","2019/12/17 13:29:35","新北市中和區建八路28-1號","121.487115","24.99846","6500300","中和區"
"220002","015-TV","2019/12/17 13:29:41","新北市板橋區華東街1-9號","121.448108333333","24.99495","6500100","板橋區"
"220013","072-UY","2019/12/17 13:29:47","新北市板橋區南雅南路二段88號","121.453653333333","25.00148","6500100","板橋區"
"220034","073-UY","2019/12/17 13:29:38","新北市板橋區華東街1-10號","121.448285","24.995085","6500100","板橋區"
"220017","AAD-861","2019/12/17 13:29:38","新北市板橋區四川路二段橋頭1巷1號","121.446995","24.9946183333333","6500100","板橋區"
"235013","251-BX","2019/12/17 13:29:32","新北市中和區景安路121號","121.505758333333","24.9963433333333","6500300","中和區"
"223001","592-UM","2019/12/17 13:29:39","新北市石碇區石崁1號","121.651436666667","25.002915","6501900","石碇區"
"228004","212-TW","2019/12/17 13:29:44","新北市貢寮區龍崗里石壁坑街17號","121.910398333333","24.989585","6502600","貢寮區"
"228005","828-UM","2019/12/17 13:29:39","新北市貢寮區美豐里文秀坑8號","121.90258","25.05043","6502600","貢寮區"
"207002","749-BX","2019/12/17 13:29:36","新北市萬里區崁腳里崁腳路166號","121.64509","25.1558816666667","6502800","萬里區"
"207001","662-BX","2019/12/17 13:29:37","新北市萬里區大鵬里頂社2-1號","121.660131666667","25.2070483333333","6502800","萬里區"
"252005","AAC-283","2019/12/17 13:29:46","新北市三芝區圓山里木屐寮38號","121.528783333333","25.2260583333333","6502100","三芝區"
"236074","166-UM","2019/12/17 13:29:35","新北市土城區城林路6巷80號","121.438713333333","24.979785","6501300","土城區"
"220027","145-BY","2019/12/17 13:29:42","新北市板橋區華東街1-10號","121.448348333333","24.9951033333333","6500100","板橋區"
"220028","200-UY","2019/12/17 13:29:49","新北市板橋區華東街1-9號","121.448195","24.994935","6500100","板橋區"
"220030","610-BX","2019/12/17 13:29:49","新北市板橋區華東街1-10號","121.448251666667","24.9949366666667","6500100","板橋區"
"220004","276-BY","2019/12/17 13:29:45","新北市板橋區華東街1-9號","121.448095","24.9949466666667","6500100","板橋區"
"220020","277-BY","2019/12/17 13:29:42","新北市板橋區板城路407號","121.447466666667","24.9951216666667","6500100","板橋區"
"220043","285-UM","2019/12/17 13:29:36","新北市板橋區民生路二段120號","121.470361666667","25.0201383333333","6500100","板橋區"
"220107","286-VK","2019/12/17 13:29:32","新北市板橋區華東街1-10號","121.448365","24.9951166666667","6500100","板橋區"
"220029","287-VK","2019/12/17 13:29:53","新北市板橋區華東街1-10號","121.448256666667","24.9950333333333","6500100","板橋區"
"220032","296-UM","2019/12/17 13:29:42","新北市板橋區華東街1-9號","121.448155","24.9949816666667","6500100","板橋區"
"220037","491-VK","2019/12/17 13:29:45","新北市板橋區民生路二段161巷1號","121.470228333333","25.0198783333333","6500100","板橋區"
"220104","560-BX","2019/12/17 13:29:53","新北市板橋區南雅東路1號","121.455496666667","25.005645","6500100","板橋區"
"220005","686-BX","2019/12/17 13:29:52","新北市板橋區華東街1-10號","121.448248333333","24.9949683333333","6500100","板橋區"
"220025","687-BX","2019/12/17 13:29:44","新北市板橋區篤行路一段29號","121.431968333333","24.9946533333333","6500100","板橋區"
"220022","895-R6","2019/12/17 13:29:31","","121.451755","24.9962883333333","6500100","板橋區"
"220108","985-R7","2019/12/17 13:29:46","新北市板橋區四川路二段134號","121.450273333333","24.99341","6500100","板橋區"
"220046","AAC-210","2019/12/17 13:29:41","新北市板橋區民生路二段161巷3號","121.470225","25.0198266666667","6500100","板橋區"
"220012","AAC-253","2019/12/17 13:29:31","新北市板橋區南雅南路二段4巷4號","121.454123333333","25.003785","6500100","板橋區"
"235025","KEA-2875","2019/12/17 13:29:28","新北市中和區民享街90巷12號","121.474096666667","25.000235","6500300","中和區"
