"lineid","car","time","location","longitude","latitude","cityid","cityname"
"249005","172-UM","2019/12/17 16:59:51","新北市八里區渡船頭3-19號","121.433951666667","25.15176","6502300","八里區"
"249001","173-UM","2019/12/17 16:59:49","新北市八里區下罟子1-12號","121.390028333333","25.1419916666667","6502300","八里區"
"249004","303-UY","2019/12/17 16:59:52","新北市八里區挖子尾街40號","121.415681666667","25.1659683333333","6502300","八里區"
"249002","305-UY","2019/12/17 16:59:50","新北市八里區牛寮埔22號","121.432615","25.1424966666667","6502300","八里區"
"249003","593-UM","2019/12/17 16:59:57","新北市八里區中山路二段297號","121.401283333333","25.1482816666667","6502300","八里區"
"244007","080-UY","2019/12/17 16:59:46","新北市林口區中湖54號","121.375813333333","25.0916933333333","6501700","林口區"
"244025","837-TS","2019/12/17 16:59:55","新北市林口區粉寮路二段8-1號","121.40128","25.0850233333333","6501700","林口區"
"244021","838-TS","2019/12/17 16:59:44","新北市林口區粉寮一街150號","121.403881666667","25.086675","6501700","林口區"
"231046","719-UM","2019/12/17 16:59:38","新北市新店區灣潭路15-8號","121.541393333333","24.9394633333333","6500600","新店區"
"241011","013-R5","2019/12/17 16:59:53","新北市三重區仁愛街53巷70號","121.497918333333","25.0724","6500200","三重區"
"241028","022-UY","2019/12/17 16:59:35","新北市三重區中正南路58號","121.494078333333","25.0596416666667","6500200","三重區"
"241008","059-VK","2019/12/17 16:59:37","新北市三重區永福街179巷15號","121.47837","25.0749416666667","6500200","三重區"
"241031","061-VK","2019/12/17 16:59:46","新北市三重區重新路三段115巷2號","121.490505","25.0598316666667","6500200","三重區"
"241015","062-VK","2019/12/17 16:59:38","新北市三重區中央北路97號","121.500166666667","25.0671066666667","6500200","三重區"
"241017","063-VK","2019/12/17 16:59:50","新北市三重區大仁街3巷35號","121.492656666667","25.0639266666667","6500200","三重區"
"241024","065-VK","2019/12/17 16:59:54","新北市三重區國道路一段58巷20號","121.481145","25.0720183333333","6500200","三重區"
"241007","066-VK","2019/12/17 16:59:57","新北市三重區溪尾街126巷51號","121.48827","25.0791766666667","6500200","三重區"
"241002","090-VK","2019/12/17 16:59:37","新北市三重區仁義街174號","121.496846666667","25.081335","6500200","三重區"
"241003","091-VK","2019/12/17 16:59:35","新北市三重區碧華街323號","121.49135","25.0845433333333","6500200","三重區"
"241025","742-BX","2019/12/17 16:59:50","新北市三重區中正北路357號","121.472711666667","25.0716983333333","6500200","三重區"
"241006","262-UM","2019/12/17 16:59:48","新北市三重區三和路四段262號","121.485708333333","25.0770316666667","6500200","三重區"
"241016","266-UM","2019/12/17 16:59:51","新北市三重區大同北路131號","121.493311666667","25.06396","6500200","三重區"
"241009","267-UM","2019/12/17 16:59:53","新北市三重區仁愛街600巷15號","121.484201666667","25.08036","6500200","三重區"
"241018","268-UM","2019/12/17 16:59:48","新北市三重區六張街90巷8號","121.49306","25.069615","6500200","三重區"
"241032","269-UM","2019/12/17 16:59:55","新北市三重區新北大道一段35巷5號","121.486078333333","25.0608783333333","6500200","三重區"
"241013","270-UM","2019/12/17 16:59:46","新北市三重區仁和街62號","121.497401666667","25.0739116666667","6500200","三重區"
"241030","KED-0822","2019/12/17 16:59:42","新北市三重區環河南路255號","121.490988333333","25.05058","6500200","三重區"
"241004","475-VK","2019/12/17 16:59:41","新北市三重區五華街96號","121.492613333333","25.082285","6500200","三重區"
"241020","478-VK","2019/12/17 16:59:39","新北市三重區自強路三段72號","121.486705","25.0736183333333","6500200","三重區"
"241026","480-VK","2019/12/17 16:59:57","新北市三重區正義南路60-6號","121.498538333333","25.0600133333333","6500200","三重區"
"241014","543-UM","2019/12/17 16:59:53","新北市三重區介壽路189號","121.501426666667","25.070735","6500200","三重區"
"241023","545-UM","2019/12/17 16:59:47","新北市三重區忠孝路三段126號","121.479858333333","25.0621466666667","6500200","三重區"
"241001","547-UM","2019/12/17 16:59:44","新北市三重區仁愛街245巷36號","121.494335","25.078475","6500200","三重區"
"241019","KEA-2593","2019/12/17 16:59:38","新北市三重區三張街128巷21號","121.486838333333","25.06914","6500200","三重區"
"241005","AAD-863","2019/12/17 16:59:44","新北市三重區永安北路二段11號","121.481955","25.0813933333333","6500200","三重區"
"241012","743-BX","2019/12/17 16:59:54","新北市三重區仁壽街121號","121.498831666667","25.07402","6500200","三重區"
"241022","KED-0820","2019/12/17 16:59:37","新北市三重區中華路128號","121.48352","25.063845","6500200","三重區"
"241029","942-UM","2019/12/17 16:59:41","新北市三重區中正南路252巷5號","121.493576666667","25.0526916666667","6500200","三重區"
"241033","AAC-255","2019/12/17 16:59:50","新北市三重區中興北街275號","121.469116666667","25.0607916666667","6500200","三重區"
"247016","KEA-2869","2019/12/17 16:59:56","新北市蘆洲區中正路67號","121.470341666667","25.0826666666667","6501400","蘆洲區"
"247010","KED-0682","2019/12/17 16:59:50","新北市蘆洲區信義路233號","121.479138333333","25.0839783333333","6501400","蘆洲區"
"247006","893-R6","2019/12/17 16:59:58","新北市蘆洲區長安街99巷19號","121.46104","25.0800866666667","6501400","蘆洲區"
"247020","546-UM","2019/12/17 16:59:42","新北市蘆洲區民族路422巷48弄13號","121.474315","25.09349","6501400","蘆洲區"
"247004","500-BY","2019/12/17 16:59:56","新北市蘆洲區長安街137號","121.460826666667","25.081395","6501400","蘆洲區"
"247022","341-TH","2019/12/17 16:59:44","新北市蘆洲區三民路128巷122號","121.468963333333","25.0914266666667","6501400","蘆洲區"
"247024","057-VK","2019/12/17 16:59:52","新北市蘆洲區長興路202號","121.460718333333","25.0871966666667","6501400","蘆洲區"
"247014","056-VK","2019/12/17 16:59:39","新北市蘆洲區中央路32巷18號","121.473993333333","25.0830433333333","6501400","蘆洲區"
"247018","053-VK","2019/12/17 16:59:54","新北市蘆洲區民族路227巷12-1號","121.477136666667","25.08936","6501400","蘆洲區"
"247008","002-UY","2019/12/17 16:59:55","新北市蘆洲區信義路56號","121.475391666667","25.0796716666667","6501400","蘆洲區"
"247002","001-UY","2019/12/17 16:59:51","新北市蘆洲區永平街1號","121.459138333333","25.090505","6501400","蘆洲區"
"228001","212-TW","2019/12/17 16:59:47","新北市貢寮區雙玉里學苑街2號","121.9147","25.0215683333333","6502600","貢寮區"
"228002","663-BX","2019/12/17 16:59:40","新北市貢寮區貢寮里朝陽街142號","121.90514","25.0234183333333","6502600","貢寮區"
"228003","828-UM","2019/12/17 16:59:40","新北市貢寮區福隆里興隆街13-5號","121.944171666667","25.01652","6502600","貢寮區"
"224006","676-BX","2019/12/17 16:59:37","新北市瑞芳區大寮路356-1號","121.784901666667","25.1032033333333","6501200","瑞芳區"
"224009","275-VK","2019/12/17 16:59:38","新北市瑞芳區明燈路一段1號","121.82699","25.1094516666667","6501200","瑞芳區"
"224008","272-VK","2019/12/17 16:59:57","新北市瑞芳區明燈路一段257號","121.817328333333","25.1083383333333","6501200","瑞芳區"
"224005","271-BY","2019/12/17 16:59:45","新北市瑞芳區鼻頭路131號","121.91628","25.1222866666667","6501200","瑞芳區"
"227002","642-TC","2019/12/17 16:59:38","新北市雙溪區上林里內平林90號","121.827456666667","25.0274016666667","6502500","雙溪區"
"227001","400-TW","2019/12/17 16:59:56","新北市雙溪區三貂里十三層14號","121.853616666667","25.0789166666667","6502500","雙溪區"
"251004","009-UM","2019/12/17 16:59:41","新北市淡水區重建街87號","121.439795","25.1724866666667","6501000","淡水區"
"251005","010-UM","2019/12/17 16:59:56","新北市淡水區學府路1號","121.447353333333","25.1677933333333","6501000","淡水區"
"251015","KEA-2871","2019/12/17 16:59:52","新北市淡水區忠愛街5-2號","121.460616666667","25.1716216666667","6501000","淡水區"
"251016","180-VK","2019/12/17 16:59:38","新北市淡水區瓦坑6-1號","121.477601666667","25.181035","6501000","淡水區"
"251008","181-VK","2019/12/17 16:59:39","新北市淡水區樹梅坑9號","121.473131666667","25.142565","6501000","淡水區"
"251012","441-VK","2019/12/17 16:59:40","新北市淡水區中正路二段31號","121.419293333333","25.181755","6501000","淡水區"
"251007","442-VK","2019/12/17 16:59:21","新北市淡水區中正東路36號","121.44882","25.1657583333333","6501000","淡水區"
"251006","561-UM","2019/12/17 16:59:42","新北市淡水區真理街1號","121.438123333333","25.172915","6501000","淡水區"
"251009","575-R6","2019/12/17 16:59:50","新北市淡水區中正路二段31號","121.419578333333","25.1815733333333","6501000","淡水區"
"251014","577-R6","2019/12/17 16:59:37","新北市淡水區淡金路四段472巷22號","121.452753333333","25.2240683333333","6501000","淡水區"
"251011","650-BX","2019/12/17 16:59:39","新北市淡水區坪頂路52巷12號","121.45776","25.162465","6501000","淡水區"
"251013","178-VK","2019/12/17 16:59:53","新北市淡水區泉洲厝32號","121.48928","25.1925266666667","6501000","淡水區"
"252001","292-VK","2019/12/17 16:59:53","新北市三芝區淡金路二段43號","121.503378333333","25.2605116666667","6502100","三芝區"
"233002","762-BX","2019/12/17 16:59:38","新北市烏來區啦卡路9巷8號","121.554246666667","24.86171","6502900","烏來區"
"247012","KED-0683","2019/12/17 16:59:53","新北市蘆洲區民族路278-1號","121.478358333333","25.0893","6501400","蘆洲區"
"252002","KED-0821","2019/12/17 16:59:50","新北市三芝區忠孝街130-2號","121.506041666667","25.2578516666667","6502100","三芝區"
"242005","751-BX","2019/12/17 16:59:41","新北市新莊區新泰路255巷83號","121.442233333333","25.038805","6500500","新莊區"
"242027","613-BX","2019/12/17 16:59:52","新北市新莊區新泰路255巷83號","121.442195","25.0391133333333","6500500","新莊區"
"242058","612-BX","2019/12/17 16:59:49","新北市新莊區新泰路357巷3弄57號","121.44199","25.0390933333333","6500500","新莊區"
"242054","497-BY","2019/12/17 16:59:43","新北市新莊區新泰路305巷47號","121.443015","25.0406533333333","6500500","新莊區"
"242013","413-TV","2019/12/17 16:59:46","新北市新莊區新泰路357巷3弄57號","121.441971666667","25.039685","6500500","新莊區"
"242025","362-BY","2019/12/17 16:59:51","新北市新莊區新泰路255巷83號","121.442048333333","25.0390283333333","6500500","新莊區"
"242032","175-VK","2019/12/17 16:59:46","新北市新莊區三和路12-21號","121.442046666667","25.0386466666667","6500500","新莊區"
"242021","KED-0687","2019/12/17 16:59:54","新北市新莊區三和路12-21號","121.4422","25.0381083333333","6500500","新莊區"
"242007","346-TH","2019/12/17 16:59:41","新北市新莊區三和路12-21號","121.44197","25.0382383333333","6500500","新莊區"
"242009","349-TH","2019/12/17 16:59:50","新北市新莊區三和路12-21號","121.442208333333","25.0384566666667","6500500","新莊區"
"242034","350-TH","2019/12/17 16:59:51","新北市新莊區三和路18-25號","121.441851666667","25.038975","6500500","新莊區"
"242019","351-TH","2019/12/17 16:59:57","新北市新莊區新泰路357巷3弄57號","121.442046666667","25.0395516666667","6500500","新莊區"
"238018","KEA-2217","2019/12/17 16:59:42","新北市樹林區育德街78-1號","121.388115","24.9679583333333","6500700","樹林區"
"238017","283-BY","2019/12/17 16:59:48","新北市樹林區中山路三段125-11號","121.398636666667","24.9734633333333","6500700","樹林區"
"238020","268-VK","2019/12/17 16:59:45","新北市樹林區千歲街101號","121.428518333333","25.0008766666667","6500700","樹林區"
"239007","AAC-297","2019/12/17 16:59:39","新北市鶯歌區二甲路12-2號","121.345668333333","24.9351033333333","6500800","鶯歌區"
"239008","527-UM","2019/12/17 16:59:52","新北市鶯歌區二甲路13-16號","121.345335","24.9351233333333","6500800","鶯歌區"
"239005","526-UM","2019/12/17 16:59:39","新北市鶯歌區二甲路12-2號","121.345881666667","24.9352016666667","6500800","鶯歌區"
"239001","417-VK","2019/12/17 16:59:52","新北市鶯歌區二甲路9-2號","121.346481666667","24.93707","6500800","鶯歌區"
"233001","KEA-2870","2019/12/17 16:59:52","新北市烏來區西羅岸路22號","121.54902","24.8674166666667","6502900","烏來區"
"242046","281-VK","2019/12/17 16:59:58","新北市新莊區三和路12-21號","121.442196666667","25.03823","6500500","新莊區"
"242011","280-VK","2019/12/17 16:59:45","新北市新莊區三和路12-21號","121.441988333333","25.038275","6500500","新莊區"
