"lineid","car","time","location","longitude","latitude","cityid","cityname"
"234026","9371-KE","2019/12/17 17:59:22","新北市永和區水源街2巷20號","121.51216","25.0056833333333","6500400","永和區"
"249005","172-UM","2019/12/17 17:59:18","新北市八里區荖阡坑路16號","121.39807","25.1384116666667","6502300","八里區"
"249001","173-UM","2019/12/17 17:59:29","新北市八里區龍米路二段35號","121.44848","25.1400516666667","6502300","八里區"
"249004","303-UY","2019/12/17 17:59:11","新北市八里區龍米路二段148號","121.437318333333","25.15558","6502300","八里區"
"249002","305-UY","2019/12/17 17:59:10","新北市八里區龍形五街7號","121.450448333333","25.1335883333333","6502300","八里區"
"249003","593-UM","2019/12/17 17:59:17","新北市八里區中華路二段173-1號","121.40705","25.1508233333333","6502300","八里區"
"248008","KED-0815","2019/12/17 17:59:17","新北市五股區中興路二段150號","121.45873","25.0782833333333","6501500","五股區"
"248020","KED-0813","2019/12/17 17:59:25","新北市五股區中興路二段63巷17號","121.460193333333","25.0754133333333","6501500","五股區"
"248004","677-BX","2019/12/17 17:59:16","新北市五股區更洲路47號","121.45689","25.0790633333333","6501500","五股區"
"232011","375-UM","2019/12/17 17:59:23","新北市坪林區北宜路八段229號","121.709033333333","24.93501","6502000","坪林區"
"244007","080-UY","2019/12/17 17:59:25","新北市林口區竹林路548號","121.387411666667","25.0844","6501700","林口區"
"244019","402-UM","2019/12/17 17:59:10","新北市林口區文化一路一段120號","121.374395","25.0718766666667","6501700","林口區"
"244013","KEA-2802","2019/12/17 17:59:15","新北市林口區中山路68-1號","121.393326666667","25.078565","6501700","林口區"
"244023","483-VK","2019/12/17 17:59:09","新北市林口區東湖一街69號","121.385453333333","25.0725266666667","6501700","林口區"
"244017","485-VK","2019/12/17 17:59:26","新北市林口區忠孝路478號","121.370211666667","25.0706183333333","6501700","林口區"
"244009","657-BX","2019/12/17 17:59:24","新北市林口區佳林路82-1號","121.38573","25.080265","6501700","林口區"
"244011","701-TV","2019/12/17 17:59:26","新北市林口區中正路30巷6號","121.395886666667","25.077695","6501700","林口區"
"244025","837-TS","2019/12/17 17:59:16","新北市林口區三民路77-6號","121.359003333333","25.0687116666667","6501700","林口區"
"244021","838-TS","2019/12/17 17:59:24","新北市林口區新寮27-6號","121.396226666667","25.06623","6501700","林口區"
"208001","267-VK","2019/12/17 17:59:13","新北市金山區磺港里磺港路160號","121.644751666667","25.2257416666667","6502700","金山區"
"222003","436-BY","2019/12/17 17:59:23","新北市深坑區炮子崙23號","121.607198333333","24.9909716666667","6501800","深坑區"
"222002","659-BX","2019/12/17 17:59:24","新北市深坑區文化街98號","121.617016666667","25.0019383333333","6501800","深坑區"
"221031","KEA-2785","2019/12/17 17:59:19","新北市汐止區中興路86-5號","121.634708333333","25.0622866666667","6501100","汐止區"
"231040","617-UM","2019/12/17 17:59:17","新北市新店區安華路28-1號","121.519293333333","24.960855","6500600","新店區"
"231046","719-UM","2019/12/17 17:59:18","新北市新店區下石厝路31號","121.532766666667","24.9334","6500600","新店區"
"241024","065-VK","2019/12/17 17:59:14","新北市三重區大勇街45號","121.482075","25.0716933333333","6500200","三重區"
"241016","266-UM","2019/12/17 17:59:11","新北市五股區凌雲路三段24巷21-6號","121.434676666667","25.1074233333333","6500200","三重區"
"241033","AAC-255","2019/12/17 17:59:10","新北市三重區光復路一段68巷58號","121.469918333333","25.0491933333333","6500200","三重區"
"235064","005-UY","2019/12/17 17:59:11","新北市中和區中正路275號","121.49547","24.99378","6500300","中和區"
"235065","098-UM","2019/12/17 17:59:23","新北市中和區中山路二段472號","121.488231666667","25.004815","6500300","中和區"
"235058","151-BY","2019/12/17 17:59:17","新北市中和區圓通路367巷33弄35號","121.494916666667","24.9855083333333","6500300","中和區"
"235038","185-VK","2019/12/17 17:59:24","新北市中和區中正路165號","121.49821","24.9937","6500300","中和區"
"235043","352-BY","2019/12/17 17:59:11","新北市中和區員山路36巷16-3號","121.485063333333","24.991365","6500300","中和區"
"247016","KEA-2869","2019/12/17 17:59:16","新北市蘆洲區中正路185巷78弄21號","121.465451666667","25.0851","6501400","蘆洲區"
"235069","4980-A6","2019/12/17 17:59:11","新北市中和區員山路36巷16-4號","121.485308333333","24.991875","6500300","中和區"
"235070","558-UM","2019/12/17 17:59:18","新北市中和區中正路637巷60弄61號","121.485396666667","24.99252","6500300","中和區"
"235009","565-BX","2019/12/17 17:59:14","新北市中和區和城路一段271巷1號","121.485616666667","24.9921133333333","6500300","中和區"
"235060","KED-0823","2019/12/17 17:59:21","新北市中和區員山路36巷16-2號","121.485218333333","24.9915616666667","6500300","中和區"
"235054","640-BX","2019/12/17 17:59:21","新北市土城區延壽路75巷1號","121.46921","24.9925816666667","6500300","中和區"
"235047","732-UM","2019/12/17 17:59:17","新北市中和區中正路305號","121.492668333333","24.993805","6500300","中和區"
"235062","800-TS","2019/12/17 17:59:21","新北市中和區中山路二段538號","121.485296666667","25.005055","6500300","中和區"
"235057","801-TS","2019/12/17 17:59:23","新北市中和區民安街178號","121.4765","24.9999683333333","6500300","中和區"
"235052","805-TS","2019/12/17 17:59:13","新北市中和區中正路395號","121.489673333333","24.993585","6500300","中和區"
"235051","157-BY","2019/12/17 17:59:23","新北市中和區中正路395號","121.489976666667","24.9935583333333","6500300","中和區"
"235037","AAC-213","2019/12/17 17:59:14","新北市中和區景平路243號","121.509378333333","24.99291","6500300","中和區"
"207004","KEE-1107","2019/12/17 17:59:22","新北市萬里區萬里里瑪鋉路5號","121.686065","25.1749333333333","6502800","萬里區"
"247006","893-R6","2019/12/17 17:59:18","新北市蘆洲區中華街20號","121.46297","25.0813583333333","6501400","蘆洲區"
"247014","056-VK","2019/12/17 17:59:19","新北市蘆洲區忠孝路57號","121.471236666667","25.0868366666667","6501400","蘆洲區"
"247018","053-VK","2019/12/17 17:59:14","新北市蘆洲區復興路241號","121.480388333333","25.0898366666667","6501400","蘆洲區"
"247002","001-UY","2019/12/17 17:59:11","新北市蘆洲區永平街32巷57弄13號","121.459441666667","25.0929233333333","6501400","蘆洲區"
"226004","312-R5","2019/12/17 17:59:18","新北市平溪區石底里公園街18-3號","121.733411666667","25.0258366666667","6502400","平溪區"
"228001","212-TW","2019/12/17 17:59:27","新北市貢寮區真理里新港街26巷31號","121.929515","25.054545","6502600","貢寮區"
"228002","663-BX","2019/12/17 17:59:20","新北市貢寮區福隆里桂安街17號","121.964081666667","25.0212483333333","6502600","貢寮區"
"228003","828-UM","2019/12/17 17:59:20","新北市貢寮區真理里美艷山街6-2號","121.928865","25.0606983333333","6502600","貢寮區"
"224006","676-BX","2019/12/17 17:59:16","新北市瑞芳區大寮路356-1號","121.78481","25.1031666666667","6501200","瑞芳區"
"224007","285-BY","2019/12/17 17:59:22","新北市瑞芳區大寮路84號","121.780296666667","25.1012566666667","6501200","瑞芳區"
"224009","275-VK","2019/12/17 17:59:18","新北市瑞芳區金光路288號","121.851941666667","25.106705","6501200","瑞芳區"
"224008","272-VK","2019/12/17 17:59:24","新北市瑞芳區明燈路一段45巷100號","121.820938333333","25.1042033333333","6501200","瑞芳區"
"224005","271-BY","2019/12/17 17:59:25","新北市瑞芳區深澳路16-4號","121.819265","25.1308983333333","6501200","瑞芳區"
"227001","400-TW","2019/12/17 17:59:16","新北市雙溪區三貂里政光路3-1號","121.850811666667","25.063355","6502500","雙溪區"
"253005","032-BX","2019/12/17 17:59:12","新北市石門區中山路62-11號","121.567525","25.289685","6502200","石門區"
"253006","295-VK","2019/12/17 17:59:25","新北市石門區大丘田45-3號","121.549515","25.2771416666667","6502200","石門區"
"222001","KEA-2212","2019/12/17 17:59:16","新北市深坑區北深路三段8號","121.610893333333","25.0010183333333","6501800","深坑區"
"208002","KEA-2872","2019/12/17 17:59:27","新北市金山區三界壇路91-1號","121.624853333333","25.2286416666667","6502700","金山區"
"208003","665-BX","2019/12/17 17:59:25","新北市金山區磺港里磺港路319號","121.644761666667","25.2277066666667","6502700","金山區"
"251004","009-UM","2019/12/17 17:59:29","新北市淡水區民權路187號","121.459601666667","25.1335883333333","6501000","淡水區"
"251005","010-UM","2019/12/17 17:59:24","新北市淡水區英專路135號","121.446493333333","25.1727516666667","6501000","淡水區"
"251001","011-UM","2019/12/17 17:59:14","新北市淡水區民權路94巷1號","121.463163333333","25.124885","6501000","淡水區"
"251015","KEA-2871","2019/12/17 17:59:27","新北市淡水區興福寮31-1號","121.489801666667","25.1624616666667","6501000","淡水區"
"251016","180-VK","2019/12/17 17:59:19","新北市淡水區埤島30-14號","121.448151666667","25.1981083333333","6501000","淡水區"
"251008","181-VK","2019/12/17 17:59:19","新北市淡水區八勢路一段48號","121.465973333333","25.1549283333333","6501000","淡水區"
"251010","413-VK","2019/12/17 17:59:19","新北市淡水區中正路一段87巷1-2號","121.421266666667","25.1788383333333","6501000","淡水區"
"251012","441-VK","2019/12/17 17:59:20","新北市淡水區北新路三段38巷5號","121.484486666667","25.1870333333333","6501000","淡水區"
"251007","442-VK","2019/12/17 17:59:14","新北市淡水區中正東路二段143巷1弄7號","121.460703333333","25.148205","6501000","淡水區"
"251006","561-UM","2019/12/17 17:59:22","新北市淡水區新生街20-4號","121.438895","25.1737366666667","6501000","淡水區"
"251009","575-R6","2019/12/17 17:59:10","新北市淡水區中山路108巷3號","121.442023333333","25.1710466666667","6501000","淡水區"
"251014","577-R6","2019/12/17 17:59:17","新北市淡水區公埔子16-6號","121.481011666667","25.2245683333333","6501000","淡水區"
"251011","650-BX","2019/12/17 17:59:18","新北市淡水區小坪頂13-3號","121.486613333333","25.15617","6501000","淡水區"
"251002","672-BX","2019/12/17 17:59:08","新北市淡水區鼻頭街18-5號","121.44627","25.166965","6501000","淡水區"
"251003","766-UM","2019/12/17 17:59:27","新北市淡水區大忠街45號","121.444658333333","25.176345","6501000","淡水區"
"251013","178-VK","2019/12/17 17:59:12","新北市淡水區泉洲厝31號","121.479541666667","25.1910116666667","6501000","淡水區"
"252001","292-VK","2019/12/17 17:59:13","新北市三芝區中興街二段2號","121.498361666667","25.2566216666667","6502100","三芝區"
"237004","KEA-2597","2019/12/17 17:59:18","新北市三峽區中園街227號","121.366943333333","24.919825","6500900","三峽區"
"237009","210-TH","2019/12/17 17:59:22","新北市三峽區中山路106巷3號","121.366075","24.93598","6500900","三峽區"
"237013","252-BX","2019/12/17 17:59:13","新北市三峽區長泰街61-1號","121.376885","24.9330333333333","6500900","三峽區"
"237012","275-BY","2019/12/17 17:59:20","新北市三峽區民生街27巷1號","121.376063333333","24.9362516666667","6500900","三峽區"
"237008","302-VK","2019/12/17 17:59:15","新北市三峽區白雞38-20號","121.373585","24.9115916666667","6500900","三峽區"
"237014","433-BY","2019/12/17 17:59:26","新北市三峽區復興路101巷1弄79號","121.370998333333","24.9376666666667","6500900","三峽區"
"237006","5529-G3","2019/12/17 17:59:26","新北市三峽區介壽路二段138巷1弄21號","121.396578333333","24.9334966666667","6500900","三峽區"
"237011","KEA-2596","2019/12/17 17:59:14","新北市三峽區中正路一段46-2號","121.375441666667","24.9305016666667","6500900","三峽區"
"237015","649-BX","2019/12/17 17:59:20","新北市三峽區紫微路139號","121.406636666667","24.9115216666667","6500900","三峽區"
"237010","706-TV","2019/12/17 17:59:21","新北市三峽區仁愛街5號","121.368441666667","24.9340616666667","6500900","三峽區"
"237005","AKY-6261","2019/12/17 17:59:12","新北市三峽區復興路235號","121.368225","24.938625","6500900","三峽區"
"236042","KED-0685","2019/12/17 17:59:17","新北市土城區城林路6巷80號","121.438568333333","24.9795716666667","6501300","土城區"
"233002","762-BX","2019/12/17 17:59:18","新北市烏來區烏來街50號","121.551396666667","24.8632633333333","6502900","烏來區"
"236079","166-UM","2019/12/17 17:59:17","新北市土城區永寧路32巷10弄3號","121.428855","24.9610333333333","6501300","土城區"
"236030","253-BX","2019/12/17 17:59:17","新北市土城區城林路6巷80號","121.43868","24.979615","6501300","土城區"
"236026","269-VK","2019/12/17 17:59:14","新北市土城區承天路1號","121.435811666667","24.96653","6501300","土城區"
"236014","270-VK","2019/12/17 17:59:18","新北市土城區中華路二段2號","121.438998333333","24.9798083333333","6501300","土城區"
"236038","271-VK","2019/12/17 17:59:28","新北市土城區城林路6巷80號","121.438175","24.979725","6501300","土城區"
"247012","KED-0683","2019/12/17 17:59:13","新北市蘆洲區民族路220號","121.479631666667","25.087975","6501400","蘆洲區"
"236070","KEA-2877","2019/12/17 17:59:25","新北市土城區青雲路669-3號","121.467116666667","24.9649316666667","6501300","土城區"
"252002","KED-0821","2019/12/17 17:59:10","新北市三芝區中山路二段40號","121.503016666667","25.2550733333333","6502100","三芝區"
"236021","401-BY","2019/12/17 17:59:24","新北市土城區城林路6巷80號","121.438823333333","24.9796116666667","6501300","土城區"
"236059","912-UM","2019/12/17 17:59:09","新北市土城區中央路三段238-5號","121.42825","24.964315","6501300","土城區"
"236049","913-UM","2019/12/17 17:59:25","新北市土城區城林路6巷80號","121.438611666667","24.9796916666667","6501300","土城區"
"236063","915-UM","2019/12/17 17:59:22","新北市土城區城林路6巷80號","121.438428333333","24.9797666666667","6501300","土城區"
"236055","AAC-216","2019/12/17 17:59:19","新北市土城區城林路6巷80號","121.438498333333","24.97958","6501300","土城區"
"242061","986-R7","2019/12/17 17:59:19","新北市新莊區瓊林南路220號","121.433583333333","25.00568","6500500","新莊區"
"242005","751-BX","2019/12/17 17:59:25","新北市新莊區思源路177巷21號","121.459258333333","25.0463733333333","6500500","新莊區"
"242029","615-BX","2019/12/17 17:59:22","新北市新莊區中平路110巷11號","121.445633333333","25.0460033333333","6500500","新莊區"
"242027","613-BX","2019/12/17 17:59:12","新北市新莊區思源路455號","121.459763333333","25.0534466666667","6500500","新莊區"
"242058","612-BX","2019/12/17 17:59:18","新北市新莊區中山路三段627號","121.413956666667","25.0237183333333","6500500","新莊區"
"242048","566-BX","2019/12/17 17:59:26","新北市新莊區萬安街111號","121.420803333333","25.0228216666667","6500500","新莊區"
"242054","497-BY","2019/12/17 17:59:03","新北市新莊區民安西路404號","121.42881","25.0101383333333","6500500","新莊區"
"242002","441-UM","2019/12/17 17:59:27","新北市新莊區中正路163號","121.45505","25.03661","6500500","新莊區"
"242044","415-TV","2019/12/17 17:59:10","新北市新莊區雙鳳路75號","121.41489","25.0275033333333","6500500","新莊區"
"242013","413-TV","2019/12/17 17:59:26","新北市新莊區幸福路817巷7號","121.445436666667","25.04868","6500500","新莊區"
"242051","400-BY","2019/12/17 17:59:20","新北市新莊區龍安路498號","121.426556666667","25.0171616666667","6500500","新莊區"
"242025","362-BY","2019/12/17 17:59:11","新北市新莊區新北大道二段370號","121.462096666667","25.0611333333333","6500500","新莊區"
"242023","353-BY","2019/12/17 17:59:23","新北市新莊區中港路132巷26號","121.456615","25.04077","6500500","新莊區"
"242015","132-UY","2019/12/17 17:59:24","新北市新莊區中平路111號","121.444583333333","25.0464016666667","6500500","新莊區"
"242056","172-VK","2019/12/17 17:59:15","新北市新莊區豐年街124巷22號","121.445448333333","25.029975","6500500","新莊區"
"242017","173-VK","2019/12/17 17:59:18","新北市新莊區中港路339巷46號","121.45036","25.0451016666667","6500500","新莊區"
"242032","175-VK","2019/12/17 17:59:26","新北市新莊區新泰路336號","121.444806666667","25.0420416666667","6500500","新莊區"
"242039","176-VK","2019/12/17 17:59:13","新北市新莊區民安西路24巷14號","121.426341666667","25.0209016666667","6500500","新莊區"
"242021","KED-0687","2019/12/17 17:59:14","新北市新莊區中正路225號","121.450683333333","25.035785","6500500","新莊區"
"242007","346-TH","2019/12/17 17:59:21","新北市新莊區自信街65巷7號","121.455465","25.0486866666667","6500500","新莊區"
"242042","347-TH","2019/12/17 17:59:10","新北市新莊區丹鳳街34號","121.42162","25.0295183333333","6500500","新莊區"
"242037","348-TH","2019/12/17 17:59:18","新北市新莊區建福路9號","121.42613","25.0294583333333","6500500","新莊區"
"242009","349-TH","2019/12/17 17:59:10","新北市新莊區中華路二段294號","121.45239","25.0538533333333","6500500","新莊區"
"242034","350-TH","2019/12/17 17:59:25","新北市新莊區福海街22號","121.445366666667","25.0339916666667","6500500","新莊區"
"242019","351-TH","2019/12/17 17:59:17","新北市新莊區明中街18號","121.457455","25.039335","6500500","新莊區"
"238015","755-BX","2019/12/17 17:59:27","新北市樹林區大安路316號","121.417381666667","24.9918033333333","6500700","樹林區"
"238023","601-UM","2019/12/17 17:59:19","新北市樹林區龍興街46巷14號","121.402495","25.0153983333333","6500700","樹林區"
"238019","599-UM","2019/12/17 17:59:18","新北市樹林區太平路150巷1號","121.418531666667","24.9779866666667","6500700","樹林區"
"238018","KEA-2217","2019/12/17 17:59:22","新北市樹林區中正路7-1號","121.430226666667","24.9975866666667","6500700","樹林區"
"238022","KEA-2213","2019/12/17 17:59:08","新北市樹林區太元街75號","121.419206666667","24.9783933333333","6500700","樹林區"
"238021","KEA-2539","2019/12/17 17:59:13","新北市樹林區柑園街一段315號","121.392121666667","24.9563133333333","6500700","樹林區"
"238025","303-VK","2019/12/17 17:59:15","新北市樹林區三俊街45號","121.412628333333","25.0156516666667","6500700","樹林區"
"238017","283-BY","2019/12/17 17:59:28","新北市樹林區中正路650號","121.40989","25.0164966666667","6500700","樹林區"
"238014","282-BY","2019/12/17 17:59:08","新北市樹林區中正路45巷9號","121.426678333333","24.9992333333333","6500700","樹林區"
"238020","268-VK","2019/12/17 17:59:25","新北市樹林區三俊街199巷20弄1-1號","121.420598333333","25.0177833333333","6500700","樹林區"
"238026","172-UY","2019/12/17 17:59:18","新北市樹林區中洲街51巷4號","121.396706666667","24.97097","6500700","樹林區"
"238016","169-UY","2019/12/17 17:59:25","新北市樹林區復興路295巷17號","121.419261666667","24.9885533333333","6500700","樹林區"
"239007","AAC-297","2019/12/17 17:59:19","新北市鶯歌區鶯桃路94巷59弄2-1號","121.341766666667","24.9553233333333","6500800","鶯歌區"
"239006","891-R6","2019/12/17 17:59:25","新北市鶯歌區鶯桃路413巷36號","121.330906666667","24.963505","6500800","鶯歌區"
"239008","527-UM","2019/12/17 17:59:12","新北市鶯歌區香賓街29巷2號","121.33796","24.979475","6500800","鶯歌區"
"239005","526-UM","2019/12/17 17:59:19","新北市鶯歌區鶯桃路658巷87號","121.331766666667","24.9707383333333","6500800","鶯歌區"
"239001","417-VK","2019/12/17 17:59:12","新北市鶯歌區中正三路234-4號","121.330648333333","24.93709","6500800","鶯歌區"
"239003","360-BY","2019/12/17 17:59:20","新北市鶯歌區永吉街41號","121.335595","24.9572916666667","6500800","鶯歌區"
"239002","359-BY","2019/12/17 17:59:16","新北市鶯歌區光明街138號","121.344863333333","24.9558466666667","6500800","鶯歌區"
"239004","193-VK","2019/12/17 17:59:11","新北市鶯歌區尖山路88號","121.348628333333","24.9495166666667","6500800","鶯歌區"
"221008","489-VK","2019/12/17 17:59:25","新北市汐止區康寧街753巷2弄12號","121.639518333333","25.07406","6501100","汐止區"
"221010","269-BY","2019/12/17 17:59:15","新北市汐止區汐萬路二段247號","121.646468333333","25.0882383333333","6501100","汐止區"
"221018","277-VK","2019/12/17 17:59:15","新北市汐止區忠孝東路337號","121.665073333333","25.0700316666667","6501100","汐止區"
"221012","278-VK","2019/12/17 17:59:23","新北市汐止區保長路1號","121.671011666667","25.0800633333333","6501100","汐止區"
"221023","279-VK","2019/12/17 17:59:10","新北市汐止區明峰街115號","121.631161666667","25.0711216666667","6501100","汐止區"
"221029","298-VK","2019/12/17 17:59:29","新北市汐止區樟樹二路328號","121.641425","25.07029","6501100","汐止區"
"207003","KEE-1020","2019/12/17 17:59:18","新北市萬里區野柳里東澳路66號","121.692653333333","25.200905","6502800","萬里區"
"221025","567-BX","2019/12/17 17:59:15","新北市汐止區仁愛路17號","121.659181666667","25.0639333333333","6501100","汐止區"
"221035","622-UM","2019/12/17 17:59:09","新北市汐止區汐萬路一段244-1號","121.651505","25.073325","6501100","汐止區"
"221038","646-BX","2019/12/17 17:59:09","新北市汐止區新台五路一段150號","121.653511666667","25.0621083333333","6501100","汐止區"
"221033","647-BX","2019/12/17 17:59:13","新北市汐止區合順街39巷1號","121.620661666667","25.0432883333333","6501100","汐止區"
"221002","707-TV","2019/12/17 17:59:17","新北市汐止區工建路216號","121.636306666667","25.0621766666667","6501100","汐止區"
"233001","KEA-2870","2019/12/17 17:59:11","新北市烏來區環山路181-1號","121.549223333333","24.8534166666667","6502900","烏來區"
"224002","257-TC","2019/12/17 17:59:13","新北市瑞芳區三爪子坑路34號","121.810525","25.1061866666667","6501200","瑞芳區"
"242046","281-VK","2019/12/17 17:59:18","新北市新莊區福營路184號","121.431316666667","25.0308","6500500","新莊區"
"242011","280-VK","2019/12/17 17:59:25","新北市新莊區中港路中慶巷13號","121.450678333333","25.05377","6500500","新莊區"
