"lineid","car","time","location","longitude","latitude","cityid","cityname"
"231063","641-BX","2019/12/17 21:29:33","新北市新店區如意街28號","121.493788333333","24.9483333333333","6500600","新店區"
"241017","063-VK","2019/12/17 21:29:30","新北市三重區中正北路25巷2號","121.493205","25.0627033333333","6500200","三重區"
"241024","065-VK","2019/12/17 21:29:14","新北市三重區中正北路145巷8弄2號","121.48408","25.067795","6500200","三重區"
"241007","066-VK","2019/12/17 21:29:17","新北市三重區信義西街118號","121.49571","25.0643233333333","6500200","三重區"
"241003","091-VK","2019/12/17 21:29:31","新北市三重區仁義街238號","121.494341666667","25.0855116666667","6500200","三重區"
"241016","266-UM","2019/12/17 21:29:30","新北市三重區正義北路132號","121.496683333333","25.06571","6500200","三重區"
"241005","AAD-863","2019/12/17 21:29:23","新北市三重區碧華街1號","121.483585","25.081175","6500200","三重區"
"247016","KEA-2869","2019/12/17 21:29:30","新北市八里區中山路三段216號","121.378791666667","25.1424133333333","6501400","蘆洲區"
"247006","893-R6","2019/12/17 21:28:52","新北市五股區中直路17-3號","121.422111666667","25.111595","6501400","蘆洲區"
"247008","002-UY","2019/12/17 21:29:14","新北市五股區新五路二段372巷20號","121.447935","25.085425","6501400","蘆洲區"
"251004","009-UM","2019/12/17 21:29:13","新北市淡水區民族路2號","121.460278333333","25.137035","6501000","淡水區"
"251005","010-UM","2019/12/17 21:29:24","新北市淡水區水源街一段44號","121.443905","25.1722483333333","6501000","淡水區"
"251001","011-UM","2019/12/17 21:29:14","新北市淡水區濱海路三段148巷50弄76號","121.431355","25.1906466666667","6501000","淡水區"
"251016","180-VK","2019/12/17 21:29:26","新北市淡水區前洲子28號","121.441061666667","25.2192416666667","6501000","淡水區"
"251008","181-VK","2019/12/17 21:29:24","新北市淡水區水源街二段138-1號","121.453605","25.1748533333333","6501000","淡水區"
"251010","413-VK","2019/12/17 21:29:19","新北市淡水區沙崙路25巷21號","121.4206","25.1824883333333","6501000","淡水區"
"251012","441-VK","2019/12/17 21:29:20","新北市淡水區淡金路五段35巷46號","121.452496666667","25.2347433333333","6501000","淡水區"
"251009","575-R6","2019/12/17 21:29:30","新北市淡水區民族路33巷2-10號","121.463953333333","25.1369016666667","6501000","淡水區"
"251014","577-R6","2019/12/17 21:29:17","新北市淡水區六塊厝2-1號","121.450125","25.240485","6501000","淡水區"
"251011","650-BX","2019/12/17 21:29:18","新北市淡水區新民街164號","121.437101666667","25.1783516666667","6501000","淡水區"
"251002","672-BX","2019/12/17 21:29:27","新北市淡水區學府路172巷21號","121.448255","25.17492","6501000","淡水區"
"251003","766-UM","2019/12/17 21:29:27","新北市淡水區新春街65巷14號","121.437593333333","25.1828383333333","6501000","淡水區"
"251013","178-VK","2019/12/17 21:29:32","新北市淡水區埤島58-2號","121.458935","25.1950783333333","6501000","淡水區"
