"lineid","car","time","location","longitude","latitude","cityid","cityname"
"244004","248-BX","2019/11/22 08:59:43","新北市林口區汕頭2號","121.361408333333","25.132785","6501700","林口區"
"222004","289-BY","2019/11/22 08:59:57","新北市深坑區大坪街11號","121.630543333333","25.01897","6501800","深坑區"
"231007","189-VK","2019/11/22 08:59:07","新北市新店區小坑二路2巷13號","121.532228333333","24.917515","6500600","新店區"
"231009","192-VK","2019/11/22 08:59:43","新北市新店區廣興路96號","121.53783","24.9130216666667","6500600","新店區"
"223003","205-TH","2019/11/22 08:59:44","新北市石碇區北宜路六段水底寮巷10號","121.66494","24.947555","6501900","石碇區"
"223008","406-TH","2019/11/22 08:59:53","新北市石碇區光明路13號","121.679936666667","25.03358","6501900","石碇區"
"223001","592-UM","2019/11/22 08:59:51","新北市石碇區北宜路六段水底寮巷9號","121.664766666667","24.9479","6501900","石碇區"
"223004","660-BX","2019/11/22 08:59:50","新北市石碇區崩山46號","121.680408333333","24.9684083333333","6501900","石碇區"
"223007","661-BX","2019/11/22 08:59:42","新北市石碇區光明路2號","121.674185","25.0286333333333","6501900","石碇區"
"223005","677-TV","2019/11/22 08:54:32","新北市石碇區崩山53號","121.682356666667","24.96887","6501900","石碇區"
"227003","282-VK","2019/11/22 08:59:58","新北市雙溪區泰平里泰平35號","121.82621","24.9707716666667","6502500","雙溪區"
"237013","760-BX","2019/11/22 08:59:37","新北市三峽區安坑35-7號","121.453215","24.93139","6500900","三峽區"
