"lineid","car","time","location","longitude","latitude","cityid","cityname"
"244004","248-BX","2019/11/22 09:43:43","新北市林口區粉寮路二段160巷28號","121.405155","25.0907483333333","6501700","林口區"
"231007","189-VK","2019/11/22 09:43:47","新北市新店區新潭路三段215巷25號","121.508096666667","24.9040966666667","6500600","新店區"
"231009","192-VK","2019/11/22 09:43:43","新北市新店區小坑一路71號","121.53126","24.9083566666667","6500600","新店區"
"227003","282-VK","2019/11/22 09:40:58","新北市雙溪區泰平里烏山路40-1號","121.834078333333","24.9369966666667","6502500","雙溪區"
"237013","760-BX","2019/11/22 09:43:37","新北市三峽區安坑2號","121.437641666667","24.9269983333333","6500900","三峽區"
