"lineid","car","time","location","longitude","latitude","cityid","cityname"
"234044","148-BY","2019/11/22 12:59:21","新北市永和區得和路373巷31弄4號","121.524998333333","25.000615","6500400","永和區"
"234078","298-R6","2019/11/22 12:59:21","新北市永和區永亨路70號","121.521225","25.0059733333333","6500400","永和區"
"234036","336-UY","2019/11/22 12:59:09","新北市中和區秀朗路三段36巷2號","121.526433333333","24.99614","6500400","永和區"
"234062","337-UY","2019/11/22 12:59:14","新北市永和區秀朗路一段152號","121.518275","25.00329","6500400","永和區"
"234084","338-UY","2019/11/22 12:59:21","新北市永和區永利路10巷11號","121.518036666667","25.005475","6500400","永和區"
"234068","552-UM","2019/11/22 12:59:17","新北市永和區中興街92號","121.518753333333","25.0120066666667","6500400","永和區"
"234015","745-BX","2019/11/22 12:59:12","新北市永和區永和路二段297號","121.515978333333","25.016045","6500400","永和區"
"234028","746-BX","2019/11/22 12:59:23","新北市永和區得和路415號","121.525806666667","24.99922","6500400","永和區"
"234052","KEA-2590","2019/11/22 12:59:14","新北市永和區竹林路66巷2號","121.518216666667","25.0134433333333","6500400","永和區"
"234012","KEA-2591","2019/11/22 12:59:14","新北市永和區信義路21號","121.514016666667","25.01226","6500400","永和區"
"234060","AAD-866","2019/11/22 12:59:28","新北市永和區福和路301號","121.516393333333","25.00726","6500400","永和區"
"234040","862-TW","2019/11/22 12:59:23","新北市永和區永貞路265號","121.51181","25.0046616666667","6500400","永和區"
"234048","863-TW","2019/11/22 12:59:25","新北市永和區文化路208號","121.51026","25.01655","6500400","永和區"
"234025","9372-KE","2019/11/22 12:59:24","新北市永和區永和路一段202號","121.514336666667","25.009245","6500400","永和區"
"234025","9371-KE","2019/11/22 12:59:27","新北市永和區永和路一段216號","121.51445","25.009515","6500400","永和區"
"234022","9381-KE","2019/11/22 12:59:17","新北市永和區竹林路75巷33弄5號","121.520528333333","25.01435","6500400","永和區"
"234010","9373-KE","2019/11/22 12:59:18","新北市永和區文化路113巷13弄2號","121.513013333333","25.0142666666667","6500400","永和區"
"248019","KED-0813","2019/11/22 12:59:15","新北市五股區中興路二段63巷17號","121.460236666667","25.0755083333333","6501500","五股區"
"234076","969-R7","2019/11/22 12:59:21","新北市永和區民享街21號","121.515685","24.9949333333333","6500400","永和區"
"234072","AAC-211","2019/11/22 12:59:18","新北市永和區福和路1號","121.526545","25.0098916666667","6500400","永和區"
"234066","AAC-212","2019/11/22 12:59:21","新北市永和區自由街62號","121.5137","25.00576","6500400","永和區"
"234001","AAC-295","2019/11/22 12:59:13","新北市永和區永平路2號","121.513796666667","25.0087416666667","6500400","永和區"
"231029","106-UY","2019/11/22 12:59:16","新北市新店區安華路28-1號","121.519775","24.9607783333333","6500600","新店區"
"231013","108-UY","2019/11/22 12:59:17","新北市新店區安華路28-1號","121.519666666667","24.961015","6500600","新店區"
"231036","110-UY","2019/11/22 12:59:18","新北市新店區安一路一段1-1號","121.519373333333","24.9611433333333","6500600","新店區"
"231023","260-TV","2019/11/22 12:59:23","新北市新店區安一路一段1-1號","121.519521666667","24.961445","6500600","新店區"
"231003","268-BY","2019/11/22 12:59:20","新北市新店區安一路一段1-1號","121.519806666667","24.9612983333333","6500600","新店區"
"231035","278-BY","2019/11/22 12:59:14","新北市新店區安一路一段1-1號","121.519761666667","24.9611333333333","6500600","新店區"
"231016","AAD-862","2019/11/22 12:59:16","新北市新店區安華路28-1號","121.51962","24.9609183333333","6500600","新店區"
"231025","4715-K9","2019/11/22 12:59:12","新北市新店區安華路28-1號","121.519396666667","24.9605466666667","6500600","新店區"
"231022","513-UM","2019/11/22 12:59:20","新北市新店區安一路一段1-1號","121.519595","24.9611333333333","6500600","新店區"
"231034","641-BX","2019/11/22 12:58:56","新北市新店區安華路28-1號","121.519498333333","24.9605633333333","6500600","新店區"
"231012","KED-0819","2019/11/22 12:59:17","新北市新店區安一路一段1-1號","121.519665","24.9612716666667","6500600","新店區"
"231026","720-UM","2019/11/22 12:59:10","新北市新店區安一路一段1-1號","121.519203333333","24.9613633333333","6500600","新店區"
"231028","897-TW","2019/11/22 12:59:29","新北市新店區安華路28-1號","121.519596666667","24.9606683333333","6500600","新店區"
"231001","898-TW","2019/11/22 12:59:10","新北市新店區安華路28-1號","121.519408333333","24.9607983333333","6500600","新店區"
"231004","899-TW","2019/11/22 12:59:20","新北市新店區安華路28-1號","121.519185","24.9607633333333","6500600","新店區"
"235028","005-UY","2019/11/22 12:59:11","新北市中和區中正路277-6號","121.495131666667","24.9937383333333","6500300","中和區"
"235027","006-UY","2019/11/22 12:59:25","新北市中和區員山路36巷16-3號","121.485033333333","24.9912666666667","6500300","中和區"
"235029","098-UM","2019/11/22 12:59:20","新北市中和區橋和路270號","121.495755","25.0066283333333","6500300","中和區"
"235022","151-BY","2019/11/22 12:59:15","新北市中和區圓通路367巷33弄61-1號","121.49598","24.98581","6500300","中和區"
"235002","185-VK","2019/11/22 12:59:19","新北市永和區成功路二段136巷6號","121.526041666667","24.9973533333333","6500300","中和區"
"235031","255-BX","2019/11/22 12:59:17","新北市中和區中山路二段550號","121.483728333333","25.0053116666667","6500300","中和區"
"235033","4980-A6","2019/11/22 12:59:12","新北市中和區員山路36巷16-2號","121.485273333333","24.9917566666667","6500300","中和區"
"235034","558-UM","2019/11/22 12:59:23","新北市中和區員山路36巷16-2號","121.485225","24.991615","6500300","中和區"
"235009","565-BX","2019/11/22 12:59:10","新北市中和區員山路36巷13號","121.48416","24.9910133333333","6500300","中和區"
"235024","KED-0823","2019/11/22 12:59:11","新北市中和區員山路36巷16-3號","121.485053333333","24.9913516666667","6500300","中和區"
"235018","640-BX","2019/11/22 12:59:23","新北市中和區連城路523巷13弄2號","121.481583333333","24.9936216666667","6500300","中和區"
"235035","647-TV","2019/11/22 12:59:16","新北市中和區中山路二段472號","121.488161666667","25.004815","6500300","中和區"
"235026","800-TS","2019/11/22 12:59:18","新北市中和區錦和路69號","121.489371666667","24.9982066666667","6500300","中和區"
"235005","802-TS","2019/11/22 12:59:28","新北市中和區和城路一段271巷1號","121.485508333333","24.9917133333333","6500300","中和區"
"235016","805-TS","2019/11/22 12:59:19","新北市中和區員山路36巷16-3號","121.484593333333","24.9910616666667","6500300","中和區"
"235015","157-BY","2019/11/22 12:59:24","新北市中和區員山路36巷13號","121.48424","24.9908716666667","6500300","中和區"
"235001","AAC-213","2019/11/22 12:59:11","新北市中和區景平路151號","121.51377","24.9920633333333","6500300","中和區"
"235023","AAC-215","2019/11/22 12:59:29","新北市中和區員山路36巷16-3號","121.48502","24.99123","6500300","中和區"
"207002","749-BX","2019/11/22 12:59:20","新北市萬里區雙興里大坪路6號","121.637396666667","25.1680516666667","6502800","萬里區"
"207001","662-BX","2019/11/22 12:59:19","新北市萬里區萬里里獅頭路22-1號","121.69305","25.178195","6502800","萬里區"
"235025","KEA-2875","2019/11/22 12:59:00","新北市中和區連城路469巷79弄8號","121.483686666667","24.993645","6500300","中和區"
