"lineid","car","time","location","longitude","latitude","cityid","cityname"
"234007","208-UY","2019/11/22 18:29:40","新北市永和區新生路2-7號","121.50935","25.0169883333333","6500400","永和區"
"234086","338-UY","2019/11/22 18:29:40","新北市永和區福和路38號","121.523788333333","25.0082583333333","6500400","永和區"
"234042","862-TW","2019/11/22 18:29:48","新北市永和區福和路1號","121.526226666667","25.009865","6500400","永和區"
"234026","9372-KE","2019/11/22 18:29:51","新北市永和區永貞路417巷15號","121.506528333333","25.0090416666667","6500400","永和區"
"234011","9373-KE","2019/11/22 18:29:41","新北市永和區保福路二段158巷1號","121.509158333333","25.01505","6500400","永和區"
"249005","172-UM","2019/11/22 18:29:47","新北市八里區中華路三段145巷11號","121.39239","25.1329333333333","6502300","八里區"
"249001","173-UM","2019/11/22 18:29:37","新北市八里區龍米路一段172-1號","121.452406666667","25.126455","6502300","八里區"
"249004","303-UY","2019/11/22 18:29:52","新北市八里區忠孝路70號","121.426385","25.1603616666667","6502300","八里區"
"249002","305-UY","2019/11/22 18:29:55","新北市八里區龍形三街17號","121.449131666667","25.1315983333333","6502300","八里區"
"249003","593-UM","2019/11/22 18:18:55","新北市八里區博物館路10-1號","121.41511","25.1639716666667","6502300","八里區"
"248016","026-BX","2019/11/22 18:29:56","新北市五股區凌雲路一段83巷7弄1號","121.450005","25.1006583333333","6501500","五股區"
"248008","KED-0815","2019/11/22 18:29:57","新北市五股區四維路185巷42弄2號","121.463361666667","25.0771083333333","6501500","五股區"
"248018","KED-0813","2019/11/22 18:29:45","新北市五股區御史路300號","121.417011666667","25.109615","6501500","五股區"
"248012","247-BX","2019/11/22 18:29:38","新北市五股區御史路27號","121.44197","25.0913733333333","6501500","五股區"
"248014","261-SL","2019/11/22 18:29:53","新北市五股區明德路7巷2號","121.435043333333","25.0709416666667","6501500","五股區"
"248010","272-BY","2019/11/22 18:29:57","新北市五股區水碓路16巷4號","121.433845","25.0726683333333","6501500","五股區"
"248004","677-BX","2019/11/22 18:29:41","新北市五股區工商路132號","121.435661666667","25.0862016666667","6501500","五股區"
"248002","678-BX","2019/11/22 18:29:47","新北市五股區西雲路107號","121.44384","25.092675","6501500","五股區"
"232011","375-UM","2019/11/22 18:29:37","新北市坪林區坪雙路一段41號","121.711706666667","24.942435","6502000","坪林區"
"244007","080-UY","2019/11/22 18:29:39","新北市林口區後湖11-63號","121.387013333333","25.097595","6501700","林口區"
"244019","403-UM","2019/11/22 18:29:43","新北市林口區忠孝路627號","121.379736666667","25.0693433333333","6501700","林口區"
"244013","KEA-2802","2019/11/22 18:29:53","新北市林口區文化一路二段54號","121.380736666667","25.077675","6501700","林口區"
"244023","483-VK","2019/11/22 18:29:41","新北市林口區仁愛路二段102號","121.383491666667","25.0750683333333","6501700","林口區"
"244017","485-VK","2019/11/22 18:29:39","新北市林口區八德路78號","121.365473333333","25.0655733333333","6501700","林口區"
"244009","656-BX","2019/11/22 18:29:56","新北市林口區竹林路320巷3號","121.391131666667","25.0823716666667","6501700","林口區"
"244011","657-BX","2019/11/22 18:29:43","新北市林口區興林路17巷5弄2號","121.390566666667","25.07704","6501700","林口區"
"244025","837-TS","2019/11/22 18:29:54","新北市林口區南勢六街51號","121.355898333333","25.07151","6501700","林口區"
"244021","838-TS","2019/11/22 18:29:47","新北市林口區自強二街20號","121.39791","25.0780433333333","6501700","林口區"
"243015","680-BX","2019/11/22 18:29:47","新北市泰山區黎明路25號","121.421818333333","25.0609716666667","6501600","泰山區"
"222003","436-BY","2019/11/22 18:29:51","新北市深坑區翠谷街79號","121.62809","25.0090816666667","6501800","深坑區"
"222002","659-BX","2019/11/22 18:29:57","新北市深坑區雲鄉路150號","121.623226666667","24.9979566666667","6501800","深坑區"
"231045","001-UM","2019/11/22 18:29:41","新北市新店區安華路28-1號","121.519453333333","24.9608783333333","6500600","新店區"
"231060","106-UY","2019/11/22 18:29:48","新北市新店區安華路28-1號","121.51961","24.9608066666667","6500600","新店區"
"231051","107-UY","2019/11/22 18:29:52","新北市新店區安一路一段1-1號","121.519615","24.961115","6500600","新店區"
"231065","110-UY","2019/11/22 18:29:39","新北市新店區安一路一段1-1號","121.519286666667","24.9611316666667","6500600","新店區"
"231062","256-BX","2019/11/22 18:29:43","新北市新店區安一路一段1-1號","121.51962","24.961085","6500600","新店區"
"231054","260-TV","2019/11/22 18:29:49","新北市新店區安一路一段1-1號","121.519111666667","24.961275","6500600","新店區"
"231042","268-BY","2019/11/22 18:29:57","新北市新店區安一路一段1-1號","121.51983","24.9613566666667","6500600","新店區"
"231064","278-BY","2019/11/22 18:29:43","新北市新店區安華路28-1號","121.519801666667","24.96103","6500600","新店區"
"231050","AAD-862","2019/11/22 18:29:38","新北市新店區安華路28-1號","121.519926666667","24.9609866666667","6500600","新店區"
"231058","3713-VJ","2019/11/22 18:29:35","新北市新店區環河路19巷20號","121.537541666667","24.9603316666667","6500600","新店區"
"231055","4716-K9","2019/11/22 18:29:44","新北市新店區中正路128巷3號","121.542271666667","24.9716683333333","6500600","新店區"
"231056","4715-K9","2019/11/22 18:29:55","新北市新店區二十張路129巷5弄1號","121.536518333333","24.9786966666667","6500600","新店區"
"231053","513-UM","2019/11/22 18:29:45","新北市新店區北宜路一段98號","121.538911666667","24.95539","6500600","新店區"
"231063","641-BX","2019/11/22 18:29:44","新北市新店區安華路1-1號","121.519508333333","24.960295","6500600","新店區"
"231048","KED-0819","2019/11/22 18:29:55","新北市新店區安一路一段1-1號","121.519858333333","24.9611883333333","6500600","新店區"
"231057","720-UM","2019/11/22 18:29:43","新北市新店區安一路一段1-1號","121.51932","24.961135","6500600","新店區"
"231040","898-TW","2019/11/22 18:29:43","新北市新店區安華路28-1號","121.519401666667","24.960785","6500600","新店區"
"231043","899-TW","2019/11/22 18:29:51","新北市新店區安華路28-1號","121.51934","24.9607166666667","6500600","新店區"
"231066","AKT-0513","2019/11/22 18:29:51","新北市新店區安華路28-1號","121.519566666667","24.9606183333333","6500600","新店區"
"235066","003-UY","2019/11/22 18:29:48","新北市中和區中山路二段121號","121.502735","25.0035966666667","6500300","中和區"
"235064","005-UY","2019/11/22 18:29:50","新北市中和區連城路139巷36號","121.496493333333","24.9977566666667","6500300","中和區"
"235063","006-UY","2019/11/22 18:29:53","新北市中和區連城路401號","121.4862","24.99617","6500300","中和區"
"235056","096-UM","2019/11/22 18:29:43","新北市中和區員山路611巷1號","121.477851666667","25.0112283333333","6500300","中和區"
"235039","097-UM","2019/11/22 18:29:46","新北市中和區安平路186號","121.512935","24.999025","6500300","中和區"
"235065","098-UM","2019/11/22 18:29:40","新北市中和區莊敬路49巷20弄16號","121.502495","25.0058466666667","6500300","中和區"
"235040","150-BY","2019/11/22 18:29:47","新北市中和區安平路59號","121.50951","24.99517","6500300","中和區"
"235058","151-BY","2019/11/22 18:29:54","新北市中和區圓通路369巷30弄100號","121.487991666667","24.984615","6500300","中和區"
"235055","183-VK","2019/11/22 18:29:38","新北市中和區中山路三段229巷51號","121.46923","25.0054066666667","6500300","中和區"
"235038","185-VK","2019/11/22 18:29:51","新北市中和區自強路20號","121.52021","24.9954266666667","6500300","中和區"
"235072","301-VK","2019/11/22 18:29:48","新北市中和區連城路4號","121.499211666667","25.002345","6500300","中和區"
"235043","352-BY","2019/11/22 18:29:51","新北市中和區景平路245號","121.509031666667","24.9928616666667","6500300","中和區"
"235050","4979-A6","2019/11/22 18:29:56","新北市中和區景新街410巷18弄25號","121.51169","24.9899416666667","6500300","中和區"
"235069","4980-A6","2019/11/22 18:29:47","新北市中和區連城路101號","121.496475","24.9997916666667","6500300","中和區"
"235070","558-UM","2019/11/22 18:29:47","新北市中和區南華路44號","121.503866666667","24.9965066666667","6500300","中和區"
"235045","565-BX","2019/11/22 18:29:41","新北市中和區南山路236巷19號","121.505691666667","24.988615","6500300","中和區"
"235060","KED-0823","2019/11/22 18:29:47","新北市中和區中山路二段579號","121.480368333333","25.0057316666667","6500300","中和區"
"235054","640-BX","2019/11/22 18:29:43","新北市中和區莒光路99號","121.472383333333","25.0029316666667","6500300","中和區"
"235047","732-UM","2019/11/22 18:29:53","新北市中和區南山路501號","121.50798","24.9876766666667","6500300","中和區"
"235046","733-UM","2019/11/22 18:29:48","新北市中和區興南路一段85巷2號","121.509956666667","24.9886433333333","6500300","中和區"
"235062","800-TS","2019/11/22 18:29:49","新北市中和區中山路二段312巷10弄1號","121.495631666667","25.0031016666667","6500300","中和區"
"235057","801-TS","2019/11/22 18:29:47","新北市中和區民安街1號","121.480956666667","25.0010166666667","6500300","中和區"
"235041","802-TS","2019/11/22 18:29:53","新北市中和區中和路260-1號","121.508063333333","24.9993416666667","6500300","中和區"
"235052","805-TS","2019/11/22 18:29:47","新北市中和區興南路二段96號","121.505085","24.9840583333333","6500300","中和區"
"235048","896-TW","2019/11/22 18:29:39","新北市中和區中正路73號","121.500973333333","24.9934066666667","6500300","中和區"
"235051","157-BY","2019/11/22 18:29:57","新北市中和區興南路二段114巷12號","121.503935","24.9845733333333","6500300","中和區"
"235037","AAC-213","2019/11/22 18:29:46","新北市中和區景德街67號","121.516956666667","24.9914733333333","6500300","中和區"
"235059","AAC-215","2019/11/22 18:29:54","新北市中和區員山路36巷16-3號","121.484918333333","24.9912383333333","6500300","中和區"
"220065","072-UY","2019/11/22 18:29:53","新北市板橋區南雅南路二段66號","121.453811666667","25.00209","6500100","板橋區"
"220086","073-UY","2019/11/22 18:29:38","新北市板橋區華東街1-10號","121.448236666667","24.9950383333333","6500100","板橋區"
"226004","312-R5","2019/11/22 18:29:49","新北市平溪區靜安路二段312號","121.736238333333","25.0240066666667","6502400","平溪區"
"235049","251-BX","2019/11/22 18:29:39","新北市中和區景安路76號","121.505761666667","24.9965066666667","6500300","中和區"
"228002","663-BX","2019/11/22 18:29:50","新北市貢寮區福連里香蘭街11號","121.977993333333","25.0238","6502600","貢寮區"
"228001","670-TC","2019/11/22 18:29:43","新北市貢寮區仁理村仁義街6號","121.923715","25.0520933333333","6502600","貢寮區"
"228003","828-UM","2019/11/22 18:29:42","新北市貢寮區和美里和美街40-2號","121.913141666667","25.090625","6502600","貢寮區"
"224010","AGQ-8101","2019/11/22 18:29:49","新北市瑞芳區汽車路7-4號","121.84647","25.1104783333333","6501200","瑞芳區"
"224006","676-BX","2019/11/22 18:29:43","新北市瑞芳區明燈路三段1號","121.809211666667","25.10745","6501200","瑞芳區"
"224007","285-BY","2019/11/22 18:29:40","新北市瑞芳區大埔路有勝二村28號","121.763823333333","25.0997983333333","6501200","瑞芳區"
"224009","275-VK","2019/11/22 18:29:56","新北市瑞芳區五號路306-4號","121.857365","25.1116166666667","6501200","瑞芳區"
"224008","273-VK","2019/11/22 18:29:53","新北市瑞芳區逢甲路206號","121.806826666667","25.1102383333333","6501200","瑞芳區"
"224005","271-BY","2019/11/22 18:29:52","新北市瑞芳區瑞濱路113號","121.820325","25.1202816666667","6501200","瑞芳區"
"227001","642-TC","2019/11/22 18:29:46","新北市雙溪區牡丹里牡丹131號","121.850916666667","25.059165","6502500","雙溪區"
"227002","400-TW","2019/11/22 18:29:50","新北市雙溪區魚行里坤溪25號","121.870481666667","25.0301033333333","6502500","雙溪區"
"253005","032-BX","2019/11/22 18:29:44","新北市石門區老崩山10-5號","121.552651666667","25.2910433333333","6502200","石門區"
"253006","295-VK","2019/11/22 18:29:52","新北市石門區公地20-1號","121.545786666667","25.290195","6502200","石門區"
"222001","KEA-2212","2019/11/22 18:29:51","新北市深坑區北深路一段175號","121.63309","25.0108916666667","6501800","深坑區"
"208002","KEA-2872","2019/11/22 18:29:47","新北市金山區磺港里磺港路169號","121.64313","25.2246633333333","6502700","金山區"
"208003","665-BX","2019/11/22 18:29:55","新北市金山區中山路246號","121.635728333333","25.223795","6502700","金山區"
"251004","009-UM","2019/11/22 18:29:44","新北市淡水區民族路31巷2號","121.462393333333","25.1363333333333","6501000","淡水區"
"251001","011-UM","2019/11/22 18:29:51","新北市淡水區自強路122巷1號","121.464473333333","25.1330866666667","6501000","淡水區"
"251002","012-UM","2019/11/22 18:29:57","新北市淡水區竿蓁二街61-2號","121.454876666667","25.163285","6501000","淡水區"
"251008","181-VK","2019/11/22 18:29:48","新北市淡水區水源街二段346巷1弄1號","121.464296666667","25.1754716666667","6501000","淡水區"
"251010","413-VK","2019/11/22 18:29:48","新北市淡水區沙崙路181巷1號","121.424168333333","25.184195","6501000","淡水區"
"251012","441-VK","2019/11/22 18:29:53","新北市淡水區北新路一段163號","121.458993333333","25.182265","6501000","淡水區"
"251006","561-UM","2019/11/22 18:29:52","新北市淡水區新生街51巷28號","121.440685","25.1757516666667","6501000","淡水區"
"251011","650-BX","2019/11/22 18:29:38","新北市淡水區坪頂路102號","121.46328","25.1627533333333","6501000","淡水區"
"251003","766-UM","2019/11/22 18:29:55","新北市淡水區北新路169巷16號","121.449748333333","25.1800783333333","6501000","淡水區"
"207003","681-TV","2019/11/22 18:29:38","新北市萬里區野柳里港東路8-1號","121.686891666667","25.203445","6502800","萬里區"
"207004","291-VK","2019/11/22 18:29:50","新北市萬里區中幅里中福路58-8號","121.6799","25.1720566666667","6502800","萬里區"
"252002","178-VK","2019/11/22 18:29:46","新北市三芝區中山路二段41號","121.502976666667","25.2550816666667","6502100","三芝區"
"252003","292-VK","2019/11/22 18:29:55","新北市三芝區後厝里北勢子44-3號","121.4709","25.251775","6502100","三芝區"
"208001","170-UY","2019/11/22 18:29:47","新北市金山區文化二路4號","121.636838333333","25.2245783333333","6502700","金山區"
"237004","KEA-2597","2019/11/22 18:29:54","新北市三峽區五寮6號","121.376228333333","24.8718433333333","6500900","三峽區"
"237007","153-BY","2019/11/22 18:29:48","新北市三峽區中正路三段118號","121.355111666667","24.9034783333333","6500900","三峽區"
"237009","210-TH","2019/11/22 18:29:44","新北市三峽區大同路272號","121.36536","24.9255316666667","6500900","三峽區"
"237013","252-BX","2019/11/22 18:29:58","新北市三峽區光明路69巷24號","121.376563333333","24.9291066666667","6500900","三峽區"
"237012","275-BY","2019/11/22 18:29:51","新北市三峽區三樹路214巷11號","121.379966666667","24.9416533333333","6500900","三峽區"
"237008","302-VK","2019/11/22 18:29:43","新北市三峽區白雞77號","121.402438333333","24.91019","6500900","三峽區"
"237014","433-BY","2019/11/22 18:29:42","新北市三峽區文化路113號","121.370426666667","24.9360183333333","6500900","三峽區"
"237006","5529-G3","2019/11/22 18:29:49","新北市三峽區溪東路473巷74號","121.41545","24.9293633333333","6500900","三峽區"
"237011","KEA-2596","2019/11/22 18:29:42","新北市三峽區溪東路218巷2-1號","121.407576666667","24.9320766666667","6500900","三峽區"
"237015","649-BX","2019/11/22 18:29:56","新北市三峽區竹崙路111號","121.433635","24.9113633333333","6500900","三峽區"
"237010","706-TV","2019/11/22 18:29:51","新北市三峽區中山路276號","121.361325","24.9378516666667","6500900","三峽區"
"237005","AKY-6261","2019/11/22 18:29:41","新北市三峽區清水街342號","121.370983333333","24.93371","6500900","三峽區"
"236042","KED-0685","2019/11/22 18:29:36","新北市土城區裕生路21巷19號","121.448818333333","24.987105","6501300","土城區"
"236079","166-UM","2019/11/22 18:29:38","新北市土城區大暖路18號","121.423605","24.9600283333333","6501300","土城區"
"236030","253-BX","2019/11/22 18:29:54","新北市土城區水源街83號","121.439626666667","24.9764983333333","6501300","土城區"
"236026","269-VK","2019/11/22 18:29:52","新北市土城區南天母路135巷1-1號","121.447546666667","24.9542566666667","6501300","土城區"
"236014","270-VK","2019/11/22 18:29:47","新北市土城區青雲路39巷7號","121.460265","24.987345","6501300","土城區"
"236039","271-VK","2019/11/22 18:29:53","新北市土城區青雲路449-1號","121.45874","24.97473","6501300","土城區"
"236069","KEA-2877","2019/11/22 18:29:41","新北市土城區永豐路255巷27弄45號","121.477003333333","24.97362","6501300","土城區"
"252001","KED-0821","2019/11/22 18:29:56","新北市三芝區中興街二段14號","121.498598333333","25.2561766666667","6502100","三芝區"
"236020","401-BY","2019/11/22 18:29:51","新北市土城區永豐路202巷14號","121.466253333333","24.9833716666667","6501300","土城區"
"236048","752-BX","2019/11/22 18:29:07","新北市土城區青雲路370號","121.458725","24.9736533333333","6501300","土城區"
"236059","912-UM","2019/11/22 18:29:39","新北市土城區中央路四段141號","121.415695","24.957175","6501300","土城區"
"236063","915-UM","2019/11/22 18:29:52","新北市土城區延壽路111巷4號","121.46898","24.9937083333333","6501300","土城區"
"236055","AAC-216","2019/11/22 18:29:55","新北市土城區中華路一段221號","121.44223","24.9839383333333","6501300","土城區"
"242041","AAC-296","2019/11/22 18:29:56","新北市新莊區天祥街81巷28號","121.41497","25.0285533333333","6500500","新莊區"
"242060","986-R7","2019/11/22 18:29:56","新北市新莊區新樹路81號","121.437781666667","25.0274966666667","6500500","新莊區"
"242058","612-BX","2019/11/22 18:29:55","新北市新莊區中正路736號","121.413756666667","25.0230166666667","6500500","新莊區"
"242054","497-BY","2019/11/22 18:29:46","新北市新莊區大安路5號","121.432031666667","25.0055466666667","6500500","新莊區"
"242044","415-TV","2019/11/22 18:29:49","新北市新莊區新北大道七段788號","121.413076666667","25.0246666666667","6500500","新莊區"
"242025","362-BY","2019/11/22 18:29:50","新北市新莊區五工路70號","121.457863333333","25.0633983333333","6500500","新莊區"
"242056","172-VK","2019/11/22 18:29:47","新北市新莊區瓊泰路77巷16號","121.442501666667","25.0293333333333","6500500","新莊區"
"242009","347-TH","2019/11/22 18:29:43","新北市新莊區自立街62號","121.454025","25.04536","6500500","新莊區"
"238023","601-UM","2019/11/22 18:29:45","新北市樹林區三福街114號","121.406425","25.0163333333333","6500700","樹林區"
"238019","599-UM","2019/11/22 18:29:43","新北市樹林區八德街119號","121.421511666667","24.9799266666667","6500700","樹林區"
"238024","5061-A6","2019/11/22 18:29:44","新北市樹林區育英街1號","121.422696666667","24.9889783333333","6500700","樹林區"
"238018","KEA-2217","2019/11/22 18:29:56","新北市樹林區樹新路52-9號","121.428785","24.996755","6500700","樹林區"
"238025","303-VK","2019/11/22 18:29:43","新北市樹林區保安街一段122號","121.423348333333","24.994935","6500700","樹林區"
"238017","283-BY","2019/11/22 18:29:47","新北市樹林區光興街77-9號","121.410145","25.0027766666667","6500700","樹林區"
"238014","282-BY","2019/11/22 18:29:56","新北市樹林區大安路111巷25號","121.423233333333","24.9976466666667","6500700","樹林區"
"238020","268-VK","2019/11/22 18:29:55","新北市樹林區中正路720號","121.409068333333","25.01807","6500700","樹林區"
"238026","172-UY","2019/11/22 18:29:56","新北市樹林區佳園路一段75巷208號","121.397213333333","24.970485","6500700","樹林區"
"238016","169-UY","2019/11/22 18:29:50","新北市樹林區中山路一段412號","121.417378333333","24.985165","6500700","樹林區"
"239007","AAC-297","2019/11/22 18:29:50","新北市鶯歌區重慶街101號","121.347631666667","24.9523","6500800","鶯歌區"
"239006","891-R6","2019/11/22 18:29:45","新北市鶯歌區鶯桃路297-1號","121.334536666667","24.9604566666667","6500800","鶯歌區"
"239008","527-UM","2019/11/22 18:29:51","新北市鶯歌區朝陽街1號","121.336278333333","24.9765983333333","6500800","鶯歌區"
"239005","526-UM","2019/11/22 18:29:54","新北市鶯歌區鶯桃路668巷74-1號","121.330031666667","24.97187","6500800","鶯歌區"
"239001","417-VK","2019/11/22 18:29:43","新北市鶯歌區國中街109號","121.341373333333","24.9411416666667","6500800","鶯歌區"
"239003","360-BY","2019/11/22 18:29:35","新北市鶯歌區福安街32巷16號","121.334976666667","24.96376","6500800","鶯歌區"
"239002","359-BY","2019/11/22 18:29:50","新北市鶯歌區中山路113號","121.350093333333","24.9569483333333","6500800","鶯歌區"
"239004","193-VK","2019/11/22 18:29:45","新北市鶯歌區尖山路168巷8號","121.344966666667","24.94837","6500800","鶯歌區"
"221036","130-UY","2019/11/22 18:29:41","新北市汐止區大同路三段143號","121.669321666667","25.0777066666667","6501100","汐止區"
"221015","131-UY","2019/11/22 18:29:57","新北市汐止區鄉長路二段23巷19號","121.667935","25.0827533333333","6501100","汐止區"
"221010","269-BY","2019/11/22 18:29:57","新北市汐止區汐萬路二段308號","121.643251666667","25.09093","6501100","汐止區"
"221012","278-VK","2019/11/22 18:29:40","新北市汐止區保長路35巷20號","121.673271666667","25.0799766666667","6501100","汐止區"
"221023","279-VK","2019/11/22 18:29:56","新北市汐止區康寧街474巷7號","121.632253333333","25.067995","6501100","汐止區"
"221032","280-BY","2019/11/22 18:29:56","新北市汐止區民權街二段109巷4弄1號","121.618983333333","25.0468533333333","6501100","汐止區"
"221027","281-BY","2019/11/22 18:29:54","新北市汐止區和平街75號","121.661371666667","25.0706566666667","6501100","汐止區"
"221021","299-VK","2019/11/22 18:29:41","新北市汐止區連興街120號","121.653733333333","25.0624966666667","6501100","汐止區"
"221031","353-TW","2019/11/22 18:29:56","新北市汐止區光復街7巷21號","121.639801666667","25.0592583333333","6501100","汐止區"
"221029","645-BX","2019/11/22 18:29:44","新北市汐止區樟樹二路339巷16-1號","121.641555","25.0709266666667","6501100","汐止區"
"221035","622-UM","2019/11/22 18:29:37","新北市汐止區大同路二段187巷2弄1號","121.652186666667","25.0649383333333","6501100","汐止區"
"221025","623-UM","2019/11/22 18:29:38","新北市汐止區仁愛路120號","121.662945","25.0638283333333","6501100","汐止區"
"221033","647-BX","2019/11/22 18:29:43","新北市汐止區宜興街59巷11號","121.62186","25.0426983333333","6501100","汐止區"
"221002","707-TV","2019/11/22 18:29:37","新北市汐止區福德一路148號","121.636653333333","25.0668583333333","6501100","汐止區"
"221018","753-BX","2019/11/22 18:29:47","新北市汐止區茄苳路157號","121.669396666667","25.0696366666667","6501100","汐止區"
"220080","200-UY","2019/11/22 18:29:46","新北市板橋區華東街1-9號","121.44813","24.99488","6500100","板橋區"
"220082","610-BX","2019/11/22 18:29:44","新北市板橋區華東街1-9號","121.44823","24.9949366666667","6500100","板橋區"
"224002","257-TC","2019/11/22 18:29:50","新北市瑞芳區三爪子坑路29巷34號","121.81363","25.1069633333333","6501200","瑞芳區"
"220094","283-UM","2019/11/22 18:29:49","新北市板橋區民生路二段161巷1號","121.470146666667","25.0198533333333","6500100","板橋區"
"220071","283-VK","2019/11/22 18:29:47","新北市板橋區華東街1-9號","121.448056666667","24.9949033333333","6500100","板橋區"
"220084","296-UM","2019/11/22 18:29:41","新北市板橋區華東街1-9號","121.448148333333","24.99496","6500100","板橋區"
"242046","281-VK","2019/11/22 18:29:42","新北市新莊區中正路803巷26號","121.42168","25.0279816666667","6500500","新莊區"
"242011","280-VK","2019/11/22 18:29:36","新北市新莊區中榮街82號","121.448096666667","25.0527083333333","6500500","新莊區"
"220077","687-BX","2019/11/22 18:29:52","新北市板橋區華東街1-10號","121.44832","24.9949283333333","6500100","板橋區"
"220055","827-TW","2019/11/22 18:29:47","新北市板橋區四川路二段142-1號","121.45012","24.993265","6500100","板橋區"
"220057","833-TW","2019/11/22 18:29:44","新北市板橋區四川路二段130巷24號","121.449575","24.9942766666667","6500100","板橋區"
"220073","985-R7","2019/11/22 18:29:39","新北市板橋區四川路二段140巷2號","121.449821666667","24.9930516666667","6500100","板橋區"
"220064","AAC-253","2019/11/22 18:29:55","新北市板橋區南雅南路二段116號","121.452463333333","25.0003766666667","6500100","板橋區"
"235068","KEA-2873","2019/11/22 18:29:51","新北市中和區中正路273-5號","121.495701666667","24.9933616666667","6500300","中和區"
"235061","KEA-2875","2019/11/22 18:29:50","新北市中和區民享街88巷7號","121.474175","25.0005316666667","6500300","中和區"
