"lineid","car","time","location","longitude","latitude","cityid","cityname"
"234064","337-UY","2019/11/22 20:43:40","新北市永和區中正路578號","121.517085","25.0065133333333","6500400","永和區"
"249001","173-UM","2019/11/22 20:43:42","新北市八里區中山路三段227號","121.381978333333","25.1403933333333","6502300","八里區"
"249004","303-UY","2019/11/22 20:43:39","新北市八里區中山路一段157巷9號","121.412958333333","25.1584316666667","6502300","八里區"
"234074","AAC-211","2019/11/22 20:43:49","新北市永和區竹林路75巷25弄34號","121.521083333333","25.014945","6500400","永和區"
"222003","436-BY","2019/11/22 20:43:57","新北市深坑區文山路三段48-1號","121.609925","24.998525","6501800","深坑區"
"222002","659-BX","2019/11/22 20:43:56","新北市深坑區北深路三段107巷17號","121.604625","25.0010183333333","6501800","深坑區"
"231045","001-UM","2019/11/22 20:43:41","新北市新店區長春路173號","121.558383333333","24.96187","6500600","新店區"
"231061","002-UM","2019/11/22 20:43:51","新北市新店區新和街81號","121.5207","24.9861766666667","6500600","新店區"
"231044","046-UY","2019/11/22 20:43:50","新北市新店區建國路257號","121.537305","24.9830633333333","6500600","新店區"
"231060","106-UY","2019/11/22 20:43:48","新北市新店區安康路三段567-1號","121.47554","24.9435433333333","6500600","新店區"
"231051","107-UY","2019/11/22 20:43:51","新北市新店區溪園路245號","121.526376666667","24.9829983333333","6500600","新店區"
"231049","108-UY","2019/11/22 20:43:43","新北市新店區永業路81巷1弄7號","121.529993333333","24.949795","6500600","新店區"
"231065","110-UY","2019/11/22 20:43:39","新北市新店區安祥路104巷6弄40號","121.483041666667","24.9634533333333","6500600","新店區"
"231068","187-VK","2019/11/22 20:43:49","新北市新店區寶元路一段95-1號","121.543673333333","24.9849316666667","6500600","新店區"
"231062","256-BX","2019/11/22 20:43:42","新北市新店區安泰路60巷55弄85號","121.484726666667","24.9456833333333","6500600","新店區"
"231054","260-TV","2019/11/22 20:43:49","新北市新店區北新路一段88巷1-2號","121.542086666667","24.9676383333333","6500600","新店區"
"231042","268-BY","2019/11/22 20:43:57","新北市新店區寶高路120巷1號","121.55457","24.9760583333333","6500600","新店區"
"231064","278-BY","2019/11/22 20:43:43","新北市新店區安民街365巷10弄24號","121.515873333333","24.9760583333333","6500600","新店區"
"231050","AAD-862","2019/11/22 20:43:58","新北市新店區中正路247巷19號","121.538658333333","24.9725916666667","6500600","新店區"
"231058","3713-VJ","2019/11/22 20:43:55","新北市新店區平等街3號","121.537003333333","24.9742833333333","6500600","新店區"
"231056","4715-K9","2019/11/22 20:43:55","新北市新店區安民街133巷26號","121.515481666667","24.9696366666667","6500600","新店區"
"231067","4772-VM","2019/11/22 20:43:39","新北市新店區安康路一段355號","121.51987","24.963815","6500600","新店區"
"231053","513-UM","2019/11/22 20:43:45","新北市新店區新烏路二段300號","121.548526666667","24.9129383333333","6500600","新店區"
"231041","619-UM","2019/11/22 20:43:44","新北市新店區中正路707號","121.53378","24.99112","6500600","新店區"
"231063","641-BX","2019/11/22 20:43:44","新北市新店區如意街3巷2號","121.495505","24.949155","6500600","新店區"
"231048","KED-0819","2019/11/22 20:43:55","新北市新店區寶元路一段109號","121.545711666667","24.9831233333333","6500600","新店區"
"231057","720-UM","2019/11/22 20:43:46","新北市新店區新烏路一段215號","121.54851","24.9313183333333","6500600","新店區"
"231059","897-TW","2019/11/22 20:43:50","新北市新店區僑信路132巷25號","121.500043333333","24.9454166666667","6500600","新店區"
"231040","898-TW","2019/11/22 20:43:43","新北市新店區中正路272號","121.53892","24.9736033333333","6500600","新店區"
"231043","899-TW","2019/11/22 20:43:51","新北市新店區建國路31號","121.540241666667","24.9741716666667","6500600","新店區"
"231066","AKT-0513","2019/11/22 20:43:51","新北市新店區安民街365巷1弄8號","121.51642","24.9752183333333","6500600","新店區"
"241011","013-R5","2019/11/22 20:43:52","新北市三重區龍濱路219巷25號","121.502648333333","25.07237","6500200","三重區"
"241028","022-UY","2019/11/22 20:43:41","新北市三重區中正南路50號","121.493938333333","25.0599266666667","6500200","三重區"
"241008","059-VK","2019/11/22 20:43:52","新北市三重區下竹圍街42-1號","121.48102","25.0749033333333","6500200","三重區"
"241031","061-VK","2019/11/22 20:43:42","新北市三重區重陽路一段113巷1弄49號","121.48801","25.0584966666667","6500200","三重區"
"241015","062-VK","2019/11/22 20:43:47","新北市三重區三和路二段228號","121.497558333333","25.0697633333333","6500200","三重區"
"241017","063-VK","2019/11/22 20:43:44","新北市三重區民生街58號","121.491431666667","25.0667116666667","6500200","三重區"
"241024","065-VK","2019/11/22 20:43:57","新北市三重區忠孝路三段84巷1號","121.480238333333","25.0645916666667","6500200","三重區"
"241007","066-VK","2019/11/22 20:43:44","新北市三重區自強路四段4號","121.488348333333","25.0761433333333","6500200","三重區"
"241002","090-VK","2019/11/22 20:43:43","新北市三重區仁義街157巷32號","121.497803333333","25.081485","6500200","三重區"
"241003","091-VK","2019/11/22 20:43:50","新北市三重區五華街141巷58號","121.49354","25.0867483333333","6500200","三重區"
"241022","742-BX","2019/11/22 20:43:40","新北市三重區重陽路二段19巷10號","121.487848333333","25.0624816666667","6500200","三重區"
"241006","262-UM","2019/11/22 20:43:57","新北市三重區車路頭街139巷12號","121.48422","25.0762616666667","6500200","三重區"
"241016","266-UM","2019/11/22 20:43:45","新北市三重區自強路一段77號","121.496271666667","25.066555","6500200","三重區"
"241009","267-UM","2019/11/22 20:43:38","新北市三重區碧華街25號","121.484183333333","25.0811683333333","6500200","三重區"
"241018","268-UM","2019/11/22 20:43:46","新北市三重區正義北路319號","121.49401","25.0712933333333","6500200","三重區"
"241032","269-UM","2019/11/22 20:43:53","新北市三重區重陽路一段120巷35號","121.485111666667","25.0601866666667","6500200","三重區"
"241013","270-UM","2019/11/22 20:43:55","新北市三重區仁賢街12-1號","121.495685","25.0749083333333","6500200","三重區"
"241035","KEA-2210","2019/11/22 20:43:40","新北市三重區三和路三段44-2號","121.495736666667","25.0709783333333","6500200","三重區"
"241004","475-VK","2019/11/22 20:43:48","新北市三重區仁愛街382號","121.491016666667","25.08088","6500200","三重區"
"241020","478-VK","2019/11/22 20:43:43","新北市三重區忠孝路一段101號","121.4895","25.0721583333333","6500200","三重區"
"241026","480-VK","2019/11/22 20:43:51","新北市三重區和平街1號","121.500093333333","25.0623033333333","6500200","三重區"
"241014","543-UM","2019/11/22 20:43:52","新北市三重區安和路46號","121.500751666667","25.0696333333333","6500200","三重區"
"241023","545-UM","2019/11/22 20:43:46","新北市三重區忠孝路三段52號","121.480578333333","25.0656566666667","6500200","三重區"
"241001","547-UM","2019/11/22 20:43:56","新北市三重區自強路三段76巷27弄6號","121.485125","25.0741566666667","6500200","三重區"
"241019","KEA-2593","2019/11/22 20:43:38","新北市三重區三張街49號","121.491258333333","25.0710683333333","6500200","三重區"
"241005","AAD-863","2019/11/22 20:43:52","新北市三重區三信路11號","121.48818","25.0861233333333","6500200","三重區"
"241012","743-BX","2019/11/22 20:43:38","新北市三重區龍門路262號","121.501231666667","25.0738483333333","6500200","三重區"
"241025","KED-0670","2019/11/22 20:43:46","新北市三重區中華路59號","121.483543333333","25.062205","6500200","三重區"
"241029","942-UM","2019/11/22 20:43:47","新北市三重區中正南路254號","121.493251666667","25.0533683333333","6500200","三重區"
"241033","AAC-255","2019/11/22 20:43:47","新北市三重區光復路二段3-1號","121.474108333333","25.0538183333333","6500200","三重區"
"235055","183-VK","2019/11/22 20:41:58","新北市八里區荖阡坑路34號","121.402403333333","25.128575","6500300","中和區"
"247016","KEA-2869","2019/11/22 20:43:47","新北市蘆洲區中山二路301號","121.469188333333","25.0786433333333","6501400","蘆洲區"
"247010","KED-0682","2019/11/22 20:43:52","新北市蘆洲區民族路7號","121.47574","25.08398","6501400","蘆洲區"
"235069","4980-A6","2019/11/22 20:43:47","新北市中和區員山路381巷1弄2號","121.480866666667","25.0023666666667","6500300","中和區"
"220106","075-UY","2019/11/22 20:43:45","新北市林口區太平里180號","121.368271666667","25.1344366666667","6500100","板橋區"
"247006","893-R6","2019/11/22 20:43:54","新北市蘆洲區永安南路二段44-1號","121.46636","25.0774633333333","6501400","蘆洲區"
"247004","500-BY","2019/11/22 20:43:47","新北市蘆洲區長安街140號","121.46011","25.0821116666667","6501400","蘆洲區"
"247012","341-TH","2019/11/22 20:43:38","新北市蘆洲區中興街89號","121.482106666667","25.0881666666667","6501400","蘆洲區"
"247022","336-TH","2019/11/22 20:43:55","新北市蘆洲區保和街50-5號","121.469813333333","25.0863016666667","6501400","蘆洲區"
"247024","057-VK","2019/11/22 20:43:37","新北市蘆洲區長樂路140號","121.46206","25.0902733333333","6501400","蘆洲區"
"247014","056-VK","2019/11/22 20:43:38","新北市蘆洲區中山二路68號","121.47344","25.0821816666667","6501400","蘆洲區"
"247008","002-UY","2019/11/22 20:43:42","新北市蘆洲區重陽一街14號","121.481611666667","25.0815716666667","6501400","蘆洲區"
"247002","001-UY","2019/11/22 20:43:47","新北市蘆洲區長榮路341號","121.459543333333","25.087475","6501400","蘆洲區"
"222001","KEA-2212","2019/11/22 20:43:51","新北市深坑區北深路三段206巷3號","121.601326666667","25.00396","6501800","深坑區"
"251001","011-UM","2019/11/22 20:43:57","新北市淡水區淡金路一段8號","121.460655","25.1695833333333","6501000","淡水區"
"251002","012-UM","2019/11/22 20:43:37","新北市淡水區中正路28號","121.444283333333","25.16908","6501000","淡水區"
"251010","413-VK","2019/11/22 20:43:48","新北市淡水區沙崙路133號","121.422665","25.1827933333333","6501000","淡水區"
"251012","441-VK","2019/11/22 20:43:53","新北市淡水區興仁路103巷45號","121.450625","25.2165183333333","6501000","淡水區"
"251007","442-VK","2019/11/22 20:43:42","新北市淡水區學府路102巷62號","121.453455","25.1711616666667","6501000","淡水區"
"251006","561-UM","2019/11/22 20:43:52","新北市淡水區商工路30號","121.447206666667","25.188275","6501000","淡水區"
"251011","650-BX","2019/11/22 20:43:37","新北市淡水區新市一路一段281巷274號","121.435015","25.1879966666667","6501000","淡水區"
"251003","766-UM","2019/11/22 20:43:55","新北市淡水區新興街121巷35號","121.440321666667","25.1796266666667","6501000","淡水區"
"242041","AAC-296","2019/11/22 20:43:48","新北市新莊區天祥街15巷11號","121.416668333333","25.0275833333333","6500500","新莊區"
"242060","986-R7","2019/11/22 20:43:36","新北市新莊區新樹路258巷3號","121.432118333333","25.0156283333333","6500500","新莊區"
"242005","751-BX","2019/11/22 20:43:44","新北市新莊區化成路371巷23號","121.46379","25.05709","6500500","新莊區"
"242029","615-BX","2019/11/22 20:43:43","新北市新莊區中華路二段71巷2號","121.452893333333","25.0474933333333","6500500","新莊區"
"242027","613-BX","2019/11/22 20:43:53","新北市新莊區思源路163號","121.459803333333","25.04478","6500500","新莊區"
"242058","612-BX","2019/11/22 20:43:42","新北市新莊區民安路138號","121.424143333333","25.0253566666667","6500500","新莊區"
"242048","566-BX","2019/11/22 20:43:46","新北市新莊區中正路747號","121.42234","25.0287666666667","6500500","新莊區"
"242054","497-BY","2019/11/22 20:43:42","新北市新莊區民安西路193-1號","121.426108333333","25.0153333333333","6500500","新莊區"
"242013","442-UM","2019/11/22 20:43:47","新北市新莊區中和街175巷13號","121.447071666667","25.05062","6500500","新莊區"
"242002","441-UM","2019/11/22 20:43:45","新北市新莊區中港路五守新村1巷5號","121.455326666667","25.0381983333333","6500500","新莊區"
"242044","415-TV","2019/11/22 20:43:41","新北市新莊區龍安路108號","121.418375","25.0204666666667","6500500","新莊區"
"242050","400-BY","2019/11/22 20:43:42","新北市新莊區民安西路97-1號","121.426998333333","25.0189583333333","6500500","新莊區"
"242025","362-BY","2019/11/22 20:43:40","新北市五股區中興路三段2巷10號","121.448128333333","25.0835433333333","6500500","新莊區"
"242023","353-BY","2019/11/22 20:43:54","新北市新莊區化成路416號","121.465935","25.0509533333333","6500500","新莊區"
"242015","132-UY","2019/11/22 20:43:43","新北市新莊區復興路一段39號","121.446746666667","25.042035","6500500","新莊區"
"242039","135-UY","2019/11/22 20:43:41","新北市新莊區瓊林北路2號","121.440428333333","25.02317","6500500","新莊區"
"242056","172-VK","2019/11/22 20:43:39","新北市新莊區瓊泰路94巷48號","121.444876666667","25.0294433333333","6500500","新莊區"
"242017","173-VK","2019/11/22 20:43:42","新北市新莊區中平路82巷25號","121.446236666667","25.0455383333333","6500500","新莊區"
"242032","175-VK","2019/11/22 20:43:55","新北市新莊區中正路535-1號","121.437613333333","25.0330133333333","6500500","新莊區"
"242007","346-TH","2019/11/22 20:43:41","新北市新莊區思源路287巷2弄1號","121.459345","25.0483083333333","6500500","新莊區"
"242009","347-TH","2019/11/22 20:43:43","新北市新莊區福壽街99巷4弄8號","121.457428333333","25.0508683333333","6500500","新莊區"
"242037","348-TH","2019/11/22 20:43:43","新北市新莊區福營路103號","121.433726666667","25.0322666666667","6500500","新莊區"
"242034","350-TH","2019/11/22 20:43:54","新北市新莊區中正路268號","121.447695","25.0351583333333","6500500","新莊區"
"242019","351-TH","2019/11/22 20:43:39","新北市新莊區環河路116-1號","121.46061","25.0381083333333","6500500","新莊區"
"221008","489-VK","2019/11/22 20:43:49","新北市汐止區康寧街688號","121.636995","25.0716833333333","6501100","汐止區"
"221036","130-UY","2019/11/22 20:43:41","新北市汐止區新昌路27號","121.66219","25.06784","6501100","汐止區"
"221015","131-UY","2019/11/22 20:43:57","新北市汐止區建成路22號","121.664771666667","25.0725433333333","6501100","汐止區"
"221012","278-VK","2019/11/22 20:43:40","新北市汐止區保新街283號","121.692756666667","25.068305","6501100","汐止區"
"221023","279-VK","2019/11/22 20:43:39","新北市汐止區湖東街16號","121.634036666667","25.0722333333333","6501100","汐止區"
"221027","281-BY","2019/11/22 20:43:54","新北市汐止區大同路二段435號","121.659176666667","25.0673866666667","6501100","汐止區"
"221021","299-VK","2019/11/22 20:43:58","新北市汐止區水源路一段293號","121.654338333333","25.0583216666667","6501100","汐止區"
"221031","353-TW","2019/11/22 20:43:56","新北市汐止區中興路27巷21號","121.634061666667","25.060845","6501100","汐止區"
"221029","645-BX","2019/11/22 20:43:40","新北市汐止區大同路一段513號","121.645475","25.0623266666667","6501100","汐止區"
"221035","622-UM","2019/11/22 20:43:37","新北市汐止區長江街101-5號","121.658733333333","25.0731583333333","6501100","汐止區"
"221025","623-UM","2019/11/22 20:43:38","新北市汐止區水源路二段236號","121.658683333333","25.0510833333333","6501100","汐止區"
"221033","647-BX","2019/11/22 20:43:42","新北市汐止區合順街18巷8弄5號","121.62035","25.0419366666667","6501100","汐止區"
"221002","707-TV","2019/11/22 20:43:57","新北市汐止區福德二路165號","121.630951666667","25.0651983333333","6501100","汐止區"
"221018","753-BX","2019/11/22 20:40:07","新北市汐止區茄苳路59號","121.666641666667","25.0708616666667","6501100","汐止區"
"220094","283-UM","2019/11/22 20:41:49","新北市林口區太平里180號","121.368316666667","25.1347066666667","6500100","板橋區"
"220081","287-VK","2019/11/22 20:43:51","新北市板橋區溪城路90-2號","121.429658333333","24.9804183333333","6500100","板橋區"
"242046","281-VK","2019/11/22 20:43:42","新北市新莊區中正路863號","121.418973333333","25.0277833333333","6500500","新莊區"
"242011","280-VK","2019/11/22 20:43:56","新北市新莊區中榮街103號","121.444851666667","25.0527716666667","6500500","新莊區"
