"lineid","car","time","location","longitude","latitude","cityid","cityname"
"231061","002-UM","2019/11/22 20:59:51","新北市新店區永安街60號","121.518846666667","24.9869066666667","6500600","新店區"
"231060","106-UY","2019/11/22 20:59:48","新北市新店區安康路三段525巷35號","121.481696666667","24.9444083333333","6500600","新店區"
"231051","107-UY","2019/11/22 20:59:51","新北市新店區中正路663巷1弄2號","121.532998333333","24.9900533333333","6500600","新店區"
"231065","110-UY","2019/11/22 20:59:39","新北市新店區安祥路67巷50弄15號","121.484241666667","24.9588866666667","6500600","新店區"
"231068","187-VK","2019/11/22 20:59:49","新北市新店區寶中路45-3號","121.545013333333","24.9790983333333","6500600","新店區"
"231062","256-BX","2019/11/22 20:59:42","新北市新店區裕合街19號","121.4894","24.9499433333333","6500600","新店區"
"231054","260-TV","2019/11/22 20:59:49","新北市新店區大新街7巷18號","121.543848333333","24.968095","6500600","新店區"
"231042","268-BY","2019/11/22 20:59:57","新北市新店區寶興路60巷6號","121.549763333333","24.9718316666667","6500600","新店區"
"231064","278-BY","2019/11/22 20:59:43","新北市新店區薏仁坑路6號","121.500145","24.958195","6500600","新店區"
"231050","AAD-862","2019/11/22 20:59:38","新北市新店區三民路39號","121.537296666667","24.9707766666667","6500600","新店區"
"231063","641-BX","2019/11/22 20:59:44","新北市新店區玫瑰路58巷2號","121.495503333333","24.94664","6500600","新店區"
"231059","897-TW","2019/11/22 20:59:43","新北市新店區僑信路132巷1號","121.500695","24.94576","6500600","新店區"
"231040","898-TW","2019/11/22 20:59:43","新北市新店區中正路146號","121.541743333333","24.971565","6500600","新店區"
"231043","899-TW","2019/11/22 20:59:51","新北市新店區光華街38巷7號","121.51568","24.9699933333333","6500600","新店區"
"231066","AKT-0513","2019/11/22 20:59:56","新北市新店區柴埕路52巷1-1號","121.511821666667","24.9643966666667","6500600","新店區"
"241011","013-R5","2019/11/22 20:59:52","新北市三重區秀江街119號","121.499695","25.072235","6500200","三重區"
"241028","022-UY","2019/11/22 20:59:41","新北市三重區正義南路60-1號","121.498251666667","25.0606183333333","6500200","三重區"
"241008","059-VK","2019/11/22 20:59:52","新北市三重區車路頭街140號","121.484065","25.0756616666667","6500200","三重區"
"241031","061-VK","2019/11/22 20:59:42","新北市三重區重陽路一段113巷2弄2號","121.487458333333","25.05996","6500200","三重區"
"241015","062-VK","2019/11/22 20:59:47","新北市三重區福德北路46號","121.501898333333","25.0654383333333","6500200","三重區"
"241017","063-VK","2019/11/22 20:59:44","新北市三重區大同北路128-1號","121.492483333333","25.0644316666667","6500200","三重區"
"241024","065-VK","2019/11/22 20:59:57","新北市三重區大勇街49號","121.48137","25.0719366666667","6500200","三重區"
"241007","066-VK","2019/11/22 20:59:44","新北市三重區三和路四段145巷80號","121.48625","25.0790316666667","6500200","三重區"
"241002","090-VK","2019/11/22 20:59:43","新北市三重區五華街1巷22號","121.496086666667","25.079935","6500200","三重區"
"241003","091-VK","2019/11/22 20:59:50","新北市三重區進安街196號","121.493776666667","25.0860766666667","6500200","三重區"
"241022","742-BX","2019/11/22 20:59:40","新北市三重區過圳街27-5號","121.487951666667","25.0623983333333","6500200","三重區"
"241006","262-UM","2019/11/22 20:59:57","新北市三重區下竹圍街73號","121.481053333333","25.075455","6500200","三重區"
"241016","266-UM","2019/11/22 20:59:45","新北市三重區大智街12號","121.495376666667","25.0644816666667","6500200","三重區"
"241009","267-UM","2019/11/22 20:59:59","新北市三重區永福街194號","121.482323333333","25.074375","6500200","三重區"
"241018","268-UM","2019/11/22 20:59:46","新北市三重區雙園街57巷21-2號","121.494755","25.068195","6500200","三重區"
"241032","269-UM","2019/11/22 20:59:53","新北市三重區新生街97號","121.48335","25.0594516666667","6500200","三重區"
"241013","270-UM","2019/11/22 20:59:35","新北市三重區仁賢街12-1號","121.49568","25.074865","6500200","三重區"
"241004","475-VK","2019/11/22 20:59:48","新北市三重區仁愛街423-1號","121.490431666667","25.0814333333333","6500200","三重區"
"241020","478-VK","2019/11/22 20:59:43","新北市三重區忠孝路二段34號","121.4858","25.0710516666667","6500200","三重區"
"241026","480-VK","2019/11/22 20:59:51","新北市三重區福德南路150號","121.5005","25.0580533333333","6500200","三重區"
"241014","543-UM","2019/11/22 20:59:32","新北市三重區長壽街120巷11號","121.502531666667","25.0691133333333","6500200","三重區"
"241023","545-UM","2019/11/22 20:59:46","新北市三重區洛陽街45巷11號","121.482375","25.0637483333333","6500200","三重區"
"241001","547-UM","2019/11/22 20:59:56","新北市三重區三和路四段128-1號","121.48887","25.0752133333333","6500200","三重區"
"241019","KEA-2593","2019/11/22 20:59:38","新北市三重區自強路二段74巷21號","121.488001666667","25.0698666666667","6500200","三重區"
"241005","AAD-863","2019/11/22 20:59:52","新北市三重區三信路182號","121.488063333333","25.0860733333333","6500200","三重區"
"241012","743-BX","2019/11/22 20:59:38","新北市三重區龍門路274巷45號","121.501231666667","25.0755266666667","6500200","三重區"
"241025","KED-0670","2019/11/22 20:59:46","新北市三重區貴陽街18-1號","121.484165","25.0618983333333","6500200","三重區"
"241029","942-UM","2019/11/22 20:59:47","新北市三重區正義南路111號","121.498223333333","25.0585566666667","6500200","三重區"
"241033","AAC-255","2019/11/22 20:59:47","新北市三重區光復路二段117-1號","121.472133333333","25.058485","6500200","三重區"
"235055","183-VK","2019/11/22 20:59:58","新北市中和區中山路二段550號","121.483856666667","25.0053266666667","6500300","中和區"
"247016","KEA-2869","2019/11/22 20:59:47","新北市蘆洲區正和街94號","121.468118333333","25.0807566666667","6501400","蘆洲區"
"247010","KED-0682","2019/11/22 20:59:52","新北市蘆洲區鷺江街91號","121.476825","25.08378","6501400","蘆洲區"
"220106","075-UY","2019/11/22 20:59:45","新北市五股區凌雲路三段32-1號","121.43185","25.1079233333333","6500100","板橋區"
"247006","893-R6","2019/11/22 20:59:49","新北市蘆洲區永安南路二段16巷5號","121.467718333333","25.077185","6501400","蘆洲區"
"247020","546-UM","2019/11/22 20:59:52","新北市蘆洲區民族路371號","121.471125","25.09128","6501400","蘆洲區"
"247004","500-BY","2019/11/22 20:59:47","新北市蘆洲區永安南路二段268號","121.458541666667","25.0807633333333","6501400","蘆洲區"
"247012","341-TH","2019/11/22 20:59:57","新北市蘆洲區民權路6號","121.476995","25.0854766666667","6501400","蘆洲區"
"247024","057-VK","2019/11/22 20:59:37","新北市蘆洲區長興路213號","121.461143333333","25.0863783333333","6501400","蘆洲區"
"247014","056-VK","2019/11/22 20:59:38","新北市蘆洲區得勝街71號","121.473793333333","25.08383","6501400","蘆洲區"
"247018","053-VK","2019/11/22 20:59:53","新北市蘆洲區民權路87-3號","121.473008333333","25.08882","6501400","蘆洲區"
"247008","002-UY","2019/11/22 20:59:42","新北市蘆洲區民生街76號","121.472776666667","25.0791216666667","6501400","蘆洲區"
"247002","001-UY","2019/11/22 20:59:47","新北市蘆洲區永平街27號","121.458731666667","25.0907566666667","6501400","蘆洲區"
"251005","010-UM","2019/11/22 20:59:40","新北市淡水區學府路51巷2弄2號","121.44767","25.1695833333333","6501000","淡水區"
"251001","011-UM","2019/11/22 20:59:51","新北市淡水區新市一路三段172號","121.447808333333","25.1830183333333","6501000","淡水區"
"251002","012-UM","2019/11/22 20:59:49","新北市淡水區英專路86號","121.44582","25.17149","6501000","淡水區"
"251008","181-VK","2019/11/22 20:59:48","新北市淡水區下圭柔山90-8號","121.431253333333","25.20999","6501000","淡水區"
"251010","413-VK","2019/11/22 20:59:48","新北市淡水區淡海路22號","121.423955","25.17874","6501000","淡水區"
"251012","441-VK","2019/11/22 20:59:53","新北市淡水區淡金路五段116-1號","121.456555","25.236925","6501000","淡水區"
"251007","442-VK","2019/11/22 20:59:43","新北市淡水區仁愛街2巷8號","121.446301666667","25.1707033333333","6501000","淡水區"
"251011","650-BX","2019/11/22 20:59:35","新北市淡水區新春街2號","121.436191666667","25.181","6501000","淡水區"
"251003","766-UM","2019/11/22 20:59:35","新北市淡水區新春街125巷5號","121.44151","25.1823016666667","6501000","淡水區"
"242005","751-BX","2019/11/22 20:59:37","新北市五股區中直路15-2號","121.42336","25.1110783333333","6500500","新莊區"
"242025","362-BY","2019/11/22 20:59:40","新北市八里區中山路三段409號","121.368696666667","25.1348733333333","6500500","新莊區"
"242037","348-TH","2019/11/22 20:59:43","新北市新莊區中環路一段299號","121.442033333333","25.0324216666667","6500500","新莊區"
"221035","622-UM","2019/11/22 20:59:57","新北市汐止區康寧街901號","121.65098","25.0752133333333","6501100","汐止區"
"220094","283-UM","2019/11/22 20:59:49","新北市五股區凌雲路二段66號","121.438758333333","25.106215","6500100","板橋區"
"220081","287-VK","2019/11/22 20:59:51","新北市樹林區中山路三段210-2號","121.382061666667","24.9657283333333","6500100","板橋區"
