"lineid","car","time","location","longitude","latitude","cityid","cityname"
"251004","009-UM","2019/11/22 21:59:54","新北市淡水區民權路92巷35-1號","121.462133333333","25.126715","6501000","淡水區"
"251005","010-UM","2019/11/22 21:59:40","新北市淡水區鄧公路30巷1弄65號","121.454473333333","25.1696783333333","6501000","淡水區"
"251008","181-VK","2019/11/22 21:59:48","新北市淡水區學府路104號","121.449856666667","25.1718083333333","6501000","淡水區"
"251010","413-VK","2019/11/22 21:59:48","新北市淡水區中正路二段206號","121.426261666667","25.1890783333333","6501000","淡水區"
"251007","442-VK","2019/11/22 21:59:40","新北市淡水區北新路184巷33號","121.450481666667","25.1780016666667","6501000","淡水區"
"251006","561-UM","2019/11/22 21:46:41","新北市淡水區中正路11巷3號","121.437888333333","25.1707616666667","6501000","淡水區"
"251011","650-BX","2019/11/22 21:59:55","新北市淡水區水碓街3號","121.443076666667","25.177005","6501000","淡水區"
"251003","766-UM","2019/11/22 21:59:55","新北市淡水區新春街85巷1號","121.438641666667","25.182485","6501000","淡水區"
