"lineid","car","time","location","longitude","latitude","cityid","cityname"
"232009","291-BY","2019/11/23 07:29:56","新北市坪林區魚堀38-1號","121.696846666667","24.9322733333333","6502000","坪林區"
"232010","375-UM","2019/11/23 07:29:46","新北市坪林區苦苓腳2號","121.71417","24.9361316666667","6502000","坪林區"
"232016","705-BZ","2019/11/23 07:29:29","新北市坪林區仁里13號","121.686418333333","24.9287566666667","6502000","坪林區"
"244005","248-BX","2019/11/23 07:29:39","新北市林口區頂福里71-106號","121.348748333333","25.083245","6501700","林口區"
"223003","205-TH","2019/11/23 07:20:28","新北市石碇區蓬菜寮11號","121.650725","24.9734583333333","6501900","石碇區"
"223008","406-TH","2019/11/23 07:29:48","新北市石碇區藤寮坑6-1號","121.70383","25.0066083333333","6501900","石碇區"
"223001","592-UM","2019/11/23 07:29:46","新北市石碇區內楒仔腳4-1號","121.643218333333","24.9706966666667","6501900","石碇區"
"223004","660-BX","2019/11/23 07:29:40","新北市石碇區新興坑30號","121.647935","25.0180583333333","6501900","石碇區"
"223007","661-BX","2019/11/23 07:29:42","新北市石碇區大溪墘8-2號","121.696276666667","25.007795","6501900","石碇區"
"227004","282-VK","2019/11/23 07:29:52","新北市雙溪區牡丹里中正路43號","121.864796666667","25.038675","6502500","雙溪區"
"252004","292-VK","2019/11/23 07:29:50","新北市三芝區興華里楓子林55-1號","121.500581666667","25.2140816666667","6502100","三芝區"
"252007","AAC-283","2019/11/23 07:29:51","新北市三芝區淡金路一段4-5號","121.49831","25.2600166666667","6502100","三芝區"
"237013","760-BX","2019/11/23 07:29:58","新北市三峽區金敏194號","121.398578333333","24.8717283333333","6500900","三峽區"
