"lineid","car","time","location","longitude","latitude","cityid","cityname"
"244005","248-BX","2019/07/20 08:09:14","新北市林口區下福里97號","121.288921666667","25.1174983333333","6501700","林口區"
"222004","289-BY","2019/07/20 08:09:29","新北市深坑區昇高坑路46號","121.628128333333","24.99905","6501800","深坑區"
"231007","189-VK","2019/07/20 08:09:23","新北市新店區安康路一段293號","121.522778333333","24.9636566666667","6500600","新店區"
"231008","192-VK","2019/07/20 08:09:27","新北市新店區新烏路二段212-1號","121.54743","24.9152516666667","6500600","新店區"
"226007","8452-VL","2019/07/20 08:09:24","新北市平溪區十分里十分街2號","121.772495","25.0391233333333","6502400","平溪區"
"226003","AGD-0702","2019/07/20 08:09:24","新北市平溪區十分里十分街66巷17號","121.774971666667","25.042645","6502400","平溪區"
"223003","205-TH","2019/07/20 08:09:09","新北市石碇區月扇湖1號","121.657575","24.9547933333333","6501900","石碇區"
"223008","406-TH","2019/07/20 08:09:14","新北市石碇區靜安路一段312號","121.692933333333","25.006615","6501900","石碇區"
"223001","592-UM","2019/07/20 08:09:24","新北市石碇區北宜路五段80號","121.647273333333","24.9519233333333","6501900","石碇區"
"223004","660-BX","2019/07/20 08:09:26","新北市石碇區外按16-1號","121.65084","24.9973716666667","6501900","石碇區"
"223007","661-BX","2019/07/20 08:09:16","新北市石碇區靜安路一段304號","121.69221","25.00639","6501900","石碇區"
"227004","282-VK","2019/07/20 08:09:16","新北市雙溪區牡丹里中正路1-1號","121.863606666667","25.0439116666667","6502500","雙溪區"
"252004","249-BX","2019/07/20 08:09:23","新北市三芝區興華里車埕31-3號","121.503438333333","25.1945716666667","6502100","三芝區"
"252007","AAC-283","2019/07/20 08:09:11","新北市三芝區後厝里大片頭90號","121.456155","25.2468016666667","6502100","三芝區"
"226005","ANY-2373","2019/07/20 08:09:25","新北市平溪區南山里南山坪103號","121.780318333333","25.0421483333333","6502400","平溪區"
"220020","461-BY","2019/07/20 08:09:11","新北市板橋區大觀路三段52號","121.432056666667","24.9962033333333","6500100","板橋區"
