"lineid","car","time","location","longitude","latitude","cityid","cityname"
"244005","248-BX","2019/07/20 08:19:14","新北市林口區下福里119號","121.292803333333","25.11839","6501700","林口區"
"222004","289-BY","2019/07/20 08:10:09","新北市深坑區昇高坑路43號","121.629181666667","24.99726","6501800","深坑區"
"231007","189-VK","2019/07/20 08:19:23","新北市新店區華潭街31號","121.529721666667","24.95432","6500600","新店區"
"231008","192-VK","2019/07/20 08:19:27","新北市新店區新烏路二段417號","121.551573333333","24.9092383333333","6500600","新店區"
"226007","8452-VL","2019/07/20 08:19:24","新北市平溪區東勢里芊蓁林2號","121.752093333333","25.0201883333333","6502400","平溪區"
"226003","AGD-0702","2019/07/20 08:19:24","新北市平溪區新寮里新寮路1-2號","121.790153333333","25.05828","6502400","平溪區"
"223003","205-TH","2019/07/20 08:19:29","新北市石碇區北宜路六段塗潭巷7號","121.645966666667","24.93397","6501900","石碇區"
"223008","406-TH","2019/07/20 08:19:14","新北市石碇區石碇子埔42-2號","121.672688333333","25.007565","6501900","石碇區"
"223001","592-UM","2019/07/20 08:19:24","新北市石碇區北宜路六段塗潭巷7號","121.646476666667","24.9336783333333","6501900","石碇區"
"223004","660-BX","2019/07/20 08:19:26","新北市石碇區外按16-1號","121.650655","24.9975966666667","6501900","石碇區"
"223007","661-BX","2019/07/20 08:19:16","新北市石碇區靜安路一段208號","121.672413333333","25.0072183333333","6501900","石碇區"
"223005","677-TV","2019/07/20 08:19:12","新北市石碇區外按16-1號","121.650651666667","24.9977433333333","6501900","石碇區"
"227004","282-VK","2019/07/20 08:19:16","新北市雙溪區牡丹里中正路1-1號","121.863581666667","25.0439","6502500","雙溪區"
"252004","249-BX","2019/07/20 08:19:23","新北市三芝區興華里車埕62號","121.498696666667","25.1969166666667","6502100","三芝區"
"252007","AAC-283","2019/07/20 08:19:11","新北市淡水區石頭厝7-8號","121.46024","25.23975","6502100","三芝區"
"226005","ANY-2373","2019/07/20 08:19:25","新北市平溪區南山里六分3號","121.793995","25.049055","6502400","平溪區"
