"lineid","car","time","location","longitude","latitude","cityid","cityname"
"234044","148-BY","2019/07/20 13:09:53","新北市永和區永元路18巷31號","121.523761666667","25.0001666666667","6500400","永和區"
"234078","298-R6","2019/07/20 13:09:49","新北市永和區永貞路41號","121.520978333333","25.00645","6500400","永和區"
"234036","336-UY","2019/07/20 13:09:54","新北市永和區民樂街69巷2號","121.527413333333","24.9976383333333","6500400","永和區"
"234062","337-UY","2019/07/20 13:09:50","新北市永和區秀朗路二段17號","121.521021666667","25.00266","6500400","永和區"
"234084","338-UY","2019/07/20 13:09:42","新北市永和區永貞路122號","121.518613333333","25.004595","6500400","永和區"
"234015","745-BX","2019/07/20 13:09:48","新北市永和區文化路90巷20號","121.513876666667","25.01605","6500400","永和區"
"234028","746-BX","2019/07/20 13:09:39","新北市永和區民生路23號","121.522875","24.998815","6500400","永和區"
"234052","KEA-2590","2019/07/20 13:09:56","新北市永和區中興街133巷20號","121.51807","25.0125416666667","6500400","永和區"
"234005","KED-0605","2019/07/20 13:09:46","新北市永和區中山路一段143號","121.510276666667","25.00967","6500400","永和區"
"234012","KEA-2591","2019/07/20 13:09:53","新北市永和區保福路二段6號","121.511023333333","25.0110583333333","6500400","永和區"
"234060","AAD-866","2019/07/20 13:09:51","新北市永和區安樂路336號","121.514471666667","25.00602","6500400","永和區"
"234068","748-BX","2019/07/20 13:09:53","新北市永和區豫溪街135號","121.519648333333","25.0102716666667","6500400","永和區"
"234040","862-TW","2019/07/20 13:09:51","新北市永和區保平路93巷2弄2號","121.511565","25.0066916666667","6500400","永和區"
"234048","863-TW","2019/07/20 13:09:55","新北市永和區文化路135巷32弄1號","121.510928333333","25.0140433333333","6500400","永和區"
"234025","9371-KE","2019/07/20 13:09:44","新北市永和區自由街5號","121.515","25.007055","6500400","永和區"
"234010","9373-KE","2019/07/20 13:09:41","新北市永和區文化路126巷10弄2號","121.513168333333","25.0158483333333","6500400","永和區"
"248017","KED-0813","2019/07/20 13:09:37","新北市五股區芳洲路49號","121.44171","25.0838016666667","6501500","五股區"
"234022","9380-KE","2019/07/20 13:09:57","新北市永和區中興街10巷23號","121.516026666667","25.0111333333333","6500400","永和區"
"234076","969-R7","2019/07/20 13:09:57","新北市永和區民光街14號","121.515681666667","24.9959766666667","6500400","永和區"
"234072","AAC-211","2019/07/20 13:09:43","新北市永和區福和路137號","121.52124","25.0076616666667","6500400","永和區"
"234066","AAC-212","2019/07/20 13:09:55","新北市永和區永和路一段63號","121.513066666667","25.0070016666667","6500400","永和區"
"234001","AAC-295","2019/07/20 13:09:48","新北市永和區永和路一段173號","121.513951666667","25.0098566666667","6500400","永和區"
"244005","248-BX","2019/07/20 13:09:54","新北市林口區中山路576號","121.376415","25.084955","6501700","林口區"
"231027","0293-UT","2019/07/20 13:09:57","新北市新店區安華路28-1號","121.51953","24.960655","6500600","新店區"
"231005","046-UY","2019/07/20 13:09:45","新北市新店區安華路28-1號","121.519391666667","24.9608216666667","6500600","新店區"
"231029","106-UY","2019/07/20 13:09:46","新北市新店區安華路28-1號","121.519566666667","24.9608183333333","6500600","新店區"
"231018","107-UY","2019/07/20 13:08:38","新北市新店區安一路一段1-1號","121.51933","24.9615133333333","6500600","新店區"
"231013","108-UY","2019/07/20 13:09:55","新北市新店區安康路一段359-9號","121.517923333333","24.9629833333333","6500600","新店區"
"231036","110-UY","2019/07/20 13:09:54","新北市新店區安康路三段265號","121.486508333333","24.951885","6500600","新店區"
"231033","256-BX","2019/07/20 13:09:48","新北市新店區安一路一段1-1號","121.519628333333","24.9612","6500600","新店區"
"231023","260-TV","2019/07/20 13:09:54","新北市新店區安一路一段1-1號","121.519358333333","24.9611866666667","6500600","新店區"
"231003","268-BY","2019/07/20 13:09:57","新北市新店區安一路一段1-1號","121.519741666667","24.96139","6500600","新店區"
"231035","278-BY","2019/07/20 13:09:55","新北市新店區安一路一段1-1號","121.519553333333","24.9610516666667","6500600","新店區"
"231017","AAD-862","2019/07/20 13:09:54","新北市新店區安一路一段1-1號","121.51975","24.9611483333333","6500600","新店區"
"231006","355-BY","2019/07/20 13:09:46","新北市新店區安華路28-1號","121.519343333333","24.960955","6500600","新店區"
"231024","4716-K9","2019/07/20 13:09:46","新北市新店區安華路28-1號","121.519618333333","24.960595","6500600","新店區"
"231025","4715-K9","2019/07/20 13:09:51","新北市新店區安華路28-1號","121.51947","24.9605616666667","6500600","新店區"
"231021","513-UM","2019/07/20 13:09:41","新北市新店區安一路一段1-1號","121.51958","24.961085","6500600","新店區"
"231001","617-UM","2019/07/20 13:09:53","新北市新店區安華路28-1號","121.519331666667","24.96089","6500600","新店區"
"231002","619-UM","2019/07/20 13:09:48","新北市新店區安華路28-1號","121.519506666667","24.9609533333333","6500600","新店區"
"231034","641-BX","2019/07/20 13:09:52","新北市新店區安華路1-1號","121.519583333333","24.9605016666667","6500600","新店區"
"231048","KED-0819","2019/07/20 13:09:44","新北市新店區安一路一段1-1號","121.51981","24.9611266666667","6500600","新店區"
"231010","719-UM","2019/07/20 13:09:38","新北市新店區安一路一段1-1號","121.519483333333","24.9611183333333","6500600","新店區"
"231026","720-UM","2019/07/20 13:09:45","新北市新店區安一路一段1-1號","121.519381666667","24.9611116666667","6500600","新店區"
"231028","897-TW","2019/07/20 13:09:41","新北市新店區安華路28-1號","121.519595","24.96085","6500600","新店區"
"231004","899-TW","2019/07/20 13:09:45","新北市新店區安華路28-1號","121.51924","24.9607766666667","6500600","新店區"
"241022","KED-0820","2019/07/20 13:09:49","新北市三重區忠孝路三段40巷15號","121.48224","25.0661366666667","6500200","三重區"
"235028","005-UY","2019/07/20 13:09:39","新北市中和區中正路130號","121.499511666667","24.9937133333333","6500300","中和區"
"235027","006-UY","2019/07/20 13:09:53","新北市中和區員山路36巷16-3號","121.485071666667","24.99127","6500300","中和區"
"235029","098-UM","2019/07/20 13:09:48","新北市中和區莊敬路49巷20弄20號","121.502683333333","25.00583","6500300","中和區"
"235004","150-BY","2019/07/20 13:09:43","新北市中和區錦和路350-1號","121.490498333333","24.99356","6500300","中和區"
"235022","151-BY","2019/07/20 13:09:48","新北市中和區圓通路367巷61弄8號","121.49226","24.983405","6500300","中和區"
"235019","183-VK","2019/07/20 13:09:39","新北市中和區員山路36巷16-3號","121.48507","24.9913083333333","6500300","中和區"
"235002","185-VK","2019/07/20 13:09:39","新北市中和區大仁街20巷1號","121.517805","24.993295","6500300","中和區"
"235031","255-BX","2019/07/20 13:09:41","新北市中和區民樂路60號","121.48386","25.0012483333333","6500300","中和區"
"235036","301-VK","2019/07/20 13:09:54","新北市中和區錦和路111-1號","121.490173333333","24.995205","6500300","中和區"
"235007","352-BY","2019/07/20 13:09:39","新北市中和區中正路589巷15號","121.485628333333","24.9935033333333","6500300","中和區"
"235006","KEA-2878","2019/07/20 13:09:47","新北市中和區景平路257號","121.508603333333","24.9929416666667","6500300","中和區"
"235034","558-UM","2019/07/20 13:09:42","新北市中和區圓通路207號","121.49718","24.9944466666667","6500300","中和區"
"235009","565-BX","2019/07/20 13:09:25","新北市中和區復興路77-3號","121.503505","24.99003","6500300","中和區"
"235018","640-BX","2019/07/20 13:09:52","新北市中和區民德路81號","121.468941666667","25.0011616666667","6500300","中和區"
"235011","732-UM","2019/07/20 13:09:43","新北市中和區員山路36巷16-2號","121.48531","24.9917016666667","6500300","中和區"
"235074","783-BX","2019/07/20 13:09:38","新北市中和區板南路520巷2號","121.48371","25.0087983333333","6500300","中和區"
"235021","801-TS","2019/07/20 13:09:43","新北市中和區連城路378號","121.480938333333","24.995235","6500300","中和區"
"235005","802-TS","2019/07/20 13:09:43","新北市中和區圓通路208號","121.496041666667","24.9939733333333","6500300","中和區"
"235016","805-TS","2019/07/20 13:09:50","新北市中和區興南路二段109號","121.505785","24.9844033333333","6500300","中和區"
"235012","896-TW","2019/07/20 13:09:53","新北市中和區員山路36巷16-2號","121.485248333333","24.99138","6500300","中和區"
"235017","900-TW","2019/07/20 13:09:38","新北市中和區員山路36巷16-3號","121.485176666667","24.9913833333333","6500300","中和區"
"235073","911-UM","2019/07/20 13:09:49","新北市中和區景平路989巷2號","121.495695","25.0054466666667","6500300","中和區"
"235015","157-BY","2019/07/20 13:09:39","新北市中和區板南路187號","121.500006666667","24.9928533333333","6500300","中和區"
"235001","AAC-213","2019/07/20 13:09:47","新北市中和區景德街31號","121.518703333333","24.9913","6500300","中和區"
"235023","AAC-215","2019/07/20 13:09:42","新北市中和區員山路36巷16-3號","121.485035","24.9912066666667","6500300","中和區"
"220013","072-UY","2019/07/20 13:09:49","新北市板橋區華東街1-9號","121.448163333333","24.9948633333333","6500100","板橋區"
"228005","097-TW","2019/07/20 13:09:44","新北市貢寮區仁理村仁和路1號","121.923701666667","25.048065","6502600","貢寮區"
"228004","212-TW","2019/07/20 13:09:48","新北市貢寮區吉林里內寮街71號","121.891555","24.97317","6502600","貢寮區"
"253003","4710-YM","2019/07/20 13:09:34","新北市石門區石崩山6號","121.564836666667","25.28292","6502200","石門區"
"253004","6251-TK","2019/07/20 13:09:39","新北市石門區阿里荖4-2號","121.614365","25.2788866666667","6502200","石門區"
"253002","637-UY","2019/07/20 13:09:42","新北市石門區老崩山34-1號","121.556653333333","25.2767783333333","6502200","石門區"
"253001","KEC-0718","2019/07/20 13:09:55","新北市石門區楓林17-2號","121.537913333333","25.2935766666667","6502200","石門區"
"207002","749-BX","2019/07/20 13:09:47","新北市萬里區溪底里香員林路15-2號","121.633733333333","25.16323","6502800","萬里區"
"252005","073-UM","2019/07/20 13:09:45","新北市三芝區八賢里八連溪19號","121.510806666667","25.2417216666667","6502100","三芝區"
"207001","662-BX","2019/07/20 13:09:55","新北市萬里區萬里里瑪鋉路133號","121.689285","25.1775533333333","6502800","萬里區"
"221015","131-UY","2019/07/20 13:09:45","新北市汐止區瑞松街150巷20-2號","121.647193333333","25.1091416666667","6501100","汐止區"
"235032","KEA-2873","2019/07/20 13:09:47","新北市中和區員山路36巷16-3號","121.484976666667","24.9912466666667","6500300","中和區"
"235025","KEA-2875","2019/07/20 13:09:30","新北市中和區國光街215巷24弄6號","121.466633333333","25.0001433333333","6500300","中和區"
