"lineid","car","time","location","longitude","latitude","cityid","cityname"
"234078","298-R6","2019/07/20 14:19:39","新北市永和區福和路19巷4號","121.524096666667","25.0077333333333","6500400","永和區"
"234036","336-UY","2019/07/20 14:19:54","新北市永和區成功路一段77號","121.526881666667","25.0031666666667","6500400","永和區"
"234062","337-UY","2019/07/20 14:19:50","新北市永和區得和路247-3號","121.520686666667","24.999795","6500400","永和區"
"234084","338-UY","2019/07/20 14:19:42","新北市永和區中正路563號","121.516755","25.0084816666667","6500400","永和區"
"234028","746-BX","2019/07/20 14:19:39","新北市永和區民權路49巷23號","121.521301666667","24.9975266666667","6500400","永和區"
"234052","KEA-2590","2019/07/20 14:19:36","新北市永和區光復街2巷6號","121.516806666667","25.0165683333333","6500400","永和區"
"234005","KED-0605","2019/07/20 14:19:46","新北市永和區中正路668號","121.51692","25.009085","6500400","永和區"
"234012","KEA-2591","2019/07/20 14:19:53","新北市永和區保生路50號","121.505635","25.0085466666667","6500400","永和區"
"234060","AAD-866","2019/07/20 14:19:51","新北市永和區安樂路194巷7號","121.515455","25.00132","6500400","永和區"
"234068","748-BX","2019/07/20 14:19:48","新北市永和區福和路263巷7弄1號","121.517925","25.007","6500400","永和區"
"234040","862-TW","2019/07/20 14:19:54","新北市永和區安樂路242-12號","121.514866666667","25.00305","6500400","永和區"
"234048","863-TW","2019/07/20 14:19:55","新北市永和區新生路70號","121.50759","25.0151533333333","6500400","永和區"
"234025","9371-KE","2019/07/20 14:19:43","新北市永和區安樂路144巷29號","121.515161666667","24.9998566666667","6500400","永和區"
"248017","KED-0813","2019/07/20 14:19:36","新北市五股區壟路14-9號","121.415381666667","25.086425","6501500","五股區"
"234076","969-R7","2019/07/20 14:19:57","新北市永和區民族街81巷60號","121.520161666667","24.9965583333333","6500400","永和區"
"234072","AAC-211","2019/07/20 14:19:43","新北市永和區豫溪街191巷7弄28號","121.523126666667","25.0112783333333","6500400","永和區"
"234066","AAC-212","2019/07/20 14:19:55","新北市永和區保平路292巷2號","121.507975","25.0046833333333","6500400","永和區"
"234001","AAC-295","2019/07/20 14:19:48","新北市永和區自強街37號","121.515883333333","25.0080016666667","6500400","永和區"
"231030","002-UM","2019/07/20 14:19:47","新北市新店區安民街65巷21-1號","121.515341666667","24.9673183333333","6500600","新店區"
"231027","0293-UT","2019/07/20 14:19:57","新北市新店區光明街286巷6-3號","121.54067","24.9636866666667","6500600","新店區"
"231005","046-UY","2019/07/20 14:19:45","新北市新店區中興路三段190號","121.544088333333","24.9816883333333","6500600","新店區"
"231029","106-UY","2019/07/20 14:19:46","新北市新店區安康路二段161號","121.510086666667","24.9593433333333","6500600","新店區"
"231018","107-UY","2019/07/20 14:19:58","新北市新店區中央四街75號","121.526616666667","24.9757333333333","6500600","新店區"
"231013","108-UY","2019/07/20 14:19:55","新北市新店區大豐路65號","121.539655","24.9795966666667","6500600","新店區"
"231036","110-UY","2019/07/20 14:19:54","新北市新店區安祥路109巷90弄44號","121.476776666667","24.9590183333333","6500600","新店區"
"231033","256-BX","2019/07/20 14:19:48","新北市新店區溪洲路54號","121.532736666667","24.9613666666667","6500600","新店區"
"231023","260-TV","2019/07/20 14:19:55","新北市新店區光明街80號","121.538751666667","24.96006","6500600","新店區"
"231003","268-BY","2019/07/20 14:19:57","新北市新店區中興路一段203號","121.543633333333","24.965485","6500600","新店區"
"231035","278-BY","2019/07/20 14:19:55","新北市新店區光華街8巷3號","121.517841666667","24.9693933333333","6500600","新店區"
"231017","AAD-862","2019/07/20 14:19:54","新北市新店區中生路165號","121.574655","24.9481416666667","6500600","新店區"
"231006","355-BY","2019/07/20 14:19:46","新北市新店區北宜路二段150-1號","121.557841666667","24.9539833333333","6500600","新店區"
"231038","3712-VJ","2019/07/20 14:19:43","新北市新店區溪洲路6巷40-1號","121.53369","24.9629716666667","6500600","新店區"
"231024","4716-K9","2019/07/20 14:19:46","新北市新店區薏仁坑路自強巷6號","121.496701666667","24.95847","6500600","新店區"
"231020","513-UM","2019/07/20 14:19:41","新北市新店區桂山路51巷4號","121.563203333333","24.9011833333333","6500600","新店區"
"231001","617-UM","2019/07/20 14:19:53","新北市新店區中正路75巷71號","121.543133333333","24.9689433333333","6500600","新店區"
"231002","619-UM","2019/07/20 14:19:48","新北市新店區中央路129號","121.530536666667","24.9740016666667","6500600","新店區"
"231034","641-BX","2019/07/20 14:19:52","新北市新店區車子路11號","121.503073333333","24.95213","6500600","新店區"
"231012","KED-0819","2019/07/20 14:19:44","新北市新店區五峰路61巷2號","121.547431666667","24.9700683333333","6500600","新店區"
"231028","897-TW","2019/07/20 14:19:41","新北市新店區安和路二段220號","121.517873333333","24.9756983333333","6500600","新店區"
"231004","899-TW","2019/07/20 14:19:45","新北市新店區中正路126號","121.542166666667","24.9713133333333","6500600","新店區"
"231037","AKT-0513","2019/07/20 14:19:48","新北市新店區安康路二段357號","121.49574","24.954825","6500600","新店區"
"235030","003-UY","2019/07/20 14:19:51","新北市中和區中和路163號","121.50285","24.9998716666667","6500300","中和區"
"235028","005-UY","2019/07/20 14:19:57","新北市中和區南山路131-11號","121.502405","24.9964716666667","6500300","中和區"
"235027","006-UY","2019/07/20 14:19:53","新北市中和區連城路225號","121.494155","24.9976016666667","6500300","中和區"
"235020","096-UM","2019/07/20 14:19:49","新北市中和區民富街70號","121.476525","25.0076183333333","6500300","中和區"
"235003","097-UM","2019/07/20 14:19:43","新北市中和區景平路71-1號","121.519468333333","24.9911133333333","6500300","中和區"
"235029","098-UM","2019/07/20 14:19:48","新北市中和區莊敬路4號","121.499596666667","25.0042883333333","6500300","中和區"
"235004","150-BY","2019/07/20 14:19:43","新北市中和區宜安路47巷2號","121.511675","24.9964083333333","6500300","中和區"
"235022","151-BY","2019/07/20 14:19:48","新北市中和區員山路36巷16-2號","121.485138333333","24.9916716666667","6500300","中和區"
"235019","183-VK","2019/07/20 14:19:39","新北市中和區中山路三段181巷18弄5號","121.472586666667","25.0052233333333","6500300","中和區"
"235002","185-VK","2019/07/20 14:19:39","新北市中和區大仁街108號","121.520541666667","24.9928566666667","6500300","中和區"
"235013","186-VK","2019/07/20 14:19:47","新北市中和區景新街267號","121.50899","24.993995","6500300","中和區"
"235031","255-BX","2019/07/20 14:19:41","新北市中和區員山路148巷23弄15號","121.482191666667","24.9979533333333","6500300","中和區"
"235008","293-VK","2019/07/20 14:19:44","新北市中和區復興路261號","121.502833333333","24.99033","6500300","中和區"
"235036","301-VK","2019/07/20 14:19:54","新北市中和區永和路1號","121.49974","25.0028216666667","6500300","中和區"
"235007","352-BY","2019/07/20 14:19:39","新北市中和區景新街264號","121.509896666667","24.9930533333333","6500300","中和區"
"235006","KEA-2878","2019/07/20 14:19:47","新北市中和區安樂路143巷2弄3號","121.514203333333","24.9975016666667","6500300","中和區"
"247013","KEA-2869","2019/07/20 14:19:48","新北市蘆洲區中山一路247號","121.473205","25.08045","6501400","蘆洲區"
"247007","KED-0682","2019/07/20 14:19:38","新北市蘆洲區信義路37巷14號","121.474366666667","25.0799183333333","6501400","蘆洲區"
"235014","4979-A6","2019/07/20 14:19:56","新北市中和區景安路208巷24號","121.502936666667","24.99157","6500300","中和區"
"235033","4980-A6","2019/07/20 14:19:46","新北市中和區景平路736巷3弄8號","121.49748","25.0037233333333","6500300","中和區"
"235034","558-UM","2019/07/20 14:19:47","新北市中和區景平路626巷1號","121.50041","24.99772","6500300","中和區"
"235009","565-BX","2019/07/20 14:19:45","新北市中和區景新街423巷33弄1號","121.513825","24.98984","6500300","中和區"
"235024","KED-0823","2019/07/20 14:19:42","新北市中和區新生街52號","121.48314","25.002975","6500300","中和區"
"235018","640-BX","2019/07/20 14:19:52","新北市中和區德光路92-2號","121.46879","25.0034933333333","6500300","中和區"
"235011","732-UM","2019/07/20 14:19:43","新北市中和區和平街54巷9號","121.508973333333","24.9916066666667","6500300","中和區"
"235010","733-UM","2019/07/20 14:19:54","新北市中和區忠孝街2巷9弄3號","121.510463333333","24.9823766666667","6500300","中和區"
"235074","783-BX","2019/07/20 14:19:58","新北市中和區建三路23號","121.48615","25.0024516666667","6500300","中和區"
"235021","801-TS","2019/07/20 14:19:43","新北市中和區員山路372號","121.48083","25.004165","6500300","中和區"
"235005","802-TS","2019/07/20 14:19:43","新北市中和區宜安路66號","121.51149","24.9971133333333","6500300","中和區"
"235016","805-TS","2019/07/20 14:19:50","新北市中和區華新街143巷15號","121.506715","24.9810283333333","6500300","中和區"
"235012","896-TW","2019/07/20 14:19:52","新北市中和區華新街109巷1弄1號","121.508881666667","24.982655","6500300","中和區"
"235017","900-TW","2019/07/20 14:19:37","新北市中和區華順街2巷6號","121.467658333333","24.998965","6500300","中和區"
"235073","911-UM","2019/07/20 14:19:49","新北市中和區中山路二段344號","121.493425","25.0022916666667","6500300","中和區"
"235015","157-BY","2019/07/20 14:19:39","新北市中和區和平街54巷8弄28號","121.509506666667","24.991425","6500300","中和區"
"235001","AAC-213","2019/07/20 14:19:47","新北市中和區秀朗路三段10巷14弄14號","121.525011666667","24.9966266666667","6500300","中和區"
"235023","AAC-215","2019/07/20 14:19:42","新北市中和區圓通路252巷16號","121.492298333333","24.9922283333333","6500300","中和區"
"220016","015-TV","2019/07/20 14:19:50","新北市板橋區翠華街6巷123號","121.481783333333","25.0246433333333","6500100","板橋區"
"220013","072-UY","2019/07/20 14:19:49","新北市板橋區民族路170巷1號","121.467423333333","25.0075333333333","6500100","板橋區"
"220034","073-UY","2019/07/20 14:19:56","新北市板橋區中正路216巷115號","121.459526666667","25.0193583333333","6500100","板橋區"
"220105","075-UY","2019/07/20 14:19:49","新北市板橋區江寧路三段119號","121.473383333333","25.033125","6500100","板橋區"
"220017","AAD-861","2019/07/20 14:19:39","新北市板橋區稚暉街19-2號","121.4565","25.00432","6500100","板橋區"
"247003","893-R6","2019/07/20 14:19:57","新北市蘆洲區長安街194巷5號","121.45911","25.0841983333333","6501400","蘆洲區"
"247017","546-UM","2019/07/20 14:19:54","新北市蘆洲區民族路352號","121.476276666667","25.090695","6501400","蘆洲區"
"247001","500-BY","2019/07/20 14:19:51","新北市蘆洲區永樂街106號","121.455978333333","25.0888666666667","6501400","蘆洲區"
"247009","341-TH","2019/07/20 14:19:46","新北市蘆洲區鷺江街69號","121.477255","25.0829483333333","6501400","蘆洲區"
"247023","337-TH","2019/07/20 14:19:48","新北市蘆洲區長興路415號","121.461636666667","25.0930616666667","6501400","蘆洲區"
"247021","057-VK","2019/07/20 14:19:55","新北市蘆洲區中正路482號","121.462916666667","25.0956716666667","6501400","蘆洲區"
"247011","056-VK","2019/07/20 14:19:57","新北市蘆洲區民權路3巷24號","121.475365","25.08539","6501400","蘆洲區"
"247015","053-VK","2019/07/20 14:19:48","新北市蘆洲區中正路185巷31弄30號","121.466806666667","25.083495","6501400","蘆洲區"
"247019","007-UY","2019/07/20 14:19:55","新北市蘆洲區仁愛街59號","121.47183","25.0933283333333","6501400","蘆洲區"
"247005","002-UY","2019/07/20 14:19:56","新北市蘆洲區長安街23巷9號","121.46375","25.0787016666667","6501400","蘆洲區"
"228005","097-TW","2019/07/20 14:19:44","新北市貢寮區美豐里土地公嶺55號","121.894546666667","25.065045","6502600","貢寮區"
"228004","212-TW","2019/07/20 14:19:48","新北市貢寮區雙玉里下雙溪街28號","121.924866666667","25.0116533333333","6502600","貢寮區"
"253003","4710-YM","2019/07/20 14:19:54","新北市石門區尖子鹿33-1號","121.582611666667","25.2642433333333","6502200","石門區"
"253004","6251-TK","2019/07/20 14:19:39","新北市石門區內阿里磅2-1號","121.591553333333","25.2552116666667","6502200","石門區"
"253002","637-UY","2019/07/20 14:19:41","新北市石門區大溪墘3-1號","121.551738333333","25.2804216666667","6502200","石門區"
"253001","KEC-0718","2019/07/20 14:19:55","新北市石門區八甲16-1號","121.524678333333","25.2808383333333","6502200","石門區"
"207002","749-BX","2019/07/20 14:19:47","新北市萬里區溪底里瑞泉路7號","121.603388333333","25.1392316666667","6502800","萬里區"
"252005","073-UM","2019/07/20 14:19:44","新北市三芝區橫山里橫山43號","121.537251666667","25.2576583333333","6502100","三芝區"
"207001","662-BX","2019/07/20 14:19:55","新北市萬里區磺潭里清水18號","121.637825","25.1976866666667","6502800","萬里區"
"236040","KED-0685","2019/07/20 14:19:50","新北市土城區裕生路21巷6弄27號","121.448698333333","24.9867016666667","6501300","土城區"
"220038","KED-0812","2019/07/20 14:19:58","新北市板橋區英士路151號","121.460116666667","25.024175","6500100","板橋區"
"236074","166-UM","2019/07/20 14:19:51","新北市土城區中央路三段235巷7號","121.42922","24.9638216666667","6501300","土城區"
"236029","253-BX","2019/07/20 14:19:55","新北市土城區順風路45號","121.440361666667","24.97706","6501300","土城區"
"236024","269-VK","2019/07/20 14:19:39","新北市土城區承天路67號","121.439568333333","24.9634933333333","6501300","土城區"
"236013","270-VK","2019/07/20 14:19:46","新北市土城區青雲路39巷7號","121.460238333333","24.987475","6501300","土城區"
"236032","271-VK","2019/07/20 14:19:57","新北市土城區青雲路483巷10弄37號","121.459525","24.9723966666667","6501300","土城區"
"236068","KEA-2877","2019/07/20 14:19:53","新北市土城區明德路一段154號","121.463078333333","24.9787116666667","6501300","土城區"
"236017","401-BY","2019/07/20 14:19:42","新北市土城區永豐路202巷14號","121.466151666667","24.9833983333333","6501300","土城區"
"236057","912-UM","2019/07/20 14:19:52","新北市土城區中央路四段323號","121.410405","24.9510783333333","6501300","土城區"
"236045","913-UM","2019/07/20 14:19:54","新北市土城區明德路一段280-1號","121.457181666667","24.97755","6501300","土城區"
"236060","915-UM","2019/07/20 14:19:50","新北市土城區金城路三段202-3號","121.469443333333","24.9885583333333","6501300","土城區"
"236054","AAC-216","2019/07/20 14:19:51","新北市土城區中華路二段120號","121.437826666667","24.9738366666667","6501300","土城區"
"220027","145-BY","2019/07/20 14:19:45","新北市板橋區民權路256號","121.458213333333","25.0149616666667","6500100","板橋區"
"220028","200-UY","2019/07/20 14:19:47","新北市板橋區大觀路二段1巷32號","121.449506666667","25.0036683333333","6500100","板橋區"
"220030","610-BX","2019/07/20 14:19:50","新北市板橋區篤行路三段玉平巷76弄18號","121.427295","24.9861366666667","6500100","板橋區"
"220050","245-BX","2019/07/20 14:19:52","新北市板橋區莊敬路208巷2弄1號","121.471778333333","25.021055","6500100","板橋區"
"220040","267-BY","2019/07/20 14:19:45","新北市板橋區文聖街72-5號","121.477138333333","25.030475","6500100","板橋區"
"220004","276-BY","2019/07/20 14:19:53","新北市板橋區信義路279巷21號","121.46433","24.9902416666667","6500100","板橋區"
"220020","277-BY","2019/07/20 14:19:56","新北市板橋區金門街280號","121.429086666667","24.9863766666667","6500100","板橋區"
"220019","283-VK","2019/07/20 14:19:51","新北市板橋區重慶路265號","121.4635","24.9998583333333","6500100","板橋區"
"220043","285-UM","2019/07/20 14:19:56","新北市板橋區吳鳳路50巷77號","121.470063333333","25.0303466666667","6500100","板橋區"
"220001","285-VK","2019/07/20 14:19:52","新北市板橋區縣民大道三段264-1號","121.478198333333","25.0231916666667","6500100","板橋區"
"220031","286-VK","2019/07/20 14:19:42","新北市板橋區大觀路二段174巷168號","121.441936666667","25.00336","6500100","板橋區"
"220029","287-VK","2019/07/20 14:19:56","新北市板橋區南雅西路一段88號","121.45326","25.0058733333333","6500100","板橋區"
"220039","288-VK","2019/07/20 14:19:51","新北市板橋區長江路一段103號","121.459523333333","25.029635","6500100","板橋區"
"220009","295-UM","2019/07/20 14:19:56","新北市板橋區成功路6巷17號","121.476085","25.0172016666667","6500100","板橋區"
"220032","296-UM","2019/07/20 14:19:40","新北市板橋區滿平街110巷6號","121.428056666667","24.9883233333333","6500100","板橋區"
"220047","299-UM","2019/07/20 14:19:44","新北市板橋區自由路51巷8號","121.465116666667","25.0235166666667","6500100","板橋區"
"220023","303-R5","2019/07/20 14:19:39","新北市板橋區南雅南路一段73號","121.455773333333","25.0056383333333","6500100","板橋區"
"220010","305-R5","2019/07/20 14:19:50","新北市板橋區三民路二段153巷7弄1號","121.480566666667","25.015075","6500100","板橋區"
"220041","307-R5","2019/07/20 14:19:55","新北市板橋區自由路18號","121.465655","25.0224666666667","6500100","板橋區"
"220037","491-VK","2019/07/20 14:19:37","新北市板橋區雙十路二段4-7號","121.476911666667","25.0258383333333","6500100","板橋區"
"220104","560-BX","2019/07/20 14:19:50","新北市板橋區中正路362號","121.45437","25.0239666666667","6500100","板橋區"
"220052","561-BX","2019/07/20 14:19:52","新北市板橋區陽明街23巷8弄24號","121.465226666667","25.0208866666667","6500100","板橋區"
"220011","609-BX","2019/07/20 14:19:55","新北市板橋區三民路二段72號","121.479196666667","25.0171433333333","6500100","板橋區"
"220022","630-UY","2019/07/20 14:19:49","新北市板橋區民權路101巷2號","121.458878333333","25.013305","6500100","板橋區"
"220005","686-BX","2019/07/20 14:19:53","新北市板橋區和平路185巷1號","121.464086666667","24.9964516666667","6500100","板橋區"
"220025","687-BX","2019/07/20 14:19:45","新北市板橋區大觀路二段323號","121.441615","24.998555","6500100","板橋區"
"220042","689-BX","2019/07/20 14:19:52","新北市板橋區雨農路28號","121.46148","25.024425","6500100","板橋區"
"220002","741-BX","2019/07/20 13:59:48","新北市板橋區成都街69號","121.462253333333","25.0049916666667","6500100","板橋區"
"220051","KEA-2699","2019/07/20 14:19:50","新北市板橋區松柏街19號","121.474655","25.02993","6500100","板橋區"
"220003","827-TW","2019/07/20 14:19:41","新北市板橋區館前東路156巷19號","121.464341666667","25.0069316666667","6500100","板橋區"
"220014","829-TW","2019/07/20 14:19:50","新北市板橋區長安街337號","121.47462","25.0123033333333","6500100","板橋區"
"220021","985-R7","2019/07/20 14:19:44","新北市板橋區中正路218號","121.455878333333","25.01837","6500100","板橋區"
"220046","AAC-210","2019/07/20 14:19:51","新北市板橋區幸福路34號","121.461665","25.0202716666667","6500100","板橋區"
"220012","AAC-253","2019/07/20 14:19:50","新北市板橋區館前西路7號","121.459111666667","25.0069283333333","6500100","板橋區"
"235032","KEA-2873","2019/07/20 14:19:47","新北市中和區莊敬路2號","121.499483333333","25.00428","6500300","中和區"
"235025","KEA-2875","2019/07/20 14:19:29","新北市中和區民安街4號","121.480935","25.0010516666667","6500300","中和區"
