"lineid","car","time","location","longitude","latitude","cityid","cityname"
"234078","298-R6","2019/07/20 14:29:19","新北市永和區永貞路35號","121.520985","25.0065283333333","6500400","永和區"
"234036","336-UY","2019/07/20 14:29:23","新北市永和區環河東路四段36號","121.528798333333","24.9989833333333","6500400","永和區"
"234062","337-UY","2019/07/20 14:29:10","新北市永和區中正路393號","121.517175","25.0040283333333","6500400","永和區"
"234084","338-UY","2019/07/20 14:29:22","新北市永和區永和路二段201號","121.515348333333","25.013525","6500400","永和區"
"234028","746-BX","2019/07/20 14:29:19","新北市永和區民權路55號","121.519988333333","24.996955","6500400","永和區"
"234052","KEA-2590","2019/07/20 14:29:16","新北市永和區環河東路一段80號","121.519561666667","25.01643","6500400","永和區"
"234005","KED-0605","2019/07/20 14:29:06","新北市永和區永貞路187號","121.515041666667","25.003865","6500400","永和區"
"234060","AAD-866","2019/07/20 14:29:11","新北市永和區中正路381號","121.517146666667","25.0037416666667","6500400","永和區"
"234068","748-BX","2019/07/20 14:29:08","新北市永和區永亨路7號","121.519431666667","25.0056983333333","6500400","永和區"
"234040","862-TW","2019/07/20 14:29:11","新北市永和區自由街33號","121.514395","25.00642","6500400","永和區"
"234048","863-TW","2019/07/20 14:29:15","新北市永和區保安路132-1號","121.508648333333","25.0154783333333","6500400","永和區"
"234025","9371-KE","2019/07/20 14:29:23","新北市中和區中安街110號","121.511281666667","25.0007316666667","6500400","永和區"
"248017","KED-0813","2019/07/20 14:28:05","新北市五股區外寮路7-25號","121.423903333333","25.0793833333333","6501500","五股區"
"234072","AAC-211","2019/07/20 14:29:23","新北市永和區竹林路65號","121.518481666667","25.0136633333333","6500400","永和區"
"234001","AAC-295","2019/07/20 14:29:21","新北市永和區大新街63巷2號","121.516476666667","25.0084716666667","6500400","永和區"
"231030","002-UM","2019/07/20 14:29:27","新北市新店區安民街47號","121.51589","24.9657683333333","6500600","新店區"
"231027","0293-UT","2019/07/20 14:29:19","新北市新店區北新路二段228巷1號","121.543005","24.9774516666667","6500600","新店區"
"231005","046-UY","2019/07/20 14:29:25","新北市新店區北新路三段63號","121.541638333333","24.98107","6500600","新店區"
"231029","106-UY","2019/07/20 14:29:26","新北市新店區安康路二段341巷3號","121.497306666667","24.9554033333333","6500600","新店區"
"231018","107-UY","2019/07/20 14:29:18","新北市新店區中央二街73-1號","121.526095","24.9749766666667","6500600","新店區"
"231013","108-UY","2019/07/20 14:29:15","新北市新店區民權路108-4號","121.535873333333","24.9832483333333","6500600","新店區"
"231036","110-UY","2019/07/20 14:29:14","新北市新店區安祥路109巷41號","121.476606666667","24.9596066666667","6500600","新店區"
"231033","256-BX","2019/07/20 14:29:28","新北市新店區安業街215巷1-1號","121.522738333333","24.9723716666667","6500600","新店區"
"231023","260-TV","2019/07/20 14:29:15","新北市新店區北新路一段189號","121.540355","24.9646316666667","6500600","新店區"
"231003","268-BY","2019/07/20 14:28:17","新北市新店區中興路一段267-2號","121.544975","24.96779","6500600","新店區"
"231035","278-BY","2019/07/20 14:29:15","新北市新店區安光路10-1號","121.513715","24.96411","6500600","新店區"
"231017","AAD-862","2019/07/20 14:29:14","新北市新店區北宜路二段452號","121.57009","24.956405","6500600","新店區"
"231006","355-BY","2019/07/20 14:29:06","新北市新店區北宜路二段458號","121.57051","24.9564933333333","6500600","新店區"
"231038","3712-VJ","2019/07/20 14:29:23","新北市新店區溪洲路187-2號","121.529293333333","24.96442","6500600","新店區"
"231020","513-UM","2019/07/20 14:29:21","新北市新店區桂山路81巷1號","121.567298333333","24.8992416666667","6500600","新店區"
"231001","617-UM","2019/07/20 14:29:13","新北市新店區中正路75巷71號","121.543093333333","24.9688533333333","6500600","新店區"
"231002","619-UM","2019/07/20 14:29:08","新北市新店區中央路192號","121.530908333333","24.9749766666667","6500600","新店區"
"231034","641-BX","2019/07/20 14:29:11","新北市新店區車子路11號","121.503083333333","24.95207","6500600","新店區"
"231012","KED-0819","2019/07/20 14:29:24","新北市新店區寶橋路160號","121.549093333333","24.9770066666667","6500600","新店區"
"231028","897-TW","2019/07/20 14:29:21","新北市新店區安和路一段15號","121.516806666667","24.964155","6500600","新店區"
"231004","899-TW","2019/07/20 14:29:25","新北市新店區中正路282-11號","121.538445","24.9739366666667","6500600","新店區"
"231037","AKT-0513","2019/07/20 14:29:08","新北市新店區安康路二段341巷21號","121.497185","24.9546533333333","6500600","新店區"
"235030","003-UY","2019/07/20 14:29:11","新北市中和區景新街57巷7號","121.504375","24.9991733333333","6500300","中和區"
"235028","005-UY","2019/07/20 14:29:17","新北市中和區南山路129巷1號","121.502323333333","24.9969283333333","6500300","中和區"
"235027","006-UY","2019/07/20 14:29:24","新北市中和區連城路169號","121.495435","24.998425","6500300","中和區"
"235020","096-UM","2019/07/20 14:29:09","新北市中和區員山路581巷2弄14號","121.477923333333","25.0097416666667","6500300","中和區"
"235003","097-UM","2019/07/20 14:29:24","新北市永和區中正路38號","121.512931666667","24.9942766666667","6500300","中和區"
"235029","098-UM","2019/07/20 14:29:28","新北市中和區福祥路126號","121.498911666667","25.00678","6500300","中和區"
"235004","150-BY","2019/07/20 14:29:23","新北市中和區安樂路101號","121.513193333333","24.9950616666667","6500300","中和區"
"235022","151-BY","2019/07/20 14:29:28","新北市中和區連城路511號","121.482301666667","24.9953933333333","6500300","中和區"
"235019","183-VK","2019/07/20 14:29:19","新北市中和區民生街15號","121.471356666667","25.0058616666667","6500300","中和區"
"235002","185-VK","2019/07/20 14:29:19","新北市中和區自立路129號","121.521918333333","24.9940333333333","6500300","中和區"
"235013","186-VK","2019/07/20 14:29:27","新北市中和區安平路27號","121.509285","24.9943666666667","6500300","中和區"
"235031","255-BX","2019/07/20 14:29:20","新北市中和區新生街262號","121.483788333333","24.997315","6500300","中和區"
"235008","293-VK","2019/07/20 14:29:24","新北市中和區捷運路105號","121.507983333333","24.9900183333333","6500300","中和區"
"235036","301-VK","2019/07/20 14:29:14","新北市中和區中山路二段220號","121.499438333333","25.0028566666667","6500300","中和區"
"235007","352-BY","2019/07/20 14:29:19","新北市中和區景新街264號","121.509848333333","24.993015","6500300","中和區"
"235006","KEA-2878","2019/07/20 14:29:27","新北市中和區中和路262巷45號","121.510083333333","24.9997483333333","6500300","中和區"
"247013","KEA-2869","2019/07/20 14:29:28","新北市蘆洲區中山二路166號","121.470861666667","25.0809266666667","6501400","蘆洲區"
"247007","KED-0682","2019/07/20 14:29:18","新北市蘆洲區民生街41號","121.475103333333","25.0789083333333","6501400","蘆洲區"
"235033","4980-A6","2019/07/20 14:29:26","新北市中和區連城路134巷11號","121.495235","25.000015","6500300","中和區"
"235034","558-UM","2019/07/20 14:29:22","新北市中和區景平路634-9號","121.498663333333","24.9996983333333","6500300","中和區"
"235009","565-BX","2019/07/20 14:29:25","新北市中和區景新街469號","121.513458333333","24.9879566666667","6500300","中和區"
"235024","KED-0823","2019/07/20 14:29:21","新北市中和區新生街16巷21弄2號","121.48228","25.00432","6500300","中和區"
"235018","640-BX","2019/07/20 14:29:12","新北市中和區莒光路207號","121.469793333333","24.995615","6500300","中和區"
"235011","732-UM","2019/07/20 14:29:23","新北市中和區景平路259巷14號","121.507941666667","24.9926583333333","6500300","中和區"
"235010","733-UM","2019/07/20 14:29:15","新北市中和區忠孝街37巷52號","121.511076666667","24.9850083333333","6500300","中和區"
"235074","783-BX","2019/07/20 14:29:18","新北市中和區中正路635號","121.485213333333","24.99544","6500300","中和區"
"235021","801-TS","2019/07/20 14:29:23","新北市中和區員山路150巷2弄20號","121.481553333333","24.9976516666667","6500300","中和區"
"235005","802-TS","2019/07/20 14:29:23","新北市中和區景安路77號","121.506643333333","24.9976383333333","6500300","中和區"
"235016","805-TS","2019/07/20 14:29:10","新北市中和區華新街143巷67弄10號","121.507161666667","24.97899","6500300","中和區"
"235012","896-TW","2019/07/20 14:29:24","新北市中和區忠孝街39-8號","121.511911666667","24.9841266666667","6500300","中和區"
"235017","900-TW","2019/07/20 14:29:17","新北市中和區民德路197號","121.469096666667","24.9982816666667","6500300","中和區"
"235073","911-UM","2019/07/20 14:29:28","新北市中和區立業路83巷9號","121.491545","25.006925","6500300","中和區"
"235015","157-BY","2019/07/20 14:29:19","新北市中和區板南路128巷1號","121.502596666667","24.9927283333333","6500300","中和區"
"235001","AAC-213","2019/07/20 14:29:11","新北市中和區秀朗路三段10巷21弄8號","121.5252","24.9960883333333","6500300","中和區"
"235023","AAC-215","2019/07/20 14:29:22","新北市中和區錦和路203巷9號","121.491306666667","24.9905","6500300","中和區"
"220016","015-TV","2019/07/20 14:29:11","新北市板橋區中山路二段505巷10號","121.482506666667","25.0216516666667","6500100","板橋區"
"220013","072-UY","2019/07/20 14:29:09","新北市板橋區國泰街75巷28弄68號","121.467543333333","25.0044666666667","6500100","板橋區"
"220034","073-UY","2019/07/20 14:29:16","新北市板橋區中正路216巷13號","121.4564","25.018525","6500100","板橋區"
"220105","075-UY","2019/07/20 14:29:24","新北市板橋區文化路二段548巷30號","121.477038333333","25.0336383333333","6500100","板橋區"
"220017","AAD-861","2019/07/20 14:29:26","新北市板橋區貴興路106巷16弄2號","121.454811666667","25.00348","6500100","板橋區"
"247003","893-R6","2019/07/20 14:29:17","新北市蘆洲區長安街267巷9弄2號","121.457673333333","25.0832883333333","6501400","蘆洲區"
"247017","546-UM","2019/07/20 14:29:14","新北市蘆洲區民族路350號","121.476345","25.0907","6501400","蘆洲區"
"247001","500-BY","2019/07/20 14:29:12","新北市蘆洲區永樂街38巷33弄60號","121.456465","25.0899883333333","6501400","蘆洲區"
"247009","341-TH","2019/07/20 14:29:25","新北市蘆洲區信義路136號","121.47954","25.0830133333333","6501400","蘆洲區"
"247023","337-TH","2019/07/20 14:29:27","新北市蘆洲區中正路263巷2號","121.467333333333","25.0874666666667","6501400","蘆洲區"
"247011","056-VK","2019/07/20 14:29:09","新北市蘆洲區復興路88號","121.475358333333","25.08681","6501400","蘆洲區"
"247015","053-VK","2019/07/20 14:29:13","新北市蘆洲區中正路185巷78弄21號","121.465496666667","25.0849983333333","6501400","蘆洲區"
"247019","007-UY","2019/07/20 14:28:55","新北市蘆洲區水湳街281號","121.469508333333","25.0929466666667","6501400","蘆洲區"
"247005","002-UY","2019/07/20 14:29:16","新北市蘆洲區中華街103號","121.461361666667","25.0796566666667","6501400","蘆洲區"
"228005","097-TW","2019/07/20 14:29:25","新北市貢寮區美豐里巫里岸9-1號","121.901951666667","25.0702633333333","6502600","貢寮區"
"228004","212-TW","2019/07/20 14:29:28","新北市貢寮區雙玉里田寮洋街33-1號","121.933945","25.01515","6502600","貢寮區"
"253003","4710-YM","2019/07/20 14:29:14","新北市石門區尖子鹿40號","121.581378333333","25.257045","6502200","石門區"
"253004","6251-TK","2019/07/20 14:29:19","新北市石門區內阿里磅14號","121.593385","25.2491683333333","6502200","石門區"
"253002","637-UY","2019/07/20 14:29:22","新北市石門區七股12-6號","121.547725","25.2666066666667","6502200","石門區"
"253001","KEC-0718","2019/07/20 14:29:15","新北市石門區崁子腳63號","121.532068333333","25.286825","6502200","石門區"
"207002","749-BX","2019/07/20 14:29:27","新北市萬里區溪底里溪底路23號","121.610196666667","25.147755","6502800","萬里區"
"252005","073-UM","2019/07/20 14:29:24","新北市三芝區橫山里橫山13-1號","121.536961666667","25.2625216666667","6502100","三芝區"
"207001","662-BX","2019/07/20 14:29:15","新北市萬里區磺潭里清水18-3號","121.638966666667","25.1988216666667","6502800","萬里區"
"236040","KED-0685","2019/07/20 14:29:10","新北市土城區學成路99巷11號","121.44995","24.9883516666667","6501300","土城區"
"220038","KED-0812","2019/07/20 14:29:18","新北市板橋區英士路61號","121.460546666667","25.0243","6500100","板橋區"
"236074","166-UM","2019/07/20 14:29:11","新北市土城區中央路四段27巷1號","121.42427","24.9624583333333","6501300","土城區"
"236029","253-BX","2019/07/20 14:29:15","新北市土城區水源街83號","121.439551666667","24.9764016666667","6501300","土城區"
"236024","269-VK","2019/07/20 14:29:19","新北市土城區承天路67號","121.439605","24.96349","6501300","土城區"
"236013","270-VK","2019/07/20 14:29:26","新北市土城區青雲路39巷7號","121.460301666667","24.9875116666667","6501300","土城區"
"236032","271-VK","2019/07/20 14:29:17","新北市土城區青山路3巷1號","121.461116666667","24.9769","6501300","土城區"
"236068","KEA-2877","2019/07/20 14:29:13","新北市土城區永豐路340巷8-1號","121.474006666667","24.977055","6501300","土城區"
"236017","401-BY","2019/07/20 14:29:22","新北市土城區永豐路202巷5號","121.466486666667","24.9832716666667","6501300","土城區"
"236057","912-UM","2019/07/20 14:29:12","新北市土城區中央路四段139-2號","121.415746666667","24.9572283333333","6501300","土城區"
"236045","913-UM","2019/07/20 14:29:14","新北市土城區青雲路449號","121.458808333333","24.9752566666667","6501300","土城區"
"236060","915-UM","2019/07/20 14:29:30","新北市土城區延壽路75巷23弄2號","121.468915","24.9918883333333","6501300","土城區"
"236054","AAC-216","2019/07/20 14:29:11","新北市土城區中華路二段1號","121.43974","24.9792416666667","6501300","土城區"
"220027","145-BY","2019/07/20 14:29:25","新北市板橋區民權路202巷2弄1號","121.459561666667","25.0141716666667","6500100","板橋區"
"220028","200-UY","2019/07/20 14:29:27","新北市板橋區大觀路二段3巷46號","121.44871","25.0035283333333","6500100","板橋區"
"220030","610-BX","2019/07/20 14:29:26","新北市板橋區金門街419號","121.427146666667","24.9837916666667","6500100","板橋區"
"220050","245-BX","2019/07/20 14:29:22","新北市板橋區莊敬路211號","121.471926666667","25.0222166666667","6500100","板橋區"
"220040","267-BY","2019/07/20 14:29:25","新北市板橋區文聖街147號","121.478646666667","25.0281266666667","6500100","板橋區"
"220004","276-BY","2019/07/20 14:29:14","新北市板橋區信義路68-1號","121.457365","24.9936333333333","6500100","板橋區"
"220020","277-BY","2019/07/20 14:29:16","新北市板橋區篤行路三段8號","121.42933","24.987705","6500100","板橋區"
"220019","283-VK","2019/07/20 14:29:18","新北市板橋區忠孝路48巷9弄14號","121.461731666667","25.0001066666667","6500100","板橋區"
"220043","285-UM","2019/07/20 14:29:16","新北市板橋區松江街109巷1號","121.46908","25.0306066666667","6500100","板橋區"
"220001","285-VK","2019/07/20 14:29:27","新北市板橋區永豐街116號","121.476228333333","25.020775","6500100","板橋區"
"220031","286-VK","2019/07/20 14:29:22","新北市板橋區大觀路二段174巷173弄12號","121.441205","25.0039583333333","6500100","板橋區"
"220029","287-VK","2019/07/20 14:29:16","新北市板橋區大觀路一段29巷179弄32號","121.449631666667","25.00406","6500100","板橋區"
"220039","288-VK","2019/07/20 14:29:11","新北市板橋區新海路431巷2號","121.457756666667","25.02744","6500100","板橋區"
"220009","295-UM","2019/07/20 14:29:16","新北市板橋區中山路一段265巷36弄2號","121.469163333333","25.015025","6500100","板橋區"
"220032","296-UM","2019/07/20 14:29:20","新北市板橋區滿平街84巷120弄30號","121.426013333333","24.985485","6500100","板橋區"
"220047","299-UM","2019/07/20 14:29:24","新北市板橋區四維路266巷2弄27號","121.464183333333","25.0280616666667","6500100","板橋區"
"220023","303-R5","2019/07/20 14:29:19","新北市板橋區中正路275巷93號","121.450873333333","25.0181416666667","6500100","板橋區"
"220010","305-R5","2019/07/20 14:29:11","新北市板橋區三民路二段123巷3號","121.47965","25.0157","6500100","板橋區"
"220041","307-R5","2019/07/20 14:29:15","新北市板橋區四維路152號","121.464995","25.0257716666667","6500100","板橋區"
"220037","491-VK","2019/07/20 14:29:17","新北市板橋區雙十路二段4-4號","121.477033333333","25.0257016666667","6500100","板橋區"
"220104","560-BX","2019/07/20 14:29:06","新北市板橋區中正路399巷34號","121.452956666667","25.0230133333333","6500100","板橋區"
"220052","561-BX","2019/07/20 14:29:12","新北市板橋區陽明街29巷1弄6號","121.464866666667","25.021555","6500100","板橋區"
"220011","609-BX","2019/07/20 14:29:24","新北市板橋區三民路一段31巷80號","121.481106666667","25.0232333333333","6500100","板橋區"
"220022","630-UY","2019/07/20 14:29:26","新北市板橋區府中路34號","121.457846666667","25.0096616666667","6500100","板橋區"
"220005","686-BX","2019/07/20 14:29:12","新北市板橋區國慶路160-1號","121.462068333333","24.9960133333333","6500100","板橋區"
"220025","687-BX","2019/07/20 14:29:25","新北市板橋區大觀路二段28號","121.446646666667","25.0029683333333","6500100","板橋區"
"220042","689-BX","2019/07/20 14:29:12","新北市板橋區新海路438號","121.458008333333","25.0277633333333","6500100","板橋區"
"220051","KEA-2699","2019/07/20 14:29:09","新北市板橋區雙十路二段44號","121.475761666667","25.027635","6500100","板橋區"
"220003","827-TW","2019/07/20 14:29:22","新北市板橋區重慶路278巷2-3號","121.462793333333","24.9997266666667","6500100","板橋區"
"220014","829-TW","2019/07/20 14:29:22","新北市板橋區漢生東路313巷2弄68號","121.47286","25.0080366666667","6500100","板橋區"
"220021","985-R7","2019/07/20 14:29:24","新北市板橋區中正路360巷45號","121.456031666667","25.0231883333333","6500100","板橋區"
"220046","AAC-210","2019/07/20 14:29:22","新北市板橋區文化路一段285巷2弄19號","121.464298333333","25.01951","6500100","板橋區"
"220012","AAC-253","2019/07/20 14:29:10","新北市板橋區民權路31號","121.462511666667","25.01101","6500100","板橋區"
"235032","KEA-2873","2019/07/20 14:29:17","新北市中和區景平路736巷1弄12號","121.497555","25.00405","6500300","中和區"
"235025","KEA-2875","2019/07/20 14:28:59","新北市中和區新生街148巷17號","121.482563333333","25.0004533333333","6500300","中和區"
