"lineid","car","time","location","longitude","latitude","cityid","cityname"
"249002","305-UY","2019/07/20 16:19:52","新北市八里區挖子尾街12號","121.415458333333","25.1644133333333","6502300","八里區"
"231018","107-UY","2019/07/20 16:19:58","新北市新店區中正路700巷322-10號","121.533705","24.9932116666667","6500600","新店區"
"231034","641-BX","2019/07/20 16:19:51","新北市新店區薏仁坑路自強巷6號","121.496776666667","24.9583716666667","6500600","新店區"
"231046","719-UM","2019/07/20 16:19:46","新北市新店區灣潭路3-3號","121.538198333333","24.9508116666667","6500600","新店區"
"241011","013-R5","2019/07/20 16:19:47","新北市三重區龍濱路285號","121.501081666667","25.07332","6500200","三重區"
"241028","022-UY","2019/07/20 16:19:43","新北市三重區正義南路181巷1號","121.499016666667","25.0569133333333","6500200","三重區"
"241008","059-VK","2019/07/20 16:19:59","新北市三重區永福街179號","121.478961666667","25.075325","6500200","三重區"
"241018","060-VK","2019/07/20 16:19:46","新北市三重區重陽路三段154號","121.489701666667","25.0674683333333","6500200","三重區"
"241031","061-VK","2019/07/20 16:19:48","新北市三重區重新路四段138號","121.486438333333","25.0564766666667","6500200","三重區"
"241015","062-VK","2019/07/20 16:19:57","新北市三重區福德北路75號","121.50197","25.065795","6500200","三重區"
"241017","063-VK","2019/07/20 16:19:43","新北市三重區大同北路85號","121.494851666667","25.0638683333333","6500200","三重區"
"241024","065-VK","2019/07/20 16:19:56","新北市三重區中正北路145巷3弄5號","121.483488333333","25.0675316666667","6500200","三重區"
"241002","090-VK","2019/07/20 16:19:47","新北市三重區仁義街91號","121.4996","25.0798533333333","6500200","三重區"
"241003","091-VK","2019/07/20 16:19:50","新北市三重區仁義街220巷18號","121.494618333333","25.08373","6500200","三重區"
"241005","262-UM","2019/07/20 16:19:40","新北市三重區溪尾街336號","121.488375","25.0850866666667","6500200","三重區"
"241009","267-UM","2019/07/20 16:19:52","新北市三重區溪尾街196巷35號","121.486991666667","25.0806283333333","6500200","三重區"
"241032","269-UM","2019/07/20 16:19:50","新北市三重區三陽路116巷4號","121.483028333333","25.0582316666667","6500200","三重區"
"241013","270-UM","2019/07/20 16:19:50","新北市三重區龍門路72號","121.496851666667","25.07275","6500200","三重區"
"241025","271-UM","2019/07/20 16:19:51","新北市三重區中正北路560巷100弄2號","121.472596666667","25.068275","6500200","三重區"
"241007","398-BY","2019/07/20 16:19:54","新北市三重區三和路四段163巷80號","121.487","25.0798","6500200","三重區"
"241004","475-VK","2019/07/20 16:19:53","新北市三重區自強路五段41-1號","121.493956666667","25.081395","6500200","三重區"
"241020","478-VK","2019/07/20 16:19:52","新北市三重區車路頭街26號","121.48379","25.070855","6500200","三重區"
"241026","480-VK","2019/07/20 16:19:55","新北市三重區正義南路137號","121.498896666667","25.0576966666667","6500200","三重區"
"241014","543-UM","2019/07/20 16:19:53","新北市三重區河邊北街96-1號","121.503998333333","25.0699133333333","6500200","三重區"
"241023","545-UM","2019/07/20 16:19:46","新北市三重區忠孝路三段38號","121.481056666667","25.0665233333333","6500200","三重區"
"241001","547-UM","2019/07/20 16:19:44","新北市三重區仁愛街302-1號","121.492086666667","25.0796033333333","6500200","三重區"
"241019","KEA-2593","2019/07/20 16:19:38","新北市三重區重陽路三段188號","121.490311666667","25.0682566666667","6500200","三重區"
"241006","AAD-863","2019/07/20 16:19:47","新北市三重區永福街42號","121.482188333333","25.0779266666667","6500200","三重區"
"241022","KED-0820","2019/07/20 16:19:49","新北市三重區中正北路43號","121.490768333333","25.0626433333333","6500200","三重區"
"241012","941-UM","2019/07/20 16:19:53","新北市三重區河邊北街313號","121.502426666667","25.07488","6500200","三重區"
"241029","942-UM","2019/07/20 16:19:38","新北市三重區中正南路281號","121.493211666667","25.0522066666667","6500200","三重區"
"241033","AAC-255","2019/07/20 16:19:54","新北市三重區重新路五段328號","121.477336666667","25.0478266666667","6500200","三重區"
"235054","640-BX","2019/07/20 16:19:52","新北市中和區員山路36巷16-2號","121.485346666667","24.9916266666667","6500300","中和區"
"247024","337-TH","2019/07/20 15:52:38","新北市五股區中興路三段163號","121.448993333333","25.0808866666667","6501400","蘆洲區"
"224007","285-BY","2019/07/20 16:19:45","新北市瑞芳區大埔路112號","121.762195","25.1015483333333","6501200","瑞芳區"
"224005","271-BY","2019/07/20 16:19:45","新北市瑞芳區明燈路二段66號","121.809395","25.1073666666667","6501200","瑞芳區"
"227001","642-TC","2019/07/20 16:19:46","新北市雙溪區牡丹里中正路74號","121.863478333333","25.04541","6502500","雙溪區"
"227002","400-TW","2019/07/20 16:19:47","新北市雙溪區上林里內平林119號","121.825318333333","25.02663","6502500","雙溪區"
"251008","181-VK","2019/07/20 16:19:49","新北市淡水區中正東路二段163號","121.459616666667","25.1455933333333","6501000","淡水區"
"251013","182-VK","2019/07/20 16:19:39","新北市淡水區北新路二段48號","121.477765","25.1857283333333","6501000","淡水區"
"251014","577-R6","2019/07/20 16:19:52","新北市淡水區中正路二段28號","121.419896666667","25.181635","6501000","淡水區"
"252002","178-VK","2019/07/20 16:19:50","新北市三芝區埔坪里埔頭坑41號","121.504545","25.2644166666667","6502100","三芝區"
"252001","KED-0821","2019/07/20 16:19:50","新北市三芝區埔坪里埔頭坑41號","121.50467","25.2646066666667","6502100","三芝區"
