"lineid","car","time","location","longitude","latitude","cityid","cityname"
"249005","172-UM","2019/07/20 17:09:54","新北市八里區華富山8號","121.420923333333","25.141325","6502300","八里區"
"249001","173-UM","2019/07/20 17:09:48","新北市八里區中華路二段290號","121.404415","25.1488383333333","6502300","八里區"
"249004","303-UY","2019/07/20 17:09:44","新北市八里區忠孝路167號","121.423745","25.1607983333333","6502300","八里區"
"249002","305-UY","2019/07/20 17:09:52","新北市八里區米倉13-2號","121.43864","25.1496383333333","6502300","八里區"
"249003","759-BX","2019/07/20 17:09:48","新北市八里區訊塘路96號","121.397595","25.1465433333333","6502300","八里區"
"244007","402-UM","2019/07/20 17:09:53","新北市林口區菁埔9號","121.378778333333","25.09623","6501700","林口區"
"244009","656-BX","2019/07/20 17:09:49","新北市林口區松柏路10號","121.380123333333","25.09271","6501700","林口區"
"244025","837-TS","2019/07/20 17:09:58","新北市林口區中山路276號","121.382558333333","25.0811316666667","6501700","林口區"
"244021","838-TS","2019/07/20 17:09:58","新北市林口區粉寮路60-7號","121.405755","25.0884583333333","6501700","林口區"
"231046","719-UM","2019/07/20 17:09:46","新北市新店區新潭路一段61號","121.526171666667","24.94233","6500600","新店區"
"241011","013-R5","2019/07/20 17:09:47","新北市三重區龍濱路285號","121.501128333333","25.0733466666667","6500200","三重區"
"241028","022-UY","2019/07/20 17:09:56","新北市三重區重新路三段108號","121.492288333333","25.0604483333333","6500200","三重區"
"241008","059-VK","2019/07/20 17:09:39","新北市三重區下竹圍街26號","121.48084","25.0754266666667","6500200","三重區"
"241018","060-VK","2019/07/20 17:09:46","新北市三重區重陽路四段35號","121.491713333333","25.069565","6500200","三重區"
"241031","061-VK","2019/07/20 17:09:48","新北市三重區重陽路一段113巷1號","121.487203333333","25.05987","6500200","三重區"
"241015","062-VK","2019/07/20 17:09:57","新北市三重區長生街42號","121.49979","25.0665116666667","6500200","三重區"
"241017","063-VK","2019/07/20 17:09:23","新北市三重區大仁街3巷31號","121.492551666667","25.063865","6500200","三重區"
"241024","065-VK","2019/07/20 17:09:56","新北市三重區大勇街82巷4號","121.479353333333","25.0714516666667","6500200","三重區"
"241002","090-VK","2019/07/20 17:09:47","新北市三重區五華街35巷19號","121.49508","25.0812216666667","6500200","三重區"
"241003","091-VK","2019/07/20 17:09:50","新北市三重區富福街104號","121.493296666667","25.085515","6500200","三重區"
"241030","742-BX","2019/07/20 17:09:59","新北市三重區集美街142-1號","121.489566666667","25.0530583333333","6500200","三重區"
"241005","262-UM","2019/07/20 17:09:40","新北市三重區仁華街22號","121.48333","25.08184","6500200","三重區"
"241009","267-UM","2019/07/20 17:09:52","新北市三重區仁愛街680-1號","121.481896666667","25.0801333333333","6500200","三重區"
"241032","269-UM","2019/07/20 17:09:50","新北市三重區三陽路13巷10號","121.485895","25.0595266666667","6500200","三重區"
"241013","270-UM","2019/07/20 17:09:50","新北市三重區仁愛街88號","121.495488333333","25.0738616666667","6500200","三重區"
"241025","271-UM","2019/07/20 17:09:51","新北市三重區中正北路415號","121.470581666667","25.0722033333333","6500200","三重區"
"241007","398-BY","2019/07/20 17:09:54","新北市三重區三和路四段145巷95號","121.486755","25.0787466666667","6500200","三重區"
"241004","475-VK","2019/07/20 17:09:53","新北市三重區五華街122巷1號","121.491691666667","25.083155","6500200","三重區"
"241020","478-VK","2019/07/20 17:09:52","新北市三重區自強路三段45號","121.486911666667","25.0727616666667","6500200","三重區"
"241026","480-VK","2019/07/20 17:09:55","新北市三重區重新路一段51號","121.50203","25.06388","6500200","三重區"
"241014","543-UM","2019/07/20 17:09:53","新北市三重區龍濱路191號","121.501976666667","25.0711766666667","6500200","三重區"
"241023","545-UM","2019/07/20 17:09:46","新北市三重區忠孝路三段84巷1號","121.4802","25.06449","6500200","三重區"
"241001","547-UM","2019/07/20 17:09:40","新北市三重區仁愛街269巷50號","121.494471666667","25.0796266666667","6500200","三重區"
"241019","KEA-2593","2019/07/20 17:09:45","新北市三重區三張街118號","121.487246666667","25.0698183333333","6500200","三重區"
"241022","KED-0820","2019/07/20 17:09:49","新北市三重區重陽路二段34巷70號","121.48507","25.06428","6500200","三重區"
"241012","941-UM","2019/07/20 17:09:53","新北市三重區龍門路274巷45號","121.501165","25.0755416666667","6500200","三重區"
"241029","942-UM","2019/07/20 17:09:38","新北市三重區重新路四段86號","121.487928333333","25.0573416666667","6500200","三重區"
"241033","AAC-255","2019/07/20 17:09:38","新北市三重區中興北街271號","121.469111666667","25.0605416666667","6500200","三重區"
"247014","KEA-2869","2019/07/20 17:09:44","新北市蘆洲區中央路7-1號","121.473146666667","25.08242","6501400","蘆洲區"
"247008","KED-0682","2019/07/20 17:09:50","新北市蘆洲區信義路30巷46號","121.474561666667","25.0782283333333","6501400","蘆洲區"
"247004","893-R6","2019/07/20 17:09:50","新北市蘆洲區長安街138號","121.460218333333","25.081995","6501400","蘆洲區"
"247018","546-UM","2019/07/20 17:09:39","新北市蘆洲區復興路101號","121.476588333333","25.087595","6501400","蘆洲區"
"247002","500-BY","2019/07/20 17:09:44","新北市蘆洲區長安街332號","121.457513333333","25.0883716666667","6501400","蘆洲區"
"247009","341-TH","2019/07/20 17:09:56","新北市蘆洲區三民路52號","121.475478333333","25.0834083333333","6501400","蘆洲區"
"247024","337-TH","2019/07/20 17:09:51","新北市蘆洲區長興路23號","121.463846666667","25.0834216666667","6501400","蘆洲區"
"247022","057-VK","2019/07/20 17:09:51","新北市蘆洲區民族路498號","121.469693333333","25.0904633333333","6501400","蘆洲區"
"247012","056-VK","2019/07/20 17:09:37","新北市蘆洲區信義路345號","121.477841666667","25.0871583333333","6501400","蘆洲區"
"247016","053-VK","2019/07/20 17:09:57","新北市蘆洲區光華路72號","121.468041666667","25.0827033333333","6501400","蘆洲區"
"247020","007-UY","2019/07/20 17:09:57","新北市蘆洲區民族路426巷19號","121.47292","25.0929633333333","6501400","蘆洲區"
"247006","002-UY","2019/07/20 17:09:46","新北市蘆洲區長安街102巷6號","121.462098333333","25.0815616666667","6501400","蘆洲區"
"228003","097-TW","2019/07/20 17:09:54","新北市貢寮區福隆里東興街10-6號","121.95141","25.01974","6502600","貢寮區"
"228001","212-TW","2019/07/20 17:09:48","新北市貢寮區仁理村研海街20號","121.92778","25.0374566666667","6502600","貢寮區"
"228002","663-BX","2019/07/20 17:09:47","新北市貢寮區龍崗里嵩陽街55號","121.907518333333","25.0166066666667","6502600","貢寮區"
"224006","676-BX","2019/07/20 17:09:48","新北市瑞芳區大寮路91號","121.780753333333","25.0976066666667","6501200","瑞芳區"
"224009","275-VK","2019/07/20 17:09:44","新北市瑞芳區輕便路90號","121.844698333333","25.1131866666667","6501200","瑞芳區"
"224008","273-VK","2019/07/20 17:09:42","新北市瑞芳區侯硐路57號","121.830785","25.0894433333333","6501200","瑞芳區"
"224005","271-BY","2019/07/20 17:09:45","新北市瑞芳區鼻頭路115-1號","121.916368333333","25.12247","6501200","瑞芳區"
"227001","642-TC","2019/07/20 17:09:46","新北市雙溪區三貂里政光路6-6號","121.850958333333","25.0707883333333","6502500","雙溪區"
"227002","400-TW","2019/07/20 17:09:47","新北市雙溪區上林里內平林12號","121.837178333333","25.0298766666667","6502500","雙溪區"
"251004","009-UM","2019/07/20 17:09:46","新北市淡水區中正東路二段88巷15號","121.459051666667","25.1505","6501000","淡水區"
"251015","KEA-2871","2019/07/20 17:09:46","新北市淡水區學府路102巷51弄10號","121.452796666667","25.1718883333333","6501000","淡水區"
"251016","179-VK","2019/07/20 17:09:49","新北市淡水區社厝坑3-6號","121.474833333333","25.1881416666667","6501000","淡水區"
"251007","180-VK","2019/07/20 17:09:36","新北市淡水區民權路79號","121.459708333333","25.13843","6501000","淡水區"
"251008","181-VK","2019/07/20 17:09:49","新北市淡水區民生路169號","121.4696","25.1421233333333","6501000","淡水區"
"251013","182-VK","2019/07/20 17:09:39","新北市淡水區大埤頭6號","121.483023333333","25.1973083333333","6501000","淡水區"
"251010","413-VK","2019/07/20 17:09:52","新北市淡水區中正路二段31號","121.419463333333","25.1815116666667","6501000","淡水區"
"251012","441-VK","2019/07/20 17:09:37","新北市淡水區中山北路一段156號","121.444185","25.1779433333333","6501000","淡水區"
"251005","443-VK","2019/07/20 17:09:38","新北市淡水區學府路88號","121.449111666667","25.1710583333333","6501000","淡水區"
"251006","561-UM","2019/07/20 17:09:39","新北市淡水區真理街6號","121.43843","25.1745133333333","6501000","淡水區"
"251009","575-R6","2019/07/20 17:09:52","新北市淡水區中正路一段112號","121.42376","25.1780366666667","6501000","淡水區"
"251014","577-R6","2019/07/20 17:09:52","新北市淡水區八里堆7-6號","121.460986666667","25.224575","6501000","淡水區"
"251011","650-BX","2019/07/20 17:09:54","新北市淡水區坪頂路49號","121.457875","25.1625833333333","6501000","淡水區"
"251003","766-UM","2019/07/20 17:09:46","新北市淡水區中正路二段31號","121.41935","25.18152","6501000","淡水區"
"252002","178-VK","2019/07/20 17:09:50","新北市三芝區忠孝街1-14號","121.505541666667","25.25396","6502100","三芝區"
"252001","KED-0821","2019/07/20 17:09:49","新北市三芝區埔頭里埔頭37號","121.498415","25.26027","6502100","三芝區"
"242039","AAC-296","2019/07/20 17:09:54","新北市新莊區新泰路357巷3弄1號","121.442323333333","25.041225","6500500","新莊區"
"242002","751-BX","2019/07/20 17:09:45","新北市新莊區新泰路357巷3弄1號","121.44231","25.04133","6500500","新莊區"
"242029","615-BX","2019/07/20 17:09:39","新北市新莊區新泰路357巷3弄57號","121.442126666667","25.03922","6500500","新莊區"
"242027","613-BX","2019/07/20 17:09:56","新北市新莊區新泰路255巷83號","121.442166666667","25.039005","6500500","新莊區"
"242058","612-BX","2019/07/20 17:09:52","新北市新莊區新泰路357巷3弄57號","121.442216666667","25.0392466666667","6500500","新莊區"
"242046","566-BX","2019/07/20 17:09:52","新北市新莊區三和路12-21號","121.442273333333","25.03846","6500500","新莊區"
"242051","497-BY","2019/07/20 17:09:52","新北市新莊區中環路一段285號","121.4421","25.0317133333333","6500500","新莊區"
"242011","442-UM","2019/07/20 17:09:39","新北市新莊區新泰路255巷83號","121.442131666667","25.0387766666667","6500500","新莊區"
"242056","441-UM","2019/07/20 17:09:44","新北市新莊區三和路12-21號","121.442178333333","25.038085","6500500","新莊區"
"242025","362-BY","2019/07/20 17:09:41","新北市新莊區新泰路255巷83號","121.442023333333","25.0390083333333","6500500","新莊區"
"242023","353-BY","2019/07/20 17:09:42","新北市新莊區新泰路357巷3弄57號","121.442085","25.0391366666667","6500500","新莊區"
"242013","132-UY","2019/07/20 17:09:40","新北市新莊區三和路12-21號","121.442096666667","25.0387633333333","6500500","新莊區"
"242036","135-UY","2019/07/20 17:09:41","新北市新莊區三和路12-9號","121.442176666667","25.0366583333333","6500500","新莊區"
"242015","173-VK","2019/07/20 17:09:54","新北市新莊區三和路12-21號","121.442056666667","25.0387466666667","6500500","新莊區"
"242021","175-VK","2019/07/20 17:09:41","新北市新莊區三和路12-21號","121.442056666667","25.0386883333333","6500500","新莊區"
"242053","176-VK","2019/07/20 17:09:43","新北市新莊區三和路12-21號","121.442058333333","25.038645","6500500","新莊區"
"242019","KED-0687","2019/07/20 17:09:55","新北市新莊區三和路12-21號","121.442263333333","25.0381216666667","6500500","新莊區"
"242034","348-TH","2019/07/20 17:09:59","新北市新莊區新泰路357巷3弄57號","121.442275","25.0394133333333","6500500","新莊區"
"242007","349-TH","2019/07/20 17:09:51","新北市新莊區三和路12-21號","121.44219","25.0383466666667","6500500","新莊區"
"242031","350-TH","2019/07/20 17:09:51","新北市新莊區新泰路472號","121.442956666667","25.0451666666667","6500500","新莊區"
"242017","351-TH","2019/07/20 17:09:45","新北市新莊區新泰路357巷3弄57號","121.442026666667","25.0394666666667","6500500","新莊區"
"238019","599-UM","2019/07/20 17:09:38","新北市樹林區八德街630號","121.39737","24.9692183333333","6500700","樹林區"
"238018","KEA-2217","2019/07/20 17:09:41","新北市樹林區博愛街227號","121.424841666667","24.9862516666667","6500700","樹林區"
"238021","KEA-2539","2019/07/20 17:09:48","新北市樹林區西圳街165巷20弄26號","121.395593333333","24.960125","6500700","樹林區"
"238017","283-BY","2019/07/20 17:09:56","新北市樹林區大安路620號","121.411391666667","24.9828766666667","6500700","樹林區"
"238014","282-BY","2019/07/20 17:09:51","新北市樹林區大安路265號","121.419048333333","24.9937916666667","6500700","樹林區"
"238016","169-UY","2019/07/20 17:09:51","新北市樹林區中山路二段10號","121.417703333333","24.98511","6500700","樹林區"
"239007","AAC-297","2019/07/20 17:09:46","新北市鶯歌區信義街48號","121.353351666667","24.955245","6500800","鶯歌區"
"239006","891-R6","2019/07/20 17:09:49","新北市鶯歌區八德路3-2號","121.337935","24.9480766666667","6500800","鶯歌區"
"239008","527-UM","2019/07/20 17:09:54","新北市鶯歌區尖山路56號","121.349756666667","24.94977","6500800","鶯歌區"
"239005","526-UM","2019/07/20 17:09:45","新北市鶯歌區鶯桃路298號","121.334076666667","24.9611066666667","6500800","鶯歌區"
"239001","417-VK","2019/07/20 17:09:38","新北市鶯歌區尖山路140巷6弄1號","121.346543333333","24.94898","6500800","鶯歌區"
"239002","359-BY","2019/07/20 17:09:40","新北市鶯歌區建國路172號","121.34988","24.9534866666667","6500800","鶯歌區"
"239004","193-VK","2019/07/20 17:09:48","新北市鶯歌區文化路324巷1-2號","121.350716666667","24.9453816666667","6500800","鶯歌區"
"244019","KED-0667","2019/07/20 17:09:39","新北市林口區公園路223巷24號","121.373438333333","25.0748766666667","6501700","林口區"
"233002","KEA-2870","2019/07/20 17:09:46","新北市烏來區西羅岸路36號","121.547448333333","24.8658383333333","6502900","烏來區"
"233001","KEC-0709","2019/07/20 17:09:29","新北市烏來區環山路181號","121.549535","24.8547133333333","6502900","烏來區"
"242044","281-VK","2019/07/20 17:09:57","新北市泰山區磚雅厝3號","121.442013333333","25.0418016666667","6500500","新莊區"
"242009","280-VK","2019/07/20 17:09:58","新北市新莊區三和路12-21號","121.44207","25.0383133333333","6500500","新莊區"
