"lineid","car","time","location","longitude","latitude","cityid","cityname"
"234086","338-UY","2019/07/20 18:19:40","新北市永和區福和路1號","121.526298333333","25.00995","6500400","永和區"
"234026","9371-KE","2019/07/20 18:19:57","新北市永和區豫溪街28巷14號","121.515131666667","25.0093716666667","6500400","永和區"
"249005","172-UM","2019/07/20 18:19:54","新北市八里區荖阡坑路15-40號","121.401665","25.1398733333333","6502300","八里區"
"249001","173-UM","2019/07/20 18:19:48","新北市八里區龍米路一段178號","121.45204","25.127465","6502300","八里區"
"249004","303-UY","2019/07/20 18:19:44","新北市八里區龍米路二段232巷3號","121.43159","25.158985","6502300","八里區"
"249002","305-UY","2019/07/20 18:19:52","新北市八里區龍形二街8號","121.450573333333","25.1325016666667","6502300","八里區"
"248014","025-BX","2019/07/20 18:19:41","新北市五股區自強路19巷5-1號","121.434573333333","25.0737433333333","6501500","五股區"
"248016","026-BX","2019/07/20 18:19:41","新北市五股區西雲路290號","121.44964","25.09917","6501500","五股區"
"248006","077-UY","2019/07/20 18:19:51","新北市五股區中興路一段145號","121.465241666667","25.07349","6501500","五股區"
"248008","KED-0815","2019/07/20 18:19:52","新北市五股區更洲路32巷8弄14號","121.459245","25.079615","6501500","五股區"
"248020","KED-0813","2019/07/20 18:19:52","新北市五股區孝義路47巷1-2號","121.454061666667","25.1104616666667","6501500","五股區"
"248012","247-BX","2019/07/20 18:19:39","新北市五股區御史路1巷101弄2號","121.440948333333","25.0912366666667","6501500","五股區"
"248010","272-BY","2019/07/20 18:19:49","新北市五股區成泰路一段142-1號","121.435045","25.0760733333333","6501500","五股區"
"248004","677-BX","2019/07/20 18:19:46","新北市五股區成泰路二段131號","121.438833333333","25.0849966666667","6501500","五股區"
"234077","969-R7","2019/07/20 18:19:56","新北市永和區福和路1號","121.526468333333","25.00979","6500400","永和區"
"232011","375-UM","2019/07/20 18:19:47","新北市坪林區坪雙路一段41號","121.71168","24.9424233333333","6502000","坪林區"
"244007","402-UM","2019/07/20 18:19:53","新北市林口區文化一路二段398號","121.386165","25.08625","6501700","林口區"
"244013","KEA-2802","2019/07/20 18:19:39","新北市林口區中山路258號","121.385186666667","25.079745","6501700","林口區"
"244023","483-VK","2019/07/20 18:19:50","新北市林口區佳林路221號","121.384151666667","25.0767933333333","6501700","林口區"
"244017","485-VK","2019/07/20 18:19:52","新北市林口區公園路45-1號","121.3674","25.0686233333333","6501700","林口區"
"244009","656-BX","2019/07/20 18:19:49","新北市林口區中山路576-11號","121.376931666667","25.08552","6501700","林口區"
"244011","701-TV","2019/07/20 18:19:42","新北市林口區仁愛路一段266號","121.39388","25.0760083333333","6501700","林口區"
"244025","837-TS","2019/07/20 18:19:38","新北市林口區南勢二街85巷3號","121.355673333333","25.069915","6501700","林口區"
"244021","838-TS","2019/07/20 18:19:58","新北市林口區自強一街2號","121.397553333333","25.078735","6501700","林口區"
"243013","646-TV","2019/07/20 18:19:47","新北市泰山區南林路89-4號","121.415536666667","25.05123","6501600","泰山區"
"222002","016-RS","2019/07/20 18:19:47","新北市深坑區雲鄉路63號","121.621838333333","24.99887","6501800","深坑區"
"222003","436-BY","2019/07/20 18:19:53","新北市深坑區旺耽路67號","121.626248333333","25.0029833333333","6501800","深坑區"
"231061","002-UM","2019/07/20 18:19:55","新北市新店區安華路28-1號","121.519861666667","24.9608016666667","6500600","新店區"
"231058","0293-UT","2019/07/20 18:19:46","新北市新店區安康路一段235-1號","121.525126666667","24.9631933333333","6500600","新店區"
"231044","046-UY","2019/07/20 18:19:47","新北市新店區安華路28-1號","121.519138333333","24.9606583333333","6500600","新店區"
"231051","107-UY","2019/07/20 18:19:56","新北市新店區安一路一段1-1號","121.519668333333","24.9611366666667","6500600","新店區"
"221035","KEA-2785","2019/07/20 18:19:57","新北市汐止區汐萬路一段8號","121.656156666667","25.067355","6501100","汐止區"
"231054","260-TV","2019/07/20 18:19:43","新北市新店區安一路一段1-1號","121.519155","24.9611133333333","6500600","新店區"
"231042","268-BY","2019/07/20 18:19:43","新北市新店區安一路一段1-1號","121.519728333333","24.9613783333333","6500600","新店區"
"231050","AAD-862","2019/07/20 18:19:45","新北市新店區安一路一段1-1號","121.519845","24.9612283333333","6500600","新店區"
"231045","355-BY","2019/07/20 18:19:55","新北市新店區安華路3號","121.518865","24.9607366666667","6500600","新店區"
"231055","4716-K9","2019/07/20 18:19:55","新北市新店區秀山路43號","121.531541666667","24.9608033333333","6500600","新店區"
"231056","4715-K9","2019/07/20 18:19:48","新北市新店區中央路230號","121.5295","24.9726616666667","6500600","新店區"
"231052","513-UM","2019/07/20 18:19:48","新北市新店區秀山路43號","121.53146","24.9608166666667","6500600","新店區"
"231040","617-UM","2019/07/20 18:19:53","新北市新店區安華路28-1號","121.519268333333","24.960945","6500600","新店區"
"231063","641-BX","2019/07/20 18:19:55","新北市新店區安華路28-1號","121.519516666667","24.9605633333333","6500600","新店區"
"231057","720-UM","2019/07/20 18:19:48","新北市新店區安一路一段1-1號","121.519223333333","24.9612333333333","6500600","新店區"
"231066","AKT-0513","2019/07/20 18:19:42","新北市新店區安華路28-1號","121.519558333333","24.9605883333333","6500600","新店區"
"235066","003-UY","2019/07/20 18:19:51","新北市中和區中山路二段122號","121.502565","25.00372","6500300","中和區"
"235064","005-UY","2019/07/20 18:19:57","新北市中和區圓通路141巷41號","121.498685","24.9945083333333","6500300","中和區"
"235063","006-UY","2019/07/20 18:19:54","新北市中和區中正路503號","121.488665","24.99399","6500300","中和區"
"235056","096-UM","2019/07/20 18:19:50","新北市中和區中正路755號","121.484765","25.0001783333333","6500300","中和區"
"235039","097-UM","2019/07/20 18:19:54","新北市中和區宜安路60號","121.511686666667","24.9969416666667","6500300","中和區"
"235065","098-UM","2019/07/20 18:19:47","新北市中和區莊敬路49巷18號","121.50158","25.006095","6500300","中和區"
"235040","150-BY","2019/07/20 18:19:50","新北市中和區安平路59號","121.509611666667","24.9950916666667","6500300","中和區"
"235058","151-BY","2019/07/20 18:19:56","新北市中和區圓通路369巷35號","121.489301666667","24.986445","6500300","中和區"
"235055","183-VK","2019/07/20 18:19:49","新北市土城區金城路三段253號","121.471756666667","24.990015","6500300","中和區"
"235038","185-VK","2019/07/20 18:19:49","新北市中和區大智街109巷7號","121.523381666667","24.9925133333333","6500300","中和區"
"235049","186-VK","2019/07/20 18:19:51","新北市中和區中正路171號","121.497893333333","24.99367","6500300","中和區"
"235067","255-BX","2019/07/20 18:19:41","新北市中和區新生街251號","121.48386","24.99857","6500300","中和區"
"235072","301-VK","2019/07/20 18:19:42","新北市中和區連城路237-1號","121.493778333333","24.9973116666667","6500300","中和區"
"235043","352-BY","2019/07/20 18:19:40","新北市中和區景平路381號","121.503875","24.993355","6500300","中和區"
"235042","KEA-2878","2019/07/20 18:19:51","新北市中和區景平路64巷11號","121.522108333333","24.9912616666667","6500300","中和區"
"235050","4979-A6","2019/07/20 18:19:50","新北市中和區捷運路129號","121.507046666667","24.990805","6500300","中和區"
"235069","4980-A6","2019/07/20 18:19:54","新北市中和區連城路267號","121.490996666667","24.996325","6500300","中和區"
"235034","558-UM","2019/07/20 18:19:57","新北市中和區景平路435號","121.501065","24.9958683333333","6500300","中和區"
"235045","565-BX","2019/07/20 18:19:51","新北市中和區南山路236巷20弄5號","121.5057","24.9893683333333","6500300","中和區"
"235060","KED-0823","2019/07/20 18:19:48","新北市中和區員山路449號","121.480563333333","25.0041533333333","6500300","中和區"
"235054","640-BX","2019/07/20 18:19:50","新北市中和區民享街114巷2號","121.474453333333","24.9993666666667","6500300","中和區"
"235047","732-UM","2019/07/20 18:19:41","新北市中和區南山路206號","121.506161666667","24.99044","6500300","中和區"
"235057","801-TS","2019/07/20 18:19:45","新北市中和區民享街97巷14號","121.475315","24.99969","6500300","中和區"
"235041","802-TS","2019/07/20 18:19:47","新北市中和區圓通路141巷48弄15號","121.498143333333","24.9938783333333","6500300","中和區"
"235052","805-TS","2019/07/20 18:19:45","新北市中和區興南路二段133號","121.5052","24.98416","6500300","中和區"
"235048","896-TW","2019/07/20 18:19:50","新北市中和區錦和路350-1號","121.490426666667","24.9935733333333","6500300","中和區"
"235062","911-UM","2019/07/20 18:19:41","新北市中和區景平路752號","121.496518333333","25.0045066666667","6500300","中和區"
"235051","157-BY","2019/07/20 18:19:53","新北市中和區興南路二段242巷12號","121.502505","24.982955","6500300","中和區"
"235037","AAC-213","2019/07/20 18:19:53","新北市中和區景德街95-1號","121.515608333333","24.99135","6500300","中和區"
"235059","AAC-215","2019/07/20 18:19:56","新北市中和區員山路36巷16-3號","121.485005","24.9913616666667","6500300","中和區"
"220065","072-UY","2019/07/20 18:19:37","新北市板橋區華東街1-9號","121.448133333333","24.9949216666667","6500100","板橋區"
"220069","AAD-861","2019/07/20 18:19:56","新北市板橋區華東街1-10號","121.448193333333","24.9951966666667","6500100","板橋區"
"247009","341-TH","2019/07/20 18:19:49","新北市八里區荖阡坑路28-2號","121.402956666667","25.1282783333333","6501400","蘆洲區"
"226004","312-R5","2019/07/20 18:19:55","新北市平溪區薯榔里一坑路55號","121.713425","25.0220616666667","6502400","平溪區"
"228003","097-TW","2019/07/20 18:19:54","新北市貢寮區真理里美艷山街65-1號","121.919785","25.0724033333333","6502600","貢寮區"
"228001","212-TW","2019/07/20 18:19:45","新北市貢寮區真理里新港街26巷55弄2-1號","121.927338333333","25.0528166666667","6502600","貢寮區"
"228002","663-BX","2019/07/20 18:19:47","新北市貢寮區福連里福興街39-3號","121.994666666667","25.0145733333333","6502600","貢寮區"
"224010","AGQ-8101","2019/07/20 18:19:52","新北市瑞芳區崙頂路75號","121.845235","25.10675","6501200","瑞芳區"
"224006","676-BX","2019/07/20 18:16:59","新北市瑞芳區三爪子坑路106巷182號","121.809058333333","25.1034866666667","6501200","瑞芳區"
"224007","285-BY","2019/07/20 18:19:45","新北市瑞芳區大埔路67巷20號","121.76424","25.1016516666667","6501200","瑞芳區"
"224009","275-VK","2019/07/20 18:19:44","新北市瑞芳區五號路36號","121.855361666667","25.1098466666667","6501200","瑞芳區"
"224008","273-VK","2019/07/20 18:19:42","新北市瑞芳區逢甲路34號","121.811383333333","25.1083816666667","6501200","瑞芳區"
"224005","271-BY","2019/07/20 18:19:45","新北市瑞芳區建基路二段15號","121.807245","25.1330533333333","6501200","瑞芳區"
"227001","642-TC","2019/07/20 18:19:43","新北市雙溪區牡丹里牡丹73號","121.851718333333","25.0593183333333","6502500","雙溪區"
"227002","400-TW","2019/07/20 18:19:47","新北市雙溪區共和里中山路8號","121.86496","25.0329316666667","6502500","雙溪區"
"253006","032-BX","2019/07/20 18:19:55","新北市石門區老梅路72號","121.54688","25.28916","6502200","石門區"
"253005","295-VK","2019/07/20 18:19:51","新北市石門區中央路25-2號","121.567938333333","25.2932733333333","6502200","石門區"
"222001","KEA-2212","2019/07/20 18:19:54","新北市深坑區北深路二段66號","121.618968333333","25.004205","6501800","深坑區"
"208002","KEA-2872","2019/07/20 18:19:49","新北市金山區磺清路121號","121.639618333333","25.2277933333333","6502700","金山區"
"208003","665-BX","2019/07/20 18:19:45","新北市金山區民生路142號","121.64744","25.223605","6502700","金山區"
"251004","009-UM","2019/07/20 18:19:45","新北市淡水區民權路215巷100號","121.462733333333","25.1336","6501000","淡水區"
"251001","011-UM","2019/07/20 18:19:59","新北市淡水區自強路299號","121.461541666667","25.13141","6501000","淡水區"
"251015","KEA-2871","2019/07/20 18:19:46","新北市淡水區興福寮66巷529號","121.484876666667","25.16458","6501000","淡水區"
"251016","179-VK","2019/07/20 18:19:49","新北市淡水區淡金路三段228巷35號","121.45009","25.2047883333333","6501000","淡水區"
"251008","181-VK","2019/07/20 18:19:49","新北市淡水區鄧公路278巷1號","121.46088","25.1680333333333","6501000","淡水區"
"251013","182-VK","2019/07/20 18:19:39","新北市淡水區行忠路590號","121.468033333333","25.1991716666667","6501000","淡水區"
"251010","413-VK","2019/07/20 18:19:52","新北市淡水區淡海路180巷12-2號","121.420491666667","25.1842416666667","6501000","淡水區"
"251012","441-VK","2019/07/20 18:19:37","新北市淡水區北新路二段77-5號","121.48064","25.18553","6501000","淡水區"
"251005","443-VK","2019/07/20 18:19:51","新北市淡水區水源街一段122巷37號","121.447088333333","25.1704666666667","6501000","淡水區"
"251006","561-UM","2019/07/20 18:19:39","新北市淡水區新民街76巷34弄1號","121.439273333333","25.1777516666667","6501000","淡水區"
"251014","577-R6","2019/07/20 18:19:52","新北市淡水區崙頂14號","121.49113","25.221695","6501000","淡水區"
"251011","650-BX","2019/07/20 18:19:54","新北市淡水區三空泉5號","121.477575","25.1620183333333","6501000","淡水區"
"251002","672-BX","2019/07/20 18:19:52","新北市淡水區中正東路一段125號","121.455498333333","25.1596083333333","6501000","淡水區"
"251003","766-UM","2019/07/20 18:19:46","新北市淡水區北新路180號","121.449503333333","25.1787683333333","6501000","淡水區"
"207003","550-UM","2019/07/20 18:19:54","新北市萬里區野柳里港西路78-19號","121.685915","25.2062266666667","6502800","萬里區"
"207004","225-TW","2019/07/20 18:19:55","新北市萬里區中幅里中福路202-1號","121.673213333333","25.1651816666667","6502800","萬里區"
"252002","178-VK","2019/07/20 18:19:50","新北市三芝區中山路二段41號","121.502911666667","25.25507","6502100","三芝區"
"252003","249-BX","2019/07/20 18:19:43","新北市三芝區錫板里南勢崗5-6號","121.479818333333","25.26242","6502100","三芝區"
"208001","170-UY","2019/07/20 18:19:48","新北市金山區自強路22號","121.64036","25.2169083333333","6502700","金山區"
"237004","KEA-2597","2019/07/20 18:19:56","新北市三峽區五寮42-1號","121.370525","24.8665583333333","6500900","三峽區"
"237007","153-BY","2019/07/20 18:19:52","新北市三峽區中正路三段24號","121.357683333333","24.9052833333333","6500900","三峽區"
"237009","210-TH","2019/07/20 18:19:56","新北市三峽區中山路152巷5號","121.365068333333","24.93659","6500900","三峽區"
"237013","252-BX","2019/07/20 18:19:42","新北市三峽區永安街9巷40號","121.376421666667","24.92981","6500900","三峽區"
"237008","302-VK","2019/07/20 18:19:56","新北市三峽區白雞68-317號","121.391571666667","24.9099066666667","6500900","三峽區"
"237014","433-BY","2019/07/20 18:19:52","新北市三峽區復興路27號","121.37389","24.936315","6500900","三峽區"
"237006","5529-G3","2019/07/20 18:19:38","新北市三峽區溪東路235號","121.406526666667","24.9326316666667","6500900","三峽區"
"237011","KEA-2596","2019/07/20 18:19:53","新北市三峽區溪東路213號","121.405576666667","24.9329266666667","6500900","三峽區"
"237015","649-BX","2019/07/20 18:19:43","新北市三峽區紫微路6號","121.426248333333","24.92227","6500900","三峽區"
"237010","706-TV","2019/07/20 18:19:47","新北市三峽區民權街132號","121.36854","24.93204","6500900","三峽區"
"237012","756-BX","2019/07/20 18:19:52","新北市三峽區三樹路112號","121.378365","24.9392616666667","6500900","三峽區"
"237005","AKY-6261","2019/07/20 18:19:57","新北市三峽區長福街10號","121.370303333333","24.93369","6500900","三峽區"
"236042","KED-0685","2019/07/20 18:19:58","新北市土城區樂利街7號","121.448376666667","24.9859733333333","6501300","土城區"
"236079","166-UM","2019/07/20 18:19:51","新北市土城區永安街130號","121.429726666667","24.9642266666667","6501300","土城區"
"236030","253-BX","2019/07/20 18:19:53","新北市土城區順風路24號","121.440651666667","24.9767583333333","6501300","土城區"
"236026","269-VK","2019/07/20 18:19:55","新北市土城區承天路69號","121.439821666667","24.9632666666667","6501300","土城區"
"236014","270-VK","2019/07/20 18:19:44","新北市土城區青雲路39巷7號","121.460313333333","24.9874033333333","6501300","土城區"
"236038","271-VK","2019/07/20 18:19:39","新北市土城區青雲路483巷10弄35號","121.459438333333","24.9724966666667","6501300","土城區"
"236070","KEA-2877","2019/07/20 18:19:49","新北市土城區永豐路143號","121.466588333333","24.9834333333333","6501300","土城區"
"252001","KED-0821","2019/07/20 18:19:49","新北市三芝區中興街二段2號","121.498406666667","25.2565983333333","6502100","三芝區"
"236021","401-BY","2019/07/20 18:19:49","新北市土城區明德路一段93巷6號","121.466156666667","24.9832216666667","6501300","土城區"
"236059","912-UM","2019/07/20 18:19:51","新北市土城區中央路四段464號","121.409935","24.95057","6501300","土城區"
"236049","913-UM","2019/07/20 18:19:49","新北市土城區明德路一段355-1號","121.45759","24.9773883333333","6501300","土城區"
"236063","915-UM","2019/07/20 18:19:49","新北市土城區金城路三段202-3號","121.469395","24.98858","6501300","土城區"
"236055","AAC-216","2019/07/20 18:19:50","新北市土城區中華路二段120號","121.437793333333","24.9738983333333","6501300","土城區"
"242039","AAC-296","2019/07/20 18:19:54","新北市新莊區新樹路605號","121.433148333333","25.0056033333333","6500500","新莊區"
"242061","986-R7","2019/07/20 18:19:40","新北市新莊區民安路144巷9號","121.424011666667","25.0252266666667","6500500","新莊區"
"242002","751-BX","2019/07/20 18:19:45","新北市新莊區碧江街33號","121.452041666667","25.0330333333333","6500500","新莊區"
"242027","613-BX","2019/07/20 18:19:56","新北市新莊區幸福路819號","121.445436666667","25.0490616666667","6500500","新莊區"
"242058","612-BX","2019/07/20 18:19:56","新北市新莊區中正路899巷2號","121.411245","25.021655","6500500","新莊區"
"242046","566-BX","2019/07/20 18:19:52","新北市新莊區中正路829巷22弄41號","121.420733333333","25.026835","6500500","新莊區"
"242051","497-BY","2019/07/20 18:19:52","新北市新莊區民安東路41號","121.429038333333","25.0208733333333","6500500","新莊區"
"242011","442-UM","2019/07/20 18:19:38","新北市新莊區中港路605巷9號","121.450815","25.0528333333333","6500500","新莊區"
"242056","441-UM","2019/07/20 18:19:44","新北市新莊區豐年街豐2巷6號","121.446981666667","25.0307733333333","6500500","新莊區"
"242042","415-TV","2019/07/20 18:19:47","新北市新莊區天祥街61巷8號","121.415938333333","25.0286966666667","6500500","新莊區"
"242048","400-BY","2019/07/20 18:19:43","新北市新莊區民安路98巷25號","121.42344","25.0251966666667","6500500","新莊區"
"242025","362-BY","2019/07/20 18:19:41","新北市新莊區五權一路12巷12號","121.457296666667","25.0645233333333","6500500","新莊區"
"242015","173-VK","2019/07/20 18:19:59","新北市新莊區中平路184巷10弄1號","121.445503333333","25.0480066666667","6500500","新莊區"
"242021","175-VK","2019/07/20 18:19:42","新北市新莊區新興街54號","121.450741666667","25.0374683333333","6500500","新莊區"
"242053","176-VK","2019/07/20 18:19:43","新北市新莊區民安西路412號","121.429016666667","25.0099183333333","6500500","新莊區"
"242007","349-TH","2019/07/20 18:19:51","新北市新莊區自強街23巷3號","121.454345","25.046405","6500500","新莊區"
"242031","350-TH","2019/07/20 18:19:51","新北市新莊區新泰路277巷43弄2號","121.444085","25.0400633333333","6500500","新莊區"
"238015","755-BX","2019/07/20 18:19:55","新北市樹林區啟智街173巷2號","121.415791666667","24.9875816666667","6500700","樹林區"
"238023","601-UM","2019/07/20 18:19:54","新北市樹林區中正路789號","121.409766666667","25.016005","6500700","樹林區"
"238024","5061-A6","2019/07/20 18:19:45","新北市樹林區中山路一段137巷7號","121.422808333333","24.9895483333333","6500700","樹林區"
"238018","KEA-2217","2019/07/20 18:19:41","新北市樹林區樹新路28巷5號","121.427395","24.9942666666667","6500700","樹林區"
"238025","303-VK","2019/07/20 18:19:49","新北市樹林區保安街一段112號","121.423646666667","24.9948766666667","6500700","樹林區"
"238017","283-BY","2019/07/20 18:19:56","新北市樹林區保安街二段337巷15號","121.411328333333","25.00807","6500700","樹林區"
"238014","282-BY","2019/07/20 18:19:51","新北市樹林區大安路111巷25號","121.423116666667","24.9975316666667","6500700","樹林區"
"238020","268-VK","2019/07/20 18:19:39","新北市樹林區三俊街65巷2號","121.413535","25.0163166666667","6500700","樹林區"
"238026","172-UY","2019/07/20 18:19:56","新北市樹林區佳園路一段94號","121.393616666667","24.9688283333333","6500700","樹林區"
"239007","AAC-297","2019/07/20 18:19:46","新北市鶯歌區重慶街83號","121.348413333333","24.9521233333333","6500800","鶯歌區"
"239006","891-R6","2019/07/20 18:19:49","新北市鶯歌區德昌街140巷6號","121.33206","24.96076","6500800","鶯歌區"
"239008","527-UM","2019/07/20 18:19:49","新北市鶯歌區朝陽街2號","121.336236666667","24.9765816666667","6500800","鶯歌區"
"239005","526-UM","2019/07/20 18:19:45","新北市鶯歌區鶯桃路668巷73號","121.329883333333","24.9718066666667","6500800","鶯歌區"
"239001","417-VK","2019/07/20 18:19:38","新北市鶯歌區高職東街3巷18號","121.340021666667","24.942295","6500800","鶯歌區"
"239003","360-BY","2019/07/20 18:19:42","新北市鶯歌區福安街58號","121.335571666667","24.96519","6500800","鶯歌區"
"239002","359-BY","2019/07/20 18:19:40","新北市鶯歌區中正一路426號","121.361315","24.9570916666667","6500800","鶯歌區"
"239004","193-VK","2019/07/20 18:19:47","新北市鶯歌區尖山路174巷35弄38-11號","121.343875","24.9478266666667","6500800","鶯歌區"
"221036","130-UY","2019/07/20 18:19:40","新北市汐止區大同路三段199號","121.671226666667","25.077305","6501100","汐止區"
"244019","KED-0667","2019/07/20 18:20:00","新北市林口區麗園二街12巷4-3號","121.37874","25.0684566666667","6501700","林口區"
"221010","269-BY","2019/07/20 18:19:54","新北市汐止區祥雲街13號","121.646311666667","25.0900083333333","6501100","汐止區"
"221012","278-VK","2019/07/20 18:19:51","新北市汐止區保一街47-2號","121.674575","25.0802516666667","6501100","汐止區"
"221023","279-VK","2019/07/20 18:19:49","新北市汐止區中興路195-1號","121.629396666667","25.068185","6501100","汐止區"
"221032","280-BY","2019/07/20 18:19:46","新北市汐止區力行街54號","121.616648333333","25.0495883333333","6501100","汐止區"
"221033","297-VK","2019/07/20 18:19:41","新北市汐止區宜興街40巷9弄1號","121.622591666667","25.0414066666667","6501100","汐止區"
"221029","298-VK","2019/07/20 18:19:48","新北市汐止區樟樹二路330巷68號","121.642858333333","25.0699216666667","6501100","汐止區"
"221021","299-VK","2019/07/20 18:19:49","新北市汐止區龍安路32號","121.654913333333","25.06414","6501100","汐止區"
"221031","353-TW","2019/07/20 18:19:43","新北市汐止區中興路188號","121.6317","25.0656266666667","6501100","汐止區"
"221025","623-UM","2019/07/20 18:19:47","新北市汐止區勤進路12巷29號","121.659263333333","25.0623833333333","6501100","汐止區"
"221038","646-BX","2019/07/20 18:19:53","新北市汐止區仁愛路180號","121.664868333333","25.065785","6501100","汐止區"
"221002","707-TV","2019/07/20 18:19:43","新北市汐止區福德一路201巷25號","121.635983333333","25.064735","6501100","汐止區"
"221018","753-BX","2019/07/20 18:19:43","新北市汐止區茄苳路72巷9號","121.666605","25.0701983333333","6501100","汐止區"
"233002","KEA-2870","2019/07/20 18:19:46","新北市烏來區忠治126號","121.548521666667","24.8838633333333","6502900","烏來區"
"224002","257-TC","2019/07/20 18:19:53","新北市瑞芳區三爪子坑路101號","121.811035","25.1072233333333","6501200","瑞芳區"
"242044","281-VK","2019/07/20 18:19:57","新北市新莊區天泉二街24巷2號","121.414811666667","25.0252316666667","6500500","新莊區"
"220073","985-R7","2019/07/20 18:19:55","新北市板橋區華東街1-10號","121.448263333333","24.994945","6500100","板橋區"
"235068","KEA-2873","2019/07/20 18:19:55","新北市中和區員山路36巷16-3號","121.484898333333","24.9912816666667","6500300","中和區"
"235061","KEA-2875","2019/07/20 18:19:56","新北市中和區民享街97巷14號","121.475236666667","24.9996316666667","6500300","中和區"
"235046","KEA-2876","2019/07/20 18:19:39","新北市中和區板南路123-1號","121.50212","24.9926266666667","6500300","中和區"
