"lineid","car","time","location","longitude","latitude","cityid","cityname"
"234046","148-BY","2019/07/20 18:59:52","新北市永和區永元路52巷52號","121.524563333333","25.0007433333333","6500400","永和區"
"234081","298-R6","2019/07/20 18:59:59","新北市永和區永亨路83號","121.521863333333","25.0056733333333","6500400","永和區"
"234038","336-UY","2019/07/20 18:59:49","新北市永和區成功路二段207號","121.526618333333","24.99589","6500400","永和區"
"234064","337-UY","2019/07/20 18:59:44","新北市永和區秀朗路一段186號","121.519111666667","25.0032483333333","6500400","永和區"
"234086","338-UY","2019/07/20 18:59:42","新北市永和區永寧街133巷2號","121.518076666667","25.0048133333333","6500400","永和區"
"234017","745-BX","2019/07/20 18:59:41","新北市永和區永和路二段314號","121.516178333333","25.0162166666667","6500400","永和區"
"234030","746-BX","2019/07/20 18:59:44","新北市永和區秀朗路二段289號","121.526176666667","24.998075","6500400","永和區"
"234054","KEA-2590","2019/07/20 18:59:56","新北市永和區竹林路62號","121.518128333333","25.0135283333333","6500400","永和區"
"234007","KED-0605","2019/07/20 18:59:59","新北市永和區中山路一段89號","121.511846666667","25.0107683333333","6500400","永和區"
"234013","KEA-2591","2019/07/20 18:59:46","新北市永和區信義路25巷19弄13號","121.513081666667","25.01141","6500400","永和區"
"234061","AAD-866","2019/07/20 18:59:55","新北市永和區福和路309巷1號","121.516446666667","25.0070366666667","6500400","永和區"
"234070","748-BX","2019/07/20 18:59:51","新北市永和區中興街68巷5弄1號","121.51769","25.01149","6500400","永和區"
"234042","862-TW","2019/07/20 18:59:51","新北市永和區永貞路306號","121.511858333333","25.0048166666667","6500400","永和區"
"234050","863-TW","2019/07/20 18:59:56","新北市永和區文化路141號","121.510966666667","25.01605","6500400","永和區"
"234026","9371-KE","2019/07/20 18:59:57","新北市永和區安樂路451號","121.514291666667","25.0049316666667","6500400","永和區"
"234011","9373-KE","2019/07/20 18:59:44","新北市永和區仁愛路141巷5弄1號","121.511638333333","25.0121566666667","6500400","永和區"
"249005","172-UM","2019/07/20 18:59:54","新北市八里區長道坑2號","121.393518333333","25.1255016666667","6502300","八里區"
"249001","173-UM","2019/07/20 18:59:48","新北市八里區龍米路二段220號","121.433105","25.158455","6502300","八里區"
"248014","025-BX","2019/07/20 18:59:41","新北市五股區民義路一段107巷32號","121.432308333333","25.0845066666667","6501500","五股區"
"248016","026-BX","2019/07/20 19:00:00","新北市五股區成泰路三段577巷19號","121.451495","25.1027316666667","6501500","五股區"
"248006","077-UY","2019/07/20 18:59:50","新北市五股區中興路一段21號","121.469091666667","25.0723566666667","6501500","五股區"
"248008","KED-0815","2019/07/20 18:59:52","新北市五股區中興路一段128巷2號","121.46569","25.0738816666667","6501500","五股區"
"248020","KED-0813","2019/07/20 18:59:52","新北市五股區凌雲路三段57號","121.425205","25.1250266666667","6501500","五股區"
"248012","247-BX","2019/07/20 18:59:59","新北市五股區工商路36巷11號","121.439758333333","25.08434","6501500","五股區"
"248010","272-BY","2019/07/20 18:59:56","新北市五股區水碓三路1號","121.428855","25.070865","6501500","五股區"
"248004","677-BX","2019/07/20 18:59:46","新北市五股區民義路一段230號","121.428395","25.0907316666667","6501500","五股區"
"248002","678-BX","2019/07/20 18:59:40","新北市五股區凌雲路一段161號","121.448946666667","25.1025766666667","6501500","五股區"
"234023","9380-KE","2019/07/20 18:59:54","新北市永和區竹林路39巷28弄39號","121.520075","25.0140633333333","6500400","永和區"
"234077","969-R7","2019/07/20 18:59:58","新北市永和區得和路109號","121.518381666667","25.000285","6500400","永和區"
"234074","AAC-211","2019/07/20 18:59:51","新北市永和區環河東路二段100號","121.524106666667","25.0103216666667","6500400","永和區"
"234067","AAC-212","2019/07/20 18:59:41","新北市永和區自由街58號","121.513945","25.0060333333333","6500400","永和區"
"234003","AAC-295","2019/07/20 18:59:42","新北市永和區和平街34號","121.513161666667","25.0099333333333","6500400","永和區"
"232011","375-UM","2019/07/20 18:59:47","新北市坪林區水聳淒坑20-2號","121.711355","24.9340133333333","6502000","坪林區"
"244013","KEA-2802","2019/07/20 18:59:39","新北市林口區麗園一街11巷3號","121.377483333333","25.0704733333333","6501700","林口區"
"244023","483-VK","2019/07/20 18:59:50","新北市林口區文林六街62巷24號","121.371798333333","25.081775","6501700","林口區"
"244017","485-VK","2019/07/20 18:59:52","新北市林口區公園路89號","121.368671666667","25.069695","6501700","林口區"
"244009","656-BX","2019/07/20 18:59:49","新北市林口區林口路72號","121.390158333333","25.0793466666667","6501700","林口區"
"244011","701-TV","2019/07/20 18:59:42","新北市林口區中正路311號","121.38893","25.0776883333333","6501700","林口區"
"244025","837-TS","2019/07/20 18:59:37","新北市林口區南勢街192巷13號","121.3614","25.0750483333333","6501700","林口區"
"243014","KEA-2801","2019/07/20 18:59:55","新北市泰山區黎明路3號","121.421198333333","25.06336","6501600","泰山區"
"243016","421-VK","2019/07/20 18:59:55","新北市泰山區明志路二段137號","121.427606666667","25.05066","6501600","泰山區"
"243012","539-UM","2019/07/20 18:59:59","新北市泰山區泰林路二段33-8號","121.435143333333","25.0564966666667","6501600","泰山區"
"243009","KEA-2215","2019/07/20 18:59:45","新北市泰山區泰林路二段364號","121.42863","25.0635983333333","6501600","泰山區"
"243011","KEA-2216","2019/07/20 18:59:40","新北市泰山區明志路二段246-1號","121.427106666667","25.04808","6501600","泰山區"
"243015","680-BX","2019/07/20 18:59:48","新北市泰山區美寧街48號","121.43047","25.0643816666667","6501600","泰山區"
"222002","016-RS","2019/07/20 18:59:47","新北市深坑區文山路一段33號","121.629938333333","25.004305","6501800","深坑區"
"222003","436-BY","2019/07/20 18:59:53","新北市深坑區深南路88巷1號","121.621471666667","25.0105283333333","6501800","深坑區"
"231061","002-UM","2019/07/20 18:59:55","新北市新店區安華路28-1號","121.519693333333","24.9607916666667","6500600","新店區"
"231058","0293-UT","2019/07/20 18:59:46","新北市新店區中興路一段202號","121.543616666667","24.9653633333333","6500600","新店區"
"231044","046-UY","2019/07/20 18:59:47","新北市新店區寶中路72號","121.54786","24.9806","6500600","新店區"
"231060","106-UY","2019/07/20 18:59:51","新北市新店區安華路16號","121.51754","24.9581433333333","6500600","新店區"
"231051","107-UY","2019/07/20 18:59:39","新北市新店區三民路189號","121.535348333333","24.9754766666667","6500600","新店區"
"231049","108-UY","2019/07/20 18:59:51","新北市新店區二十張路142-1號","121.534995","24.9788316666667","6500600","新店區"
"231065","110-UY","2019/07/20 18:59:33","新北市新店區安祥路190巷15號","121.47804","24.9560883333333","6500600","新店區"
"221035","KEA-2785","2019/07/20 18:59:57","新北市汐止區汐萬路一段3號","121.655995","25.0673133333333","6501100","汐止區"
"231062","256-BX","2019/07/20 18:59:53","新北市新店區安康路二段330號","121.504325","24.957915","6500600","新店區"
"231054","260-TV","2019/07/20 18:59:43","新北市新店區北宜路一段152-2號","121.540251666667","24.953785","6500600","新店區"
"231042","268-BY","2019/07/20 18:59:43","新北市新店區中興路一段292號","121.545893333333","24.9691766666667","6500600","新店區"
"231064","278-BY","2019/07/20 18:59:39","新北市新店區安一路一段1-1號","121.519715","24.9616566666667","6500600","新店區"
"231050","AAD-862","2019/07/20 18:59:45","新北市新店區新烏路一段11巷1弄2號","121.547345","24.9513683333333","6500600","新店區"
"231045","355-BY","2019/07/20 18:59:54","新北市新店區安康路一段46巷4號","121.530601666667","24.9610133333333","6500600","新店區"
"231055","4716-K9","2019/07/20 18:59:55","新北市新店區北新路一段271巷8號","121.54048","24.96682","6500600","新店區"
"231056","4715-K9","2019/07/20 18:59:48","新北市新店區民權路105號","121.536418333333","24.9826883333333","6500600","新店區"
"231067","4772-VM","2019/07/20 18:59:47","新北市新店區安康路一段76巷20號","121.528431666667","24.96297","6500600","新店區"
"231052","513-UM","2019/07/20 18:59:48","新北市新店區櫻花街31號","121.547396666667","24.926145","6500600","新店區"
"231040","617-UM","2019/07/20 18:59:53","新北市新店區中央路21號","121.533141666667","24.978195","6500600","新店區"
"231041","619-UM","2019/07/20 18:59:47","新北市新店區安康路一段48號","121.530528333333","24.96108","6500600","新店區"
"231063","641-BX","2019/07/20 18:59:55","新北市新店區安忠路57巷11弄14號","121.515241666667","24.957855","6500600","新店區"
"231048","KED-0819","2019/07/20 18:59:41","新北市新店區德正街21巷2號","121.54397","24.9720333333333","6500600","新店區"
"231046","719-UM","2019/07/20 18:59:26","新北市新店區直潭二街43號","121.535191666667","24.9409333333333","6500600","新店區"
"231057","720-UM","2019/07/20 18:59:48","新北市新店區百齡一路12號","121.553021666667","24.9325466666667","6500600","新店區"
"231059","897-TW","2019/07/20 18:59:53","新北市新店區安華路28-1號","121.519668333333","24.960665","6500600","新店區"
"231043","899-TW","2019/07/20 18:59:53","新北市新店區北新路一段100號","121.542166666667","24.96963","6500600","新店區"
"231066","AKT-0513","2019/07/20 18:59:44","新北市新店區安豐路23號","121.501288333333","24.9565066666667","6500600","新店區"
"241035","462-BY","2019/07/20 18:59:41","新北市三重區重新路四段121號","121.4848","25.0519066666667","6500200","三重區"
"235066","003-UY","2019/07/20 18:59:51","新北市中和區中山路二段131巷11號","121.502826666667","25.0023533333333","6500300","中和區"
"235064","005-UY","2019/07/20 18:59:57","新北市中和區泰和街34號","121.499401666667","25.000245","6500300","中和區"
"235063","006-UY","2019/07/20 18:59:53","新北市中和區中正路580號","121.48602","24.9947416666667","6500300","中和區"
"235056","096-UM","2019/07/20 18:59:50","新北市板橋區三民路二段204-3號","121.478958333333","25.0123916666667","6500300","中和區"
"235039","097-UM","2019/07/20 18:59:54","新北市中和區自強路27巷1號","121.520686666667","24.9929616666667","6500300","中和區"
"235065","098-UM","2019/07/20 18:59:47","新北市中和區福祥路133號","121.498541666667","25.0073216666667","6500300","中和區"
"235040","150-BY","2019/07/20 18:59:50","新北市中和區宜安路23巷4號","121.512658333333","24.9956766666667","6500300","中和區"
"235058","151-BY","2019/07/20 18:59:56","新北市中和區員山路105號","121.480773333333","24.9942883333333","6500300","中和區"
"235055","183-VK","2019/07/20 18:59:49","新北市中和區德光路77巷25號","121.469986666667","25.0031666666667","6500300","中和區"
"235038","185-VK","2019/07/20 18:59:49","新北市中和區立人街24-4號","121.518966666667","24.99416","6500300","中和區"
"235049","186-VK","2019/07/20 18:59:51","新北市中和區景新街175號","121.506723333333","24.9954533333333","6500300","中和區"
"235067","255-BX","2019/07/20 18:59:41","新北市中和區民樂路28號","121.482645","25.0011466666667","6500300","中和區"
"235044","293-VK","2019/07/20 18:59:54","新北市中和區中興街202巷57號","121.498423333333","24.9895833333333","6500300","中和區"
"235072","301-VK","2019/07/20 18:59:42","新北市中和區中山路二段258號","121.497455","25.0025316666667","6500300","中和區"
"235043","352-BY","2019/07/20 18:59:40","新北市中和區景平路2號","121.524651666667","24.99046","6500300","中和區"
"235042","KEA-2878","2019/07/20 18:59:51","新北市中和區秀朗路三段22巷16號","121.525663333333","24.996225","6500300","中和區"
"235050","4979-A6","2019/07/20 18:59:50","新北市中和區華新街97號","121.508783333333","24.983085","6500300","中和區"
"235069","4980-A6","2019/07/20 18:59:54","新北市中和區圓通路106號","121.499445","24.996755","6500300","中和區"
"235034","558-UM","2019/07/20 18:59:56","新北市中和區中和路207號","121.503825","24.9998583333333","6500300","中和區"
"235045","565-BX","2019/07/20 18:59:42","新北市中和區景新街467巷20弄21號","121.515106666667","24.9873566666667","6500300","中和區"
"235060","KED-0823","2019/07/20 18:59:48","新北市中和區民享街38-3號","121.473956666667","25.0029316666667","6500300","中和區"
"235054","640-BX","2019/07/20 18:59:50","新北市中和區民德路130號","121.468748333333","25.0008983333333","6500300","中和區"
"235047","732-UM","2019/07/20 18:59:40","新北市中和區興南路二段52號","121.5065","24.985005","6500300","中和區"
"235071","783-BX","2019/07/20 18:59:38","新北市中和區員山路36巷16-3號","121.485093333333","24.9912516666667","6500300","中和區"
"235057","801-TS","2019/07/20 18:59:45","新北市中和區民利街68巷5弄36號","121.47736","24.9988883333333","6500300","中和區"
"235041","802-TS","2019/07/20 18:59:47","新北市中和區景安路27號","121.507801666667","24.9986666666667","6500300","中和區"
"235052","805-TS","2019/07/20 18:59:45","新北市中和區興南路二段114巷1-2號","121.504345","24.9841633333333","6500300","中和區"
"235048","896-TW","2019/07/20 18:59:50","新北市中和區華新街116號","121.508358333333","24.9827733333333","6500300","中和區"
"235053","900-TW","2019/07/20 18:59:49","新北市板橋區和平路190巷18號","121.464703333333","24.99489","6500300","中和區"
"235051","157-BY","2019/07/20 18:59:53","新北市中和區忠孝街31巷31號","121.509808333333","24.9843633333333","6500300","中和區"
"235037","AAC-213","2019/07/20 18:59:53","新北市中和區秀朗路三段60巷36號","121.525118333333","24.99499","6500300","中和區"
"235059","AAC-215","2019/07/20 18:59:56","新北市中和區圓通路369巷5弄12號","121.491411666667","24.988395","6500300","中和區"
"220068","015-TV","2019/07/20 18:59:55","新北市板橋區中山路二段465巷92-1號","121.481156666667","25.0225316666667","6500100","板橋區"
"220065","072-UY","2019/07/20 18:59:37","新北市板橋區民族路287巷1號","121.471153333333","25.0070883333333","6500100","板橋區"
"220086","073-UY","2019/07/20 18:59:51","新北市板橋區大智街27號","121.45491","25.0150883333333","6500100","板橋區"
"220106","075-UY","2019/07/20 18:59:45","新北市板橋區雙十路三段10巷11號","121.472175","25.0309733333333","6500100","板橋區"
"220069","AAD-861","2019/07/20 18:59:56","新北市板橋區四川路一段146號","121.460006666667","25.0035516666667","6500100","板橋區"
"247009","341-TH","2019/07/20 18:56:39","新北市五股區中興路三段163號","121.449233333333","25.0807483333333","6501400","蘆洲區"
"226004","312-R5","2019/07/20 18:59:55","新北市平溪區靜安路二段400號","121.73878","25.024435","6502400","平溪區"
"228003","097-TW","2019/07/20 18:59:54","新北市貢寮區和美里龍洞街55號","121.911898333333","25.1136316666667","6502600","貢寮區"
"228001","212-TW","2019/07/20 18:59:25","新北市貢寮區仁理村保健街71號","121.923695","25.051645","6502600","貢寮區"
"228002","663-BX","2019/07/20 18:59:47","新北市貢寮區福隆里東興街106巷25弄1號","121.94638","25.0182916666667","6502600","貢寮區"
"224006","676-BX","2019/07/20 18:59:48","新北市瑞芳區中正路41號","121.807178333333","25.1071283333333","6501200","瑞芳區"
"224007","285-BY","2019/07/20 18:59:45","新北市瑞芳區中央路48巷吉祥園8號","121.759495","25.1037083333333","6501200","瑞芳區"
"224009","275-VK","2019/07/20 18:59:44","新北市瑞芳區長仁路35-1號","121.866033333333","25.1178666666667","6501200","瑞芳區"
"224008","273-VK","2019/07/20 18:59:42","新北市瑞芳區逢甲路410號","121.801445","25.11738","6501200","瑞芳區"
"224005","271-BY","2019/07/20 18:58:25","新北市瑞芳區阿美家園53號","121.820071666667","25.1175333333333","6501200","瑞芳區"
"227001","642-TC","2019/07/20 18:59:43","新北市雙溪區牡丹里中正路60號","121.866103333333","25.0424166666667","6502500","雙溪區"
"227002","400-TW","2019/07/20 18:59:47","新北市雙溪區平林里外平林10-5號","121.85902","25.0382033333333","6502500","雙溪區"
"253006","032-BX","2019/07/20 18:59:55","新北市石門區下員坑30-7號","121.51938","25.2815416666667","6502200","石門區"
"253005","295-VK","2019/07/20 18:59:51","新北市石門區尖子鹿76號","121.57162","25.2968533333333","6502200","石門區"
"222001","KEA-2212","2019/07/20 18:59:54","新北市深坑區北深路一段300號","121.624276666667","25.00566","6501800","深坑區"
"208002","KEA-2872","2019/07/20 18:59:49","新北市金山區仁愛路69號","121.634825","25.2210483333333","6502700","金山區"
"208003","665-BX","2019/07/20 18:59:48","新北市金山區中正路83號","121.633406666667","25.2217283333333","6502700","金山區"
"251001","011-UM","2019/07/20 18:59:39","新北市淡水區自強路58號","121.463208333333","25.1274416666667","6501000","淡水區"
"251015","KEA-2871","2019/07/20 18:59:46","新北市淡水區糞箕湖131巷2號","121.48835","25.1733016666667","6501000","淡水區"
"251016","179-VK","2019/07/20 18:59:49","新北市淡水區淡金路三段303號","121.448833333333","25.205285","6501000","淡水區"
"251007","180-VK","2019/07/20 18:59:56","新北市淡水區民生路113巷1弄44號","121.462938333333","25.1386616666667","6501000","淡水區"
"251013","182-VK","2019/07/20 18:59:59","新北市淡水區安子內3號","121.487711666667","25.215535","6501000","淡水區"
"251010","413-VK","2019/07/20 18:59:52","新北市淡水區中正路一段156巷61號","121.422545","25.1815133333333","6501000","淡水區"
"251012","441-VK","2019/07/20 18:59:57","新北市淡水區新興街109號","121.44066","25.1808483333333","6501000","淡水區"
"251009","575-R6","2019/07/20 18:59:51","新北市淡水區重建街100號","121.440108333333","25.1726566666667","6501000","淡水區"
"251014","577-R6","2019/07/20 18:59:52","新北市淡水區小中寮32-1號","121.491863333333","25.2260183333333","6501000","淡水區"
"251011","650-BX","2019/07/20 18:59:54","新北市淡水區鄧公路34號","121.457525","25.1689483333333","6501000","淡水區"
"251002","672-BX","2019/07/20 18:59:52","新北市淡水區中正東路49號","121.446585","25.1679016666667","6501000","淡水區"
"251003","766-UM","2019/07/20 18:59:46","新北市淡水區中山北路一段149巷31號","121.443038333333","25.1779116666667","6501000","淡水區"
"207003","550-UM","2019/07/20 18:59:46","新北市萬里區大鵬里頂社24-5號","121.658421666667","25.2087166666667","6502800","萬里區"
"207004","225-TW","2019/07/20 18:59:51","新北市萬里區萬里里獅頭路23號","121.69324","25.178225","6502800","萬里區"
"252002","178-VK","2019/07/20 18:59:50","新北市三芝區中正路一段50號","121.503478333333","25.25812","6502100","三芝區"
"252003","249-BX","2019/07/20 18:59:43","新北市三芝區後厝里北勢子42-1號","121.471653333333","25.252135","6502100","三芝區"
"208001","170-UY","2019/07/20 18:59:48","新北市金山區民生路51巷1-2號","121.641958333333","25.2202483333333","6502700","金山區"
"237004","KEA-2597","2019/07/20 18:59:36","新北市三峽區有木202號","121.441281666667","24.85029","6500900","三峽區"
"237007","153-BY","2019/07/20 18:59:51","新北市三峽區大埔路14號","121.365911666667","24.9094983333333","6500900","三峽區"
"237013","252-BX","2019/07/20 18:59:42","新北市三峽區光明路69巷24號","121.376683333333","24.929095","6500900","三峽區"
"237008","302-VK","2019/07/20 18:59:56","新北市三峽區大同路176號","121.372576666667","24.9269583333333","6500900","三峽區"
"237014","433-BY","2019/07/20 18:59:52","新北市三峽區隆恩街190-10號","121.360703333333","24.9422916666667","6500900","三峽區"
"237006","5529-G3","2019/07/20 18:59:38","新北市三峽區溪東路205巷25號","121.405173333333","24.9341833333333","6500900","三峽區"
"237011","KEA-2596","2019/07/20 18:59:52","新北市三峽區介壽路三段245號","121.407571666667","24.9492816666667","6500900","三峽區"
"237015","649-BX","2019/07/20 18:59:42","新北市三峽區建安89號","121.455713333333","24.920695","6500900","三峽區"
"237010","706-TV","2019/07/20 18:59:42","新北市三峽區復興路174巷4號","121.37068","24.9388383333333","6500900","三峽區"
"237012","756-BX","2019/07/20 18:59:52","新北市三峽區三樹路222巷47號","121.382675","24.94232","6500900","三峽區"
"237005","AKY-6261","2019/07/20 18:59:37","新北市三峽區中山路459巷135號","121.348651666667","24.9329016666667","6500900","三峽區"
"236042","KED-0685","2019/07/20 18:59:38","新北市土城區學府路一段209巷10號","121.451935","24.98409","6501300","土城區"
"220089","KED-0812","2019/07/20 18:59:58","新北市板橋區文化路二段129號","121.469976666667","25.0266983333333","6500100","板橋區"
"236079","166-UM","2019/07/20 18:59:52","新北市土城區中央路四段125巷7號","121.41665","24.9572516666667","6501300","土城區"
"236030","253-BX","2019/07/20 18:59:53","新北市土城區中央路二段243號","121.440081666667","24.9716816666667","6501300","土城區"
"236026","269-VK","2019/07/20 18:59:42","新北市土城區光明街5號","121.442066666667","24.97474","6501300","土城區"
"236014","270-VK","2019/07/20 18:59:44","新北市土城區永豐路21號","121.462886666667","24.98817","6501300","土城區"
"236038","271-VK","2019/07/20 18:59:38","新北市土城區青仁路51號","121.461421666667","24.979535","6501300","土城區"
"236070","KEA-2877","2019/07/20 18:59:48","新北市土城區清水路97號","121.456586666667","24.981745","6501300","土城區"
"252001","KED-0821","2019/07/20 18:59:49","新北市三芝區中興街二段260號","121.5018","25.2529933333333","6502100","三芝區"
"236021","401-BY","2019/07/20 18:59:49","新北市土城區延吉街217巷3弄1號","121.468655","24.9848783333333","6501300","土城區"
"236059","912-UM","2019/07/20 18:59:51","新北市土城區金城路二段234號","121.456525","24.983165","6501300","土城區"
"236049","913-UM","2019/07/20 18:59:49","新北市土城區青雲路322巷2弄4號","121.45787","24.9773866666667","6501300","土城區"
"236063","915-UM","2019/07/20 18:59:49","新北市土城區延和路41巷6弄18號","121.46668","24.9902766666667","6501300","土城區"
"236055","AAC-216","2019/07/20 18:59:50","新北市土城區學成路80號","121.450918333333","24.9884816666667","6501300","土城區"
"238023","601-UM","2019/07/20 18:59:54","新北市樹林區大慶街102號","121.395956666667","25.0135716666667","6500700","樹林區"
"238019","599-UM","2019/07/20 18:59:58","新北市樹林區東榮街166號","121.414681666667","24.982085","6500700","樹林區"
"238022","KEA-2213","2019/07/20 18:59:57","新北市樹林區東順街90巷1號","121.407976666667","24.976355","6500700","樹林區"
"238021","KEA-2539","2019/07/20 18:59:43","新北市樹林區柑園街二段322號","121.37318","24.9516933333333","6500700","樹林區"
"238025","303-VK","2019/07/20 18:59:48","新北市樹林區民和街79號","121.37995","24.9722016666667","6500700","樹林區"
"238017","283-BY","2019/07/20 18:59:56","新北市樹林區光興街50號","121.409805","25.002785","6500700","樹林區"
"238014","282-BY","2019/07/20 18:59:51","新北市樹林區中正路3-2號","121.4279","24.9988833333333","6500700","樹林區"
"238020","268-VK","2019/07/20 18:59:39","新北市樹林區俊英街155巷1號","121.424216666667","25.0122616666667","6500700","樹林區"
"238026","172-UY","2019/07/20 18:59:56","新北市樹林區中和街12號","121.391483333333","24.9731533333333","6500700","樹林區"
"238016","169-UY","2019/07/20 18:59:11","新北市樹林區文化街47號","121.41791","24.9884133333333","6500700","樹林區"
"239007","AAC-297","2019/07/20 18:59:46","新北市鶯歌區中正一路建德巷38號","121.364558333333","24.9577683333333","6500800","鶯歌區"
"239006","891-R6","2019/07/20 18:59:49","新北市鶯歌區鶯桃路91巷33號","121.338008333333","24.952345","6500800","鶯歌區"
"239008","527-UM","2019/07/20 18:59:49","新北市鶯歌區國際二路66號","121.33508","24.9761616666667","6500800","鶯歌區"
"239005","526-UM","2019/07/20 18:59:45","新北市鶯歌區鳳吉一街88號","121.326968333333","24.97453","6500800","鶯歌區"
"239001","417-VK","2019/07/20 18:59:38","新北市鶯歌區鶯桃路97巷1-1號","121.338621666667","24.954215","6500800","鶯歌區"
"239003","360-BY","2019/07/20 18:59:42","新北市鶯歌區鶯桃路658巷49-2號","121.330776666667","24.9703066666667","6500800","鶯歌區"
"239002","359-BY","2019/07/20 18:59:40","新北市鶯歌區中山路198號","121.346728333333","24.957245","6500800","鶯歌區"
"239004","193-VK","2019/07/20 18:59:47","新北市鶯歌區中正三路302巷15號","121.328081666667","24.9360783333333","6500800","鶯歌區"
"221008","489-VK","2019/07/20 18:59:42","新北市汐止區康寧街582號","121.634991666667","25.0698283333333","6501100","汐止區"
"221036","130-UY","2019/07/20 18:59:40","新北市汐止區忠孝東路314巷19弄14號","121.664908333333","25.0686183333333","6501100","汐止區"
"221015","131-UY","2019/07/20 18:59:59","新北市汐止區鄉長路一段55巷22號","121.664783333333","25.07633","6501100","汐止區"
"244019","KED-0667","2019/07/20 18:59:39","新北市林口區仁愛路二段201-1號","121.377585","25.0743666666667","6501700","林口區"
"221032","280-BY","2019/07/20 18:59:46","新北市汐止區橫科路407巷30弄21號","121.627143333333","25.0480933333333","6501100","汐止區"
"221029","298-VK","2019/07/20 18:59:48","新北市汐止區樟樹一路230號","121.642283333333","25.06673","6501100","汐止區"
"221031","353-TW","2019/07/20 18:59:43","新北市汐止區福德一路300巷28號","121.63057","25.0643116666667","6501100","汐止區"
"221002","707-TV","2019/07/20 18:59:43","新北市汐止區大同路一段2號","121.620958333333","25.0547566666667","6501100","汐止區"
"220079","145-BY","2019/07/20 18:59:47","新北市板橋區大智街89號","121.453153333333","25.015695","6500100","板橋區"
"220080","200-UY","2019/07/20 18:59:55","新北市板橋區大觀路二段力行1巷99號","121.444945","24.99802","6500100","板橋區"
"220082","610-BX","2019/07/20 18:59:45","新北市板橋區滿平街130號","121.428678333333","24.9883066666667","6500100","板橋區"
"220101","245-BX","2019/07/20 18:59:51","新北市板橋區民生路二段188號","121.470226666667","25.0208033333333","6500100","板橋區"
"220091","267-BY","2019/07/20 18:59:52","新北市板橋區大同街49號","121.478196666667","25.0276666666667","6500100","板橋區"
"220056","276-BY","2019/07/20 18:59:55","新北市板橋區信義路116號","121.458395","24.9925833333333","6500100","板橋區"
"220072","277-BY","2019/07/20 18:59:58","新北市板橋區篤行路一段33號","121.432031666667","24.9943983333333","6500100","板橋區"
"220071","283-VK","2019/07/20 18:59:37","新北市板橋區忠孝路176巷25號","121.465455","25.0018133333333","6500100","板橋區"
"220094","285-UM","2019/07/20 18:59:39","新北市板橋區光武街151號","121.465531666667","25.0294566666667","6500100","板橋區"
"220053","285-VK","2019/07/20 18:59:57","新北市板橋區太和街4巷2號","121.47405","25.0196816666667","6500100","板橋區"
"220083","286-VK","2019/07/20 18:59:54","新北市板橋區大觀路一段38巷156弄77號","121.442973333333","25.0067883333333","6500100","板橋區"
"220081","287-VK","2019/07/20 18:59:39","新北市板橋區南雅西路二段102號","121.452256666667","25.0117966666667","6500100","板橋區"
"220090","288-VK","2019/07/20 18:59:44","新北市板橋區裕民街40號","121.461821666667","25.028925","6500100","板橋區"
"220061","295-UM","2019/07/20 18:59:42","新北市板橋區懷仁街85巷2弄2號","121.477573333333","25.01836","6500100","板橋區"
"220084","296-UM","2019/07/20 18:59:59","新北市板橋區大觀路二段156巷68號","121.441226666667","25.0007266666667","6500100","板橋區"
"220098","299-UM","2019/07/20 18:59:50","新北市板橋區民生路二段226巷31弄2號","121.471213333333","25.0222466666667","6500100","板橋區"
"220075","303-R5","2019/07/20 18:59:50","新北市板橋區館前西路213巷11號","121.454403333333","25.0082333333333","6500100","板橋區"
"220062","305-R5","2019/07/20 18:59:41","新北市板橋區民享街115號","121.477743333333","25.0163233333333","6500100","板橋區"
"220092","307-R5","2019/07/20 18:59:42","新北市板橋區文化路二段225巷60弄68號","121.469106666667","25.0299766666667","6500100","板橋區"
"220088","491-VK","2019/07/20 18:59:48","新北市板橋區文化路二段182巷5弄11號","121.471921666667","25.0274583333333","6500100","板橋區"
"220035","560-BX","2019/07/20 18:59:32","新北市板橋區中正路291號","121.455428333333","25.0193133333333","6500100","板橋區"
"220103","561-BX","2019/07/20 18:59:48","新北市板橋區介壽街66號","121.46932","25.0195066666667","6500100","板橋區"
"220063","609-BX","2019/07/20 18:59:51","新北市板橋區三民路二段110-1號","121.4791","25.0165983333333","6500100","板橋區"
"220074","630-UY","2019/07/20 18:59:49","新北市板橋區林園街7-1號","121.454085","25.0093083333333","6500100","板橋區"
"220057","686-BX","2019/07/20 18:59:50","新北市板橋區重慶路306-2號","121.463743333333","24.9982083333333","6500100","板橋區"
"220077","687-BX","2019/07/20 18:59:50","新北市板橋區龍興街65巷1號","121.443426666667","25.0013366666667","6500100","板橋區"
"220093","689-BX","2019/07/20 18:59:57","新北市板橋區民生路三段107號","121.466535","25.02523","6500100","板橋區"
"220054","741-BX","2019/07/20 18:59:54","新北市板橋區重慶路127巷16號","121.463473333333","25.004875","6500100","板橋區"
"220102","KEA-2699","2019/07/20 18:59:52","新北市板橋區萬板路818巷5號","121.482911666667","25.02713","6500100","板橋區"
"220055","827-TW","2019/07/20 18:59:40","新北市板橋區中山路一段121號","121.462063333333","25.0104066666667","6500100","板橋區"
"220067","829-TW","2019/07/20 18:59:37","新北市板橋區民享街116巷8號","121.478271666667","25.0155183333333","6500100","板橋區"
"220073","985-R7","2019/07/20 18:59:55","新北市板橋區民權路257號","121.457081666667","25.01594","6500100","板橋區"
"220097","AAC-210","2019/07/20 18:59:45","新北市板橋區幸福路60巷81號","121.459721666667","25.0218116666667","6500100","板橋區"
"220064","AAC-253","2019/07/20 18:59:43","新北市板橋區長安街236-3號","121.47543","25.012575","6500100","板橋區"
"235068","KEA-2873","2019/07/20 18:59:55","新北市中和區圓通路164號","121.49748","24.9949066666667","6500300","中和區"
"235061","KEA-2875","2019/07/20 18:59:44","新北市中和區中山路三段77號","121.476073333333","25.0058633333333","6500300","中和區"
"235046","KEA-2876","2019/07/20 18:59:39","新北市中和區興南路一段142-6號","121.508533333333","24.9871833333333","6500300","中和區"
