"lineid","car","time","location","longitude","latitude","cityid","cityname"
"234046","148-BY","2019/07/20 19:29:52","新北市永和區秀朗路二段257號","121.526313333333","24.9992483333333","6500400","永和區"
"234081","298-R6","2019/07/20 19:29:39","新北市永和區環河東路三段60號","121.526993333333","25.006","6500400","永和區"
"234038","336-UY","2019/07/20 19:29:49","新北市永和區民樂街38號","121.527538333333","25.0006883333333","6500400","永和區"
"234064","337-UY","2019/07/20 19:29:44","新北市永和區秀朗路二段24巷9號","121.520715","25.0024016666667","6500400","永和區"
"234086","338-UY","2019/07/20 19:29:52","新北市永和區成功路一段28巷11號","121.526301666667","25.004765","6500400","永和區"
"234017","745-BX","2019/07/20 19:29:41","新北市永和區環河西路一段77號","121.513216666667","25.018065","6500400","永和區"
"234030","746-BX","2019/07/20 19:29:44","新北市永和區民生路24號","121.522596666667","24.9972566666667","6500400","永和區"
"234054","KEA-2590","2019/07/20 19:29:41","新北市永和區復興街5號","121.515723333333","25.0129016666667","6500400","永和區"
"234007","KED-0605","2019/07/20 19:29:55","新北市永和區自強街2號","121.514036666667","25.00811","6500400","永和區"
"234013","KEA-2591","2019/07/20 19:29:46","新北市永和區中山路一段147號","121.510116666667","25.0096583333333","6500400","永和區"
"234061","AAD-866","2019/07/20 19:29:55","新北市永和區中正路532號","121.517241666667","25.0052166666667","6500400","永和區"
"234070","748-BX","2019/07/20 19:29:53","新北市永和區警光街1-1號","121.520035","25.00962","6500400","永和區"
"234042","862-TW","2019/07/20 19:29:51","新北市永和區中和路519巷10號","121.510853333333","25.0031366666667","6500400","永和區"
"234050","863-TW","2019/07/20 19:29:56","新北市永和區仁愛路135號","121.511598333333","25.0130383333333","6500400","永和區"
"234026","9371-KE","2019/07/20 19:29:37","新北市中和區安樂路255號","121.514031666667","24.9998466666667","6500400","永和區"
"234011","9373-KE","2019/07/20 19:29:41","新北市永和區保福路二段163巷13弄7號","121.509235","25.0142716666667","6500400","永和區"
"249003","759-BX","2019/07/20 19:29:47","新北市八里區中山路二段448號","121.399383333333","25.1473183333333","6502300","八里區"
"248014","025-BX","2019/07/20 19:29:40","新北市五股區民義路一段172巷11號","121.433521666667","25.08812","6501500","五股區"
"248008","KED-0815","2019/07/20 19:29:51","新北市五股區中興路二段83巷26-6號","121.459955","25.0753216666667","6501500","五股區"
"248020","KED-0813","2019/07/20 19:29:52","新北市五股區凌雲路三段92-2號","121.428175","25.11979","6501500","五股區"
"248012","247-BX","2019/07/20 19:29:39","新北市五股區成泰路二段91巷11號","121.437496666667","25.0840666666667","6501500","五股區"
"248010","272-BY","2019/07/20 19:29:49","新北市五股區自強路90巷72號","121.430706666667","25.07127","6501500","五股區"
"248004","677-BX","2019/07/20 19:29:46","新北市五股區五福路2號","121.43393","25.087285","6501500","五股區"
"248002","678-BX","2019/07/20 19:29:59","新北市五股區凌雲路一段158巷6號","121.447813333333","25.1029766666667","6501500","五股區"
"234023","9380-KE","2019/07/20 19:29:54","新北市永和區環河東路2段6-1號","121.521793333333","25.0132983333333","6500400","永和區"
"234077","969-R7","2019/07/20 19:29:56","新北市永和區民治街59巷4號","121.518331666667","24.99773","6500400","永和區"
"234074","AAC-211","2019/07/20 19:29:51","新北市永和區豫溪街191巷7弄2號","121.52382","25.0108083333333","6500400","永和區"
"234067","AAC-212","2019/07/20 19:29:57","新北市永和區永貞路360巷5號","121.510625","25.0068916666667","6500400","永和區"
"234003","AAC-295","2019/07/20 19:29:42","新北市永和區福和路385號","121.514345","25.007635","6500400","永和區"
"243010","297-R6","2019/07/20 19:29:44","新北市泰山區民生路17巷63號","121.429216666667","25.0509116666667","6501600","泰山區"
"243014","KEA-2801","2019/07/20 19:29:55","新北市泰山區中港西路418號","121.433971666667","25.0538983333333","6501600","泰山區"
"243016","421-VK","2019/07/20 19:29:47","新北市泰山區明志路三段222號","121.421415","25.0359316666667","6501600","泰山區"
"243012","539-UM","2019/07/20 19:29:59","新北市泰山區仁義路220巷14號","121.432816666667","25.0535266666667","6501600","泰山區"
"243009","KEA-2215","2019/07/20 19:29:45","新北市泰山區明志路一段13號","121.433686666667","25.0659866666667","6501600","泰山區"
"243011","KEA-2216","2019/07/20 19:29:40","新北市泰山區中山路二段561-9號","121.429943333333","25.0405283333333","6501600","泰山區"
"243013","646-TV","2019/07/20 19:29:38","新北市泰山區明志路三段145巷5弄6號","121.42552","25.0401866666667","6501600","泰山區"
"243015","680-BX","2019/07/20 19:29:48","新北市泰山區明志路二段136巷1-1號","121.42734","25.0511566666667","6501600","泰山區"
"222002","016-RS","2019/07/20 19:29:47","新北市深坑區北深路一段177號","121.632561666667","25.01085","6501800","深坑區"
"222003","436-BY","2019/07/20 19:29:53","新北市深坑區深南路51-1號","121.621255","25.009735","6501800","深坑區"
"231061","002-UM","2019/07/20 19:29:56","新北市新店區安康路一段323-3號","121.521075","24.9639033333333","6500600","新店區"
"231058","0293-UT","2019/07/20 19:29:55","新北市新店區北新路二段228巷1號","121.543011666667","24.9775066666667","6500600","新店區"
"231044","046-UY","2019/07/20 19:29:47","新北市新店區中興路三段133號","121.544651666667","24.9795983333333","6500600","新店區"
"231060","106-UY","2019/07/20 19:29:50","新北市新店區安康路二段3-1號","121.516021666667","24.963735","6500600","新店區"
"231051","107-UY","2019/07/20 19:29:56","新北市新店區中央路192號","121.530841666667","24.97477","6500600","新店區"
"231049","108-UY","2019/07/20 19:29:59","新北市新店區北新路三段65巷34弄12號","121.540053333333","24.9813983333333","6500600","新店區"
"231065","110-UY","2019/07/20 19:29:54","新北市新店區安祥路106-19號","121.47605","24.9602933333333","6500600","新店區"
"221035","KEA-2785","2019/07/20 19:29:56","新北市汐止區康寧街901號","121.650986666667","25.0751983333333","6501100","汐止區"
"231062","256-BX","2019/07/20 19:29:53","新北市新店區莒光路99號","121.52209","24.9535","6500600","新店區"
"231054","260-TV","2019/07/20 19:29:43","新北市新店區文中路40號","121.539711666667","24.9565666666667","6500600","新店區"
"231042","268-BY","2019/07/20 19:29:43","新北市新店區中興路一段144號","121.542395","24.963775","6500600","新店區"
"231064","278-BY","2019/07/20 19:29:59","新北市新店區安康路二段87號","121.513418333333","24.9627983333333","6500600","新店區"
"231045","355-BY","2019/07/20 19:29:54","新北市新店區北宜路二段207號","121.55312","24.9532983333333","6500600","新店區"
"231056","4715-K9","2019/07/20 19:29:48","新北市新店區薏仁坑路自強巷1號","121.496935","24.9580816666667","6500600","新店區"
"231052","513-UM","2019/07/20 19:29:48","新北市新店區新烏路一段145號","121.549328333333","24.9217116666667","6500600","新店區"
"231050","515-UM","2019/07/20 19:29:39","新北市新店區北宜路二段30巷5弄5號","121.548388333333","24.950795","6500600","新店區"
"231040","617-UM","2019/07/20 19:29:53","新北市新店區中華路66號","121.539201666667","24.9690466666667","6500600","新店區"
"231041","619-UM","2019/07/20 19:29:46","新北市新店區中正路654號","121.534003333333","24.9893816666667","6500600","新店區"
"231063","641-BX","2019/07/20 19:29:55","新北市新店區達觀路14巷2號","121.503476666667","24.9414166666667","6500600","新店區"
"231048","KED-0819","2019/07/20 19:29:56","新北市新店區中興路一段282-3號","121.546021666667","24.968275","6500600","新店區"
"231046","719-UM","2019/07/20 19:29:46","新北市新店區北新路一段14號","121.540838333333","24.96561","6500600","新店區"
"231057","720-UM","2019/07/20 19:29:28","新北市新店區花園一路二段27號","121.551243333333","24.9324266666667","6500600","新店區"
"231059","897-TW","2019/07/20 19:29:53","新北市新店區安和路三段59號","121.517808333333","24.9830233333333","6500600","新店區"
"231043","899-TW","2019/07/20 19:29:53","新北市新店區北新路二段196巷7號","121.543151666667","24.9765316666667","6500600","新店區"
"231066","AKT-0513","2019/07/20 19:29:42","新北市新店區安康路三段359巷12弄26號","121.483913333333","24.9493183333333","6500600","新店區"
"241028","022-UY","2019/07/20 19:29:37","新北市三重區中寮街30號","121.49257","25.0590033333333","6500200","三重區"
"241008","059-VK","2019/07/20 19:29:45","新北市三重區永福街135巷30號","121.477523333333","25.0771183333333","6500200","三重區"
"241031","061-VK","2019/07/20 19:29:48","新北市三重區集美街100號","121.488546666667","25.0541283333333","6500200","三重區"
"241017","063-VK","2019/07/20 19:29:42","新北市三重區大仁街57號","121.493528333333","25.0659466666667","6500200","三重區"
"241030","742-BX","2019/07/20 19:29:39","新北市三重區成功路41巷27號","121.490563333333","25.0519183333333","6500200","三重區"
"241009","267-UM","2019/07/20 19:29:52","新北市三重區溪尾街242巷56號","121.486393333333","25.0814883333333","6500200","三重區"
"241032","269-UM","2019/07/20 19:29:42","新北市三重區三陽路62號","121.484055","25.0587733333333","6500200","三重區"
"241013","270-UM","2019/07/20 19:29:53","新北市三重區仁愛街106號","121.495326666667","25.0742716666667","6500200","三重區"
"241025","271-UM","2019/07/20 19:29:42","新北市三重區頂崁街210巷28弄9號","121.475805","25.06713","6500200","三重區"
"241007","398-BY","2019/07/20 19:29:54","新北市三重區溪尾街124-1號","121.489438333333","25.079295","6500200","三重區"
"241035","462-BY","2019/07/20 19:29:41","新北市三重區信義西街1巷3號","121.498093333333","25.06491","6500200","三重區"
"241020","478-VK","2019/07/20 19:29:38","新北市三重區三和路四段20巷24-2號","121.489966666667","25.073495","6500200","三重區"
"241026","480-VK","2019/07/20 19:29:46","新北市三重區文化南路47巷6號","121.499631666667","25.061165","6500200","三重區"
"241023","545-UM","2019/07/20 19:29:46","新北市三重區頂崁街99號","121.477986666667","25.063845","6500200","三重區"
"241006","AAD-863","2019/07/20 19:29:46","新北市三重區車路頭街91號","121.484433333333","25.074175","6500200","三重區"
"241022","KED-0820","2019/07/20 19:29:50","新北市三重區三民街165巷12號","121.484041666667","25.0655","6500200","三重區"
"241012","941-UM","2019/07/20 19:29:53","新北市三重區河邊北街262號","121.501666666667","25.07639","6500200","三重區"
"241029","942-UM","2019/07/20 19:29:47","新北市三重區大同南路161巷66號","121.495251666667","25.0551183333333","6500200","三重區"
"235066","003-UY","2019/07/20 19:29:51","新北市中和區景新街53號","121.504446666667","24.99892","6500300","中和區"
"235064","005-UY","2019/07/20 19:29:37","新北市中和區南山路81巷19號","121.502613333333","24.9980866666667","6500300","中和區"
"235063","006-UY","2019/07/20 19:29:53","新北市中和區連城路203巷10弄9號","121.494896666667","24.996935","6500300","中和區"
"235056","096-UM","2019/07/20 19:29:50","新北市中和區員山路581巷31弄3號","121.477148333333","25.0103616666667","6500300","中和區"
"235039","097-UM","2019/07/20 19:29:54","新北市中和區秀峰街127巷2號","121.519683333333","24.9909533333333","6500300","中和區"
"235065","098-UM","2019/07/20 19:29:47","新北市中和區中山路二段2巷45弄44號","121.501845","25.0063166666667","6500300","中和區"
"235040","150-BY","2019/07/20 19:29:50","新北市中和區保健路46巷24弄1號","121.508613333333","24.995585","6500300","中和區"
"235058","151-BY","2019/07/20 19:29:56","新北市中和區連城路372-2號","121.481588333333","24.9953833333333","6500300","中和區"
"235055","183-VK","2019/07/20 19:29:49","新北市中和區民享街86巷14號","121.473856666667","25.0007816666667","6500300","中和區"
"235038","185-VK","2019/07/20 19:29:49","新北市中和區自立路127號","121.522028333333","24.9940983333333","6500300","中和區"
"235049","186-VK","2019/07/20 19:29:51","新北市中和區安平路14號","121.509201666667","24.9941233333333","6500300","中和區"
"235067","255-BX","2019/07/20 19:29:41","新北市中和區新生街184號","121.483783333333","24.9996816666667","6500300","中和區"
"235044","293-VK","2019/07/20 19:29:43","新北市中和區捷運路58-3號","121.507468333333","24.9906833333333","6500300","中和區"
"235072","301-VK","2019/07/20 19:29:42","新北市中和區連城路265巷10弄1號","121.491641666667","24.9953266666667","6500300","中和區"
"235043","352-BY","2019/07/20 19:29:40","新北市中和區安和路5-1號","121.511698333333","24.9934816666667","6500300","中和區"
"235042","KEA-2878","2019/07/20 19:29:51","新北市中和區中和路262巷35-4號","121.509675","24.9994633333333","6500300","中和區"
"235034","558-UM","2019/07/20 19:29:56","新北市中和區景平路634-8號","121.499068333333","24.9992233333333","6500300","中和區"
"235045","565-BX","2019/07/20 19:29:51","新北市中和區景平路151巷26號","121.514218333333","24.991105","6500300","中和區"
"235060","KED-0823","2019/07/20 19:29:48","新北市中和區中山路二段523巷28號","121.481803333333","25.003895","6500300","中和區"
"235054","640-BX","2019/07/20 19:29:50","新北市中和區民德路2號","121.468821666667","25.0033033333333","6500300","中和區"
"235047","732-UM","2019/07/20 19:29:40","新北市中和區景平路239巷3-1號","121.509848333333","24.9925983333333","6500300","中和區"
"235071","783-BX","2019/07/20 19:29:38","新北市中和區連城路469巷21弄2號","121.483838333333","24.9950366666667","6500300","中和區"
"235057","801-TS","2019/07/20 19:29:45","新北市中和區員山路150-20號","121.481403333333","24.9979016666667","6500300","中和區"
"235041","802-TS","2019/07/20 19:29:47","新北市中和區中和路416號","121.511575","25.0031083333333","6500300","中和區"
"235052","805-TS","2019/07/20 19:29:45","新北市中和區華新街143巷72號","121.50641","24.97913","6500300","中和區"
"235048","896-TW","2019/07/20 19:29:50","新北市中和區四維街40號","121.512358333333","24.9869133333333","6500300","中和區"
"235053","900-TW","2019/07/20 19:29:49","新北市中和區民德路197-1號","121.468368333333","24.998885","6500300","中和區"
"235051","157-BY","2019/07/20 19:29:53","新北市中和區景新街132巷1號","121.5051","24.99785","6500300","中和區"
"235037","AAC-213","2019/07/20 19:29:53","新北市中和區秀朗路三段36巷18號","121.525628333333","24.9959383333333","6500300","中和區"
"235059","AAC-215","2019/07/20 19:29:56","新北市中和區圓通路252巷2-5號","121.493458333333","24.9914366666667","6500300","中和區"
"220068","015-TV","2019/07/20 19:29:55","新北市板橋區中山路二段563號","121.484301666667","25.021925","6500100","板橋區"
"220065","072-UY","2019/07/20 19:29:37","新北市板橋區國泰街75巷28弄54號","121.467731666667","25.0047883333333","6500100","板橋區"
"220086","073-UY","2019/07/20 19:29:55","新北市板橋區中正路216巷56號","121.457548333333","25.01882","6500100","板橋區"
"220106","075-UY","2019/07/20 19:29:49","新北市板橋區文化路二段548巷1號","121.476448333333","25.0339583333333","6500100","板橋區"
"220069","AAD-861","2019/07/20 19:29:36","新北市板橋區稚暉街2巷46號","121.455278333333","25.002915","6500100","板橋區"
"247004","893-R6","2019/07/20 19:29:54","新北市蘆洲區長安街130號","121.460313333333","25.0820016666667","6501400","蘆洲區"
"226004","312-R5","2019/07/20 19:29:55","新北市平溪區十分里十分街158號","121.778108333333","25.0433966666667","6502400","平溪區"
"228003","097-TW","2019/07/20 19:29:54","新北市貢寮區和美里和美街22-1號","121.912835","25.0826266666667","6502600","貢寮區"
"228001","212-TW","2019/07/20 19:29:45","新北市貢寮區真理里大澳街21-1號","121.925058333333","25.0560983333333","6502600","貢寮區"
"224008","273-VK","2019/07/20 19:29:42","新北市瑞芳區一坑路285號","121.801171666667","25.108525","6501200","瑞芳區"
"227001","642-TC","2019/07/20 19:29:43","新北市雙溪區新基里新基北街43號","121.868175","25.0397316666667","6502500","雙溪區"
"227002","400-TW","2019/07/20 19:29:47","新北市雙溪區雙溪里光復街20號","121.865131666667","25.0354533333333","6502500","雙溪區"
"253006","032-BX","2019/07/20 19:29:55","新北市石門區楓林23-10號","121.53872","25.2912","6502200","石門區"
"222001","KEA-2212","2019/07/20 19:29:54","新北市深坑區北深路二段121號","121.616733333333","25.0030116666667","6501800","深坑區"
"208002","KEA-2872","2019/07/20 19:29:49","新北市金山區仁愛路78巷2號","121.634665","25.2215","6502700","金山區"
"208003","665-BX","2019/07/20 19:29:45","新北市金山區中山路263巷14號","121.636408333333","25.2216016666667","6502700","金山區"
"251001","011-UM","2019/07/20 19:29:39","新北市淡水區民權路139-1號","121.460131666667","25.1364833333333","6501000","淡水區"
"251015","KEA-2871","2019/07/20 19:29:46","新北市淡水區北新路三段38巷7號","121.484498333333","25.1869933333333","6501000","淡水區"
"251016","179-VK","2019/07/20 19:29:49","新北市淡水區淡金路三段350巷18號","121.450766666667","25.2083266666667","6501000","淡水區"
"251007","180-VK","2019/07/20 19:29:56","新北市淡水區紅樹林路195號","121.460696666667","25.15652","6501000","淡水區"
"251008","181-VK","2019/07/20 19:29:49","新北市淡水區沙崙路27號","121.421653333333","25.1816316666667","6501000","淡水區"
"251013","182-VK","2019/07/20 19:29:39","新北市淡水區安子內18號","121.47133","25.218985","6501000","淡水區"
"251010","413-VK","2019/07/20 19:29:52","新北市淡水區中正路二段150-6號","121.423936666667","25.18794","6501000","淡水區"
"251005","443-VK","2019/07/20 19:29:51","新北市淡水區水源街一段47巷32號","121.444048333333","25.1732833333333","6501000","淡水區"
"251006","561-UM","2019/07/20 19:29:59","新北市淡水區大義街51號","121.441418333333","25.1781466666667","6501000","淡水區"
"251009","575-R6","2019/07/20 19:29:51","新北市淡水區中山路181號","121.44121","25.1740816666667","6501000","淡水區"
"251014","577-R6","2019/07/20 19:29:52","新北市淡水區小中寮15-2號","121.484895","25.2299116666667","6501000","淡水區"
"251002","672-BX","2019/07/20 19:29:52","新北市淡水區新民街一段117號","121.428238333333","25.1878233333333","6501000","淡水區"
"251003","766-UM","2019/07/20 19:29:46","新北市淡水區中山北路三段116號","121.44378","25.1936366666667","6501000","淡水區"
"207003","550-UM","2019/07/20 19:29:46","新北市萬里區大鵬里萬里加投107號","121.64585","25.2130866666667","6502800","萬里區"
"207004","225-TW","2019/07/20 19:29:51","新北市萬里區萬里里瑪鋉路111號","121.688693333333","25.1773766666667","6502800","萬里區"
"252002","178-VK","2019/07/20 19:29:50","新北市三芝區淡金路二段18-1號","121.502645","25.2595366666667","6502100","三芝區"
"208001","170-UY","2019/07/20 19:29:48","新北市金山區中正路26號","121.635868333333","25.2222833333333","6502700","金山區"
"237004","KEA-2597","2019/07/20 19:29:56","新北市三峽區有木206號","121.439096666667","24.8515266666667","6500900","三峽區"
"237007","153-BY","2019/07/20 19:29:51","新北市三峽區二鬮路136巷18弄1號","121.359138333333","24.9079","6500900","三峽區"
"237009","210-TH","2019/07/20 19:29:55","新北市三峽區民權街28號","121.370028333333","24.93427","6500900","三峽區"
"237013","252-BX","2019/07/20 19:29:42","新北市三峽區介壽路一段318巷13號","121.3811","24.92946","6500900","三峽區"
"237008","302-VK","2019/07/20 19:29:56","新北市三峽區永安街133號","121.3738","24.928425","6500900","三峽區"
"237014","433-BY","2019/07/20 19:29:52","新北市三峽區中山路63巷8號","121.366891666667","24.9343233333333","6500900","三峽區"
"237006","5529-G3","2019/07/20 19:29:58","新北市三峽區中正路一段336巷15弄2號","121.369958333333","24.92494","6500900","三峽區"
"237011","KEA-2596","2019/07/20 19:29:52","新北市三峽區介壽路一段207號","121.378768333333","24.930485","6500900","三峽區"
"237015","649-BX","2019/07/20 19:29:42","新北市三峽區安坑1-12號","121.43816","24.9263216666667","6500900","三峽區"
"237010","706-TV","2019/07/20 19:29:42","新北市三峽區復興路181號","121.36895","24.938775","6500900","三峽區"
"237012","756-BX","2019/07/20 19:29:52","新北市三峽區三樹路98巷119號","121.382766666667","24.9395266666667","6500900","三峽區"
"237005","AKY-6261","2019/07/20 19:29:40","新北市三峽區復興路367巷7號","121.363758333333","24.9378483333333","6500900","三峽區"
"236042","KED-0685","2019/07/20 19:29:38","新北市土城區學府路一段239號","121.450423333333","24.9834066666667","6501300","土城區"
"220089","KED-0812","2019/07/20 19:29:56","新北市板橋區綠堤街49號","121.4553","25.0258216666667","6500100","板橋區"
"236079","166-UM","2019/07/20 19:29:49","新北市土城區中州路1-7號","121.414226666667","24.9571183333333","6501300","土城區"
"236070","KEA-2877","2019/07/20 19:29:48","新北市土城區學府路一段141號","121.453643333333","24.9862016666667","6501300","土城區"
"252001","KED-0821","2019/07/20 19:29:49","新北市三芝區長勤街63-5號","121.500126666667","25.256035","6502100","三芝區"
"236021","401-BY","2019/07/20 19:29:49","新北市土城區峰廷街18號","121.46903","24.9872716666667","6501300","土城區"
"236049","913-UM","2019/07/20 19:29:49","新北市土城區清水路209號","121.460375","24.9819033333333","6501300","土城區"
"236063","915-UM","2019/07/20 19:29:49","新北市土城區延平街13號","121.468208333333","24.9909366666667","6501300","土城區"
"236055","AAC-216","2019/07/20 19:29:50","新北市土城區學府路一段276號","121.450261666667","24.9832816666667","6501300","土城區"
"242002","751-BX","2019/07/20 19:29:45","新北市新莊區環河路636-7號","121.437366666667","25.01158","6500500","新莊區"
"242031","350-TH","2019/07/20 19:29:51","新北市新莊區新泰路225巷6號","121.445861666667","25.039195","6500500","新莊區"
"238015","755-BX","2019/07/20 19:29:58","新北市樹林區日新街72號","121.421776666667","24.9906466666667","6500700","樹林區"
"238023","601-UM","2019/07/20 19:29:54","新北市樹林區三福街75號","121.407465","25.01633","6500700","樹林區"
"238019","599-UM","2019/07/20 19:29:38","新北市樹林區鎮前街325號","121.417133333333","24.98458","6500700","樹林區"
"238024","5061-A6","2019/07/20 19:29:45","新北市樹林區中山路三段155巷12號","121.396078333333","24.97256","6500700","樹林區"
"238018","KEA-2217","2019/07/20 19:29:52","新北市樹林區中華路163號","121.421048333333","24.9820866666667","6500700","樹林區"
"238022","KEA-2213","2019/07/20 19:29:39","新北市樹林區太元街91號","121.419401666667","24.9778833333333","6500700","樹林區"
"238021","KEA-2539","2019/07/20 19:29:43","新北市樹林區佳園路三段181巷54號","121.388776666667","24.9474216666667","6500700","樹林區"
"238025","303-VK","2019/07/20 19:29:48","新北市樹林區保安二街27號","121.424783333333","24.99367","6500700","樹林區"
"238017","283-BY","2019/07/20 19:29:56","新北市樹林區光興街11巷1號","121.41234","25.0027633333333","6500700","樹林區"
"238014","282-BY","2019/07/20 19:29:51","新北市樹林區保安二街69號","121.424501666667","24.9949833333333","6500700","樹林區"
"238020","268-VK","2019/07/20 19:29:39","新北市樹林區俊英街83巷1-1號","121.42581","25.0079933333333","6500700","樹林區"
"238026","172-UY","2019/07/20 19:29:56","新北市樹林區佳園路三段23號","121.388251666667","24.9547516666667","6500700","樹林區"
"238016","169-UY","2019/07/20 19:29:51","新北市樹林區復興路441號","121.413773333333","24.9842166666667","6500700","樹林區"
"239007","AAC-297","2019/07/20 19:29:46","新北市鶯歌區西湖街53巷30-1號","121.341965","24.9610016666667","6500800","鶯歌區"
"239006","891-R6","2019/07/20 19:29:49","新北市鶯歌區文化路114號","121.352168333333","24.9521833333333","6500800","鶯歌區"
"239008","527-UM","2019/07/20 19:29:49","新北市鶯歌區大湖路460巷2弄2號","121.339978333333","24.9724166666667","6500800","鶯歌區"
"239005","526-UM","2019/07/20 19:29:45","新北市鶯歌區東湖路13-1號","121.353505","24.9720816666667","6500800","鶯歌區"
"239001","417-VK","2019/07/20 19:29:58","新北市鶯歌區建國路596巷10號","121.340345","24.951755","6500800","鶯歌區"
"239003","360-BY","2019/07/20 19:29:42","新北市鶯歌區文化路152號","121.352266666667","24.9506033333333","6500800","鶯歌區"
"239002","359-BY","2019/07/20 19:29:40","新北市鶯歌區湖山路54巷2號","121.339496666667","24.9752083333333","6500800","鶯歌區"
"239004","193-VK","2019/07/20 19:29:47","新北市鶯歌區二甲路38-3號","121.337805","24.9349333333333","6500800","鶯歌區"
"221008","489-VK","2019/07/20 19:29:42","新北市汐止區康寧街237號","121.624155","25.0668133333333","6501100","汐止區"
"221015","131-UY","2019/07/20 19:29:39","新北市汐止區汐萬路一段256巷1號","121.651725","25.0748716666667","6501100","汐止區"
"221027","281-BY","2019/07/20 19:29:53","新北市汐止區忠孝東路9號","121.658265","25.06595","6501100","汐止區"
"221031","353-TW","2019/07/20 19:29:43","新北市汐止區康寧街901號","121.65077","25.07531","6501100","汐止區"
"221025","623-UM","2019/07/20 19:29:47","新北市汐止區新台五路二段12號","121.660343333333","25.0650416666667","6501100","汐止區"
"221002","707-TV","2019/07/20 19:29:43","新北市汐止區大同路一段219巷27號","121.633308333333","25.0583583333333","6501100","汐止區"
"220079","145-BY","2019/07/20 19:29:47","新北市板橋區民權路202巷18弄7號","121.461086666667","25.0164916666667","6500100","板橋區"
"220080","200-UY","2019/07/20 19:29:57","新北市板橋區大觀路二段3巷18號","121.447801666667","25.0036766666667","6500100","板橋區"
"220082","610-BX","2019/07/20 19:29:44","新北市板橋區金門街241號","121.432021666667","24.98941","6500100","板橋區"
"220101","245-BX","2019/07/20 19:29:51","新北市板橋區莊敬路220巷1號","121.472671666667","25.0214216666667","6500100","板橋區"
"220091","267-BY","2019/07/20 19:29:51","新北市板橋區文聖街135巷16號","121.479068333333","25.0288833333333","6500100","板橋區"
"220056","276-BY","2019/07/20 19:29:35","新北市板橋區信義路54巷1號","121.457165","24.9938433333333","6500100","板橋區"
"220072","277-BY","2019/07/20 19:29:38","新北市板橋區金門街283號","121.431385","24.987925","6500100","板橋區"
"220071","283-VK","2019/07/20 19:29:57","新北市板橋區忠孝路48巷9弄28號","121.46201","25.0001666666667","6500100","板橋區"
"220094","285-UM","2019/07/20 19:29:53","新北市板橋區銘傳街64號","121.468798333333","25.0311383333333","6500100","板橋區"
"220053","285-VK","2019/07/20 19:29:45","新北市板橋區懷仁街77巷32號","121.477716666667","25.0192916666667","6500100","板橋區"
"220083","286-VK","2019/07/20 19:29:54","新北市板橋區龍興街73巷24號","121.44301","25.0025633333333","6500100","板橋區"
"220081","287-VK","2019/07/20 19:29:58","新北市板橋區南雅南路一段106號","121.454948333333","25.0043666666667","6500100","板橋區"
"220090","288-VK","2019/07/20 19:29:56","新北市板橋區長江路一段46號","121.458781666667","25.0289916666667","6500100","板橋區"
"220061","295-UM","2019/07/20 19:29:42","新北市板橋區中山路一段265巷36弄1號","121.469066666667","25.015235","6500100","板橋區"
"220084","296-UM","2019/07/20 19:29:59","新北市板橋區滿平街136巷8弄11號","121.427395","24.9876266666667","6500100","板橋區"
"220098","299-UM","2019/07/20 19:29:50","新北市板橋區四維路266巷2弄25-1號","121.464116666667","25.0281383333333","6500100","板橋區"
"220075","303-R5","2019/07/20 19:29:50","新北市板橋區中正路275巷93號","121.450791666667","25.0180666666667","6500100","板橋區"
"220062","305-R5","2019/07/20 19:29:44","新北市板橋區三民路二段181巷1號","121.479628333333","25.0144233333333","6500100","板橋區"
"220092","307-R5","2019/07/20 19:29:49","新北市板橋區自由路51巷22號","121.464608333333","25.02335","6500100","板橋區"
"220088","491-VK","2019/07/20 19:29:52","新北市板橋區文化路二段580號","121.476721666667","25.034635","6500100","板橋區"
"220035","560-BX","2019/07/20 19:29:52","新北市板橋區中正路433巷3號","121.454056666667","25.023305","6500100","板橋區"
"220103","561-BX","2019/07/20 19:29:48","新北市板橋區陽明街29巷35號","121.463648333333","25.022605","6500100","板橋區"
"220063","609-BX","2019/07/20 19:29:57","新北市板橋區中山路二段505巷34號","121.482186666667","25.0224283333333","6500100","板橋區"
"220074","630-UY","2019/07/20 19:29:49","新北市板橋區中正路1巷18-1號","121.455225","25.0115283333333","6500100","板橋區"
"220057","686-BX","2019/07/20 19:29:48","新北市板橋區和平路安樂巷54號","121.462295","24.9930833333333","6500100","板橋區"
"220077","687-BX","2019/07/20 19:29:52","新北市板橋區大觀路一段28巷30號","121.449955","25.0095233333333","6500100","板橋區"
"220093","689-BX","2019/07/20 19:29:52","新北市板橋區長江路一段417號","121.462903333333","25.0311883333333","6500100","板橋區"
"220054","741-BX","2019/07/20 19:29:55","新北市板橋區重慶路153號","121.462575","25.0037933333333","6500100","板橋區"
"220102","KEA-2699","2019/07/20 19:29:48","新北市板橋區雙十路二段52號","121.475343333333","25.02787","6500100","板橋區"
"220055","827-TW","2019/07/20 19:29:40","新北市板橋區重慶路218號","121.4627","25.0020833333333","6500100","板橋區"
"220067","829-TW","2019/07/20 19:29:55","新北市板橋區長安街138巷30號","121.47301","25.008735","6500100","板橋區"
"220073","985-R7","2019/07/20 19:29:55","新北市板橋區中正路332-11號","121.454305","25.0232116666667","6500100","板橋區"
"220097","AAC-210","2019/07/20 19:29:57","新北市板橋區文化路一段285巷2弄1號","121.464623333333","25.019205","6500100","板橋區"
"220064","AAC-253","2019/07/20 19:29:43","新北市板橋區民權路33號","121.462188333333","25.0110116666667","6500100","板橋區"
"235068","KEA-2873","2019/07/20 19:29:55","新北市中和區景平路493巷12弄7號","121.498973333333","24.9971416666667","6500300","中和區"
"235061","KEA-2875","2019/07/20 19:29:44","新北市中和區民安街2巷37弄7號","121.48003","25.001415","6500300","中和區"
"235046","KEA-2876","2019/07/20 19:29:39","新北市中和區忠孝街37巷67號","121.510608333333","24.98472","6500300","中和區"
