"lineid","car","time","location","longitude","latitude","cityid","cityname"
"249004","303-UY","2019/07/20 20:59:56","新北市八里區中山路一段121號","121.413511666667","25.1594333333333","6502300","八里區"
"248020","KED-0813","2019/07/20 20:59:52","新北市五股區中興路二段63巷17號","121.460288333333","25.0753983333333","6501500","五股區"
"231061","002-UM","2019/07/20 20:59:55","新北市新店區永安街72號","121.519836666667","24.9866216666667","6500600","新店區"
"231058","0293-UT","2019/07/20 20:59:46","新北市新店區三民路96-1號","121.534195","24.9732133333333","6500600","新店區"
"231060","106-UY","2019/07/20 20:59:50","新北市新店區安康路三段525巷50號","121.48218","24.945905","6500600","新店區"
"231051","107-UY","2019/07/20 20:59:36","新北市新店區中正路663巷7弄15號","121.53297","24.99015","6500600","新店區"
"231049","108-UY","2019/07/20 20:59:58","新北市新店區安光路10-1號","121.513705","24.9639933333333","6500600","新店區"
"231065","110-UY","2019/07/20 20:59:55","新北市新店區安祥路67巷17號","121.484396666667","24.959885","6500600","新店區"
"231068","187-VK","2019/07/20 20:59:57","新北市新店區寶元路二段64巷1號","121.547218333333","24.98112","6500600","新店區"
"221035","KEA-2785","2019/07/20 20:59:56","新北市汐止區汐萬路一段144-2號","121.65304","25.0711","6501100","汐止區"
"231062","256-BX","2019/07/20 20:59:52","新北市新店區雙城路21號","121.492265","24.9500433333333","6500600","新店區"
"231054","260-TV","2019/07/20 20:59:43","新北市新店區中興路一段266-5號","121.54495","24.96753","6500600","新店區"
"231042","268-BY","2019/07/20 20:59:42","新北市新店區寶興路60巷4號","121.549875","24.97189","6500600","新店區"
"231064","278-BY","2019/07/20 20:59:58","新北市新店區安民街115巷28號","121.51521","24.9675766666667","6500600","新店區"
"231050","515-UM","2019/07/20 20:59:39","新北市新店區三民路117巷3弄2號","121.534421666667","24.9715316666667","6500600","新店區"
"231040","617-UM","2019/07/20 20:59:52","新北市新店區中正路137號","121.541735","24.9715016666667","6500600","新店區"
"231063","641-BX","2019/07/20 20:59:55","新北市新店區玫瑰路28號","121.495313333333","24.9501883333333","6500600","新店區"
"231059","897-TW","2019/07/20 20:59:53","新北市新店區僑信路90巷43號","121.49857","24.9473283333333","6500600","新店區"
"231043","899-TW","2019/07/20 20:59:53","新北市新店區中正路441號","121.534003333333","24.978595","6500600","新店區"
"231066","AKT-0513","2019/07/20 20:59:57","新北市新店區吉安街37-1號","121.515718333333","24.9661516666667","6500600","新店區"
"241011","013-R5","2019/07/20 20:59:40","新北市三重區秀江街117號","121.499761666667","25.0721483333333","6500200","三重區"
"241028","022-UY","2019/07/20 20:59:57","新北市三重區正義南路2-1號","121.498006666667","25.0618483333333","6500200","三重區"
"241008","059-VK","2019/07/20 20:59:45","新北市三重區車路頭街135號","121.484213333333","25.0757966666667","6500200","三重區"
"241018","060-VK","2019/07/20 20:59:46","新北市三重區雙園街97號","121.493835","25.0673033333333","6500200","三重區"
"241031","061-VK","2019/07/20 20:59:48","新北市三重區重陽路一段113巷8號","121.48809","25.0599266666667","6500200","三重區"
"241015","062-VK","2019/07/20 20:59:44","新北市三重區福德北路87號","121.501873333333","25.0660116666667","6500200","三重區"
"241017","063-VK","2019/07/20 20:59:42","新北市三重區自強路一段236號","121.493085","25.0671416666667","6500200","三重區"
"241024","065-VK","2019/07/20 20:59:39","新北市三重區大勇街51號","121.481295","25.071905","6500200","三重區"
"241002","090-VK","2019/07/20 20:59:45","新北市三重區五華街1巷66號","121.496778333333","25.0803116666667","6500200","三重區"
"241003","091-VK","2019/07/20 20:59:53","新北市三重區進安街196號","121.493836666667","25.08605","6500200","三重區"
"241030","742-BX","2019/07/20 20:59:39","新北市三重區環河南路220-8號","121.493331666667","25.0527733333333","6500200","三重區"
"241005","262-UM","2019/07/20 20:59:39","新北市三重區三信路7號","121.488563333333","25.0862966666667","6500200","三重區"
"241009","267-UM","2019/07/20 20:59:51","新北市三重區車路頭街142號","121.48408","25.075755","6500200","三重區"
"241032","269-UM","2019/07/20 20:59:51","新北市三重區興華街122號","121.483506666667","25.0597483333333","6500200","三重區"
"241013","270-UM","2019/07/20 20:59:53","新北市三重區仁賢街12-1號","121.49573","25.0749133333333","6500200","三重區"
"241025","271-UM","2019/07/20 20:59:42","新北市三重區貴陽街18-1號","121.484165","25.0619283333333","6500200","三重區"
"241007","398-BY","2019/07/20 20:59:54","新北市三重區三和路四段163巷79號","121.48608","25.079235","6500200","三重區"
"241004","475-VK","2019/07/20 20:59:56","新北市三重區仁愛街423-1號","121.490348333333","25.0815216666667","6500200","三重區"
"241020","478-VK","2019/07/20 20:59:58","新北市三重區忠孝路二段34號","121.485778333333","25.07104","6500200","三重區"
"241026","480-VK","2019/07/20 20:59:46","新北市三重區文化南路36號","121.500376666667","25.0614116666667","6500200","三重區"
"241014","543-UM","2019/07/20 20:59:45","新北市三重區長壽街120巷19弄9號","121.50248","25.0691916666667","6500200","三重區"
"241023","545-UM","2019/07/20 20:59:46","新北市三重區洛陽街45巷20號","121.482373333333","25.0638233333333","6500200","三重區"
"241001","547-UM","2019/07/20 20:59:47","新北市三重區三和路四段91號","121.488746666667","25.07554","6500200","三重區"
"241019","KEA-2593","2019/07/20 20:59:49","新北市三重區自強路二段74巷13號","121.488123333333","25.06995","6500200","三重區"
"241006","AAD-863","2019/07/20 20:59:46","新北市三重區永福街269號","121.481661666667","25.0742633333333","6500200","三重區"
"241022","KED-0820","2019/07/20 20:59:48","新北市三重區中正北路20巷12號","121.48792","25.0625616666667","6500200","三重區"
"241012","941-UM","2019/07/20 20:59:53","新北市三重區仁信街27號","121.501325","25.0756066666667","6500200","三重區"
"241029","942-UM","2019/07/20 20:59:47","新北市三重區正義南路107號","121.498165","25.0586466666667","6500200","三重區"
"241033","AAC-255","2019/07/20 20:59:42","新北市三重區光復路二段49號","121.472015","25.0559483333333","6500200","三重區"
"235055","183-VK","2019/07/20 20:59:49","新北市板橋區民生路二段201號","121.469565","25.02065","6500300","中和區"
"247014","KEA-2869","2019/07/20 20:59:45","新北市蘆洲區中山二路36巷29號","121.474131666667","25.083135","6501400","蘆洲區"
"247008","KED-0682","2019/07/20 20:59:57","新北市蘆洲區民生街76號","121.472778333333","25.0790733333333","6501400","蘆洲區"
"235069","4980-A6","2019/07/20 20:59:50","新北市中和區中正路637巷44弄8號","121.485005","24.9944483333333","6500300","中和區"
"247004","893-R6","2019/07/20 20:59:54","新北市蘆洲區永安南路二段264號","121.45933","25.0803233333333","6501400","蘆洲區"
"247018","546-UM","2019/07/20 20:59:24","新北市蘆洲區民權路144號","121.472758333333","25.0891666666667","6501400","蘆洲區"
"247009","341-TH","2019/07/20 20:59:47","新北市蘆洲區鷺江街91號","121.476828333333","25.0837133333333","6501400","蘆洲區"
"247024","337-TH","2019/07/20 20:59:37","新北市蘆洲區長興路213號","121.461178333333","25.0863266666667","6501400","蘆洲區"
"247001","336-TH","2019/07/20 20:59:57","新北市蘆洲區永平街27號","121.458688333333","25.0906883333333","6501400","蘆洲區"
"247022","057-VK","2019/07/20 20:59:47","新北市蘆洲區中正路263巷2號","121.46721","25.087625","6501400","蘆洲區"
"247012","056-VK","2019/07/20 20:59:48","新北市蘆洲區民權路5號","121.476565","25.08575","6501400","蘆洲區"
"247016","053-VK","2019/07/20 20:59:40","新北市蘆洲區正和街67號","121.468671666667","25.0810716666667","6501400","蘆洲區"
"247020","007-UY","2019/07/20 20:59:56","新北市蘆洲區民族路371號","121.471123333333","25.0913033333333","6501400","蘆洲區"
"247006","002-UY","2019/07/20 20:59:48","新北市蘆洲區永安南路二段16巷18號","121.468055","25.0777783333333","6501400","蘆洲區"
"224009","275-VK","2019/07/20 20:44:17","新北市瑞芳區大寮路356-1號","121.784668333333","25.1031783333333","6501200","瑞芳區"
"251001","011-UM","2019/07/20 20:59:48","新北市淡水區新市一路三段57號","121.446085","25.1831733333333","6501000","淡水區"
"251015","KEA-2871","2019/07/20 20:59:46","新北市淡水區淡金路四段542巷17號","121.452805","25.22707","6501000","淡水區"
"251016","179-VK","2019/07/20 20:59:52","新北市淡水區牛埔子10號","121.44941","25.2182183333333","6501000","淡水區"
"251007","180-VK","2019/07/20 20:59:56","新北市淡水區仁愛街2巷12號","121.446366666667","25.1708883333333","6501000","淡水區"
"251008","181-VK","2019/07/20 20:59:49","新北市淡水區崁頂59號","121.441171666667","25.19938","6501000","淡水區"
"251013","182-VK","2019/07/20 20:59:39","新北市淡水區番子厝13號","121.46138","25.2014583333333","6501000","淡水區"
"251010","413-VK","2019/07/20 20:59:52","新北市淡水區中正路一段116-3號","121.423896666667","25.17874","6501000","淡水區"
"251012","441-VK","2019/07/20 20:59:37","新北市淡水區淡金路五段52號","121.454108333333","25.2330766666667","6501000","淡水區"
"251005","443-VK","2019/07/20 20:59:50","新北市淡水區學府路51巷2弄15號","121.44786","25.1700116666667","6501000","淡水區"
"251014","577-R6","2019/07/20 20:59:52","新北市淡水區溪口7-3號","121.455598333333","25.2365733333333","6501000","淡水區"
"251011","650-BX","2019/07/20 21:00:00","新北市淡水區新民街276號","121.435455","25.1815866666667","6501000","淡水區"
"251002","672-BX","2019/07/20 20:59:51","新北市淡水區英專路77號","121.4457","25.1714066666667","6501000","淡水區"
"251003","766-UM","2019/07/20 20:59:46","新北市淡水區新春街140號","121.441575","25.1817533333333","6501000","淡水區"
"242056","441-UM","2019/07/20 20:59:43","新北市八里區商港路120號","121.393045","25.1498283333333","6500500","新莊區"
"242025","362-BY","2019/07/20 20:59:44","新北市八里區中山路三段409號","121.368658333333","25.1345466666667","6500500","新莊區"
"242034","348-TH","2019/07/20 20:59:59","新北市新莊區中正路246號","121.448021666667","25.0354183333333","6500500","新莊區"
