"lineid","car","time","location","longitude","latitude","cityid","cityname"
"241005","262-UM","2019/07/20 21:39:20","新北市三重區仁華街5號","121.483553333333","25.081375","6500200","三重區"
"247009","341-TH","2019/07/20 21:39:27","新北市八里區中山路三段379號","121.372736666667","25.1379666666667","6501400","蘆洲區"
"251004","009-UM","2019/07/20 21:39:27","新北市淡水區民生路11號","121.460576666667","25.1378466666667","6501000","淡水區"
"251001","011-UM","2019/07/20 21:39:19","新北市淡水區新市二路三段152號","121.435313333333","25.1940783333333","6501000","淡水區"
"251016","179-VK","2019/07/20 21:39:12","新北市淡水區崁頂72-1號","121.438391666667","25.2024433333333","6501000","淡水區"
"251007","180-VK","2019/07/20 21:39:16","新北市淡水區淡金路一段96號","121.458205","25.1737916666667","6501000","淡水區"
"251008","181-VK","2019/07/20 21:39:29","新北市淡水區水源街二段86號","121.451523333333","25.17432","6501000","淡水區"
"251010","413-VK","2019/07/20 21:39:18","新北市淡水區沙崙路228號","121.425435","25.1845316666667","6501000","淡水區"
"251012","441-VK","2019/07/20 21:39:17","新北市淡水區淡金路四段493號","121.451921666667","25.2248916666667","6501000","淡水區"
"251005","443-VK","2019/07/20 21:39:11","新北市淡水區水源街一段62巷3號","121.444876666667","25.1718733333333","6501000","淡水區"
"251009","575-R6","2019/07/20 21:39:11","新北市淡水區民族路29巷1弄16號","121.463501666667","25.1374016666667","6501000","淡水區"
"251014","577-R6","2019/07/20 21:39:12","新北市淡水區淡金路四段562號","121.451685","25.227575","6501000","淡水區"
"251011","650-BX","2019/07/20 21:39:21","新北市淡水區新民街278號","121.43535","25.18185","6501000","淡水區"
"251002","672-BX","2019/07/20 21:39:11","新北市淡水區學府路158號","121.446645","25.174625","6501000","淡水區"
"251003","766-UM","2019/07/20 21:39:25","新北市淡水區新民街103號","121.435993333333","25.1810216666667","6501000","淡水區"
