"lineid","car","time","location","longitude","latitude","cityid","cityname"
"247009","341-TH","2019/07/20 21:45:07","新北市林口區太平里180號","121.368631666667","25.1340316666667","6501400","蘆洲區"
"251004","009-UM","2019/07/20 21:49:27","新北市淡水區自強路201巷39號","121.462171666667","25.12678","6501000","淡水區"
"251001","011-UM","2019/07/20 21:49:19","新北市淡水區新市二路三段152號","121.435485","25.194905","6501000","淡水區"
"251007","180-VK","2019/07/20 21:49:16","新北市淡水區水源街二段177巷53號","121.452103333333","25.177005","6501000","淡水區"
"251008","181-VK","2019/07/20 21:49:08","新北市淡水區學府路104號","121.449891666667","25.171835","6501000","淡水區"
"251010","413-VK","2019/07/20 21:49:12","新北市淡水區中正路二段206號","121.426245","25.189135","6501000","淡水區"
"251012","441-VK","2019/07/20 21:49:17","新北市淡水區淡金路三段340號","121.44916","25.2086933333333","6501000","淡水區"
"251005","443-VK","2019/07/20 21:49:11","新北市淡水區鄧公路30巷8號","121.452946666667","25.169725","6501000","淡水區"
"251011","650-BX","2019/07/20 21:49:20","新北市淡水區新民街322巷2弄2號","121.435891666667","25.1835366666667","6501000","淡水區"
"251002","672-BX","2019/07/20 21:49:12","新北市淡水區大忠街125號","121.447588333333","25.1767116666667","6501000","淡水區"
"251003","766-UM","2019/07/20 21:49:26","新北市淡水區新春街92號","121.438925","25.18244","6501000","淡水區"
