"lineid","car","time","location","longitude","latitude","cityid","cityname"
"247009","341-TH","2019/07/20 22:19:27","新北市五股區中興路三段2巷10號","121.448901666667","25.0812916666667","6501400","蘆洲區"
"251004","009-UM","2019/07/20 22:19:27","新北市淡水區民族路33號","121.462331666667","25.1357083333333","6501000","淡水區"
"251007","180-VK","2019/07/20 22:19:16","新北市淡水區北新路180號","121.449408333333","25.1788","6501000","淡水區"
"251008","181-VK","2019/07/20 22:19:08","新北市淡水區學府路104號","121.449903333333","25.17184","6501000","淡水區"
"251010","413-VK","2019/07/20 22:19:12","新北市淡水區沙崙路200號","121.424671666667","25.1839716666667","6501000","淡水區"
"251005","443-VK","2019/07/20 22:19:11","新北市淡水區淡金路一段166-5號","121.454","25.1799483333333","6501000","淡水區"
