"lineid","car","time","location","longitude","latitude","cityid","cityname"
"234044","148-BY","2019/09/17 14:09:41","新北市永和區得和路380號","121.524831666667","24.9991916666667","6500400","永和區"
"234078","298-R6","2019/09/17 14:09:42","新北市永和區永亨路105巷2號","121.523413333333","25.00507","6500400","永和區"
"234062","337-UY","2019/09/17 14:09:42","新北市永和區永利路152號","121.522446666667","25.0027516666667","6500400","永和區"
"234084","338-UY","2019/09/17 14:09:48","新北市永和區中正路664號","121.516755","25.0088166666667","6500400","永和區"
"234068","552-UM","2019/09/17 14:09:45","新北市永和區永貞路10巷8號","121.520355","25.0072883333333","6500400","永和區"
"234036","553-UM","2019/09/17 14:09:40","新北市永和區成功路一段47巷9號","121.527546666667","25.0040433333333","6500400","永和區"
"234015","745-BX","2019/09/17 14:09:39","新北市永和區仁愛路60-1號","121.513483333333","25.0133283333333","6500400","永和區"
"234028","746-BX","2019/09/17 14:09:31","新北市永和區民權路84號","121.519861666667","24.997035","6500400","永和區"
"234052","KEA-2590","2019/09/17 14:09:43","新北市永和區博愛街21巷1號","121.517735","25.0158766666667","6500400","永和區"
"234005","KED-0605","2019/09/17 14:09:35","新北市永和區中和路309號","121.506781666667","24.99973","6500400","永和區"
"234012","KEA-2591","2019/09/17 14:09:39","新北市永和區永貞路422號","121.508453333333","25.00823","6500400","永和區"
"234060","AAD-866","2019/09/17 14:09:39","新北市永和區得和路29號","121.515863333333","25.000245","6500400","永和區"
"234040","862-TW","2019/09/17 14:09:42","新北市永和區雙和街43號","121.508915","25.002845","6500400","永和區"
"234048","863-TW","2019/09/17 14:09:40","新北市永和區環河西路二段49號","121.507161666667","25.0155016666667","6500400","永和區"
"234025","9371-KE","2019/09/17 14:09:39","新北市永和區安樂路270號","121.514526666667","25.0041433333333","6500400","永和區"
"248017","KED-0813","2019/09/17 14:09:46","新北市五股區民義路一段222號","121.429333333333","25.0903883333333","6501500","五股區"
"234022","9380-KE","2019/09/17 14:09:39","新北市永和區博愛街32巷17-1號","121.518931666667","25.0152183333333","6500400","永和區"
"234076","969-R7","2019/09/17 14:09:47","新北市永和區民有街75巷10弄61號","121.51976","24.9961033333333","6500400","永和區"
"234072","AAC-211","2019/09/17 14:09:38","新北市永和區竹林路201巷24弄8號","121.522415","25.0096","6500400","永和區"
"234066","AAC-212","2019/09/17 14:09:37","新北市永和區保平路193號","121.509065","25.005165","6500400","永和區"
"234001","AAC-295","2019/09/17 14:09:31","新北市永和區中正路666巷2號","121.516886666667","25.0090383333333","6500400","永和區"
"244002","248-BX","2019/09/17 14:09:31","新北市林口區南勢里34-8號","121.352311666667","25.0702816666667","6501700","林口區"
"244002","658-BX","2019/09/17 14:09:41","新北市林口區文化北路一段303號","121.365411666667","25.07768","6501700","林口區"
"231030","002-UM","2019/09/17 14:09:42","新北市新店區安民街115巷28號","121.515115","24.967625","6500600","新店區"
"231024","0291-UT","2019/09/17 14:09:40","新北市新店區安興路141號","121.516903333333","24.9794433333333","6500600","新店區"
"231005","046-UY","2019/09/17 14:09:44","新北市新店區寶慶街71號","121.541866666667","24.9865266666667","6500600","新店區"
"231029","106-UY","2019/09/17 14:09:44","新北市新店區安康路二段161號","121.510216666667","24.9593066666667","6500600","新店區"
"231013","108-UY","2019/09/17 14:09:50","新北市新店區北新路三段65巷34弄15號","121.540035","24.9815216666667","6500600","新店區"
"231036","110-UY","2019/09/17 14:09:30","新北市新店區安祥路109巷85弄31號","121.478468333333","24.9599333333333","6500600","新店區"
"231032","256-BX","2019/09/17 14:09:44","新北市新店區華城路12-1號","121.529193333333","24.957815","6500600","新店區"
"231003","268-BY","2019/09/17 14:09:41","新北市新店區中興路一段142號","121.542338333333","24.9637783333333","6500600","新店區"
"231035","278-BY","2019/09/17 14:09:37","新北市新店區安和路二段115號","121.51868","24.97041","6500600","新店區"
"231015","AAD-862","2019/09/17 14:09:47","新北市新店區中生路88號","121.565091666667","24.9512133333333","6500600","新店區"
"231006","355-BY","2019/09/17 14:09:42","新北市新店區北宜路二段209號","121.553141666667","24.9532983333333","6500600","新店區"
"231038","3712-VJ","2019/09/17 14:09:44","新北市新店區溪洲路121號","121.531231666667","24.962845","6500600","新店區"
"231027","3713-VJ","2019/09/17 14:09:43","新北市新店區北宜路一段7號","121.538266666667","24.9583416666667","6500600","新店區"
"231025","4715-K9","2019/09/17 14:09:45","新北市新店區自立街56號","121.537898333333","24.9792033333333","6500600","新店區"
"231018","512-UM","2019/09/17 14:09:40","新北市新店區中央五街16號","121.529533333333","24.9743233333333","6500600","新店區"
"231020","513-UM","2019/09/17 14:09:30","新北市新店區屈尺路161-1號","121.542841666667","24.9237866666667","6500600","新店區"
"231001","617-UM","2019/09/17 14:09:34","新北市新店區三民路20巷3號","121.537353333333","24.9707966666667","6500600","新店區"
"231002","619-UM","2019/09/17 14:09:42","新北市新店區中正路487號","121.533935","24.98217","6500600","新店區"
"231034","641-BX","2019/09/17 14:09:46","新北市新店區黎明路3號","121.503158333333","24.9520883333333","6500600","新店區"
"231012","KED-0819","2019/09/17 14:09:32","新北市新店區五峰路149號","121.544978333333","24.9656966666667","6500600","新店區"
"231023","718-UY","2019/09/17 14:09:39","新北市新店區文中路40號","121.53968","24.956595","6500600","新店區"
"231028","897-TW","2019/09/17 14:09:47","新北市新店區安和路三段85號","121.517815","24.983875","6500600","新店區"
"231004","899-TW","2019/09/17 14:09:46","新北市新店區北新路二段182號","121.542985","24.9761083333333","6500600","新店區"
"231037","AKT-0513","2019/09/17 14:09:48","新北市新店區安康路二段448號","121.495525","24.9547533333333","6500600","新店區"
"235030","003-UY","2019/09/17 14:09:31","新北市中和區廣福路12-5號","121.505326666667","25.00274","6500300","中和區"
"235027","006-UY","2019/09/17 14:09:43","新北市中和區中正路262號","121.495381666667","24.9944266666667","6500300","中和區"
"235020","096-UM","2019/09/17 14:09:51","新北市中和區員山路512號","121.479048333333","25.0092233333333","6500300","中和區"
"235003","097-UM","2019/09/17 14:09:41","新北市中和區秀峰街119巷4弄1號","121.519776666667","24.990215","6500300","中和區"
"235029","098-UM","2019/09/17 14:09:45","新北市中和區中山路二段64巷8號","121.503501666667","25.005095","6500300","中和區"
"235004","150-BY","2019/09/17 14:09:36","新北市中和區宜安路121號","121.51002","24.997925","6500300","中和區"
"235022","151-BY","2019/09/17 14:09:35","新北市中和區中正路637巷52弄1號","121.48537","24.9937","6500300","中和區"
"235002","185-VK","2019/09/17 14:09:36","新北市中和區大仁街10巷27弄4號","121.519215","24.9927566666667","6500300","中和區"
"235013","186-VK","2019/09/17 14:09:45","新北市中和區景新街224-10號","121.507631666667","24.9947883333333","6500300","中和區"
"235031","255-BX","2019/09/17 14:09:41","新北市中和區連城路284號","121.484296666667","24.9963016666667","6500300","中和區"
"235008","293-VK","2019/09/17 14:09:36","新北市中和區中興街202巷2號","121.49941","24.9899433333333","6500300","中和區"
"235036","301-VK","2019/09/17 14:09:48","新北市中和區中山路二段264號","121.49723","25.0024433333333","6500300","中和區"
"235007","352-BY","2019/09/17 14:09:31","新北市中和區景平路148號","121.518153333333","24.9921266666667","6500300","中和區"
"235006","KEA-2878","2019/09/17 14:09:39","新北市中和區自強路15巷2號","121.520636666667","24.993485","6500300","中和區"
"247015","KEA-2869","2019/09/17 14:09:45","新北市蘆洲區中正路185巷17號","121.467538333333","25.0849216666667","6501400","蘆洲區"
"247009","KED-0682","2019/09/17 14:09:30","新北市蘆洲區民族路7號","121.475668333333","25.08401","6501400","蘆洲區"
"235014","4979-A6","2019/09/17 14:09:42","新北市中和區復興路263巷9弄11-4號","121.50341","24.989755","6500300","中和區"
"235033","4980-A6","2019/09/17 14:09:44","新北市中和區中山路二段181巷10號","121.5007","25.0024283333333","6500300","中和區"
"235034","558-UM","2019/09/17 14:09:32","新北市中和區連城路80號","121.497295","25.0011816666667","6500300","中和區"
"235009","565-BX","2019/09/17 14:09:45","新北市中和區景新街423巷35弄19號","121.513831666667","24.9904433333333","6500300","中和區"
"235024","KED-0823","2019/09/17 14:09:42","新北市中和區員山路294巷6號","121.481795","25.00236","6500300","中和區"
"235018","640-BX","2019/09/17 14:09:47","新北市中和區國光街112巷18弄2號","121.469735","25.00177","6500300","中和區"
"235011","732-UM","2019/09/17 14:09:35","新北市中和區興南路一段80號","121.510448333333","24.9898933333333","6500300","中和區"
"235010","733-UM","2019/09/17 14:09:32","新北市中和區華新街115號","121.507313333333","24.9821183333333","6500300","中和區"
"235035","783-BX","2019/09/17 14:09:34","新北市中和區中山路二段476-9號","121.488656666667","25.0061683333333","6500300","中和區"
"235021","801-TS","2019/09/17 14:09:47","新北市中和區員山路423巷16號","121.48028","25.0028066666667","6500300","中和區"
"235005","802-TS","2019/09/17 14:09:42","新北市中和區安平路132號","121.512083333333","24.9978783333333","6500300","中和區"
"235016","805-TS","2019/09/17 14:09:40","新北市中和區興南路二段142巷31弄83號","121.501626666667","24.983685","6500300","中和區"
"235012","896-TW","2019/09/17 14:09:43","新北市中和區華新街109巷32號","121.508645","24.980105","6500300","中和區"
"235017","900-TW","2019/09/17 14:09:45","新北市中和區華福街71巷32號","121.467755","24.9969666666667","6500300","中和區"
"235028","911-UM","2019/09/17 14:09:38","新北市中和區南山路27號","121.501973333333","24.9989983333333","6500300","中和區"
"235015","157-BY","2019/09/17 14:09:31","新北市中和區捷運路6號","121.510096666667","24.9895333333333","6500300","中和區"
"235001","AAC-213","2019/09/17 14:09:34","新北市中和區自立路15巷8號","121.52292","24.9960083333333","6500300","中和區"
"235023","AAC-215","2019/09/17 14:09:50","新北市中和區圓通路296巷1號","121.487675","24.98856","6500300","中和區"
"220013","072-UY","2019/09/17 14:09:48","新北市板橋區民族路223號","121.4696","25.0073116666667","6500100","板橋區"
"220034","073-UY","2019/09/17 14:09:30","新北市板橋區中正路236巷56號","121.457586666667","25.0193166666667","6500100","板橋區"
"220105","075-UY","2019/09/17 14:09:34","新北市板橋區雙十路三段87號","121.470113333333","25.032635","6500100","板橋區"
"220017","AAD-861","2019/09/17 14:09:47","新北市板橋區華興街31巷4號","121.45836","25.0043933333333","6500100","板橋區"
"247005","893-R6","2019/09/17 14:09:33","新北市蘆洲區九芎街68號","121.466483333333","25.0791966666667","6501400","蘆洲區"
"247017","500-BY","2019/09/17 14:09:46","新北市蘆洲區復興路105巷7號","121.476431666667","25.0882433333333","6501400","蘆洲區"
"247011","337-TH","2019/09/17 14:09:01","新北市蘆洲區信義路248號","121.47849","25.0864733333333","6501400","蘆洲區"
"247003","336-TH","2019/09/17 14:09:31","新北市蘆洲區長安街209號","121.459885","25.0822816666667","6501400","蘆洲區"
"247023","057-VK","2019/09/17 14:09:32","新北市蘆洲區光榮路118-2號","121.46486","25.0892583333333","6501400","蘆洲區"
"247013","056-VK","2019/09/17 14:09:29","新北市蘆洲區三民路155號","121.471405","25.086695","6501400","蘆洲區"
"247021","007-UY","2019/09/17 14:09:29","新北市蘆洲區三民路120號","121.471256666667","25.0872583333333","6501400","蘆洲區"
"247001","001-UY","2019/09/17 14:09:46","新北市蘆洲區永平街33號","121.458391666667","25.0909216666667","6501400","蘆洲區"
"228005","097-TW","2019/09/17 14:09:43","新北市貢寮區美豐里土地公嶺10號","121.889916666667","25.0576283333333","6502600","貢寮區"
"228004","212-TW","2019/09/17 14:09:49","新北市貢寮區雙玉里德心街11-1號","121.918798333333","25.0156216666667","6502600","貢寮區"
"227004","282-VK","2019/09/17 14:09:42","新北市雙溪區三港里雙澳路95號","121.886196666667","25.0564333333333","6502500","雙溪區"
"207002","749-BX","2019/09/17 14:09:23","新北市萬里區溪底里瑞泉路21號","121.604673333333","25.148825","6502800","萬里區"
"207001","662-BX","2019/09/17 14:09:35","新北市萬里區磺潭里清水18號","121.637816666667","25.1976433333333","6502800","萬里區"
"252005","AAC-283","2019/09/17 14:09:32","新北市三芝區橫山里橫山33號","121.541143333333","25.258565","6502100","三芝區"
"236040","KED-0685","2019/09/17 14:09:46","新北市土城區城林路6巷80號","121.438403333333","24.9796866666667","6501300","土城區"
"236029","253-BX","2019/09/17 14:09:45","新北市土城區興城路110號","121.440433333333","24.97101","6501300","土城區"
"236024","269-VK","2019/09/17 14:09:38","新北市土城區承天路43巷4號","121.439178333333","24.9638466666667","6501300","土城區"
"236013","270-VK","2019/09/17 14:09:42","新北市土城區青雲路39巷7號","121.46033","24.9875633333333","6501300","土城區"
"236032","271-VK","2019/09/17 14:09:47","新北市土城區青雲路409號","121.458803333333","24.9754166666667","6501300","土城區"
"247019","KED-0683","2019/09/17 14:09:41","新北市蘆洲區民族路422巷116號","121.472496666667","25.094295","6501400","蘆洲區"
"236065","KEA-2877","2019/09/17 14:09:45","新北市土城區明德路一段385-1號","121.452371666667","24.9796216666667","6501300","土城區"
"236017","401-BY","2019/09/17 14:09:45","新北市土城區中正路75號","121.445221666667","24.9757216666667","6501300","土城區"
"236057","912-UM","2019/09/17 14:09:48","新北市土城區中央路四段166號","121.41692","24.9580833333333","6501300","土城區"
"236045","913-UM","2019/09/17 14:09:50","新北市土城區明德路一段365-1號","121.453541666667","24.9790483333333","6501300","土城區"
"236060","915-UM","2019/09/17 14:09:31","新北市土城區金城路二段390號","121.463586666667","24.9856683333333","6501300","土城區"
"236054","AAC-216","2019/09/17 14:09:32","新北市土城區中華路二段92號","121.438205","24.9747816666667","6501300","土城區"
"220027","145-BY","2019/09/17 14:09:45","新北市板橋區中正路13號","121.456163333333","25.0122383333333","6500100","板橋區"
"220030","610-BX","2019/09/17 14:09:51","新北市板橋區溪崑二街25號","121.428603333333","24.991325","6500100","板橋區"
"220028","256-TC","2019/09/17 14:09:33","新北市板橋區大觀路二段5-5號","121.446953333333","25.0036","6500100","板橋區"
"220004","276-BY","2019/09/17 14:09:38","新北市板橋區信義路74巷2弄1號","121.457155","24.9932183333333","6500100","板橋區"
"220020","277-BY","2019/09/17 14:09:44","新北市板橋區金門街369巷81號","121.42848","24.98262","6500100","板橋區"
"220050","280-UM","2019/09/17 14:09:34","新北市板橋區雙十路二段143號","121.474788333333","25.028065","6500100","板橋區"
"220043","285-UM","2019/09/17 14:09:44","新北市板橋區吳鳳路82號","121.466991666667","25.0313033333333","6500100","板橋區"
"220031","286-VK","2019/09/17 14:09:45","新北市板橋區大觀路二段174巷196弄1號","121.442523333333","25.003895","6500100","板橋區"
"220029","287-VK","2019/09/17 14:09:32","新北市板橋區南雅西路二段120號","121.452095","25.01238","6500100","板橋區"
"220009","293-UM","2019/09/17 14:09:28","新北市板橋區光復街192巷20號","121.48141","25.0188866666667","6500100","板橋區"
"220032","296-UM","2019/09/17 14:09:42","新北市板橋區溪崑二街16巷14-1號","121.428321666667","24.991955","6500100","板橋區"
"220001","299-UM","2019/09/17 14:09:52","新北市板橋區懷仁街25巷20號","121.477083333333","25.0200966666667","6500100","板橋區"
"220023","303-R5","2019/09/17 14:09:42","新北市板橋區林園街28號","121.453996666667","25.0101","6500100","板橋區"
"220010","305-R5","2019/09/17 14:09:49","新北市板橋區三民路二段居仁巷2弄7號","121.479526666667","25.0128783333333","6500100","板橋區"
"220041","307-R5","2019/09/17 14:09:42","新北市板橋區松江街72巷12號","121.469243333333","25.027825","6500100","板橋區"
"220047","317-R6","2019/09/17 14:09:34","新北市板橋區民有街45-1號","121.465695","25.0258733333333","6500100","板橋區"
"220038","487-VK","2019/09/17 14:09:31","新北市板橋區文化路一段247號","121.46442","25.0180633333333","6500100","板橋區"
"220037","491-VK","2019/09/17 14:09:49","新北市板橋區文化路二段182巷3弄53號","121.472578333333","25.0288483333333","6500100","板橋區"
"220104","560-BX","2019/09/17 14:09:43","新北市板橋區中正路377-3號","121.454216666667","25.0215566666667","6500100","板橋區"
"220052","561-BX","2019/09/17 14:09:47","新北市板橋區介壽街3號","121.467183333333","25.0204133333333","6500100","板橋區"
"220019","568-UM","2019/09/17 14:09:38","新北市板橋區重慶路276-3號","121.463176666667","25.0001433333333","6500100","板橋區"
"220011","609-BX","2019/09/17 14:09:38","新北市板橋區三民路二段201號","121.479055","25.013765","6500100","板橋區"
"220040","637-BX","2019/09/17 14:09:43","新北市板橋區萬板路472號","121.47982","25.0260133333333","6500100","板橋區"
"220005","686-BX","2019/09/17 14:09:46","新北市板橋區和平路153號","121.463325","24.9958283333333","6500100","板橋區"
"220025","687-BX","2019/09/17 14:09:44","新北市板橋區龍興街73巷2號","121.44391","25.002075","6500100","板橋區"
"220042","689-BX","2019/09/17 14:09:39","新北市板橋區新海路120號","121.461215","25.0227733333333","6500100","板橋區"
"220002","741-BX","2019/09/17 14:09:36","新北市板橋區重慶路69巷20號","121.462903333333","25.006985","6500100","板橋區"
"220051","KEA-2699","2019/09/17 14:09:38","新北市板橋區萬板路558-1號","121.48064","25.0267483333333","6500100","板橋區"
"220003","827-TW","2019/09/17 14:09:42","新北市板橋區民族路57號","121.465003333333","25.0090966666667","6500100","板橋區"
"220014","829-TW","2019/09/17 14:09:29","新北市板橋區民享街116巷6號","121.478265","25.0155666666667","6500100","板橋區"
"220016","830-TW","2019/09/17 14:09:36","新北市板橋區翠華街6巷53號","121.481408333333","25.024615","6500100","板橋區"
"220039","831-TW","2019/09/17 14:09:39","新北市板橋區長江路一段106巷13弄4號","121.460268333333","25.0291083333333","6500100","板橋區"
"220022","895-R6","2019/09/17 14:09:47","新北市板橋區林園街31號","121.453815","25.00982","6500100","板橋區"
"220021","985-R7","2019/09/17 14:09:42","新北市板橋區民權路239號","121.457396666667","25.015585","6500100","板橋區"
"220046","AAC-210","2019/09/17 13:59:47","新北市板橋區公館街256號","121.459975","25.0213683333333","6500100","板橋區"
"220012","AAC-253","2019/09/17 14:09:37","新北市板橋區漢生東路83巷2號","121.46688","25.0157366666667","6500100","板橋區"
"235032","KEA-2873","2019/09/17 14:09:35","新北市中和區枋寮街5號","121.502183333333","25.0001","6500300","中和區"
"235025","KEA-2875","2019/09/17 14:09:21","新北市中和區員山路189號","121.481233333333","24.9972733333333","6500300","中和區"
"235026","KEA-2876","2019/09/17 14:09:41","新北市中和區中山路二段403號","121.48615","25.0048566666667","6500300","中和區"
