"lineid","car","time","location","longitude","latitude","cityid","cityname"
"234078","298-R6","2019/09/17 14:29:33","新北市永和區永貞路8號","121.52095","25.0072883333333","6500400","永和區"
"234062","337-UY","2019/09/17 14:29:42","新北市永和區中正路433號","121.51721","25.00508","6500400","永和區"
"234068","552-UM","2019/09/17 14:29:45","新北市永和區福和路263巷7弄1號","121.517956666667","25.007015","6500400","永和區"
"234028","746-BX","2019/09/17 14:29:31","新北市中和區中正路776號","121.485088333333","25.000435","6500400","永和區"
"234052","KEA-2590","2019/09/17 14:29:43","新北市永和區博愛街45巷25弄1號","121.519018333333","25.0168633333333","6500400","永和區"
"234005","KED-0605","2019/09/17 14:29:35","新北市永和區中正路498號","121.517468333333","25.00402","6500400","永和區"
"234040","862-TW","2019/09/17 14:29:39","新北市永和區自由街20號","121.51443","25.006485","6500400","永和區"
"234048","863-TW","2019/09/17 14:29:32","新北市永和區環河西路二段109號","121.50636","25.0145733333333","6500400","永和區"
"234025","9371-KE","2019/09/17 14:29:44","新北市中和區安平路222號","121.513853333333","25.000125","6500400","永和區"
"248017","KED-0813","2019/09/17 14:29:46","新北市五股區外寮路6-1號","121.425283333333","25.0753766666667","6501500","五股區"
"234072","AAC-211","2019/09/17 14:29:38","新北市永和區環河東路一段124號","121.520691666667","25.015405","6500400","永和區"
"234001","AAC-295","2019/09/17 14:29:31","新北市永和區大新街64號","121.516388333333","25.0082183333333","6500400","永和區"
"244002","248-BX","2019/09/17 14:29:31","新北市林口區南勢里34-8號","121.352473333333","25.0703916666667","6501700","林口區"
"244002","658-BX","2019/09/17 14:29:41","新北市林口區文化三路一段167號","121.361995","25.069055","6501700","林口區"
"231030","002-UM","2019/09/17 14:29:42","新北市新店區安民街85-1號","121.516638333333","24.9677","6500600","新店區"
"231005","046-UY","2019/09/17 14:29:43","新北市新店區北新路三段103號","121.541376666667","24.982105","6500600","新店區"
"231029","106-UY","2019/09/17 14:29:44","新北市新店區安康路二段382號","121.500446666667","24.9571116666667","6500600","新店區"
"231013","108-UY","2019/09/17 14:29:30","新北市新店區民權路100-1號","121.5362","24.9833716666667","6500600","新店區"
"231036","110-UY","2019/09/17 14:29:50","新北市新店區安祥路106巷26號","121.477773333333","24.9621683333333","6500600","新店區"
"231032","256-BX","2019/09/17 14:29:44","新北市新店區溪洲路200-6號","121.529005","24.96812","6500600","新店區"
"231003","268-BY","2019/09/17 14:29:41","新北市新店區大新街1巷17號","121.54407","24.9687383333333","6500600","新店區"
"231035","278-BY","2019/09/17 14:29:37","新北市新店區安光路10-1號","121.513833333333","24.9641033333333","6500600","新店區"
"231015","AAD-862","2019/09/17 14:29:47","新北市新店區北宜路三段66號","121.575398333333","24.9505583333333","6500600","新店區"
"231006","355-BY","2019/09/17 14:29:42","新北市新店區北宜路二段485號","121.562413333333","24.9539083333333","6500600","新店區"
"231038","3712-VJ","2019/09/17 14:29:36","新北市新店區溪洲路123號","121.530313333333","24.9637133333333","6500600","新店區"
"231027","3713-VJ","2019/09/17 14:29:42","新北市新店區北新路二段228巷13號","121.543365","24.9771283333333","6500600","新店區"
"231018","512-UM","2019/09/17 14:29:40","新北市新店區中央三街39號","121.528018333333","24.974385","6500600","新店區"
"231020","513-UM","2019/09/17 14:29:39","新北市新店區新烏路三段69號","121.555161666667","24.9037866666667","6500600","新店區"
"231001","617-UM","2019/09/17 14:29:34","新北市新店區中正路75巷71號","121.543056666667","24.9689583333333","6500600","新店區"
"231002","619-UM","2019/09/17 14:29:42","新北市新店區中央路9號","121.533305","24.9785933333333","6500600","新店區"
"231034","641-BX","2019/09/17 14:29:46","新北市新店區車子路11號","121.502915","24.95129","6500600","新店區"
"231012","KED-0819","2019/09/17 14:29:32","新北市新店區寶興路60巷1號","121.550171666667","24.9719333333333","6500600","新店區"
"231023","718-UY","2019/09/17 14:29:50","新北市新店區光明街189號","121.540011666667","24.963345","6500600","新店區"
"231028","897-TW","2019/09/17 14:29:47","新北市新店區安和路一段15號","121.516816666667","24.96423","6500600","新店區"
"231004","899-TW","2019/09/17 14:29:33","新北市新店區中正路263-2號","121.538423333333","24.973825","6500600","新店區"
"231037","AKT-0513","2019/09/17 14:29:29","新北市新店區安康路二段320巷1號","121.504681666667","24.9583816666667","6500600","新店區"
"235030","003-UY","2019/09/17 14:29:31","新北市中和區中和路136號","121.503381666667","24.9993516666667","6500300","中和區"
"235027","006-UY","2019/09/17 14:29:43","新北市中和區連城路174巷8-1號","121.49272","24.9979433333333","6500300","中和區"
"235020","096-UM","2019/09/17 14:29:39","新北市中和區民富街16號","121.47685","25.00641","6500300","中和區"
"235003","097-UM","2019/09/17 14:29:39","新北市中和區景平路161-1號","121.512626666667","24.9925566666667","6500300","中和區"
"235029","098-UM","2019/09/17 14:29:45","新北市中和區福祥路96號","121.499185","25.0059366666667","6500300","中和區"
"235004","150-BY","2019/09/17 14:29:36","新北市中和區宜安路7號","121.513435","24.99537","6500300","中和區"
"235022","151-BY","2019/09/17 14:29:35","新北市中和區員山路150巷2弄23號","121.48174","24.9977783333333","6500300","中和區"
"235002","185-VK","2019/09/17 14:29:36","新北市中和區自立路99巷1號","121.522016666667","24.9949616666667","6500300","中和區"
"235013","186-VK","2019/09/17 14:29:45","新北市中和區安平路17號","121.509208333333","24.9941666666667","6500300","中和區"
"235031","255-BX","2019/09/17 14:29:41","新北市中和區員山路148巷46號","121.4826","24.99696","6500300","中和區"
"235008","293-VK","2019/09/17 14:29:36","新北市中和區捷運路100-1號","121.506081666667","24.9913283333333","6500300","中和區"
"235036","301-VK","2019/09/17 14:29:48","新北市中和區莊敬路33巷8號","121.500433333333","25.0051283333333","6500300","中和區"
"235007","352-BY","2019/09/17 14:29:31","新北市中和區景平路404號","121.509058333333","24.993075","6500300","中和區"
"235006","KEA-2878","2019/09/17 14:29:39","新北市中和區宜安路170號","121.508898333333","24.9990566666667","6500300","中和區"
"247015","KEA-2869","2019/09/17 14:29:32","新北市蘆洲區中正路185巷68弄25號","121.466331666667","25.08537","6501400","蘆洲區"
"247009","KED-0682","2019/09/17 14:29:30","新北市蘆洲區信義路160號","121.479301666667","25.08364","6501400","蘆洲區"
"235034","558-UM","2019/09/17 14:29:32","新北市中和區景平路583號","121.497663333333","25.0003183333333","6500300","中和區"
"235024","KED-0823","2019/09/17 14:29:42","新北市中和區新生街16巷11號","121.482613333333","25.0042866666667","6500300","中和區"
"235018","640-BX","2019/09/17 14:29:47","新北市中和區莒光路258號","121.468013333333","24.9939866666667","6500300","中和區"
"235011","732-UM","2019/09/17 14:29:35","新北市中和區景平路259巷45號","121.506255","24.9928466666667","6500300","中和區"
"235010","733-UM","2019/09/17 14:29:32","新北市中和區忠孝街37巷52號","121.511141666667","24.98491","6500300","中和區"
"235035","783-BX","2019/09/17 14:29:34","新北市中和區連城路280號","121.484361666667","24.9963483333333","6500300","中和區"
"235021","801-TS","2019/09/17 14:29:47","新北市中和區員山路150-5號","121.48133","24.9974516666667","6500300","中和區"
"235005","802-TS","2019/09/17 14:29:42","新北市中和區景安路58號","121.506698333333","24.9977683333333","6500300","中和區"
"235016","805-TS","2019/09/17 14:29:40","新北市中和區華新街143巷68號","121.506295","24.9792316666667","6500300","中和區"
"235012","896-TW","2019/09/17 14:29:43","新北市中和區忠孝街95號","121.512125","24.9856333333333","6500300","中和區"
"235017","900-TW","2019/09/17 14:29:45","新北市中和區民德路146巷7弄1號","121.467651666667","25.00048","6500300","中和區"
"235028","911-UM","2019/09/17 14:29:38","新北市中和區圓通路40號","121.500928333333","24.9977266666667","6500300","中和區"
"235015","157-BY","2019/09/17 14:29:50","新北市中和區中興街132巷22號","121.498826666667","24.9918083333333","6500300","中和區"
"235001","AAC-213","2019/09/17 14:29:34","新北市中和區成功路6號","121.526156666667","24.9938","6500300","中和區"
"235023","AAC-215","2019/09/17 14:29:50","新北市中和區圓通路252巷36弄2號","121.492363333333","24.9927883333333","6500300","中和區"
"220013","072-UY","2019/09/17 14:29:28","新北市板橋區國泰街75巷28號","121.467708333333","25.0057216666667","6500100","板橋區"
"220034","073-UY","2019/09/17 14:29:50","新北市板橋區中正路250巷23號","121.456608333333","25.0194766666667","6500100","板橋區"
"220105","075-UY","2019/09/17 14:29:34","新北市板橋區民治街26巷4號","121.477563333333","25.0339966666667","6500100","板橋區"
"220017","AAD-861","2019/09/17 14:29:47","新北市板橋區縣民大道一段64巷31號","121.456101666667","25.0032116666667","6500100","板橋區"
"247005","893-R6","2019/09/17 14:29:47","新北市蘆洲區中華街73號","121.462125","25.0803933333333","6501400","蘆洲區"
"247017","500-BY","2019/09/17 14:29:46","新北市蘆洲區民族路239號","121.477175","25.0901416666667","6501400","蘆洲區"
"247007","341-TH","2019/09/17 14:29:38","新北市蘆洲區民生街31號","121.475505","25.0789766666667","6501400","蘆洲區"
"247011","337-TH","2019/09/17 14:29:41","新北市蘆洲區中興街136號","121.482286666667","25.0895283333333","6501400","蘆洲區"
"247003","336-TH","2019/09/17 14:29:31","新北市蘆洲區長安街267巷9弄2號","121.457756666667","25.0833516666667","6501400","蘆洲區"
"247023","057-VK","2019/09/17 14:29:32","新北市蘆洲區中正路263巷2號","121.467215","25.0875733333333","6501400","蘆洲區"
"247013","056-VK","2019/09/17 14:29:49","新北市蘆洲區中山二路166號","121.470771666667","25.0809966666667","6501400","蘆洲區"
"247001","001-UY","2019/09/17 14:29:46","新北市蘆洲區永樂街38巷33弄9號","121.457706666667","25.0895433333333","6501400","蘆洲區"
"228005","097-TW","2019/09/17 14:29:43","新北市貢寮區美豐里巫里岸9-1號","121.901948333333","25.0701166666667","6502600","貢寮區"
"228004","212-TW","2019/09/17 14:29:29","新北市貢寮區雙玉里田寮洋街33-1號","121.933121666667","25.01383","6502600","貢寮區"
"207002","749-BX","2019/09/17 14:29:43","新北市萬里區崁腳里內崁路8號","121.640376666667","25.1598283333333","6502800","萬里區"
"207001","662-BX","2019/09/17 14:29:35","新北市萬里區磺潭里清水9號","121.640443333333","25.1998883333333","6502800","萬里區"
"252005","AAC-283","2019/09/17 14:29:32","新北市三芝區橫山里大坑34號","121.526848333333","25.2556566666667","6502100","三芝區"
"236040","KED-0685","2019/09/17 14:29:46","新北市土城區學成路91巷5號","121.450401666667","24.9877166666667","6501300","土城區"
"236029","253-BX","2019/09/17 14:29:45","新北市土城區水源街50-1號","121.44048","24.9759583333333","6501300","土城區"
"236024","269-VK","2019/09/17 14:29:38","新北市土城區承天路87巷2號","121.44194","24.96197","6501300","土城區"
"236013","270-VK","2019/09/17 14:29:42","新北市土城區青雲路39巷5號","121.460305","24.98761","6501300","土城區"
"236032","271-VK","2019/09/17 14:29:47","新北市土城區明德路一段297號","121.459973333333","24.9772466666667","6501300","土城區"
"247019","KED-0683","2019/09/17 14:29:41","新北市蘆洲區仁愛街102號","121.470251666667","25.0946016666667","6501400","蘆洲區"
"236065","KEA-2877","2019/09/17 14:29:45","新北市土城區永豐路340巷8-1號","121.474065","24.9770166666667","6501300","土城區"
"236017","401-BY","2019/09/17 14:29:45","新北市土城區永豐路202巷7-1號","121.466186666667","24.9833083333333","6501300","土城區"
"236057","912-UM","2019/09/17 14:29:48","新北市土城區中央路四段129號","121.416126666667","24.95753","6501300","土城區"
"236045","913-UM","2019/09/17 14:29:36","新北市土城區青雲路453號","121.458726666667","24.9746833333333","6501300","土城區"
"236060","915-UM","2019/09/17 14:29:31","新北市中和區莒光路213號","121.46893","24.99466","6501300","土城區"
"236054","AAC-216","2019/09/17 14:29:31","新北市土城區中華路二段1號","121.439725","24.9792833333333","6501300","土城區"
"220027","145-BY","2019/09/17 14:29:45","新北市板橋區公館街27號","121.461123333333","25.0152966666667","6500100","板橋區"
"220030","610-BX","2019/09/17 14:29:42","新北市板橋區溪城路85號","121.426853333333","24.9835733333333","6500100","板橋區"
"220028","256-TC","2019/09/17 14:29:32","新北市板橋區大觀路二段37巷302號","121.450176666667","25.002115","6500100","板橋區"
"220004","276-BY","2019/09/17 14:29:38","新北市板橋區信義路169號","121.458865","24.9920683333333","6500100","板橋區"
"220020","277-BY","2019/09/17 14:29:44","新北市板橋區篤行路二段141巷23號","121.430636666667","24.9877516666667","6500100","板橋區"
"220050","280-UM","2019/09/17 14:29:42","新北市板橋區萬板路48號","121.471966666667","25.0227216666667","6500100","板橋區"
"220043","285-UM","2019/09/17 14:29:44","新北市板橋區銘傳街35號","121.468576666667","25.0310766666667","6500100","板橋區"
"220031","286-VK","2019/09/17 14:29:45","新北市板橋區龍興街65巷22號","121.44316","25.0015666666667","6500100","板橋區"
"220029","287-VK","2019/09/17 14:29:32","新北市板橋區大觀路一段75巷39號","121.448943333333","25.0041633333333","6500100","板橋區"
"220009","293-UM","2019/09/17 14:29:28","新北市板橋區板新路200巷2號","121.469168333333","25.01602","6500100","板橋區"
"220032","296-UM","2019/09/17 14:29:42","新北市板橋區滿平街84巷98號","121.426443333333","24.9866216666667","6500100","板橋區"
"220001","299-UM","2019/09/17 14:29:47","新北市板橋區永豐街114號","121.476243333333","25.020705","6500100","板橋區"
"220023","303-R5","2019/09/17 14:29:42","新北市板橋區中正路275巷93號","121.45104","25.018165","6500100","板橋區"
"220010","305-R5","2019/09/17 14:29:42","新北市板橋區三民路二段109巷26號","121.48059","25.015835","6500100","板橋區"
"220041","307-R5","2019/09/17 14:29:42","新北市板橋區自由路51巷24弄8號","121.464423333333","25.0236316666667","6500100","板橋區"
"220047","317-R6","2019/09/17 14:29:32","新北市板橋區四維路251號","121.463643333333","25.0277833333333","6500100","板橋區"
"220038","487-VK","2019/09/17 14:29:51","新北市板橋區龍泉街103號","121.457153333333","25.0242583333333","6500100","板橋區"
"220037","491-VK","2019/09/17 14:29:30","新北市板橋區文化路二段362號","121.472983333333","25.0305966666667","6500100","板橋區"
"220104","560-BX","2019/09/17 14:29:43","新北市板橋區中正路431號","121.454158333333","25.0231816666667","6500100","板橋區"
"220052","561-BX","2019/09/17 14:29:47","新北市板橋區陽明街29巷27號","121.464193333333","25.0223516666667","6500100","板橋區"
"220019","568-UM","2019/09/17 14:29:44","新北市板橋區忠孝路24巷24號","121.460221666667","25.0008866666667","6500100","板橋區"
"220011","609-BX","2019/09/17 14:29:38","新北市板橋區三民路二段37-2號","121.47934","25.0172716666667","6500100","板橋區"
"220040","637-BX","2019/09/17 14:29:35","新北市板橋區懷德街201巷12號","121.481346666667","25.029515","6500100","板橋區"
"220005","686-BX","2019/09/17 14:29:46","新北市板橋區廣和街60號","121.461966666667","24.993895","6500100","板橋區"
"220025","687-BX","2019/09/17 14:29:44","新北市板橋區大觀路二段29號","121.446743333333","25.0031766666667","6500100","板橋區"
"220042","689-BX","2019/09/17 14:29:42","新北市板橋區長江路一段57號","121.458813333333","25.0292683333333","6500100","板橋區"
"220002","741-BX","2019/09/17 14:29:39","新北市板橋區光明街39號","121.461236666667","25.002765","6500100","板橋區"
"220051","KEA-2699","2019/09/17 14:29:38","新北市板橋區雙十路二段46巷19號","121.47623","25.0282016666667","6500100","板橋區"
"220003","827-TW","2019/09/17 14:29:35","新北市板橋區重慶路224號","121.462715","25.0017683333333","6500100","板橋區"
"220014","829-TW","2019/09/17 14:29:49","新北市板橋區漢生東路339號","121.472188333333","25.0073","6500100","板橋區"
"220016","830-TW","2019/09/17 14:29:36","新北市板橋區中山路二段525號","121.483138333333","25.0212333333333","6500100","板橋區"
"220039","831-TW","2019/09/17 14:29:39","新北市板橋區新海路431巷12號","121.457916666667","25.0271566666667","6500100","板橋區"
"220021","833-TW","2019/09/17 14:26:00","新北市板橋區華東街1-10號","121.44853","24.9948766666667","6500100","板橋區"
"220022","895-R6","2019/09/17 14:29:39","新北市板橋區北門街23-1號","121.45671","25.0111516666667","6500100","板橋區"
"220021","985-R7","2019/09/17 14:29:49","新北市板橋區新生街89巷16號","121.457575","25.0224966666667","6500100","板橋區"
"220046","AAC-210","2019/09/17 14:28:09","新北市板橋區文化路一段285巷2弄17號","121.464306666667","25.019475","6500100","板橋區"
"220012","AAC-253","2019/09/17 14:29:37","新北市板橋區中山路一段118號","121.462951666667","25.0103516666667","6500100","板橋區"
"235032","KEA-2873","2019/09/17 14:29:35","新北市中和區中山路二段248號","121.497651666667","25.002535","6500300","中和區"
"235025","KEA-2875","2019/09/17 14:29:51","新北市中和區新生街148巷19弄6-2號","121.482548333333","25.00044","6500300","中和區"
"235026","KEA-2876","2019/09/17 14:29:41","新北市中和區板南路386號","121.493536666667","24.99962","6500300","中和區"
