"lineid","car","time","location","longitude","latitude","cityid","cityname"
"234025","9371-KE","2019/09/17 14:49:38","新北市永和區雙和街52巷2號","121.509043333333","25.0031233333333","6500400","永和區"
"248017","KED-0813","2019/09/17 14:49:46","新北市五股區外寮路13-1號","121.424918333333","25.0812833333333","6501500","五股區"
"244002","248-BX","2019/09/17 14:49:50","新北市林口區文化北路二段495號","121.371666666667","25.083975","6501700","林口區"
"244002","658-BX","2019/09/17 14:49:41","新北市林口區公園路59號","121.367691666667","25.0686683333333","6501700","林口區"
"231030","002-UM","2019/09/17 14:49:42","新北市新店區安民街290號","121.51761","24.9733366666667","6500600","新店區"
"231024","0291-UT","2019/09/17 14:49:40","新北市新店區中華路83巷67號","121.538118333333","24.9670633333333","6500600","新店區"
"231005","046-UY","2019/09/17 14:49:43","新北市新店區復興路2號","121.532488333333","24.9882916666667","6500600","新店區"
"231029","106-UY","2019/09/17 14:49:44","新北市新店區安康路三段578-1號","121.481016666667","24.94873","6500600","新店區"
"231013","108-UY","2019/09/17 14:49:39","新北市新店區北新路二段97巷12號","121.542158333333","24.9744566666667","6500600","新店區"
"231036","110-UY","2019/09/17 14:49:50","新北市新店區安祥路102巷32號","121.48415","24.9639516666667","6500600","新店區"
"231039","187-VK","2019/09/17 14:49:40","新北市新店區安一路一段1-1號","121.519781666667","24.9610966666667","6500600","新店區"
"231003","268-BY","2019/09/17 14:49:41","新北市新店區中興路二段55號","121.546565","24.9702166666667","6500600","新店區"
"231035","278-BY","2019/09/17 14:49:37","新北市新店區安利街32號","121.519023333333","24.97491","6500600","新店區"
"231015","AAD-862","2019/09/17 14:49:47","新北市新店區北宜路三段221號","121.592378333333","24.95321","6500600","新店區"
"231006","355-BY","2019/09/17 14:49:42","","121.545538333333","24.9529533333333","6500600","新店區"
"231038","3712-VJ","2019/09/17 14:49:36","新北市新店區安華路28-1號","121.51934","24.9609466666667","6500600","新店區"
"231027","3713-VJ","2019/09/17 14:49:43","新北市新店區德正街23巷1號","121.544083333333","24.9719","6500600","新店區"
"231025","4715-K9","2019/09/17 14:49:44","新北市新店區大豐路68巷19號","121.538336666667","24.9803066666667","6500600","新店區"
"231018","512-UM","2019/09/17 14:49:40","新北市新店區中央路115號","121.530845","24.9745166666667","6500600","新店區"
"231020","513-UM","2019/09/17 14:49:39","新北市新店區桂山路51巷6-1號","121.56186","24.90162","6500600","新店區"
"231001","617-UM","2019/09/17 14:49:34","新北市新店區中華路147號","121.538406666667","24.97058","6500600","新店區"
"231002","619-UM","2019/09/17 14:49:42","新北市新店區民權路78號","121.537936666667","24.9832216666667","6500600","新店區"
"231034","641-BX","2019/09/17 14:49:46","新北市新店區玫瑰路4-1號","121.493586666667","24.9514466666667","6500600","新店區"
"231012","KED-0819","2019/09/17 14:49:32","新北市新店區寶橋路75號","121.545635","24.9751533333333","6500600","新店區"
"231023","718-UY","2019/09/17 14:49:38","新北市新店區檳榔路150號","121.544256666667","24.9613883333333","6500600","新店區"
"231028","897-TW","2019/09/17 14:49:27","新北市新店區安德街116巷36號","121.508595","24.9613016666667","6500600","新店區"
"231004","899-TW","2019/09/17 14:49:33","新北市新店區建國路133號","121.539265","24.9783083333333","6500600","新店區"
"231037","AKT-0513","2019/09/17 14:49:48","新北市新店區薏仁坑路6-3號","121.499608333333","24.9588016666667","6500600","新店區"
"235030","003-UY","2019/09/17 14:49:31","新北市中和區南工路32巷3號","121.505965","25.0011716666667","6500300","中和區"
"235020","096-UM","2019/09/17 14:49:37","新北市中和區中山路三段100號","121.47706","25.0058966666667","6500300","中和區"
"235003","097-UM","2019/09/17 14:49:39","新北市中和區宜安路26巷5號","121.513456666667","24.9960566666667","6500300","中和區"
"235029","098-UM","2019/09/17 14:49:45","新北市中和區永和路128巷47號","121.497661666667","25.0069133333333","6500300","中和區"
"235004","150-BY","2019/09/17 14:49:36","新北市中和區安平路59號","121.509676666667","24.9949833333333","6500300","中和區"
"235002","185-VK","2019/09/17 14:49:36","新北市永和區民族街81巷62號","121.520458333333","24.9964383333333","6500300","中和區"
"235013","186-VK","2019/09/17 14:49:45","新北市中和區景平路520號","121.503318333333","24.993935","6500300","中和區"
"235008","293-VK","2019/09/17 14:49:36","新北市中和區南山路367號","121.506108333333","24.9905166666667","6500300","中和區"
"235036","301-VK","2019/09/17 14:49:48","新北市中和區中山路二段3巷22弄38號","121.505755","25.0040666666667","6500300","中和區"
"235007","352-BY","2019/09/17 14:49:45","新北市中和區興南路一段9號","121.511406666667","24.9911033333333","6500300","中和區"
"235006","KEA-2878","2019/09/17 14:49:39","新北市新店區安民街303巷22號","121.516268333333","24.9740066666667","6500300","中和區"
"235034","558-UM","2019/09/17 14:49:32","新北市中和區景平路626巷1號","121.500275","24.99775","6500300","中和區"
"235018","640-BX","2019/09/17 14:49:47","新北市中和區民享街91-6號","121.474448333333","25.0010833333333","6500300","中和區"
"235010","733-UM","2019/09/17 14:49:32","新北市中和區興南路一段91號","121.509731666667","24.988715","6500300","中和區"
"235035","783-BX","2019/09/17 14:49:34","新北市中和區建一路132號","121.48809","24.9997516666667","6500300","中和區"
"235005","802-TS","2019/09/17 14:49:42","新北市永和區中和路381號","121.508581666667","24.999995","6500300","中和區"
"235016","805-TS","2019/09/17 14:49:40","新北市中和區華新街50巷5弄30號","121.507508333333","24.9832866666667","6500300","中和區"
"235012","896-TW","2019/09/17 14:49:43","新北市中和區忠孝街1巷2-1號","121.50912","24.98309","6500300","中和區"
"235017","900-TW","2019/09/17 14:49:45","新北市中和區民享街465號","121.470265","24.99191","6500300","中和區"
"235015","157-BY","2019/09/17 14:49:50","新北市中和區景安路247巷7號","121.504351666667","24.9907466666667","6500300","中和區"
"235001","AAC-213","2019/09/17 14:49:34","新北市中和區自立路99巷24號","121.523365","24.9945216666667","6500300","中和區"
"235023","AAC-215","2019/09/17 14:49:30","新北市中和區圓通路305巷48號","121.495503333333","24.9889833333333","6500300","中和區"
"220013","072-UY","2019/09/17 14:49:48","新北市板橋區國泰街39巷5弄9號","121.46874","25.0060583333333","6500100","板橋區"
"220034","073-UY","2019/09/17 14:49:30","新北市板橋區中正路170號","121.4564","25.01722","6500100","板橋區"
"220105","075-UY","2019/09/17 14:49:44","新北市板橋區文聖街11巷26號","121.476208333333","25.0330366666667","6500100","板橋區"
"220017","AAD-861","2019/09/17 14:49:47","新北市板橋區大明街53號","121.457613333333","25.0028983333333","6500100","板橋區"
"247001","001-UY","2019/09/17 14:49:46","新北市蘆洲區長榮路269巷32號","121.459446666667","25.085985","6501400","蘆洲區"
"228005","097-TW","2019/09/17 14:49:43","新北市貢寮區美豐里丹裡街69號","121.906508333333","25.0578116666667","6502600","貢寮區"
"228004","212-TW","2019/09/17 14:49:29","新北市貢寮區福隆里裕隆街2號","121.94676","25.0151316666667","6502600","貢寮區"
"207002","749-BX","2019/09/17 14:49:43","新北市萬里區崁腳里崁腳路73號","121.647541666667","25.1596116666667","6502800","萬里區"
"207001","662-BX","2019/09/17 14:48:55","新北市萬里區雙興里二坪路1-2號","121.648868333333","25.17821","6502800","萬里區"
"252005","AAC-283","2019/09/17 14:49:32","新北市三芝區埔坪里埔頭坑114號","121.516226666667","25.2456583333333","6502100","三芝區"
"236040","KED-0685","2019/09/17 14:49:45","新北市土城區裕民路136巷6弄4號","121.450808333333","24.9854666666667","6501300","土城區"
"236029","253-BX","2019/09/17 14:49:45","新北市土城區忠義路26巷10號","121.439821666667","24.9699316666667","6501300","土城區"
"236024","269-VK","2019/09/17 14:49:45","新北市土城區光明街17號","121.442108333333","24.9744766666667","6501300","土城區"
"236013","270-VK","2019/09/17 14:49:42","新北市土城區金城路三段1號","121.464171666667","24.9859866666667","6501300","土城區"
"236032","271-VK","2019/09/17 14:49:47","新北市土城區仁愛路48-2號","121.461931666667","24.9791483333333","6501300","土城區"
"236065","KEA-2877","2019/09/17 14:49:45","新北市土城區明德路一段385-1號","121.452616666667","24.9800016666667","6501300","土城區"
"236017","401-BY","2019/09/17 14:49:48","新北市土城區明峰街43-1號","121.466951666667","24.9862366666667","6501300","土城區"
"236057","912-UM","2019/09/17 14:49:28","新北市土城區千歲路13號","121.440956666667","24.9695383333333","6501300","土城區"
"236045","913-UM","2019/09/17 14:49:50","新北市土城區青雲路35號","121.459986666667","24.9886483333333","6501300","土城區"
"236060","915-UM","2019/09/17 14:49:31","新北市土城區延壽路11號","121.471351666667","24.9905016666667","6501300","土城區"
"236054","AAC-216","2019/09/17 14:49:31","新北市土城區裕民路191號","121.453605","24.984285","6501300","土城區"
"220027","145-BY","2019/09/17 14:49:45","新北市板橋區民權路202巷26號","121.460678333333","25.017215","6500100","板橋區"
"220030","610-BX","2019/09/17 14:49:43","新北市板橋區大觀路三段160巷38號","121.429853333333","24.9939966666667","6500100","板橋區"
"220028","256-TC","2019/09/17 14:49:40","新北市板橋區大觀路二段69巷29號","121.447473333333","25.002095","6500100","板橋區"
"220004","276-BY","2019/09/17 14:49:50","新北市板橋區四川路一段338號","121.456781666667","24.9966716666667","6500100","板橋區"
"220020","277-BY","2019/09/17 14:49:44","新北市板橋區金門街184-3號","121.432685","24.9907433333333","6500100","板橋區"
"220050","280-UM","2019/09/17 14:49:35","新北市板橋區莒光路213號","121.474155","25.022915","6500100","板橋區"
"220043","285-UM","2019/09/17 14:49:44","新北市板橋區文德路19號","121.462305","25.024085","6500100","板橋區"
"220031","286-VK","2019/09/17 14:49:45","新北市板橋區僑中二街20號","121.446125","25.01074","6500100","板橋區"
"220029","287-VK","2019/09/17 14:49:32","新北市板橋區大觀路一段28巷20號","121.449958333333","25.0090566666667","6500100","板橋區"
"220009","293-UM","2019/09/17 14:49:48","新北市板橋區中山路一段156號","121.465128333333","25.011805","6500100","板橋區"
"220032","296-UM","2019/09/17 14:49:42","新北市板橋區滿平街2巷10號","121.425365","24.9894616666667","6500100","板橋區"
"220001","299-UM","2019/09/17 14:49:47","新北市板橋區中山路二段60巷1弄25號","121.47511","25.0158883333333","6500100","板橋區"
"220023","303-R5","2019/09/17 14:49:45","新北市板橋區中正路253巷74號","121.452598333333","25.0172433333333","6500100","板橋區"
"220010","305-R5","2019/09/17 14:49:49","新北市板橋區中山路二段光榮巷30弄11號","121.484446666667","25.0204483333333","6500100","板橋區"
"220041","307-R5","2019/09/17 14:49:42","新北市板橋區新海路402號","121.458651666667","25.0267983333333","6500100","板橋區"
"220047","317-R6","2019/09/17 14:49:33","新北市板橋區裕民街75巷2弄16號","121.460458333333","25.02774","6500100","板橋區"
"220038","487-VK","2019/09/17 14:49:51","新北市板橋區互助街87號","121.45979","25.0258","6500100","板橋區"
"220037","491-VK","2019/09/17 14:49:49","新北市板橋區大同街52號","121.478915","25.02763","6500100","板橋區"
"220104","560-BX","2019/09/17 14:49:43","新北市板橋區公館街262號","121.459551666667","25.0210033333333","6500100","板橋區"
"220052","561-BX","2019/09/17 14:49:47","新北市板橋區新海路122號","121.461088333333","25.0229283333333","6500100","板橋區"
"220019","568-UM","2019/09/17 14:49:38","新北市板橋區和平路174巷40弄3號","121.465546666667","24.9936483333333","6500100","板橋區"
"220011","609-BX","2019/09/17 14:49:40","新北市板橋區中山路二段362號","121.481555","25.0201266666667","6500100","板橋區"
"220040","637-BX","2019/09/17 14:49:35","新北市板橋區懷德街174巷26號","121.478316666667","25.0292333333333","6500100","板橋區"
"220005","686-BX","2019/09/17 14:49:46","新北市板橋區四川路一段338號","121.456708333333","24.9967716666667","6500100","板橋區"
"220025","687-BX","2019/09/17 14:49:47","新北市板橋區僑中二街114巷2號","121.445765","25.0068183333333","6500100","板橋區"
"220042","689-BX","2019/09/17 14:49:49","新北市板橋區文化路二段503號","121.476081666667","25.034475","6500100","板橋區"
"220002","741-BX","2019/09/17 14:49:39","新北市板橋區忠孝路忠義巷15弄26號","121.465753333333","25.0041983333333","6500100","板橋區"
"220051","KEA-2699","2019/09/17 14:49:37","新北市板橋區莊敬路103號","121.472386666667","25.02606","6500100","板橋區"
"220003","827-TW","2019/09/17 14:49:15","新北市板橋區國慶路149巷21弄2號","121.460893333333","24.99749","6500100","板橋區"
"220014","829-TW","2019/09/17 14:49:28","新北市板橋區長安街138巷1弄15-3號","121.47326","25.009915","6500100","板橋區"
"220016","830-TW","2019/09/17 14:49:36","新北市板橋區光復街105號","121.484236666667","25.0192733333333","6500100","板橋區"
"220039","831-TW","2019/09/17 14:49:40","新北市板橋區新海路72巷50號","121.462098333333","25.023085","6500100","板橋區"
"220021","833-TW","2019/09/17 14:49:45","新北市板橋區華東街1-10號","121.448493333333","24.9948516666667","6500100","板橋區"
"220022","895-R6","2019/09/17 14:49:39","新北市板橋區府中路29-2號","121.458573333333","25.0080833333333","6500100","板橋區"
"220021","985-R7","2019/09/17 14:49:42","新北市板橋區大仁街71號","121.453973333333","25.0162033333333","6500100","板橋區"
"220046","AAC-210","2019/09/17 14:48:49","新北市板橋區光正街23巷1號","121.462478333333","25.0170233333333","6500100","板橋區"
"220012","AAC-253","2019/09/17 14:49:37","新北市板橋區忠孝路178-6號","121.464616666667","25.00255","6500100","板橋區"
"235032","KEA-2873","2019/09/17 14:49:35","新北市中和區連城路205號","121.494611666667","24.9979816666667","6500300","中和區"
