"lineid","car","time","location","longitude","latitude","cityid","cityname"
"244002","658-BX","2019/09/17 15:19:41","新北市林口區民權路102號","121.373191666667","25.082765","6501700","林口區"
"231030","002-UM","2019/09/17 15:19:42","新北市新店區安民街341-1號","121.51687","24.97489","6500600","新店區"
"231024","0291-UT","2019/09/17 15:19:51","新北市新店區中華路48巷27號","121.541118333333","24.9694666666667","6500600","新店區"
"231005","046-UY","2019/09/17 15:19:43","新北市新店區建國路196號","121.53773","24.98056","6500600","新店區"
"231029","106-UY","2019/09/17 15:19:44","新北市新店區安康路三段716號","121.473945","24.9420283333333","6500600","新店區"
"231036","110-UY","2019/09/17 15:19:50","新北市新店區安祥路69巷15號","121.481936666667","24.96145","6500600","新店區"
"231039","187-VK","2019/09/17 15:19:40","新北市新店區寶元路一段65號","121.54223","24.9857716666667","6500600","新店區"
"231032","256-BX","2019/09/17 15:19:44","新北市新店區安泰路19巷1號","121.485356666667","24.9496533333333","6500600","新店區"
"231003","268-BY","2019/09/17 15:19:41","新北市新店區寶高路116號","121.554535","24.9761866666667","6500600","新店區"
"231035","278-BY","2019/09/17 15:19:57","新北市新店區安和路三段29-3號","121.51727","24.9812516666667","6500600","新店區"
"231015","AAD-862","2019/09/17 15:19:47","新北市新店區北宜路二段599號","121.568096666667","24.9555683333333","6500600","新店區"
"231006","355-BY","2019/09/17 15:19:42","新北市新店區新坡一街102號","121.548291666667","24.9634433333333","6500600","新店區"
"231038","3712-VJ","2019/09/17 15:19:36","新北市新店區安一路一段1-1號","121.519068333333","24.9610683333333","6500600","新店區"
"231025","4715-K9","2019/09/17 15:19:44","新北市新店區環河路116號","121.536918333333","24.9664366666667","6500600","新店區"
"231018","512-UM","2019/09/17 15:19:40","新北市新店區中央八街92號","121.526786666667","24.97748","6500600","新店區"
"231020","513-UM","2019/09/17 15:19:38","新北市新店區湖興路101號","121.564841666667","24.9321416666667","6500600","新店區"
"231001","617-UM","2019/09/17 15:19:54","新北市新店區北新路一段329號","121.541735","24.9684483333333","6500600","新店區"
"231002","619-UM","2019/09/17 15:19:42","新北市新店區中正路707號","121.533798333333","24.991135","6500600","新店區"
"231034","641-BX","2019/09/17 15:19:46","新北市新店區如意街5巷2號","121.4954","24.9489816666667","6500600","新店區"
"231012","KED-0819","2019/09/17 15:19:52","新北市新店區寶慶街5號","121.543995","24.986655","6500600","新店區"
"231023","718-UY","2019/09/17 15:19:39","新北市新店區行政街45號","121.543078333333","24.96554","6500600","新店區"
"231026","720-UM","2019/09/17 15:19:52","新北市新店區中正路263號","121.538638333333","24.97364","6500600","新店區"
"231028","897-TW","2019/09/17 15:19:47","新北市新店區僑愛三路39號","121.498938333333","24.9445016666667","6500600","新店區"
"231004","899-TW","2019/09/17 15:19:53","新北市新店區建國路40號","121.540546666667","24.9749366666667","6500600","新店區"
"231037","AKT-0513","2019/09/17 15:19:48","新北市新店區安興路69-1號","121.515603333333","24.9750783333333","6500600","新店區"
"241018","268-UM","2019/09/17 15:19:44","新北市三重區重新路四段121號","121.485203333333","25.0520766666667","6500200","三重區"
"241020","478-VK","2019/09/17 15:19:37","新北市三重區重新路四段121號","121.484456666667","25.05212","6500200","三重區"
"235030","003-UY","2019/09/17 15:19:51","新北市中和區中山路二段3巷22弄29號","121.505891666667","25.0042466666667","6500300","中和區"
"235036","301-VK","2019/09/17 15:19:48","新北市中和區連城路144巷4弄11號","121.495721666667","24.9989116666667","6500300","中和區"
"235014","4979-A6","2019/09/17 15:19:42","新北市中和區景平路464巷1號","121.505635","24.993785","6500300","中和區"
"235033","4980-A6","2019/09/17 15:19:33","新北市中和區圓通路229號","121.49639","24.9942583333333","6500300","中和區"
"235054","640-BX","2019/09/17 15:19:47","新北市中和區員山路36巷16-2號","121.48536","24.9915833333333","6500300","中和區"
"235012","896-TW","2019/09/17 15:19:45","新北市中和區景新街421號","121.512826666667","24.9892166666667","6500300","中和區"
"235001","AAC-213","2019/09/17 15:19:34","新北市五股區中直路21號","121.421561666667","25.1118266666667","6500300","中和區"
"235023","AAC-215","2019/09/17 15:19:50","新北市中和區圓通路417號","121.488805","24.9891816666667","6500300","中和區"
"207002","749-BX","2019/09/17 15:19:43","新北市萬里區崁腳里內中福路29號","121.659888333333","25.1650533333333","6502800","萬里區"
"207001","662-BX","2019/09/17 15:19:55","新北市萬里區大鵬里萬里加投19-12號","121.651448333333","25.2087183333333","6502800","萬里區"
"236040","KED-0685","2019/09/17 15:19:46","新北市土城區學府路一段143巷2號","121.453743333333","24.98599","6501300","土城區"
"236029","253-BX","2019/09/17 15:19:45","新北市土城區中央路一段260巷26號","121.442755","24.9846983333333","6501300","土城區"
"236024","269-VK","2019/09/17 15:19:38","新北市土城區員林街71巷11號","121.444926666667","24.9774383333333","6501300","土城區"
"236013","270-VK","2019/09/17 15:19:42","新北市土城區廣興街14號","121.456481666667","24.9918566666667","6501300","土城區"
"236032","271-VK","2019/09/17 15:19:47","新北市土城區國際路57號","121.466713333333","24.9768616666667","6501300","土城區"
"236065","KEA-2877","2019/09/17 15:19:45","新北市土城區裕民路193-1號","121.453665","24.9841533333333","6501300","土城區"
"236017","401-BY","2019/09/17 15:19:46","新北市土城區金城路三段198號","121.468515","24.9880033333333","6501300","土城區"
"236057","912-UM","2019/09/17 15:19:55","新北市土城區中央路二段219-7號","121.440791666667","24.97373","6501300","土城區"
"236045","913-UM","2019/09/17 15:19:50","新北市土城區明德路一段169號","121.46434","24.9793766666667","6501300","土城區"
"236060","915-UM","2019/09/17 15:19:51","新北市土城區延和路107號","121.467665","24.9902616666667","6501300","土城區"
"236054","AAC-216","2019/09/17 15:19:51","新北市土城區立德路36號","121.4634","24.9875266666667","6501300","土城區"
"220027","145-BY","2019/09/17 15:19:45","新北市板橋區大觀路一段24號","121.450158333333","25.00854","6500100","板橋區"
"220031","286-VK","2019/09/17 15:19:45","新北市板橋區僑中二街104巷26號","121.445025","25.0080466666667","6500100","板橋區"
"220029","287-VK","2019/09/17 15:19:52","新北市板橋區僑中一街102巷7弄1號","121.446835","25.0128633333333","6500100","板橋區"
"220025","687-BX","2019/09/17 15:19:44","新北市板橋區大觀路一段29巷35-4號","121.451361666667","25.0077383333333","6500100","板橋區"
"220003","827-TW","2019/09/17 15:19:35","新北市板橋區仁愛路21號","121.458853333333","24.9994433333333","6500100","板橋區"
"220021","833-TW","2019/09/17 14:55:24","新北市板橋區華東街1-10號","121.448485","24.9948133333333","6500100","板橋區"
"220022","895-R6","2019/09/17 15:19:39","新北市板橋區南雅南路一段127號","121.455355","25.00442","6500100","板橋區"
"220012","AAC-253","2019/09/17 15:19:37","新北市板橋區長安街293號","121.474495","25.01195","6500100","板橋區"
"235026","KEA-2876","2019/09/17 15:19:37","新北市中和區橋和路89號","121.49026","25.0054166666667","6500300","中和區"
