"lineid","car","time","location","longitude","latitude","cityid","cityname"
"231030","002-UM","2019/09/17 15:39:43","新北市新店區新和街93巷8號","121.52083","24.9866666666667","6500600","新店區"
"231024","0291-UT","2019/09/17 15:39:40","新北市新店區薏仁坑路6號","121.50045","24.9580333333333","6500600","新店區"
"231005","046-UY","2019/09/17 15:39:43","新北市新店區建國路4號","121.539848333333","24.97328","6500600","新店區"
"231029","106-UY","2019/09/17 15:39:44","新北市新店區安康路三段2號","121.493918333333","24.9538766666667","6500600","新店區"
"231013","108-UY","2019/09/17 15:39:50","新北市新店區永業路81巷5弄21號","121.530718333333","24.9495116666667","6500600","新店區"
"231036","110-UY","2019/09/17 15:39:50","新北市新店區安祥路98-3號","121.487668333333","24.959865","6500600","新店區"
"231039","187-VK","2019/09/17 15:39:40","新北市新店區寶元路二段65號","121.547435","24.98093","6500600","新店區"
"231032","256-BX","2019/09/17 15:39:44","新北市新店區雙城路133號","121.498006666667","24.9389183333333","6500600","新店區"
"231003","268-BY","2019/09/17 15:39:41","新北市新店區寶興路60巷2號","121.549865","24.9719366666667","6500600","新店區"
"231035","278-BY","2019/09/17 15:39:57","新北市新店區安興路83-3號","121.515315","24.9755266666667","6500600","新店區"
"231015","AAD-862","2019/09/17 15:39:47","新北市新店區北宜路一段205號","121.547466666667","24.952135","6500600","新店區"
"231038","3712-VJ","2019/09/17 15:39:36","新北市新店區安康路二段242巷10號","121.508795","24.9596933333333","6500600","新店區"
"231018","512-UM","2019/09/17 15:39:40","新北市新店區中正路663巷1弄2號","121.533005","24.9900333333333","6500600","新店區"
"231020","513-UM","2019/09/17 15:39:38","新北市新店區金興路36號","121.553095","24.9311","6500600","新店區"
"231034","641-BX","2019/09/17 15:39:46","新北市新店區玫瑰路66巷1號","121.495955","24.9452166666667","6500600","新店區"
"231012","KED-0819","2019/09/17 15:39:52","新北市新店區文化路17號","121.543188333333","24.9794616666667","6500600","新店區"
"231023","718-UY","2019/09/17 15:39:38","新北市新店區大新街7巷15號","121.543963333333","24.96819","6500600","新店區"
"231026","720-UM","2019/09/17 15:39:53","新北市新店區三民路51巷8號","121.536445","24.9703866666667","6500600","新店區"
"231028","897-TW","2019/09/17 15:39:47","新北市新店區僑義路31號","121.500508333333","24.95049","6500600","新店區"
"231004","899-TW","2019/09/17 15:39:53","新北市新店區民族路108號","121.538163333333","24.9773816666667","6500600","新店區"
"231037","AKT-0513","2019/09/17 15:39:48","新北市新店區安興路69號","121.515903333333","24.97496","6500600","新店區"
"241028","022-UY","2019/09/17 15:39:55","新北市三重區捷運路41號","121.484098333333","25.055725","6500200","三重區"
"241015","062-VK","2019/09/17 15:39:51","新北市三重區重新路四段121號","121.485076666667","25.0523666666667","6500200","三重區"
"241017","063-VK","2019/09/17 15:39:43","新北市三重區新北大道一段7號","121.489671666667","25.0615083333333","6500200","三重區"
"241007","066-VK","2019/09/17 15:39:48","新北市三重區重新路四段121號","121.484943333333","25.051895","6500200","三重區"
"241002","090-VK","2019/09/17 15:39:37","新北市三重區重新路四段121號","121.48486","25.0518116666667","6500200","三重區"
"241006","262-UM","2019/09/17 15:39:50","新北市三重區重新路四段121號","121.484806666667","25.0522983333333","6500200","三重區"
"241018","268-UM","2019/09/17 15:39:44","新北市三重區重新路四段121號","121.485336666667","25.0521583333333","6500200","三重區"
"241020","478-VK","2019/09/17 15:39:37","新北市三重區忠孝路二段68號","121.48454","25.0701966666667","6500200","三重區"
"241023","545-UM","2019/09/17 15:39:44","新北市三重區重新路四段121號","121.484728333333","25.05249","6500200","三重區"
"241022","KED-0820","2019/09/17 15:39:48","新北市三重區重新路四段121號","121.484745","25.0520366666667","6500200","三重區"
"241012","941-UM","2019/09/17 15:39:47","新北市三重區正義北路17號","121.497573333333","25.063205","6500200","三重區"
"241029","942-UM","2019/09/17 15:39:52","新北市三重區泉州街84巷20號","121.49592","25.05439","6500200","三重區"
"241033","AAC-255","2019/09/17 15:39:55","新北市三重區重新路五段283號","121.47936","25.0488783333333","6500200","三重區"
"235033","4980-A6","2019/09/17 15:39:53","新北市中和區員山路292號","121.481273333333","25.002465","6500300","中和區"
"235054","640-BX","2019/09/17 15:39:47","新北市中和區員山路36巷16-2號","121.48533","24.9916633333333","6500300","中和區"
"235046","733-UM","2019/09/17 15:22:45","新北市中和區員山路36巷13號","121.484158333333","24.99078","6500300","中和區"
"235023","AAC-215","2019/09/17 15:39:50","新北市中和區員山路28-11號","121.480951666667","24.9861366666667","6500300","中和區"
"236029","253-BX","2019/09/17 15:39:45","新北市土城區學成路128巷13弄6號","121.449513333333","24.9901916666667","6501300","土城區"
"236024","269-VK","2019/09/17 15:39:53","新北市土城區中央路一段249巷11號","121.445803333333","24.9855916666667","6501300","土城區"
"236013","270-VK","2019/09/17 15:39:50","新北市土城區四川路29巷26號","121.455036666667","24.9950833333333","6501300","土城區"
"236065","KEA-2877","2019/09/17 15:39:45","新北市土城區中央路三段140號","121.433318333333","24.9655966666667","6501300","土城區"
"236017","401-BY","2019/09/17 15:39:45","新北市土城區延吉街113號","121.471261666667","24.9866566666667","6501300","土城區"
"236057","912-UM","2019/09/17 15:39:48","新北市土城區中央路一段299號","121.44405","24.9837116666667","6501300","土城區"
"236045","913-UM","2019/09/17 15:39:50","新北市土城區金城路三段205-1號","121.470336666667","24.98931","6501300","土城區"
"236054","AAC-216","2019/09/17 15:39:51","新北市土城區中華路一段14號","121.44782","24.9905066666667","6501300","土城區"
"220021","833-TW","2019/09/17 15:35:38","新北市板橋區華東街1-10號","121.448545","24.994945","6500100","板橋區"
"235026","KEA-2876","2019/09/17 15:39:37","新北市中和區立業路59號","121.4923","25.0072583333333","6500300","中和區"
