"lineid","car","time","location","longitude","latitude","cityid","cityname"
"249005","172-UM","2019/09/17 17:19:35","新北市八里區荖阡坑路50-1號","121.411816666667","25.1221466666667","6502300","八里區"
"249001","173-UM","2019/09/17 17:19:34","新北市八里區中華路二段165巷3號","121.407663333333","25.150895","6502300","八里區"
"249004","303-UY","2019/09/17 17:19:03","新北市八里區賢三街10號","121.418751666667","25.1591016666667","6502300","八里區"
"249002","305-UY","2019/09/17 17:19:38","新北市八里區龍米路二段117巷3號","121.446768333333","25.1429683333333","6502300","八里區"
"249003","593-UM","2019/09/17 17:19:40","新北市八里區中山路二段435號","121.396883333333","25.1459966666667","6502300","八里區"
"244007","080-UY","2019/09/17 17:19:34","新北市林口區湖北里2鄰9號","121.38791","25.08976","6501700","林口區"
"244013","KEA-2802","2019/09/17 17:19:34","新北市林口區粉寮69號","121.404726666667","25.0908116666667","6501700","林口區"
"244023","483-VK","2019/09/17 17:19:24","新北市林口區興林路6號","121.38967","25.076705","6501700","林口區"
"244017","485-VK","2019/09/17 17:19:33","新北市林口區粉寮路二段221號","121.404231666667","25.0906483333333","6501700","林口區"
"244009","656-BX","2019/09/17 17:19:33","新北市林口區中華路219-1號","121.385781666667","25.089625","6501700","林口區"
"244011","701-TV","2019/09/17 17:19:22","新北市林口區仁愛路一段246號","121.395821666667","25.0758483333333","6501700","林口區"
"244025","837-TS","2019/09/17 17:19:40","新北市林口區民族路157號","121.366885","25.0762633333333","6501700","林口區"
"244021","838-TS","2019/09/17 17:19:32","新北市林口區粉寮路一段105號","121.397906666667","25.0803416666667","6501700","林口區"
"231046","719-UM","2019/09/17 17:12:42","新北市新店區直潭路71號","121.532333333333","24.9421916666667","6500600","新店區"
"241011","013-R5","2019/09/17 17:19:25","新北市三重區秀江街31號","121.502181666667","25.0731016666667","6500200","三重區"
"241028","022-UY","2019/09/17 17:19:35","新北市三重區仁化街118號","121.494376666667","25.0581216666667","6500200","三重區"
"241008","059-VK","2019/09/17 17:19:38","新北市三重區永福街72巷25號","121.479998333333","25.07652","6500200","三重區"
"241005","060-VK","2019/09/17 17:19:31","新北市三重區碧華街33號","121.484288333333","25.0812583333333","6500200","三重區"
"241015","062-VK","2019/09/17 17:19:31","新北市三重區福德北路72號","121.501803333333","25.0661133333333","6500200","三重區"
"241017","063-VK","2019/09/17 17:19:43","新北市三重區大同北路61號","121.495146666667","25.0633166666667","6500200","三重區"
"241024","065-VK","2019/09/17 17:19:25","新北市三重區中正北路193巷11弄18號","121.477596666667","25.07039","6500200","三重區"
"241007","066-VK","2019/09/17 17:19:28","新北市三重區慈愛街8號","121.4845","25.07842","6500200","三重區"
"241002","090-VK","2019/09/17 17:19:37","新北市三重區五華街141巷58號","121.49355","25.0868183333333","6500200","三重區"
"241003","091-VK","2019/09/17 17:19:33","新北市三重區富福街35號","121.490893333333","25.0837566666667","6500200","三重區"
"241019","742-BX","2019/09/17 17:19:34","新北市三重區三張街171號","121.485736666667","25.06931","6500200","三重區"
"241006","262-UM","2019/09/17 17:19:30","新北市三重區國道路一段50號","121.482443333333","25.0728166666667","6500200","三重區"
"241016","266-UM","2019/09/17 17:19:32","新北市三重區大同北路54巷1號","121.494241666667","25.0636733333333","6500200","三重區"
"241009","267-UM","2019/09/17 17:19:43","新北市三重區車路頭街135-1號","121.48431","25.0761566666667","6500200","三重區"
"241018","268-UM","2019/09/17 17:19:37","新北市三重區安慶街212號","121.493043333333","25.068235","6500200","三重區"
"241032","269-UM","2019/09/17 17:19:25","新北市三重區中華路2巷29號","121.482298333333","25.0605483333333","6500200","三重區"
"241013","270-UM","2019/09/17 17:19:34","新北市三重區三和路三段107巷4號","121.494441666667","25.0729066666667","6500200","三重區"
"241025","271-UM","2019/09/17 17:19:25","新北市三重區中正北路378號","121.476731666667","25.0697966666667","6500200","三重區"
"241030","KED-0822","2019/09/17 17:19:33","新北市三重區成功路73巷36號","121.4897","25.0523316666667","6500200","三重區"
"241004","475-VK","2019/09/17 17:19:38","新北市三重區碧華街404號","121.491855","25.0849616666667","6500200","三重區"
"241020","478-VK","2019/09/17 17:19:37","新北市三重區忠孝路一段121號","121.488853333333","25.0719666666667","6500200","三重區"
"241026","480-VK","2019/09/17 17:19:36","新北市三重區正義南路8號","121.498193333333","25.0616683333333","6500200","三重區"
"241014","543-UM","2019/09/17 17:19:32","新北市三重區三和路二段83號","121.500105","25.06843","6500200","三重區"
"241023","545-UM","2019/09/17 17:19:24","新北市三重區忠孝路三段50巷56號","121.48243","25.0650983333333","6500200","三重區"
"241022","KED-0820","2019/09/17 17:19:28","新北市三重區重陽路二段34巷14號","121.48647","25.0632983333333","6500200","三重區"
"241001","887-TS","2019/09/17 17:19:27","新北市三重區集賢路87-1號","121.493625","25.086865","6500200","三重區"
"241012","941-UM","2019/09/17 17:19:35","新北市三重區河邊北街256巷9號","121.501328333333","25.0761516666667","6500200","三重區"
"241029","942-UM","2019/09/17 17:19:32","新北市三重區重安街6號","121.490148333333","25.05821","6500200","三重區"
"241033","AAC-255","2019/09/17 17:19:32","新北市三重區中興北街136巷21號","121.468265","25.0559583333333","6500200","三重區"
"247016","KEA-2869","2019/09/17 17:19:20","新北市蘆洲區正和街112號","121.467706666667","25.0804833333333","6501400","蘆洲區"
"247010","KED-0682","2019/09/17 17:19:36","新北市蘆洲區三民路26巷10號","121.476896666667","25.0827266666667","6501400","蘆洲區"
"247006","893-R6","2019/09/17 17:19:40","新北市蘆洲區長安街75號","121.462581666667","25.0800366666667","6501400","蘆洲區"
"247018","500-BY","2019/09/17 17:19:40","新北市蘆洲區民權路96巷3弄1號","121.474535","25.0883283333333","6501400","蘆洲區"
"247008","341-TH","2019/09/17 17:19:37","新北市蘆洲區永安北路一段72巷25號","121.476353333333","25.076955","6501400","蘆洲區"
"247012","337-TH","2019/09/17 17:19:24","新北市蘆洲區信義路319巷10弄2號","121.477736666667","25.0863533333333","6501400","蘆洲區"
"247004","336-TH","2019/09/17 17:19:34","新北市蘆洲區中原路74號","121.458281666667","25.082","6501400","蘆洲區"
"247024","057-VK","2019/09/17 17:19:32","新北市蘆洲區長榮路262號","121.460381666667","25.08612","6501400","蘆洲區"
"247014","056-VK","2019/09/17 17:19:35","新北市蘆洲區光華路1號","121.469985","25.0835216666667","6501400","蘆洲區"
"247022","007-UY","2019/09/17 17:19:36","新北市蘆洲區三民路128巷29-2號","121.47004","25.08944","6501400","蘆洲區"
"247002","001-UY","2019/09/17 17:19:24","新北市蘆洲區永樂街38巷33弄7號","121.457775","25.08948","6501400","蘆洲區"
"228003","097-TW","2019/09/17 17:19:37","新北市貢寮區福隆里興隆街24號","121.944585","25.016655","6502600","貢寮區"
"228001","212-TW","2019/09/17 17:19:40","新北市貢寮區仁理村尖山腳街20號","121.925243333333","25.0480483333333","6502600","貢寮區"
"228002","663-BX","2019/09/17 17:19:29","新北市貢寮區雙玉里下雙溪街24號","121.923205","25.0099066666667","6502600","貢寮區"
"224006","676-BX","2019/09/17 17:19:39","新北市瑞芳區傑魚坑路322號","121.786316666667","25.1046666666667","6501200","瑞芳區"
"224009","275-VK","2019/09/17 17:19:34","新北市瑞芳區汽車路116號","121.840031666667","25.1100883333333","6501200","瑞芳區"
"224008","273-VK","2019/09/17 17:19:40","新北市瑞芳區侯硐路254號","121.83041","25.0889633333333","6501200","瑞芳區"
"224005","271-BY","2019/09/17 17:19:34","新北市瑞芳區南雅路1號","121.892665","25.119395","6501200","瑞芳區"
"227001","642-TC","2019/09/17 17:19:38","新北市雙溪區三貂里十三層5號","121.850651666667","25.0648716666667","6502500","雙溪區"
"227002","400-TW","2019/09/17 17:19:35","新北市雙溪區共和里東榮街34號","121.865816666667","25.03388","6502500","雙溪區"
"251009","008-UM","2019/09/17 17:19:27","新北市淡水區三民街20號","121.439055","25.1717533333333","6501000","淡水區"
"251004","009-UM","2019/09/17 17:19:33","新北市淡水區中正東路一段3巷14弄1號","121.450893333333","25.1639633333333","6501000","淡水區"
"251015","KEA-2871","2019/09/17 17:19:33","新北市淡水區樹林口14-2號","121.478838333333","25.168295","6501000","淡水區"
"251016","179-VK","2019/09/17 17:19:31","新北市淡水區鄒厝崙7號","121.470266666667","25.188855","6501000","淡水區"
"251008","181-VK","2019/09/17 17:19:25","新北市淡水區大同路283號","121.467913333333","25.1425116666667","6501000","淡水區"
"251013","182-VK","2019/09/17 17:19:26","新北市淡水區演戲埔腳9-1號","121.472853333333","25.1963633333333","6501000","淡水區"
"251010","413-VK","2019/09/17 17:19:41","新北市淡水區沙崙路196號","121.424408333333","25.183725","6501000","淡水區"
"251012","441-VK","2019/09/17 17:19:38","新北市淡水區中山北路一段158號","121.444316666667","25.17791","6501000","淡水區"
"251007","442-VK","2019/09/17 17:19:25","新北市淡水區民生路47-4號","121.461976666667","25.1380633333333","6501000","淡水區"
"251005","443-VK","2019/09/17 17:19:32","新北市淡水區鄧公路19號","121.451423333333","25.170015","6501000","淡水區"
"251006","561-UM","2019/09/17 17:19:32","新北市淡水區中山路189號","121.441241666667","25.1744483333333","6501000","淡水區"
"251014","577-R6","2019/09/17 17:19:24","新北市淡水區公埔子43號","121.46422","25.2289816666667","6501000","淡水區"
"251011","650-BX","2019/09/17 17:19:30","新北市淡水區坪頂路70巷6號","121.45925","25.16293","6501000","淡水區"
"251003","673-BX","2019/09/17 17:19:30","新北市淡水區中正路一段87巷8弄1-18號","121.418818333333","25.1813233333333","6501000","淡水區"
"252002","178-VK","2019/09/17 17:19:36","新北市三芝區忠孝街1-14號","121.505563333333","25.2539833333333","6502100","三芝區"
"233002","762-BX","2019/09/17 17:19:33","新北市烏來區環山路82巷70號","121.547266666667","24.864","6502900","烏來區"
"247020","KED-0683","2019/09/17 17:19:32","新北市蘆洲區仁愛街35巷2號","121.471911666667","25.09285","6501400","蘆洲區"
"252001","KED-0821","2019/09/17 17:19:27","新北市三芝區長安街119號","121.497995","25.2596483333333","6502100","三芝區"
"242042","AAC-296","2019/09/17 17:19:36","新北市新莊區中正路404號","121.441386666667","25.0338566666667","6500500","新莊區"
"242005","751-BX","2019/09/17 17:19:23","新北市新莊區三和路12-21號","121.442155","25.0387266666667","6500500","新莊區"
"242029","615-BX","2019/09/17 17:19:30","新北市新莊區幸福路602號","121.452118333333","25.0493516666667","6500500","新莊區"
"242027","613-BX","2019/09/17 17:19:40","新北市新莊區中港路337號","121.452266666667","25.0453083333333","6500500","新莊區"
"242058","612-BX","2019/09/17 17:19:43","新北市新莊區新泰路357巷3弄57號","121.442241666667","25.0393066666667","6500500","新莊區"
"242048","566-BX","2019/09/17 17:19:21","新北市新莊區龍安路249巷1號","121.419096666667","25.0210583333333","6500500","新莊區"
"242054","497-BY","2019/09/17 17:19:24","新北市新莊區環河路462號","121.440155","25.0198016666667","6500500","新莊區"
"242051","442-UM","2019/09/17 17:19:28","新北市新莊區瓊林路190-2號","121.439448333333","25.0210066666667","6500500","新莊區"
"242002","441-UM","2019/09/17 17:19:39","新北市新莊區新泰路215號","121.446615","25.0388066666667","6500500","新莊區"
"242007","440-UM","2019/09/17 17:19:29","新北市新莊區新泰路500號","121.442396666667","25.0458866666667","6500500","新莊區"
"242044","415-TV","2019/09/17 17:19:40","新北市新莊區民安路2號","121.422696666667","25.02884","6500500","新莊區"
"242013","413-TV","2019/09/17 17:19:40","新北市新莊區新泰路502巷56號","121.44447","25.046325","6500500","新莊區"
"242025","362-BY","2019/09/17 17:19:35","新北市新莊區中平路69號","121.444698333333","25.0448166666667","6500500","新莊區"
"242023","353-BY","2019/09/17 17:19:24","新北市新莊區中平路107號","121.444585","25.046325","6500500","新莊區"
"242015","132-UY","2019/09/17 17:19:29","新北市新莊區新泰路277巷17號","121.445058333333","25.0402483333333","6500500","新莊區"
"242039","135-UY","2019/09/17 17:19:40","新北市新莊區民安路312號","121.428376666667","25.0220216666667","6500500","新莊區"
"242056","172-VK","2019/09/17 17:19:34","新北市新莊區新莊路664-2號","121.44221","25.0331033333333","6500500","新莊區"
"242017","173-VK","2019/09/17 17:19:40","新北市新莊區三和路12-21號","121.442158333333","25.038525","6500500","新莊區"
"242032","175-VK","2019/09/17 17:19:34","新北市新莊區新泰路462號","121.443316666667","25.044805","6500500","新莊區"
"242021","KED-0687","2019/09/17 17:19:31","新北市新莊區新泰路277巷9號","121.445348333333","25.0403466666667","6500500","新莊區"
"242009","346-TH","2019/09/17 17:19:27","新北市新莊區新泰路500號","121.442355","25.0462516666667","6500500","新莊區"
"242037","348-TH","2019/09/17 17:19:34","新北市新莊區新樹路133號","121.436861666667","25.02582","6500500","新莊區"
"242034","350-TH","2019/09/17 17:19:30","新北市新莊區瓊林路68號","121.445226666667","25.0286433333333","6500500","新莊區"
"242019","351-TH","2019/09/17 17:19:35","新北市新莊區新泰路322號","121.44504","25.0416583333333","6500500","新莊區"
"238023","601-UM","2019/09/17 17:19:26","新北市樹林區中正路433號","121.415016666667","25.0085983333333","6500700","樹林區"
"238019","599-UM","2019/09/17 17:19:44","新北市樹林區太平路269號","121.41952","24.9730483333333","6500700","樹林區"
"238024","5061-A6","2019/09/17 17:19:25","新北市樹林區樹新路79巷11號","121.427073333333","24.995635","6500700","樹林區"
"238018","KEA-2217","2019/09/17 17:19:29","新北市樹林區樹中街36號","121.421151666667","24.98538","6500700","樹林區"
"238022","KEA-2213","2019/09/17 17:19:43","新北市樹林區仁愛街79號","121.423786666667","24.9829933333333","6500700","樹林區"
"238021","KEA-2539","2019/09/17 17:19:39","新北市樹林區西圳街一段54號","121.40092","24.96199","6500700","樹林區"
"238017","283-BY","2019/09/17 17:19:31","新北市樹林區光武街19號","121.416486666667","25.00615","6500700","樹林區"
"238014","282-BY","2019/09/17 17:19:33","新北市樹林區長壽街70巷35弄7號","121.421296666667","24.9951733333333","6500700","樹林區"
"238020","268-VK","2019/09/17 17:19:27","新北市樹林區千歲街101-2號","121.428545","25.0008983333333","6500700","樹林區"
"238016","169-UY","2019/09/17 17:19:33","新北市樹林區中山路一段336號","121.419656666667","24.9861333333333","6500700","樹林區"
"239007","AAC-297","2019/09/17 17:19:39","新北市鶯歌區行政路3-1號","121.350781666667","24.9553616666667","6500800","鶯歌區"
"239006","891-R6","2019/09/17 17:19:36","新北市鶯歌區德昌二街127號","121.332928333333","24.9558316666667","6500800","鶯歌區"
"239008","527-UM","2019/09/17 17:19:31","新北市鶯歌區中山路290號","121.343853333333","24.9570383333333","6500800","鶯歌區"
"239005","526-UM","2019/09/17 17:19:24","新北市鶯歌區福德四街16號","121.329395","24.9677133333333","6500800","鶯歌區"
"239001","417-VK","2019/09/17 17:19:25","新北市鶯歌區尖山路216號","121.343506666667","24.9469016666667","6500800","鶯歌區"
"239003","360-BY","2019/09/17 17:19:34","新北市鶯歌區德昌二街71號","121.333381666667","24.958305","6500800","鶯歌區"
"239002","359-BY","2019/09/17 17:19:30","新北市鶯歌區建國路280-2號","121.346283333333","24.9532233333333","6500800","鶯歌區"
"239004","193-VK","2019/09/17 17:19:24","新北市鶯歌區文化路417-5號","121.353001666667","24.948805","6500800","鶯歌區"
"244019","KED-0667","2019/09/17 17:19:32","新北市林口區公園路199號","121.372263333333","25.0725416666667","6501700","林口區"
"233001","KEA-2870","2019/09/17 17:19:43","新北市烏來區溫泉街101號","121.551555","24.8533133333333","6502900","烏來區"
"242046","281-VK","2019/09/17 17:19:33","新北市新莊區新樹路65-5號","121.439406666667","25.0308766666667","6500500","新莊區"
"242011","280-VK","2019/09/17 17:19:29","新北市新莊區新泰路488號","121.442531666667","25.0457816666667","6500500","新莊區"
"220021","833-TW","2019/09/17 16:53:45","新北市板橋區華東街1-10號","121.448591666667","24.9948066666667","6500100","板橋區"
"235061","KEA-2875","2019/09/17 17:15:11","新北市中和區員山路36巷16-2號","121.485385","24.9916566666667","6500300","中和區"
"235062","KEA-2876","2019/09/17 17:19:27","新北市中和區員山路36巷16-2號","121.485211666667","24.9914233333333","6500300","中和區"
