"lineid","car","time","location","longitude","latitude","cityid","cityname"
"234026","9371-KE","2019/09/17 17:59:33","新北市永和區永和路一段43巷16號","121.512243333333","25.0057683333333","6500400","永和區"
"249005","172-UM","2019/09/17 17:59:35","新北市八里區荖阡坑路16號","121.398023333333","25.1383616666667","6502300","八里區"
"249001","173-UM","2019/09/17 17:59:33","新北市八里區龍米路二段36號","121.448536666667","25.1401333333333","6502300","八里區"
"249004","303-UY","2019/09/17 17:59:25","新北市八里區龍米路三段46號","121.42788","25.1591666666667","6502300","八里區"
"249002","305-UY","2019/09/17 17:59:38","新北市八里區龍形五街29號","121.449793333333","25.13336","6502300","八里區"
"249003","593-UM","2019/09/17 17:59:40","新北市八里區中華路二段199號","121.406246666667","25.150205","6502300","八里區"
"248008","KED-0815","2019/09/17 17:59:39","新北市五股區中興路二段150號","121.45861","25.0785683333333","6501500","五股區"
"248020","KED-0813","2019/09/17 17:59:41","新北市五股區中興路二段63巷17號","121.460276666667","25.0755233333333","6501500","五股區"
"248012","247-BX","2019/09/17 17:59:22","新北市五股區中興路二段37巷28號","121.460248333333","25.0748933333333","6501500","五股區"
"248004","677-BX","2019/09/17 17:59:25","新北市五股區更洲路47-1號","121.453926666667","25.078465","6501500","五股區"
"232011","076-UY","2019/09/17 17:59:28","新北市坪林區北宜路八段238號","121.70911","24.934985","6502000","坪林區"
"244007","080-UY","2019/09/17 17:59:34","新北市林口區竹林路363號","121.387643333333","25.0844783333333","6501700","林口區"
"244013","KEA-2802","2019/09/17 17:59:34","新北市林口區中山路52號","121.395175","25.07842","6501700","林口區"
"244023","483-VK","2019/09/17 17:59:24","新北市林口區育林街30號","121.385838333333","25.0737616666667","6501700","林口區"
"244017","485-VK","2019/09/17 17:59:33","新北市林口區忠孝路492號","121.37043","25.070275","6501700","林口區"
"244009","656-BX","2019/09/17 17:59:33","新北市林口區佳林路56巷6弄14號","121.38561","25.08222","6501700","林口區"
"244011","701-TV","2019/09/17 17:59:42","新北市林口區中正路30巷10號","121.395971666667","25.07781","6501700","林口區"
"244025","837-TS","2019/09/17 17:59:40","新北市林口區三民路18號","121.358638333333","25.0667883333333","6501700","林口區"
"244021","838-TS","2019/09/17 17:59:36","新北市林口區新寮27-15號","121.396668333333","25.0668266666667","6501700","林口區"
"222003","436-BY","2019/09/17 17:59:30","新北市深坑區炮子崙23號","121.60721","24.9909783333333","6501800","深坑區"
"222002","659-BX","2019/09/17 17:59:39","新北市深坑區文化街98號","121.61703","25.00191","6501800","深坑區"
"241024","065-VK","2019/09/17 17:59:25","新北市三重區車路頭街46號","121.483878333333","25.0719816666667","6500200","三重區"
"241016","266-UM","2019/09/17 17:59:32","新北市五股區成泰路三段358號","121.451238333333","25.098145","6500200","三重區"
"241033","AAC-255","2019/09/17 17:59:34","新北市三重區重新路五段652號","121.468155","25.0441116666667","6500200","三重區"
"235065","098-UM","2019/09/17 17:59:25","新北市中和區中山路二段478號","121.487993333333","25.00475","6500300","中和區"
"235040","150-BY","2019/09/17 17:59:24","新北市中和區和城路一段271巷1號","121.485496666667","24.99174","6500300","中和區"
"235058","151-BY","2019/09/17 17:59:27","新北市中和區圓通路367巷33弄59號","121.495586666667","24.98611","6500300","中和區"
"235038","185-VK","2019/09/17 17:59:36","新北市中和區中正路190-1號","121.497941666667","24.9938883333333","6500300","中和區"
"247016","KEA-2869","2019/09/17 17:59:20","新北市蘆洲區中正路185巷76號","121.46627","25.0843416666667","6501400","蘆洲區"
"235045","565-BX","2019/09/17 17:59:33","新北市中和區員山路36巷16-2號","121.485118333333","24.9915433333333","6500300","中和區"
"235054","640-BX","2019/09/17 17:59:36","新北市中和區連城路599號","121.478686666667","24.9932366666667","6500300","中和區"
"235057","801-TS","2019/09/17 17:59:28","新北市中和區員山路263號","121.481165","24.9992216666667","6500300","中和區"
"235064","911-UM","2019/09/17 17:59:39","新北市中和區錦和路350-1號","121.49041","24.9935366666667","6500300","中和區"
"235051","157-BY","2019/09/17 17:59:42","新北市中和區員山路36巷13號","121.484145","24.9910816666667","6500300","中和區"
"235037","AAC-213","2019/09/17 17:59:41","新北市中和區景平路276-1號","121.513745","24.99239","6500300","中和區"
"247006","893-R6","2019/09/17 17:59:27","新北市蘆洲區中華街77號","121.461975","25.0802066666667","6501400","蘆洲區"
"247018","500-BY","2019/09/17 17:59:35","新北市蘆洲區復興路264號","121.480198333333","25.0896633333333","6501400","蘆洲區"
"247012","337-TH","2019/09/17 17:59:44","新北市蘆洲區復興路182號","121.47804","25.08852","6501400","蘆洲區"
"247024","057-VK","2019/09/17 17:59:32","新北市蘆洲區長安街194巷29號","121.460015","25.084645","6501400","蘆洲區"
"247014","056-VK","2019/09/17 17:59:35","新北市蘆洲區忠孝路45號","121.471363333333","25.0863116666667","6501400","蘆洲區"
"247002","001-UY","2019/09/17 17:59:24","新北市蘆洲區永平街32巷55號","121.45981","25.0927333333333","6501400","蘆洲區"
"226004","312-R5","2019/09/17 17:59:33","新北市平溪區石底里公園街18-3號","121.73338","25.0259133333333","6502400","平溪區"
"228003","097-TW","2019/09/17 17:59:27","新北市貢寮區真理里美艷山街6-2號","121.928853333333","25.0607466666667","6502600","貢寮區"
"228001","212-TW","2019/09/17 17:59:27","新北市貢寮區真理里新港街26巷31號","121.929213333333","25.0547516666667","6502600","貢寮區"
"228002","663-BX","2019/09/17 17:59:29","新北市貢寮區福連里香蘭街2-1號","121.968296666667","25.023385","6502600","貢寮區"
"224006","676-BX","2019/09/17 17:59:39","新北市瑞芳區傑魚坑路280號","121.787595","25.106625","6501200","瑞芳區"
"224002","639-TC","2019/09/17 17:59:34","新北市瑞芳區三爪子坑路34號","121.810486666667","25.10616","6501200","瑞芳區"
"224009","275-VK","2019/09/17 17:59:34","新北市瑞芳區金光路334號","121.849675","25.1092533333333","6501200","瑞芳區"
"224008","273-VK","2019/09/17 17:59:33","新北市瑞芳區明燈路一段45巷91號","121.822033333333","25.1043833333333","6501200","瑞芳區"
"224005","271-BY","2019/09/17 17:59:34","新北市瑞芳區深澳路209號","121.820181666667","25.13244","6501200","瑞芳區"
"227002","400-TW","2019/09/17 17:59:35","新北市雙溪區共和里東榮街52號","121.86635","25.0336866666667","6502500","雙溪區"
"253005","032-BX","2019/09/17 17:59:21","新北市石門區中山路62-6號","121.567396666667","25.2898666666667","6502200","石門區"
"253006","295-VK","2019/09/17 17:59:36","新北市石門區大丘田45-2號","121.549813333333","25.2748816666667","6502200","石門區"
"222001","KEA-2212","2019/09/17 17:59:12","新北市深坑區北深路三段34號","121.609101666667","25.00102","6501800","深坑區"
"208002","KEA-2872","2019/09/17 17:59:37","新北市金山區三界壇路61-3號","121.626678333333","25.2281833333333","6502700","金山區"
"208003","665-BX","2019/09/17 17:59:29","新北市金山區磺港里磺港路192-1號","121.645908333333","25.2275633333333","6502700","金山區"
"251009","008-UM","2019/09/17 17:59:27","新北市淡水區中山路108巷3號","121.442046666667","25.1711233333333","6501000","淡水區"
"251004","009-UM","2019/09/17 17:59:33","新北市淡水區民權路187號","121.459638333333","25.13357","6501000","淡水區"
"251015","KEA-2871","2019/09/17 17:59:24","新北市淡水區興福寮32-1號","121.49054","25.1631583333333","6501000","淡水區"
"251016","179-VK","2019/09/17 17:59:31","新北市淡水區淡金路三段30號","121.447675","25.198515","6501000","淡水區"
"251008","181-VK","2019/09/17 17:59:25","新北市淡水區八勢一街73號","121.461798333333","25.1552183333333","6501000","淡水區"
"251013","182-VK","2019/09/17 17:59:26","新北市淡水區泉洲厝31號","121.479558333333","25.1910133333333","6501000","淡水區"
"251010","413-VK","2019/09/17 17:59:41","新北市淡水區中正路一段132巷22號","121.423011666667","25.180015","6501000","淡水區"
"251012","441-VK","2019/09/17 17:59:38","新北市淡水區北新路三段38巷7號","121.484505","25.1870066666667","6501000","淡水區"
"251007","442-VK","2019/09/17 17:59:25","新北市淡水區中正東路二段143巷1弄7號","121.460813333333","25.1482116666667","6501000","淡水區"
"251005","443-VK","2019/09/17 17:59:32","新北市淡水區英專路139號","121.446601666667","25.1727833333333","6501000","淡水區"
"251006","561-UM","2019/09/17 17:59:33","新北市淡水區新生街15號","121.438881666667","25.1732683333333","6501000","淡水區"
"251014","577-R6","2019/09/17 17:59:24","新北市淡水區公埔子16-6號","121.480955","25.2244083333333","6501000","淡水區"
"251011","650-BX","2019/09/17 17:54:10","新北市淡水區吳(仔)厝9-1號","121.480026666667","25.1468983333333","6501000","淡水區"
"251002","672-BX","2019/09/17 17:59:35","新北市淡水區鼻頭街18-1號","121.446753333333","25.16659","6501000","淡水區"
"251003","673-BX","2019/09/17 17:59:33","新北市淡水區大忠街45號","121.444656666667","25.1764033333333","6501000","淡水區"
"207003","550-UM","2019/09/17 17:59:27","新北市萬里區野柳里東澳路66號","121.69274","25.20095","6502800","萬里區"
"207004","291-VK","2019/09/17 17:59:24","新北市萬里區萬里里瑪鋉路5號","121.686243333333","25.1749533333333","6502800","萬里區"
"252002","178-VK","2019/09/17 17:59:36","新北市三芝區中山路二段38號","121.502963333333","25.2551416666667","6502100","三芝區"
"208001","170-UY","2019/09/17 17:59:33","新北市金山區磺港里磺港路228號","121.64464","25.2257266666667","6502700","金山區"
"237004","KEA-2597","2019/09/17 17:59:29","新北市三峽區大埔路66號","121.366411666667","24.907735","6500900","三峽區"
"237007","153-BY","2019/09/17 17:59:27","新北市三峽區中園街104-4號","121.366866666667","24.9233533333333","6500900","三峽區"
"237009","210-TH","2019/09/17 17:59:35","新北市三峽區中山路106巷21號","121.366018333333","24.9363933333333","6500900","三峽區"
"237013","252-BX","2019/09/17 17:59:29","新北市三峽區介壽路一段53號","121.37562","24.9329433333333","6500900","三峽區"
"237012","275-BY","2019/09/17 17:59:26","新北市三峽區民生街25號","121.375965","24.9364533333333","6500900","三峽區"
"237008","302-VK","2019/09/17 17:59:34","新北市三峽區白雞33-12號","121.370586666667","24.9121616666667","6500900","三峽區"
"237014","433-BY","2019/09/17 17:59:31","新北市三峽區復興路101巷1弄79號","121.370975","24.9376983333333","6500900","三峽區"
"237006","5529-G3","2019/09/17 17:59:33","新北市三峽區介壽路二段138巷1弄45-5號","121.39809","24.9324666666667","6500900","三峽區"
"237011","KEA-2596","2019/09/17 17:59:30","新北市三峽區中正路一段67號","121.375273333333","24.9302316666667","6500900","三峽區"
"237015","649-BX","2019/09/17 17:59:29","新北市三峽區詩朗139號","121.405111666667","24.910995","6500900","三峽區"
"237010","706-TV","2019/09/17 17:59:38","新北市三峽區中山路62號","121.368098333333","24.93454","6500900","三峽區"
"237005","AKY-6261","2019/09/17 17:59:33","新北市三峽區復興路233號","121.368531666667","24.9388833333333","6500900","三峽區"
"233002","762-BX","2019/09/17 17:59:33","新北市烏來區烏來街121號","121.551506666667","24.863165","6502900","烏來區"
"236030","253-BX","2019/09/17 17:59:34","新北市土城區城林路6巷80號","121.438641666667","24.9796516666667","6501300","土城區"
"236026","269-VK","2019/09/17 17:59:39","新北市土城區中央路三段96-1號","121.435751666667","24.9665583333333","6501300","土城區"
"236014","270-VK","2019/09/17 17:59:25","新北市土城區城林路6巷80號","121.438708333333","24.9796366666667","6501300","土城區"
"236038","271-VK","2019/09/17 17:59:36","新北市土城區員林街14-1號","121.443208333333","24.9778833333333","6501300","土城區"
"247020","KED-0683","2019/09/17 17:59:32","新北市蘆洲區民義街35巷16號","121.471445","25.0898416666667","6501400","蘆洲區"
"236070","KEA-2877","2019/09/17 17:59:29","新北市土城區青雲路669-3號","121.467131666667","24.96488","6501300","土城區"
"252001","KED-0821","2019/09/17 17:59:27","新北市三芝區中興街二段2號","121.49837","25.2567133333333","6502100","三芝區"
"236021","401-BY","2019/09/17 17:59:24","新北市土城區城林路6巷80號","121.438553333333","24.9796116666667","6501300","土城區"
"236059","912-UM","2019/09/17 17:59:24","新北市土城區中央路三段244巷5號","121.427848333333","24.9641533333333","6501300","土城區"
"236063","915-UM","2019/09/17 17:59:30","新北市土城區城林路6巷80號","121.438466666667","24.9795816666667","6501300","土城區"
"236055","AAC-216","2019/09/17 17:59:24","新北市土城區城林路6巷80號","121.438488333333","24.9796083333333","6501300","土城區"
"242042","AAC-296","2019/09/17 17:59:36","新北市新莊區丹鳳街40號","121.421611666667","25.029605","6500500","新莊區"
"242005","751-BX","2019/09/17 17:59:43","新北市新莊區自立街214巷9弄1號","121.457376666667","25.045115","6500500","新莊區"
"242061","705-TV","2019/09/17 17:59:36","新北市新莊區新樹路525號","121.4328","25.01016","6500500","新莊區"
"242029","615-BX","2019/09/17 17:59:30","新北市新莊區中平路110巷13號","121.445693333333","25.0459683333333","6500500","新莊區"
"242027","613-BX","2019/09/17 17:59:39","新北市新莊區思源路455號","121.459741666667","25.05348","6500500","新莊區"
"242058","612-BX","2019/09/17 17:59:23","新北市新莊區雙鳳路134巷8號","121.412823333333","25.0283083333333","6500500","新莊區"
"242048","566-BX","2019/09/17 17:59:24","新北市新莊區萬安街65號","121.421315","25.024085","6500500","新莊區"
"242054","497-BY","2019/09/17 17:59:44","新北市新莊區民安西路369號","121.428625","25.0103533333333","6500500","新莊區"
"242051","442-UM","2019/09/17 17:59:38","新北市新莊區西盛街153巷1號","121.428405","25.0182383333333","6500500","新莊區"
"242002","441-UM","2019/09/17 17:59:38","新北市新莊區中正路153-1號","121.455963333333","25.0367916666667","6500500","新莊區"
"242007","440-UM","2019/09/17 17:59:29","新北市新莊區自信街65巷7號","121.455451666667","25.048715","6500500","新莊區"
"242044","415-TV","2019/09/17 17:59:40","新北市新莊區雙鳳路73巷3號","121.414986666667","25.0274983333333","6500500","新莊區"
"242013","413-TV","2019/09/17 17:59:40","新北市新莊區中和街125巷5號","121.447038333333","25.0485033333333","6500500","新莊區"
"242025","362-BY","2019/09/17 17:59:35","新北市新莊區化成路531巷50號","121.462031666667","25.0626483333333","6500500","新莊區"
"242023","353-BY","2019/09/17 17:59:44","新北市新莊區福壽街23號","121.458026666667","25.048085","6500500","新莊區"
"242015","132-UY","2019/09/17 17:59:35","新北市新莊區新泰路502巷42弄13號","121.444235","25.04618","6500500","新莊區"
"242039","135-UY","2019/09/17 17:59:40","新北市新莊區民安西路24巷14號","121.426358333333","25.020975","6500500","新莊區"
"242056","172-VK","2019/09/17 17:59:34","新北市新莊區豐年街124巷6弄1號","121.445945","25.0298916666667","6500500","新莊區"
"242017","173-VK","2019/09/17 17:59:40","新北市新莊區永樂街164號","121.44877","25.04475","6500500","新莊區"
"242032","175-VK","2019/09/17 17:59:34","新北市新莊區新泰路330號","121.444905","25.0419033333333","6500500","新莊區"
"242021","KED-0687","2019/09/17 17:59:31","新北市新莊區中正路225號","121.450653333333","25.0357533333333","6500500","新莊區"
"242009","346-TH","2019/09/17 17:59:27","新北市新莊區中華路二段258巷15號","121.45314","25.0537833333333","6500500","新莊區"
"242037","348-TH","2019/09/17 17:59:34","新北市新莊區建福路31號","121.426421666667","25.0286816666667","6500500","新莊區"
"242034","350-TH","2019/09/17 17:59:30","新北市新莊區福海街10號","121.445366666667","25.0335566666667","6500500","新莊區"
"242019","351-TH","2019/09/17 17:59:35","新北市新莊區明中街49巷14號","121.456643333333","25.0391083333333","6500500","新莊區"
"238015","755-BX","2019/09/17 17:59:28","新北市樹林區啟智街80巷16號","121.418893333333","24.9923866666667","6500700","樹林區"
"238023","601-UM","2019/09/17 17:59:29","新北市樹林區龍興街52號","121.403068333333","25.0153633333333","6500700","樹林區"
"238019","599-UM","2019/09/17 17:59:44","新北市樹林區太平路148號","121.418563333333","24.9781583333333","6500700","樹林區"
"238018","KEA-2217","2019/09/17 17:59:29","新北市樹林區中正路7-1號","121.430195","24.997605","6500700","樹林區"
"238022","KEA-2213","2019/09/17 17:59:23","新北市樹林區太元街55號","121.418878333333","24.978835","6500700","樹林區"
"238021","KEA-2539","2019/09/17 17:59:39","新北市樹林區柑園街一段271號","121.39421","24.956375","6500700","樹林區"
"238025","303-VK","2019/09/17 17:59:34","新北市樹林區俊興街211巷8號","121.417176666667","25.0146466666667","6500700","樹林區"
"238017","283-BY","2019/09/17 17:59:31","新北市樹林區中正路576號","121.411085","25.0149916666667","6500700","樹林區"
"238014","282-BY","2019/09/17 17:59:33","新北市樹林區中正路47號","121.4268","24.999655","6500700","樹林區"
"238020","268-VK","2019/09/17 17:59:27","新北市樹林區三俊街199巷25號","121.420235","25.01696","6500700","樹林區"
"238026","172-UY","2019/09/17 17:59:36","新北市樹林區八德街598巷4號","121.39761","24.97027","6500700","樹林區"
"238016","169-UY","2019/09/17 17:59:33","新北市樹林區啟智街173巷10號","121.416088333333","24.98724","6500700","樹林區"
"239007","AAC-297","2019/09/17 17:59:39","新北市鶯歌區鶯桃路94巷59弄2-1號","121.341746666667","24.955335","6500800","鶯歌區"
"239006","891-R6","2019/09/17 17:59:36","新北市鶯歌區鳳鳴路25號","121.333723333333","24.9652033333333","6500800","鶯歌區"
"239008","527-UM","2019/09/17 17:59:31","新北市鶯歌區欣欣街4號","121.335758333333","24.9774466666667","6500800","鶯歌區"
"239005","526-UM","2019/09/17 17:59:24","新北市鶯歌區鶯桃路658巷149-5號","121.332348333333","24.97353","6500800","鶯歌區"
"239001","417-VK","2019/09/17 17:59:25","新北市鶯歌區中正三路237號","121.334435","24.9389783333333","6500800","鶯歌區"
"239003","360-BY","2019/09/17 17:59:34","新北市鶯歌區永吉街11巷1號","121.336383333333","24.9581316666667","6500800","鶯歌區"
"239002","359-BY","2019/09/17 17:59:30","新北市鶯歌區光明街100號","121.345863333333","24.955805","6500800","鶯歌區"
"221008","489-VK","2019/09/17 17:59:32","新北市汐止區康寧街753巷2弄14號","121.63964","25.0742766666667","6501100","汐止區"
"221036","130-UY","2019/09/17 17:59:40","新北市汐止區大同路三段49號","121.666906666667","25.0766216666667","6501100","汐止區"
"244019","KED-0667","2019/09/17 17:59:32","新北市林口區文化一路一段124號","121.374798333333","25.0723866666667","6501700","林口區"
"221010","269-BY","2019/09/17 17:59:40","新北市汐止區汐萬路二段216巷11號","121.647828333333","25.0873533333333","6501100","汐止區"
"221023","279-VK","2019/09/17 17:59:40","新北市汐止區明峰街101號","121.63147","25.07115","6501100","汐止區"
"221029","298-VK","2019/09/17 17:59:22","新北市汐止區樟樹二路330巷6號","121.641798333333","25.0701533333333","6501100","汐止區"
"221031","353-TW","2019/09/17 17:59:26","新北市汐止區中興路96巷1-3號","121.635221666667","25.0625433333333","6501100","汐止區"
"221035","622-UM","2019/09/17 17:59:27","新北市汐止區汐萬路一段211巷15號","121.651416666667","25.0717983333333","6501100","汐止區"
"221025","623-UM","2019/09/17 17:59:37","新北市汐止區仁愛路19號","121.659218333333","25.06388","6501100","汐止區"
"221038","646-BX","2019/09/17 17:59:25","新北市汐止區新台五路一段145號","121.65324","25.06227","6501100","汐止區"
"221033","647-BX","2019/09/17 17:59:38","新北市汐止區合順街33號","121.620526666667","25.0432366666667","6501100","汐止區"
"221018","753-BX","2019/09/17 17:59:31","新北市汐止區忠孝東路339巷10號","121.664316666667","25.070225","6501100","汐止區"
"233001","KEA-2870","2019/09/17 17:59:23","新北市烏來區西羅岸路22號","121.549323333333","24.8673483333333","6502900","烏來區"
"242046","281-VK","2019/09/17 17:59:33","新北市新莊區福營路167號","121.431818333333","25.0311783333333","6500500","新莊區"
"242011","280-VK","2019/09/17 17:59:29","新北市新莊區中港路中慶巷39號","121.449121666667","25.053635","6500500","新莊區"
"220021","833-TW","2019/09/17 17:51:05","新北市板橋區華東街1-10號","121.448545","24.994835","6500100","板橋區"
"235061","KEA-2875","2019/09/17 17:59:37","新北市中和區員山路82巷6-3號","121.481348333333","24.9935333333333","6500300","中和區"
"235062","KEA-2876","2019/09/17 17:59:28","新北市中和區民樂路81號","121.484625","25.0012733333333","6500300","中和區"
