"lineid","car","time","location","longitude","latitude","cityid","cityname"
"234007","KED-0605","2019/09/17 18:19:31","新北市永和區保生路55-2號","121.504756666667","25.0116833333333","6500400","永和區"
"234026","9371-KE","2019/09/17 18:19:33","新北市永和區豫溪街28巷19號","121.515101666667","25.0089283333333","6500400","永和區"
"249005","172-UM","2019/09/17 18:19:35","新北市八里區荖阡坑路15-40號","121.401741666667","25.139825","6502300","八里區"
"249001","173-UM","2019/09/17 18:19:33","新北市八里區龍米路一段222號","121.451803333333","25.12842","6502300","八里區"
"249004","303-UY","2019/09/17 18:19:43","新北市八里區龍米路二段232巷1弄2號","121.431388333333","25.15895","6502300","八里區"
"249002","305-UY","2019/09/17 18:19:38","新北市八里區龍形二街52號","121.450351666667","25.132965","6502300","八里區"
"249003","593-UM","2019/09/17 18:19:39","新北市八里區文昌五街126號","121.411416666667","25.1559216666667","6502300","八里區"
"248014","025-BX","2019/09/17 18:19:28","新北市五股區自強路45號","121.433383333333","25.0737966666667","6501500","五股區"
"248016","026-BX","2019/09/17 18:19:33","新北市五股區成泰路三段477巷18號","121.449856666667","25.0989316666667","6501500","五股區"
"248006","077-UY","2019/09/17 18:19:32","新北市五股區中興路一段119號","121.46598","25.073275","6501500","五股區"
"248008","KED-0815","2019/09/17 18:19:39","新北市五股區更洲路32巷8弄14號","121.459258333333","25.07962","6501500","五股區"
"248020","KED-0813","2019/09/17 18:19:21","新北市五股區孝義路45號","121.454286666667","25.1104816666667","6501500","五股區"
"248012","247-BX","2019/09/17 18:19:22","新北市五股區御史路1巷101弄2號","121.441045","25.0911033333333","6501500","五股區"
"248004","677-BX","2019/09/17 18:19:24","新北市五股區成泰路二段222-2號","121.439135","25.0854883333333","6501500","五股區"
"248002","678-BX","2019/09/17 18:19:30","新北市五股區西雲路16號","121.44305","25.0902583333333","6501500","五股區"
"248010","682-TV","2019/09/17 18:19:30","新北市五股區成泰路一段191號","121.434881666667","25.07652","6501500","五股區"
"232011","076-UY","2019/09/17 18:19:28","新北市坪林區坪雙路一段41號","121.711696666667","24.9424516666667","6502000","坪林區"
"244007","080-UY","2019/09/17 18:19:34","新北市林口區後湖17-4號","121.386688333333","25.0964","6501700","林口區"
"244013","KEA-2802","2019/09/17 18:19:34","新北市林口區中山路297巷86號","121.38313","25.079585","6501700","林口區"
"244023","483-VK","2019/09/17 18:19:34","新北市林口區東湖路153巷135號","121.382261666667","25.073445","6501700","林口區"
"244017","485-VK","2019/09/17 18:19:33","新北市林口區八德路78號","121.365525","25.0655483333333","6501700","林口區"
"244009","656-BX","2019/09/17 18:19:33","新北市林口區民生路108號","121.378116666667","25.0882583333333","6501700","林口區"
"244011","701-TV","2019/09/17 18:19:22","新北市林口區中正路92號","121.39424","25.077385","6501700","林口區"
"244025","837-TS","2019/09/17 18:19:40","新北市林口區文化北路一段151號","121.357231666667","25.070275","6501700","林口區"
"244021","838-TS","2019/09/17 18:19:36","新北市林口區自強一街2號","121.397545","25.07876","6501700","林口區"
"222003","436-BY","2019/09/17 18:19:30","新北市深坑區旺耽路67號","121.626256666667","25.00299","6501800","深坑區"
"222002","659-BX","2019/09/17 18:19:39","新北市深坑區雲鄉路1號","121.621061666667","24.999585","6501800","深坑區"
"231055","0291-UT","2019/09/17 18:19:41","新北市新店區安康路一段35號","121.531833333333","24.9606683333333","6500600","新店區"
"231060","106-UY","2019/09/17 18:19:29","新北市新店區安華路28-1號","121.519645","24.9608116666667","6500600","新店區"
"231065","110-UY","2019/09/17 18:19:28","新北市新店區安一路一段1-1號","121.519265","24.96112","6500600","新店區"
"231042","268-BY","2019/09/17 18:19:36","新北市新店區安一路一段1-1號","121.519733333333","24.9613833333333","6500600","新店區"
"231064","278-BY","2019/09/17 18:19:30","新北市新店區安一路一段1-1號","121.519916666667","24.9610916666667","6500600","新店區"
"231050","AAD-862","2019/09/17 18:19:33","新北市新店區安華路28-1號","121.519818333333","24.9609033333333","6500600","新店區"
"231045","355-BY","2019/09/17 18:19:34","新北市新店區安華路28-1號","121.519191666667","24.9608416666667","6500600","新店區"
"231058","3713-VJ","2019/09/17 18:19:34","新北市新店區安康路一段35號","121.5318","24.9607133333333","6500600","新店區"
"231056","4715-K9","2019/09/17 18:19:39","新北市新店區中央路216-1號","121.529906666667","24.9732183333333","6500600","新店區"
"231053","513-UM","2019/09/17 18:19:31","新北市新店區安康路一段285號","121.523278333333","24.9636116666667","6500600","新店區"
"231040","617-UM","2019/09/17 18:19:29","新北市新店區安華路28-1號","121.51936","24.9609733333333","6500600","新店區"
"231063","641-BX","2019/09/17 18:19:39","新北市新店區安華路28-1號","121.519618333333","24.9605966666667","6500600","新店區"
"231057","720-UM","2019/09/17 18:19:40","新北市新店區安一路一段1-1號","121.51935","24.9611783333333","6500600","新店區"
"231043","899-TW","2019/09/17 18:19:29","新北市新店區安華路28-1號","121.519366666667","24.960725","6500600","新店區"
"241033","AAC-255","2019/09/17 18:19:34","新北市三重區中興北街42巷31號","121.468255","25.0493383333333","6500200","三重區"
"235066","003-UY","2019/09/17 18:19:31","新北市中和區水源路2號","121.502756666667","25.0036183333333","6500300","中和區"
"235063","006-UY","2019/09/17 18:19:22","新北市中和區連城路347巷16弄12號","121.487836666667","24.995095","6500300","中和區"
"235056","096-UM","2019/09/17 18:19:33","新北市中和區中山路二段586-2號","121.482223333333","25.0051933333333","6500300","中和區"
"235039","097-UM","2019/09/17 18:19:23","新北市中和區景平路408-1號","121.508538333333","24.9930616666667","6500300","中和區"
"235065","098-UM","2019/09/17 18:19:25","新北市中和區莊敬路49巷18號","121.50162","25.0060833333333","6500300","中和區"
"235040","150-BY","2019/09/17 18:19:24","新北市中和區景平路275號","121.507893333333","24.9929916666667","6500300","中和區"
"235058","151-BY","2019/09/17 18:19:27","新北市中和區圓通路369巷36-2號","121.49083","24.98434","6500300","中和區"
"235038","185-VK","2019/09/17 18:19:36","新北市中和區自立路48號","121.522963333333","24.9921316666667","6500300","中和區"
"235049","186-VK","2019/09/17 18:19:30","新北市中和區錦和路350-1號","121.490438333333","24.993545","6500300","中和區"
"235072","301-VK","2019/09/17 18:19:32","新北市中和區連城路237-1號","121.493763333333","24.9972833333333","6500300","中和區"
"235043","352-BY","2019/09/17 18:19:24","新北市中和區景平路381號","121.50376","24.9933666666667","6500300","中和區"
"235042","KEA-2878","2019/09/17 18:19:40","新北市中和區景平路159巷36號","121.5126","24.9915866666667","6500300","中和區"
"235050","4979-A6","2019/09/17 18:19:40","新北市中和區捷運路173號","121.505891666667","24.99132","6500300","中和區"
"235069","4980-A6","2019/09/17 18:19:42","新北市中和區連城路237-1號","121.493781666667","24.9974033333333","6500300","中和區"
"235070","558-UM","2019/09/17 18:19:40","新北市中和區景平路588巷2號","121.501386666667","24.9958766666667","6500300","中和區"
"235045","565-BX","2019/09/17 18:19:33","新北市中和區復興路13號","121.505778333333","24.9896083333333","6500300","中和區"
"235060","KED-0823","2019/09/17 18:19:39","新北市中和區員山路405號","121.481151666667","25.0031516666667","6500300","中和區"
"235054","640-BX","2019/09/17 18:19:36","新北市中和區民享街99號","121.474943333333","24.9999233333333","6500300","中和區"
"235047","732-UM","2019/09/17 18:19:29","新北市中和區南山路515號","121.507956666667","24.9874466666667","6500300","中和區"
"235046","733-UM","2019/09/17 18:19:30","新北市中和區錦和路350-1號","121.490545","24.9935716666667","6500300","中和區"
"235057","801-TS","2019/09/17 18:19:28","新北市中和區民安街57號","121.478978333333","24.99978","6500300","中和區"
"235041","802-TS","2019/09/17 18:19:31","新北市中和區中正路169號","121.497998333333","24.99371","6500300","中和區"
"235052","805-TS","2019/09/17 18:19:39","新北市中和區興南路二段96號","121.505161666667","24.98423","6500300","中和區"
"235048","896-TW","2019/09/17 18:19:24","新北市中和區中正路277-2號","121.495373333333","24.9936133333333","6500300","中和區"
"235064","911-UM","2019/09/17 18:19:39","新北市中和區圓通路124號","121.498681666667","24.9958783333333","6500300","中和區"
"235051","157-BY","2019/09/17 18:19:42","新北市中和區忠孝街104號","121.512143333333","24.9847116666667","6500300","中和區"
"235037","AAC-213","2019/09/17 18:19:21","新北市中和區景德街95-1號","121.515485","24.991165","6500300","中和區"
"235059","AAC-215","2019/09/17 18:19:31","新北市中和區員山路36巷16-3號","121.485146666667","24.9913766666667","6500300","中和區"
"220069","AAD-861","2019/09/17 18:19:27","新北市板橋區華東街1-10號","121.448361666667","24.9951016666667","6500100","板橋區"
"247024","057-VK","2019/09/17 18:04:56","新北市五股區中興路三段163號","121.449121666667","25.0808","6501400","蘆洲區"
"226004","312-R5","2019/09/17 18:19:33","新北市平溪區薯榔里一坑路26號","121.71361","25.0218266666667","6502400","平溪區"
"228003","097-TW","2019/09/17 18:19:27","新北市貢寮區和美里和美街63號","121.922361666667","25.0710783333333","6502600","貢寮區"
"228001","212-TW","2019/09/17 18:19:27","新北市貢寮區真理里新港街26巷55弄2-1號","121.927325","25.0528116666667","6502600","貢寮區"
"228002","663-BX","2019/09/17 18:19:29","新北市貢寮區福連里馬崗街1號","121.998056666667","25.0159966666667","6502600","貢寮區"
"224010","AGQ-8101","2019/09/17 18:19:37","新北市瑞芳區崙頂路17號","121.845816666667","25.1063966666667","6501200","瑞芳區"
"224006","676-BX","2019/09/17 18:19:39","新北市瑞芳區中正路2號","121.809338333333","25.1071266666667","6501200","瑞芳區"
"224002","639-TC","2019/09/17 18:19:34","新北市瑞芳區三爪子坑路91巷5號","121.81166","25.107215","6501200","瑞芳區"
"224007","285-BY","2019/09/17 18:19:41","新北市瑞芳區大埔路有勝新村7號","121.764823333333","25.101125","6501200","瑞芳區"
"224009","275-VK","2019/09/17 18:19:34","新北市瑞芳區祈堂路184號","121.857613333333","25.1094966666667","6501200","瑞芳區"
"224008","273-VK","2019/09/17 18:19:33","新北市瑞芳區明燈路二段56號","121.809976666667","25.1075783333333","6501200","瑞芳區"
"224005","271-BY","2019/09/17 18:19:37","新北市瑞芳區建基新村20-7號","121.81116","25.1312033333333","6501200","瑞芳區"
"227001","642-TC","2019/09/17 18:19:42","新北市雙溪區牡丹里牡丹73號","121.851716666667","25.059355","6502500","雙溪區"
"227002","400-TW","2019/09/17 18:19:35","新北市雙溪區共和里中山路6號","121.864396666667","25.03358","6502500","雙溪區"
"253005","032-BX","2019/09/17 18:19:21","新北市石門區中央路5號","121.566341666667","25.291595","6502200","石門區"
"253006","295-VK","2019/09/17 18:19:40","新北市石門區老梅路67號","121.545875","25.2892416666667","6502200","石門區"
"222001","KEA-2212","2019/09/17 18:19:39","新北市深坑區北深路二段58號","121.619166666667","25.00425","6501800","深坑區"
"208002","KEA-2872","2019/09/17 18:19:37","新北市金山區磺港里社寮28號","121.636663333333","25.2293333333333","6502700","金山區"
"208003","665-BX","2019/09/17 18:19:29","新北市金山區中山路16號","121.641301666667","25.2177816666667","6502700","金山區"
"251004","009-UM","2019/09/17 18:19:33","新北市淡水區民族路57號","121.46288","25.1350533333333","6501000","淡水區"
"251001","011-UM","2019/09/17 18:19:34","新北市淡水區自強路108-19號","121.461625","25.1313866666667","6501000","淡水區"
"251015","KEA-2871","2019/09/17 18:19:24","新北市淡水區興福寮88巷87號","121.484523333333","25.1656983333333","6501000","淡水區"
"251016","179-VK","2019/09/17 18:19:41","新北市淡水區淡金路三段228巷22-7號","121.449938333333","25.2049533333333","6501000","淡水區"
"251008","181-VK","2019/09/17 18:19:25","新北市淡水區淡金路18號","121.45714","25.159975","6501000","淡水區"
"251013","182-VK","2019/09/17 18:19:26","新北市淡水區行忠路590號","121.467998333333","25.1992616666667","6501000","淡水區"
"251010","413-VK","2019/09/17 18:19:41","新北市淡水區淡海路189巷1號","121.420418333333","25.1843916666667","6501000","淡水區"
"251012","441-VK","2019/09/17 18:19:38","新北市淡水區北新路三段10號","121.482615","25.1853733333333","6501000","淡水區"
"251005","443-VK","2019/09/17 18:19:32","新北市淡水區水源街一段122巷37號","121.447093333333","25.1704966666667","6501000","淡水區"
"251006","561-UM","2019/09/17 18:19:32","新北市淡水區新民街76巷16號","121.438941666667","25.1768016666667","6501000","淡水區"
"251014","577-R6","2019/09/17 18:19:24","新北市淡水區崙頂14號","121.491381666667","25.2216533333333","6501000","淡水區"
"251011","650-BX","2019/09/17 18:19:30","新北市淡水區三空泉9-1號","121.474743333333","25.162875","6501000","淡水區"
"251002","672-BX","2019/09/17 18:19:35","新北市淡水區中正東路一段125號","121.455458333333","25.1593633333333","6501000","淡水區"
"251003","673-BX","2019/09/17 18:19:30","新北市淡水區北新路180號","121.449411666667","25.17872","6501000","淡水區"
"207003","550-UM","2019/09/17 18:19:27","新北市萬里區野柳里港西路70-3號","121.68546","25.2047433333333","6502800","萬里區"
"207004","291-VK","2019/09/17 18:19:24","新北市萬里區中幅里中福路202-1號","121.673233333333","25.16518","6502800","萬里區"
"252002","178-VK","2019/09/17 18:19:36","新北市三芝區中山路二段37號","121.502868333333","25.255145","6502100","三芝區"
"252003","249-BX","2019/09/17 18:19:42","新北市三芝區錫板里南勢崗6號","121.479401666667","25.2621366666667","6502100","三芝區"
"208001","170-UY","2019/09/17 18:19:32","新北市金山區自強路22號","121.640311666667","25.2169033333333","6502700","金山區"
"237004","KEA-2597","2019/09/17 18:19:29","新北市三峽區五寮42-1號","121.370318333333","24.8663783333333","6500900","三峽區"
"237007","153-BY","2019/09/17 18:19:27","新北市三峽區中正路二段582號","121.359323333333","24.90596","6500900","三峽區"
"237009","210-TH","2019/09/17 18:19:35","新北市三峽區大勇路36巷27號","121.365441666667","24.9370016666667","6500900","三峽區"
"237013","252-BX","2019/09/17 18:19:29","新北市三峽區永安街43號","121.376175","24.9301516666667","6500900","三峽區"
"237012","275-BY","2019/09/17 18:19:26","新北市三峽區民生街1巷1-6號","121.37706","24.9369666666667","6500900","三峽區"
"237008","302-VK","2019/09/17 18:19:34","新北市三峽區白雞68-101號","121.392555","24.9085366666667","6500900","三峽區"
"237014","433-BY","2019/09/17 18:19:31","新北市三峽區復興路78號","121.37307","24.9373166666667","6500900","三峽區"
"237006","5529-G3","2019/09/17 18:19:25","新北市三峽區溪東路182號","121.406643333333","24.9325733333333","6500900","三峽區"
"237011","KEA-2596","2019/09/17 18:19:30","新北市三峽區溪東路163號","121.40322","24.9339883333333","6500900","三峽區"
"237015","649-BX","2019/09/17 18:19:29","新北市三峽區紫微路42-1號","121.42224","24.9199033333333","6500900","三峽區"
"237010","706-TV","2019/09/17 18:19:38","新北市三峽區民族街3號","121.369083333333","24.9313716666667","6500900","三峽區"
"237005","AKY-6261","2019/09/17 18:19:33","新北市三峽區長福街10號","121.370358333333","24.9337583333333","6500900","三峽區"
"236042","KED-0685","2019/09/17 18:19:38","新北市土城區樂利街7號","121.448328333333","24.98601","6501300","土城區"
"233002","762-BX","2019/09/17 18:19:33","新北市烏來區金堰15號","121.550923333333","24.8834466666667","6502900","烏來區"
"236030","253-BX","2019/09/17 18:19:34","新北市土城區順風路31號","121.440765","24.9767366666667","6501300","土城區"
"236026","269-VK","2019/09/17 18:19:39","新北市土城區承天路83-6號","121.440858333333","24.96253","6501300","土城區"
"236014","270-VK","2019/09/17 18:19:25","新北市土城區立清街69號","121.460323333333","24.98733","6501300","土城區"
"236038","271-VK","2019/09/17 18:19:36","新北市土城區青雲路483巷9號","121.459358333333","24.97362","6501300","土城區"
"236070","KEA-2877","2019/09/17 18:19:29","新北市土城區永豐路212-1號","121.467091666667","24.98289","6501300","土城區"
"252001","KED-0821","2019/09/17 18:19:27","新北市三芝區中興街二段2號","121.49837","25.256665","6502100","三芝區"
"236021","401-BY","2019/09/17 18:19:24","新北市土城區明德路一段375-3號","121.454165","24.9785383333333","6501300","土城區"
"236059","912-UM","2019/09/17 18:19:24","新北市土城區中央路四段450號","121.410453333333","24.9512333333333","6501300","土城區"
"236049","913-UM","2019/09/17 18:19:27","新北市土城區明德路一段361-2號","121.456406666667","24.9776566666667","6501300","土城區"
"236063","915-UM","2019/09/17 18:19:30","新北市土城區金城路三段202-1號","121.469263333333","24.988505","6501300","土城區"
"236055","AAC-216","2019/09/17 18:19:24","新北市土城區中華路二段178號","121.437435","24.97185","6501300","土城區"
"242042","AAC-296","2019/09/17 18:19:36","新北市新莊區天祥街89號","121.41526","25.029455","6500500","新莊區"
"242005","751-BX","2019/09/17 18:19:23","新北市新莊區自由街8號","121.455838333333","25.047835","6500500","新莊區"
"242061","705-TV","2019/09/17 18:19:36","新北市新莊區新樹路179號","121.436376666667","25.0248583333333","6500500","新莊區"
"242027","613-BX","2019/09/17 18:19:39","新北市新莊區幸福路819號","121.445458333333","25.048975","6500500","新莊區"
"242058","612-BX","2019/09/17 18:19:23","新北市新莊區新北大道七段842號","121.413685","25.0236683333333","6500500","新莊區"
"242054","497-BY","2019/09/17 18:19:35","新北市新莊區民安西路410巷1弄2號","121.42861","25.0096266666667","6500500","新莊區"
"242051","442-UM","2019/09/17 18:19:41","新北市新莊區民安西路54號","121.427393333333","25.0205666666667","6500500","新莊區"
"242002","441-UM","2019/09/17 18:19:38","新北市新莊區碧江街19號","121.453923333333","25.0338366666667","6500500","新莊區"
"242007","440-UM","2019/09/17 18:19:29","新北市新莊區自重街2號","121.453373333333","25.0474416666667","6500500","新莊區"
"242044","415-TV","2019/09/17 18:19:40","新北市新莊區鳳山街48號","121.414333333333","25.0258283333333","6500500","新莊區"
"242025","362-BY","2019/09/17 18:19:40","新北市新莊區五工三路94巷6號","121.458471666667","25.065795","6500500","新莊區"
"242015","132-UY","2019/09/17 18:19:29","新北市新莊區中平路152巷11號","121.445465","25.0473766666667","6500500","新莊區"
"242056","172-VK","2019/09/17 18:19:34","新北市新莊區環漢路二段630號","121.443498333333","25.0256283333333","6500500","新莊區"
"242032","175-VK","2019/09/17 18:19:39","新北市新莊區新泰路255巷13號","121.44552","25.039565","6500500","新莊區"
"242021","KED-0687","2019/09/17 18:19:31","新北市新莊區中正路245號","121.45009","25.03547","6500500","新莊區"
"242009","346-TH","2019/09/17 18:19:40","新北市新莊區昌盛街15號","121.453191666667","25.0500766666667","6500500","新莊區"
"242034","350-TH","2019/09/17 18:19:30","新北市新莊區瓊林路13-4號","121.448683333333","25.0308716666667","6500500","新莊區"
"238015","755-BX","2019/09/17 18:19:28","新北市樹林區文化街112巷21號","121.416986666667","24.99037","6500700","樹林區"
"238023","601-UM","2019/09/17 18:19:26","新北市樹林區中正路815號","121.409411666667","25.017035","6500700","樹林區"
"238019","599-UM","2019/09/17 18:19:44","新北市樹林區忠孝街111號","121.424663333333","24.9805483333333","6500700","樹林區"
"238024","5061-A6","2019/09/17 18:19:25","新北市樹林區保安街一段195號","121.420958333333","24.9961233333333","6500700","樹林區"
"238018","KEA-2217","2019/09/17 18:19:34","新北市樹林區樹新路34巷9號","121.428221666667","24.9946133333333","6500700","樹林區"
"238025","303-VK","2019/09/17 18:19:34","新北市樹林區保安街一段324號","121.41839","24.9975883333333","6500700","樹林區"
"238017","283-BY","2019/09/17 18:19:31","新北市樹林區保安街三段9號","121.41247","25.0101866666667","6500700","樹林區"
"238014","282-BY","2019/09/17 18:19:33","新北市樹林區大安路111巷8號","121.423106666667","24.9974316666667","6500700","樹林區"
"238020","268-VK","2019/09/17 18:19:27","新北市樹林區三龍街80巷7號","121.41398","25.0182316666667","6500700","樹林區"
"238026","172-UY","2019/09/17 18:19:36","新北市樹林區佳園路一段82-1號","121.393301666667","24.9696633333333","6500700","樹林區"
"238016","169-UY","2019/09/17 18:19:33","新北市樹林區復興路337號","121.417798333333","24.98779","6500700","樹林區"
"239007","AAC-297","2019/09/17 18:19:39","新北市鶯歌區育英街53號","121.347118333333","24.9527166666667","6500800","鶯歌區"
"239006","891-R6","2019/09/17 18:19:36","新北市鶯歌區鶯桃路365巷6號","121.333311666667","24.96293","6500800","鶯歌區"
"239008","527-UM","2019/09/17 18:19:31","新北市鶯歌區朝陽街1號","121.33628","24.9765716666667","6500800","鶯歌區"
"239005","526-UM","2019/09/17 18:19:24","新北市鶯歌區鶯桃路668巷29號","121.32905","24.97039","6500800","鶯歌區"
"239001","417-VK","2019/09/17 18:19:25","新北市鶯歌區中正三路福德巷27號","121.340175","24.940985","6500800","鶯歌區"
"239003","360-BY","2019/09/17 18:19:33","新北市鶯歌區福安街13巷1號","121.335516666667","24.965255","6500800","鶯歌區"
"239002","359-BY","2019/09/17 18:19:30","新北市鶯歌區中山路162號","121.34939","24.95709","6500800","鶯歌區"
"239004","193-VK","2019/09/17 18:19:24","新北市鶯歌區尖山路166巷46號","121.344846666667","24.9493566666667","6500800","鶯歌區"
"221036","130-UY","2019/09/17 18:19:43","新北市汐止區大同路三段193號","121.671051666667","25.0774","6501100","汐止區"
"221015","131-UY","2019/09/17 18:19:25","新北市汐止區長江街363號","121.667923333333","25.08235","6501100","汐止區"
"244019","KED-0667","2019/09/17 18:19:31","新北市林口區忠孝路581巷8號","121.374931666667","25.0689266666667","6501700","林口區"
"221010","269-BY","2019/09/17 18:19:40","新北市汐止區祥雲街18巷1號","121.646455","25.0900333333333","6501100","汐止區"
"221012","278-VK","2019/09/17 18:19:33","新北市汐止區保一街35巷4號","121.674741666667","25.0804633333333","6501100","汐止區"
"221023","279-VK","2019/09/17 18:19:28","新北市汐止區中興路250號","121.629051666667","25.068605","6501100","汐止區"
"221032","280-BY","2019/09/17 18:19:39","新北市汐止區力行街22號","121.616888333333","25.0506233333333","6501100","汐止區"
"221021","299-VK","2019/09/17 18:19:39","新北市汐止區連興街30號","121.655313333333","25.0637583333333","6501100","汐止區"
"221031","353-TW","2019/09/17 18:19:26","新北市汐止區中興路212號","121.631148333333","25.0662383333333","6501100","汐止區"
"221035","622-UM","2019/09/17 18:19:27","新北市汐止區中正路311號","121.65591","25.06768","6501100","汐止區"
"221025","623-UM","2019/09/17 18:19:37","新北市汐止區勤進路12巷31號","121.659138333333","25.062525","6501100","汐止區"
"221038","646-BX","2019/09/17 18:19:25","新北市汐止區仁愛路180號","121.664858333333","25.065745","6501100","汐止區"
"221033","647-BX","2019/09/17 18:19:38","新北市汐止區宜興街82號","121.623171666667","25.0426233333333","6501100","汐止區"
"221002","707-TV","2019/09/17 18:19:30","新北市汐止區福德一路201巷27號","121.635915","25.064645","6501100","汐止區"
"221018","753-BX","2019/09/17 18:19:31","新北市汐止區茄苳路62號","121.666446666667","25.07073","6501100","汐止區"
"242046","281-VK","2019/09/17 18:19:33","新北市新莊區福營路336號","121.421645","25.026845","6500500","新莊區"
"242011","280-VK","2019/09/17 18:19:32","新北市新莊區中港路615巷18號","121.450466666667","25.053305","6500500","新莊區"
"220021","833-TW","2019/09/17 18:08:17","新北市板橋區華東街1-10號","121.448596666667","24.9947383333333","6500100","板橋區"
"235068","KEA-2873","2019/09/17 18:19:23","新北市中和區錦和路350-1號","121.490153333333","24.993565","6500300","中和區"
"235061","KEA-2875","2019/09/17 18:19:37","新北市中和區民享街100號","121.474756666667","24.9996083333333","6500300","中和區"
"235062","KEA-2876","2019/09/17 18:19:28","新北市中和區景平路744號","121.496485","25.0041883333333","6500300","中和區"
