"lineid","car","time","location","longitude","latitude","cityid","cityname"
"234046","148-BY","2019/09/17 18:29:26","新北市永和區福和路1號","121.526001666667","25.0096716666667","6500400","永和區"
"234081","298-R6","2019/09/17 18:29:27","新北市永和區豫溪街217巷3號","121.524766666667","25.00946","6500400","永和區"
"234017","745-BX","2019/09/17 18:29:24","新北市永和區福和路1號","121.526406666667","25.0095833333333","6500400","永和區"
"234007","KED-0605","2019/09/17 18:29:31","新北市永和區環河西路二段229巷1號","121.501411666667","25.0099983333333","6500400","永和區"
"234026","9371-KE","2019/09/17 18:29:37","新北市永和區永貞路417巷16號","121.506298333333","25.0091066666667","6500400","永和區"
"234011","9373-KE","2019/09/17 18:29:41","新北市永和區保福路二段156號","121.509191666667","25.015035","6500400","永和區"
"249005","172-UM","2019/09/17 18:29:35","新北市八里區中華路三段90號","121.393275","25.1392083333333","6502300","八里區"
"249001","173-UM","2019/09/17 18:29:33","新北市八里區龍米路一段142號","121.452918333333","25.1256416666667","6502300","八里區"
"249004","303-UY","2019/09/17 18:29:23","新北市八里區忠孝路81號","121.425245","25.160505","6502300","八里區"
"249002","305-UY","2019/09/17 18:29:38","新北市八里區龍形三街6巷1號","121.450153333333","25.1317633333333","6502300","八里區"
"249003","593-UM","2019/09/17 18:23:31","新北市八里區博物館路10-1號","121.415123333333","25.1639783333333","6502300","八里區"
"248014","025-BX","2019/09/17 18:29:28","新北市五股區明德路7巷22號","121.434615","25.0708716666667","6501500","五股區"
"248016","026-BX","2019/09/17 18:29:38","新北市五股區凌雲路一段83巷1-4號","121.450435","25.1007983333333","6501500","五股區"
"248008","KED-0815","2019/09/17 18:29:39","新北市五股區更洲路32巷8弄13號","121.459561666667","25.079525","6501500","五股區"
"248020","KED-0813","2019/09/17 18:29:21","新北市五股區孝義路55巷5號","121.45139","25.1120266666667","6501500","五股區"
"248012","247-BX","2019/09/17 18:29:42","新北市五股區御成路143號","121.441005","25.0942766666667","6501500","五股區"
"248004","677-BX","2019/09/17 18:29:24","新北市五股區工商路150號","121.433208333333","25.087385","6501500","五股區"
"248002","678-BX","2019/09/17 18:29:30","新北市五股區西雲路116-6號","121.444716666667","25.0936083333333","6501500","五股區"
"248010","682-TV","2019/09/17 18:29:30","新北市五股區明德路6-11號","121.433956666667","25.07177","6501500","五股區"
"234023","9380-KE","2019/09/17 18:29:23","新北市永和區福和路1號","121.526326666667","25.0095683333333","6500400","永和區"
"232011","076-UY","2019/09/17 18:29:28","新北市坪林區坪雙路一段41號","121.711701666667","24.9424366666667","6502000","坪林區"
"244007","080-UY","2019/09/17 18:29:34","新北市林口區後湖18-3號","121.387386666667","25.0977983333333","6501700","林口區"
"244013","KEA-2802","2019/09/17 18:29:34","新北市林口區中正路514巷6弄1號","121.382198333333","25.0780933333333","6501700","林口區"
"244023","483-VK","2019/09/17 18:29:24","新北市林口區仁愛路二段91號","121.384565","25.0754483333333","6501700","林口區"
"244017","485-VK","2019/09/17 18:29:33","新北市林口區文化二路一段86號","121.36631","25.06966","6501700","林口區"
"244009","656-BX","2019/09/17 18:29:33","新北市林口區民生路87號","121.37697","25.0877666666667","6501700","林口區"
"244011","701-TV","2019/09/17 18:29:42","新北市林口區興林路17巷6號","121.390365","25.07699","6501700","林口區"
"244025","837-TS","2019/09/17 18:29:40","新北市林口區南勢六街55號","121.355691666667","25.07174","6501700","林口區"
"244021","838-TS","2019/09/17 18:29:36","新北市林口區自強二街49號","121.398971666667","25.077265","6501700","林口區"
"243010","297-R6","2019/09/17 18:29:35","新北市泰山區黎明路25號","121.421941666667","25.0608166666667","6501600","泰山區"
"222003","436-BY","2019/09/17 18:29:30","新北市深坑區北深路一段288號","121.628161666667","25.0076266666667","6501800","深坑區"
"222002","659-BX","2019/09/17 18:29:39","新北市深坑區雲鄉路133號","121.622718333333","24.9980466666667","6501800","深坑區"
"231061","002-UM","2019/09/17 18:29:24","新北市新店區安華路28-1號","121.519826666667","24.960845","6500600","新店區"
"231055","0291-UT","2019/09/17 18:29:21","新北市新店區中正路128巷2號","121.542238333333","24.9714833333333","6500600","新店區"
"231060","106-UY","2019/09/17 18:29:29","新北市新店區安華路28-1號","121.519611666667","24.960745","6500600","新店區"
"231065","110-UY","2019/09/17 18:29:28","新北市新店區安一路一段1-1號","121.5193","24.961095","6500600","新店區"
"231062","256-BX","2019/09/17 18:29:36","新北市新店區安一路一段1-1號","121.519705","24.961155","6500600","新店區"
"231042","268-BY","2019/09/17 18:29:36","新北市新店區安一路一段1-1號","121.519728333333","24.96137","6500600","新店區"
"231064","278-BY","2019/09/17 18:29:30","新北市新店區安一路一段1-1號","121.51985","24.9610766666667","6500600","新店區"
"231050","AAD-862","2019/09/17 18:29:33","新北市新店區安一路一段1-1號","121.519531666667","24.96135","6500600","新店區"
"231045","355-BY","2019/09/17 18:29:34","新北市新店區安華路28-1號","121.519286666667","24.9607366666667","6500600","新店區"
"231058","3713-VJ","2019/09/17 18:29:44","新北市新店區新店後街113-1號","121.537848333333","24.9560766666667","6500600","新店區"
"231056","4715-K9","2019/09/17 18:29:39","新北市新店區二十張路129巷5弄1號","121.536536666667","24.9787066666667","6500600","新店區"
"231051","512-UM","2019/09/17 18:29:28","新北市新店區安一路一段1-1號","121.519365","24.9614433333333","6500600","新店區"
"231053","513-UM","2019/09/17 18:29:31","新北市新店區北宜路一段256號","121.545513333333","24.9528116666667","6500600","新店區"
"231040","617-UM","2019/09/17 18:29:29","新北市新店區安華路28-1號","121.519366666667","24.96098","6500600","新店區"
"231041","619-UM","2019/09/17 18:29:28","新北市新店區安華路28-1號","121.519486666667","24.9608183333333","6500600","新店區"
"231063","641-BX","2019/09/17 18:29:39","新北市新店區安華路28-1號","121.519563333333","24.96058","6500600","新店區"
"231048","KED-0819","2019/09/17 18:29:41","新北市新店區安一路一段1-1號","121.519848333333","24.9612083333333","6500600","新店區"
"231054","718-UY","2019/09/17 18:29:41","新北市新店區安華路28-1號","121.519408333333","24.9609716666667","6500600","新店區"
"231057","720-UM","2019/09/17 18:29:40","新北市新店區安一路一段1-1號","121.519173333333","24.96113","6500600","新店區"
"231059","897-TW","2019/09/17 18:29:29","新北市新店區安華路28-1號","121.519835","24.96068","6500600","新店區"
"231043","899-TW","2019/09/17 18:29:29","新北市新店區安華路28-1號","121.519198333333","24.960805","6500600","新店區"
"231066","AKT-0513","2019/09/17 18:29:23","新北市新店區安華路1-1號","121.519603333333","24.9604716666667","6500600","新店區"
"235066","003-UY","2019/09/17 18:29:31","新北市中和區中山路二段120號","121.502711666667","25.0036783333333","6500300","中和區"
"235063","006-UY","2019/09/17 18:29:22","新北市中和區連城路347巷4弄1-3號","121.488193333333","24.995545","6500300","中和區"
"235056","096-UM","2019/09/17 18:29:33","新北市中和區員山路611巷1號","121.477866666667","25.0113116666667","6500300","中和區"
"235039","097-UM","2019/09/17 18:29:23","新北市中和區安平路192-1號","121.51334","24.9993516666667","6500300","中和區"
"235065","098-UM","2019/09/17 18:29:25","新北市中和區中山路二段64巷22號","121.503035","25.0059566666667","6500300","中和區"
"235040","150-BY","2019/09/17 18:29:24","新北市中和區安平路59號","121.509511666667","24.99496","6500300","中和區"
"235058","151-BY","2019/09/17 18:29:27","新北市中和區圓通路369巷39-30號","121.489723333333","24.98571","6500300","中和區"
"235038","185-VK","2019/09/17 18:29:36","新北市中和區自立路143號","121.522361666667","24.9932633333333","6500300","中和區"
"235049","186-VK","2019/09/17 18:29:30","新北市中和區景安路117號","121.505805","24.9964916666667","6500300","中和區"
"235067","255-BX","2019/09/17 18:29:21","新北市中和區新生街2號","121.48307","25.0046966666667","6500300","中和區"
"235072","301-VK","2019/09/17 18:29:32","新北市中和區連城路8號","121.499105","25.0022933333333","6500300","中和區"
"235043","352-BY","2019/09/17 18:29:24","新北市中和區景平路277號","121.507785","24.9929266666667","6500300","中和區"
"235042","KEA-2878","2019/09/17 18:29:40","新北市中和區秀朗路三段150巷2號","121.524105","24.991025","6500300","中和區"
"235050","4979-A6","2019/09/17 18:29:40","新北市中和區景新街362巷5號","121.511951666667","24.9901033333333","6500300","中和區"
"235069","4980-A6","2019/09/17 18:29:22","新北市中和區連城路103號","121.496351666667","24.9995883333333","6500300","中和區"
"235070","558-UM","2019/09/17 18:29:24","新北市中和區景新街133號","121.50591","24.9972833333333","6500300","中和區"
"235045","565-BX","2019/09/17 18:29:33","新北市中和區復興路1號","121.506405","24.9897033333333","6500300","中和區"
"235060","KED-0823","2019/09/17 18:29:39","新北市中和區中山路二段581號","121.480326666667","25.0057216666667","6500300","中和區"
"235054","640-BX","2019/09/17 18:29:42","新北市中和區莒光路80號","121.472303333333","25.00288","6500300","中和區"
"235047","732-UM","2019/09/17 18:29:29","新北市中和區南山路515號","121.507963333333","24.9874333333333","6500300","中和區"
"235046","733-UM","2019/09/17 18:29:30","新北市中和區興南路一段71號","121.51009","24.9892566666667","6500300","中和區"
"235057","801-TS","2019/09/17 18:29:27","新北市中和區員山路327巷20號","121.480758333333","25.0014616666667","6500300","中和區"
"235041","802-TS","2019/09/17 18:29:31","新北市中和區中和路260-1號","121.508111666667","24.9993266666667","6500300","中和區"
"235052","805-TS","2019/09/17 18:29:39","新北市中和區興南路二段124號","121.504398333333","24.9836733333333","6500300","中和區"
"235048","896-TW","2019/09/17 18:29:24","新北市中和區南山路122號","121.503483333333","24.993125","6500300","中和區"
"235064","911-UM","2019/09/17 18:29:39","新北市中和區連城路109巷18號","121.496708333333","24.9988633333333","6500300","中和區"
"235051","157-BY","2019/09/17 18:29:42","新北市中和區興南路二段142巷20弄1號","121.502376666667","24.9846666666667","6500300","中和區"
"235037","AAC-213","2019/09/17 18:29:21","新北市中和區景德街72號","121.51675","24.9915183333333","6500300","中和區"
"235059","AAC-215","2019/09/17 18:29:31","新北市中和區員山路36巷16-3號","121.485141666667","24.99134","6500300","中和區"
"220065","072-UY","2019/09/17 18:29:31","新北市板橋區南雅南路二段140號","121.451823333333","24.99626","6500100","板橋區"
"220069","AAD-861","2019/09/17 18:29:27","新北市板橋區華東街1-10號","121.448386666667","24.9951416666667","6500100","板橋區"
"247024","057-VK","2019/09/17 18:04:56","新北市五股區中興路三段163號","121.449121666667","25.0808","6501400","蘆洲區"
"226004","312-R5","2019/09/17 18:29:33","新北市平溪區靜安路二段295號","121.732271666667","25.0231","6502400","平溪區"
"228003","097-TW","2019/09/17 18:29:27","新北市貢寮區和美里和美街39號","121.912343333333","25.0893983333333","6502600","貢寮區"
"228001","212-TW","2019/09/17 18:29:27","新北市貢寮區仁理村仁和路124號","121.922988333333","25.0512183333333","6502600","貢寮區"
"228002","663-BX","2019/09/17 18:29:29","新北市貢寮區福連里香蘭街34號","121.988131666667","25.018695","6502600","貢寮區"
"224010","AGQ-8101","2019/09/17 18:29:37","新北市瑞芳區烏勢巷108號","121.846213333333","25.1087666666667","6501200","瑞芳區"
"224006","676-BX","2019/09/17 18:29:39","新北市瑞芳區明燈路三段16號","121.808771666667","25.107525","6501200","瑞芳區"
"224002","639-TC","2019/09/17 18:29:34","新北市瑞芳區三爪子坑路29巷35號","121.813811666667","25.1066016666667","6501200","瑞芳區"
"224007","285-BY","2019/09/17 18:29:21","新北市瑞芳區大埔路吉慶公園城37號","121.764166666667","25.0993333333333","6501200","瑞芳區"
"224009","275-VK","2019/09/17 18:29:34","新北市瑞芳區五號路215號","121.856078333333","25.1103433333333","6501200","瑞芳區"
"224008","273-VK","2019/09/17 18:29:33","新北市瑞芳區逢甲路148-1號","121.808245","25.109225","6501200","瑞芳區"
"224005","271-BY","2019/09/17 18:29:34","新北市瑞芳區瑞濱路105號","121.820356666667","25.120365","6501200","瑞芳區"
"227001","642-TC","2019/09/17 18:29:42","新北市雙溪區牡丹里牡丹137-1號","121.85121","25.0589966666667","6502500","雙溪區"
"227002","400-TW","2019/09/17 18:29:35","新北市雙溪區魚行里坤溪22號","121.870391666667","25.0293816666667","6502500","雙溪區"
"253005","032-BX","2019/09/17 18:29:21","新北市石門區海園路37號","121.556793333333","25.291315","6502200","石門區"
"253006","295-VK","2019/09/17 18:29:36","新北市石門區公地14號","121.545565","25.29019","6502200","石門區"
"222001","KEA-2212","2019/09/17 18:29:32","新北市深坑區北深路一段210號","121.632838333333","25.010885","6501800","深坑區"
"208002","KEA-2872","2019/09/17 18:29:37","新北市金山區民生路45號","121.64219","25.2210516666667","6502700","金山區"
"208003","665-BX","2019/09/17 18:29:29","新北市金山區中山路222號","121.637355","25.22209","6502700","金山區"
"251004","009-UM","2019/09/17 18:29:33","新北市淡水區民族路31巷31號","121.46234","25.1365183333333","6501000","淡水區"
"251001","011-UM","2019/09/17 18:29:34","新北市淡水區自強路367號","121.464305","25.1331233333333","6501000","淡水區"
"251015","KEA-2871","2019/09/17 18:29:24","新北市淡水區興福寮88巷216號","121.485963333333","25.1665816666667","6501000","淡水區"
"251016","179-VK","2019/09/17 18:29:31","新北市淡水區下圭柔山114-1號","121.445393333333","25.2108716666667","6501000","淡水區"
"251008","181-VK","2019/09/17 18:29:25","新北市淡水區北投子93號","121.466283333333","25.17676","6501000","淡水區"
"251013","182-VK","2019/09/17 18:29:26","新北市淡水區椿子林19-8號","121.479925","25.2035516666667","6501000","淡水區"
"251010","413-VK","2019/09/17 18:29:41","新北市淡水區沙崙路181巷1號","121.42415","25.184195","6501000","淡水區"
"251012","441-VK","2019/09/17 18:29:37","新北市淡水區北新路一段157號","121.458671666667","25.1823133333333","6501000","淡水區"
"251005","443-VK","2019/09/17 18:29:32","新北市淡水區中正東路35巷6號","121.446318333333","25.168505","6501000","淡水區"
"251006","561-UM","2019/09/17 18:29:32","新北市淡水區中山北路一段45巷18號","121.440911666667","25.1759933333333","6501000","淡水區"
"251014","577-R6","2019/09/17 18:29:40","新北市淡水區南平26-2號","121.493485","25.2146933333333","6501000","淡水區"
"251011","650-BX","2019/09/17 18:29:30","新北市淡水區坪頂路55號","121.458481666667","25.1626516666667","6501000","淡水區"
"251002","672-BX","2019/09/17 18:29:35","新北市淡水區竿蓁二街61-2號","121.454875","25.1633016666667","6501000","淡水區"
"251003","673-BX","2019/09/17 18:29:30","新北市淡水區北新路169巷14號","121.449708333333","25.180185","6501000","淡水區"
"207003","550-UM","2019/09/17 18:29:36","新北市萬里區野柳里港東路6-1號","121.686561666667","25.2031816666667","6502800","萬里區"
"207004","291-VK","2019/09/17 18:29:44","新北市萬里區萬里里瑪鋉路12-3號","121.687695","25.175515","6502800","萬里區"
"252002","178-VK","2019/09/17 18:29:36","新北市三芝區中山路二段39號","121.502883333333","25.2551366666667","6502100","三芝區"
"252003","249-BX","2019/09/17 18:29:22","新北市三芝區後厝里北勢子41-2號","121.472085","25.2527366666667","6502100","三芝區"
"208001","170-UY","2019/09/17 18:29:32","新北市金山區文化二路4號","121.636846666667","25.2245983333333","6502700","金山區"
"237004","KEA-2597","2019/09/17 18:29:29","新北市三峽區五寮30-1號","121.373781666667","24.8701533333333","6500900","三峽區"
"237007","153-BY","2019/09/17 18:29:27","新北市三峽區中正路三段170巷19號","121.352553333333","24.9042283333333","6500900","三峽區"
"237009","210-TH","2019/09/17 18:29:35","新北市三峽區大同路251號","121.366681666667","24.92603","6500900","三峽區"
"237013","252-BX","2019/09/17 18:29:29","新北市三峽區光明路69巷25號","121.376585","24.9291583333333","6500900","三峽區"
"237012","275-BY","2019/09/17 18:29:26","新北市三峽區三樹路214巷13號","121.379975","24.9414883333333","6500900","三峽區"
"237008","302-VK","2019/09/17 18:29:34","新北市三峽區白雞68-261號","121.391725","24.9081183333333","6500900","三峽區"
"237014","433-BY","2019/09/17 18:29:31","新北市三峽區文化路107號","121.370553333333","24.936025","6500900","三峽區"
"237006","5529-G3","2019/09/17 18:29:25","新北市三峽區溪東路405號","121.412168333333","24.92884","6500900","三峽區"
"237011","KEA-2596","2019/09/17 18:29:30","新北市三峽區溪東路218巷24弄2號","121.406886666667","24.9304466666667","6500900","三峽區"
"237015","649-BX","2019/09/17 18:29:41","新北市三峽區竹崙路147號","121.434855","24.90968","6500900","三峽區"
"237010","706-TV","2019/09/17 18:29:38","新北市三峽區中山路257巷1號","121.362535","24.9373333333333","6500900","三峽區"
"237005","AKY-6261","2019/09/17 18:29:33","新北市三峽區清水街335號","121.37123","24.933845","6500900","三峽區"
"236042","KED-0685","2019/09/17 18:29:38","新北市土城區學成路91巷7號","121.450281666667","24.9876183333333","6501300","土城區"
"236030","253-BX","2019/09/17 18:29:34","新北市土城區水源街81巷11號","121.439361666667","24.9756733333333","6501300","土城區"
"236026","269-VK","2019/09/17 18:29:39","新北市土城區南天母路59號","121.446246666667","24.9560983333333","6501300","土城區"
"236014","270-VK","2019/09/17 18:29:25","新北市土城區青雲路39巷7號","121.460298333333","24.9873433333333","6501300","土城區"
"236038","271-VK","2019/09/17 18:29:36","新北市土城區明德路一段323號","121.458895","24.9766016666667","6501300","土城區"
"236070","KEA-2877","2019/09/17 18:29:29","新北市土城區永豐路255巷12號","121.475383333333","24.973125","6501300","土城區"
"252001","KED-0821","2019/09/17 18:29:27","新北市三芝區中興街二段2號","121.49836","25.2566083333333","6502100","三芝區"
"236021","401-BY","2019/09/17 18:29:24","新北市土城區永豐路202巷14號","121.466235","24.9834366666667","6501300","土城區"
"236059","912-UM","2019/09/17 18:29:24","新北市土城區中央路四段196-1號","121.416156666667","24.9575916666667","6501300","土城區"
"236049","913-UM","2019/09/17 18:29:27","新北市土城區青雲路398號","121.458798333333","24.9727466666667","6501300","土城區"
"236063","915-UM","2019/09/17 18:29:30","新北市土城區延壽路1-9號","121.469183333333","24.9939183333333","6501300","土城區"
"236055","AAC-216","2019/09/17 18:29:24","新北市土城區中華路一段247號","121.440823333333","24.9814233333333","6501300","土城區"
"242042","AAC-296","2019/09/17 18:29:36","新北市新莊區天祥街92巷23號","121.415606666667","25.030335","6500500","新莊區"
"242005","751-BX","2019/09/17 18:29:22","新北市新莊區中華路二段13號","121.453756666667","25.0456316666667","6500500","新莊區"
"242061","705-TV","2019/09/17 18:29:36","新北市新莊區民安路353號","121.43102","25.0230016666667","6500500","新莊區"
"242058","612-BX","2019/09/17 18:29:23","新北市新莊區中正路891-2號","121.413548333333","25.022705","6500500","新莊區"
"242054","497-BY","2019/09/17 18:29:44","新北市新莊區大安路10巷1號","121.431478333333","25.00605","6500500","新莊區"
"242051","442-UM","2019/09/17 18:29:28","新北市新莊區民全街11號","121.428828333333","25.02147","6500500","新莊區"
"242002","441-UM","2019/09/17 18:29:38","新北市新莊區瓊林路59-28號","121.44416","25.0264716666667","6500500","新莊區"
"242044","415-TV","2019/09/17 18:29:20","新北市新莊區中正路732號","121.414075","25.02324","6500500","新莊區"
"242025","362-BY","2019/09/17 18:29:35","新北市新莊區五工五路13號","121.454838333333","25.0621266666667","6500500","新莊區"
"242015","132-UY","2019/09/17 18:29:29","新北市新莊區中平路84號","121.444903333333","25.044875","6500500","新莊區"
"242032","175-VK","2019/09/17 18:29:34","新北市新莊區新泰路277巷43弄2號","121.444068333333","25.0399933333333","6500500","新莊區"
"242009","346-TH","2019/09/17 18:29:27","新北市新莊區中港路60號","121.455483333333","25.0387266666667","6500500","新莊區"
"242034","350-TH","2019/09/17 18:29:30","新北市板橋區大觀路三段20巷7-1號","121.435196666667","24.9961383333333","6500500","新莊區"
"238015","755-BX","2019/09/17 18:29:08","新北市樹林區復興路390巷17號","121.414706666667","24.9856733333333","6500700","樹林區"
"238023","601-UM","2019/09/17 18:29:26","新北市樹林區三福街114號","121.406491666667","25.01634","6500700","樹林區"
"238019","599-UM","2019/09/17 18:29:23","新北市樹林區國凱街108號","121.422135","24.979735","6500700","樹林區"
"238024","5061-A6","2019/09/17 18:29:41","新北市樹林區育英街6號","121.422771666667","24.9890083333333","6500700","樹林區"
"238018","KEA-2217","2019/09/17 18:29:29","新北市樹林區樹新路50巷5弄7號","121.429623333333","24.997025","6500700","樹林區"
"238025","303-VK","2019/09/17 18:29:34","新北市樹林區保安二街163號","121.422066666667","24.9953866666667","6500700","樹林區"
"238017","283-BY","2019/09/17 18:29:31","新北市樹林區保安街二段215號","121.413321666667","25.0040716666667","6500700","樹林區"
"238014","282-BY","2019/09/17 18:29:33","新北市樹林區大安路111巷41號","121.423408333333","24.9976716666667","6500700","樹林區"
"238020","268-VK","2019/09/17 18:29:27","新北市樹林區三龍街28-3號","121.411551666667","25.0178583333333","6500700","樹林區"
"238026","172-UY","2019/09/17 18:29:38","新北市樹林區佳園路一段75巷40號","121.395995","24.97048","6500700","樹林區"
"238016","169-UY","2019/09/17 18:29:32","新北市樹林區中山路一段412號","121.417395","24.9851866666667","6500700","樹林區"
"239007","AAC-297","2019/09/17 18:29:39","新北市鶯歌區重慶街86號","121.348388333333","24.9522183333333","6500800","鶯歌區"
"239006","891-R6","2019/09/17 18:29:36","新北市鶯歌區德昌街84號","121.332583333333","24.9601","6500800","鶯歌區"
"239008","527-UM","2019/09/17 18:29:31","新北市鶯歌區朝陽街4號","121.336265","24.9765966666667","6500800","鶯歌區"
"239005","526-UM","2019/09/17 18:29:24","新北市鶯歌區鳳吉二街132號","121.328215","24.9746566666667","6500800","鶯歌區"
"239001","417-VK","2019/09/17 18:29:25","新北市鶯歌區國中街197號","121.338241666667","24.9391666666667","6500800","鶯歌區"
"239003","360-BY","2019/09/17 18:29:33","新北市鶯歌區福安街13巷1號","121.335523333333","24.9652616666667","6500800","鶯歌區"
"239002","359-BY","2019/09/17 18:29:30","新北市鶯歌區文化路110號","121.352348333333","24.9523283333333","6500800","鶯歌區"
"239004","193-VK","2019/09/17 18:29:24","新北市鶯歌區尖山路212巷11號","121.34338","24.9473433333333","6500800","鶯歌區"
"221036","130-UY","2019/09/17 18:29:43","新北市汐止區大同路三段143號","121.669338333333","25.0777","6501100","汐止區"
"221015","131-UY","2019/09/17 18:29:25","新北市汐止區鄉長路二段33號","121.667798333333","25.0834","6501100","汐止區"
"244019","KED-0667","2019/09/17 18:29:31","新北市林口區忠孝路646巷11號","121.379073333333","25.067515","6501700","林口區"
"221010","269-BY","2019/09/17 18:29:40","新北市汐止區汐萬路35號","121.644411666667","25.0912883333333","6501100","汐止區"
"221012","278-VK","2019/09/17 18:29:33","新北市汐止區保長路35巷12號","121.67292","25.0797183333333","6501100","汐止區"
"221023","279-VK","2019/09/17 18:29:25","新北市汐止區康寧街474巷7-1號","121.63234","25.0679666666667","6501100","汐止區"
"221032","280-BY","2019/09/17 18:29:39","新北市汐止區民權街二段109巷25號","121.620063333333","25.0460766666667","6501100","汐止區"
"221027","281-BY","2019/09/17 18:29:39","新北市汐止區和平街86號","121.661275","25.0706916666667","6501100","汐止區"
"221021","299-VK","2019/09/17 18:29:36","新北市汐止區連興街120號","121.653781666667","25.0625233333333","6501100","汐止區"
"221031","353-TW","2019/09/17 18:29:26","新北市汐止區大同路一段160號","121.633263333333","25.0570416666667","6501100","汐止區"
"221035","622-UM","2019/09/17 18:29:27","新北市汐止區大同路二段187巷2弄1號","121.652196666667","25.0648766666667","6501100","汐止區"
"221025","623-UM","2019/09/17 18:29:37","新北市汐止區仁愛路124號","121.663038333333","25.06382","6501100","汐止區"
"221038","646-BX","2019/09/17 18:29:25","新北市汐止區忠孝東路256號","121.663038333333","25.06755","6501100","汐止區"
"221033","647-BX","2019/09/17 18:29:38","新北市汐止區宜興街46號","121.622241666667","25.0422433333333","6501100","汐止區"
"221002","707-TV","2019/09/17 18:29:30","新北市汐止區福德一路150號","121.636578333333","25.0667666666667","6501100","汐止區"
"221018","753-BX","2019/09/17 18:29:31","新北市汐止區茄苳路120巷2號","121.6677","25.0699433333333","6501100","汐止區"
"220082","610-BX","2019/09/17 18:29:32","新北市板橋區華東街1-9號","121.448215","24.994915","6500100","板橋區"
"220056","276-BY","2019/09/17 18:29:38","新北市板橋區華東街1-9號","121.448116666667","24.9949483333333","6500100","板橋區"
"220084","296-UM","2019/09/17 18:29:34","新北市板橋區華東街1-9號","121.448163333333","24.9949416666667","6500100","板橋區"
"242046","281-VK","2019/09/17 18:29:35","新北市新莊區中正路831-5號","121.420738333333","25.02792","6500500","新莊區"
"242011","280-VK","2019/09/17 18:29:29","新北市新莊區中平路40號","121.444835","25.043665","6500500","新莊區"
"220035","560-BX","2019/09/17 18:29:37","新北市板橋區南雅西路一段5巷5號","121.454568333333","25.0040633333333","6500100","板橋區"
"220071","568-UM","2019/09/17 18:29:33","新北市板橋區華東街1-9號","121.448081666667","24.9948983333333","6500100","板橋區"
"220091","637-BX","2019/09/17 18:29:36","新北市板橋區民生路二段161巷1號","121.46995","25.019885","6500100","板橋區"
"220057","686-BX","2019/09/17 18:29:30","新北市板橋區南雅南路二段140號","121.451723333333","24.9963366666667","6500100","板橋區"
"220077","687-BX","2019/09/17 18:29:40","新北市板橋區華東街1-10號","121.448338333333","24.9949333333333","6500100","板橋區"
"220054","741-BX","2019/09/17 18:29:36","新北市板橋區華東街1-9號","121.44807","24.99496","6500100","板橋區"
"220055","827-TW","2019/09/17 18:29:25","新北市板橋區四川路二段140巷16弄28號","121.448835","24.9946216666667","6500100","板橋區"
"220021","833-TW","2019/09/17 18:08:17","新北市板橋區華東街1-10號","121.448596666667","24.9947383333333","6500100","板橋區"
"220073","985-R7","2019/09/17 18:29:23","新北市板橋區四川路二段140巷18號","121.449325","24.993425","6500100","板橋區"
"220064","AAC-253","2019/09/17 18:29:39","新北市板橋區南雅南路二段120-2號","121.45238","25.000025","6500100","板橋區"
"235068","KEA-2873","2019/09/17 18:29:24","新北市中和區中正路175號","121.497416666667","24.9936383333333","6500300","中和區"
"235061","KEA-2875","2019/09/17 18:29:37","新北市中和區民享街90巷12號","121.474098333333","25.000285","6500300","中和區"
"235062","KEA-2876","2019/09/17 18:29:28","新北市中和區中山路二段312巷29-3號","121.495235","25.0037566666667","6500300","中和區"
