"lineid","car","time","location","longitude","latitude","cityid","cityname"
"234046","148-BY","2019/09/17 18:49:40","新北市永和區秀朗路二段126巷1號","121.524841666667","25.001235","6500400","永和區"
"234081","298-R6","2019/09/17 18:49:34","新北市永和區林森路136號","121.522143333333","25.002935","6500400","永和區"
"234064","337-UY","2019/09/17 18:49:42","新北市永和區豫溪街217巷27號","121.524625","25.0103616666667","6500400","永和區"
"234086","338-UY","2019/09/17 18:49:36","新北市永和區中正路59號","121.514678333333","24.9964233333333","6500400","永和區"
"234070","552-UM","2019/09/17 18:49:39","新北市永和區豫溪街183號","121.522428333333","25.0104066666667","6500400","永和區"
"234038","553-UM","2019/09/17 18:49:31","新北市永和區成功路一段62號","121.526946666667","25.0037466666667","6500400","永和區"
"234028","746-BX","2019/09/17 18:49:28","新北市永和區得和路328號","121.52332","24.9995316666667","6500400","永和區"
"234054","KEA-2590","2019/09/17 18:49:26","新北市永和區豫溪街191巷3弄1號","121.523323333333","25.0104366666667","6500400","永和區"
"234007","KED-0605","2019/09/17 18:49:31","新北市永和區文化路123號","121.512343333333","25.0153066666667","6500400","永和區"
"234013","KEA-2591","2019/09/17 18:49:25","新北市永和區仁愛路202巷11號","121.508775","25.013225","6500400","永和區"
"234061","AAD-866","2019/09/17 18:49:38","新北市永和區福和路309巷3號","121.51633","25.0069566666667","6500400","永和區"
"234042","862-TW","2019/09/17 18:49:35","新北市永和區永貞路308號","121.511906666667","25.0048966666667","6500400","永和區"
"234050","863-TW","2019/09/17 18:49:25","新北市永和區福和路1號","121.525643333333","25.0094566666667","6500400","永和區"
"234026","9371-KE","2019/09/17 18:49:33","新北市永和區自由街58號","121.513785","25.0059883333333","6500400","永和區"
"234011","9373-KE","2019/09/17 18:49:21","新北市永和區文化路126巷3號","121.513035","25.0155966666667","6500400","永和區"
"249005","172-UM","2019/09/17 18:49:35","新北市八里區長道坑16-3號","121.395611666667","25.1154183333333","6502300","八里區"
"249001","173-UM","2019/09/17 18:49:33","新北市八里區龍米路二段121-3號","121.447071666667","25.1436716666667","6502300","八里區"
"249002","305-UY","2019/09/17 18:49:38","新北市八里區龍形一街33巷6-2號","121.449288333333","25.1294633333333","6502300","八里區"
"249003","593-UM","2019/09/17 18:23:31","新北市八里區博物館路10-1號","121.415123333333","25.1639783333333","6502300","八里區"
"248016","026-BX","2019/09/17 18:49:33","新北市五股區成泰路三段543巷52號","121.449993333333","25.1028783333333","6501500","五股區"
"248006","077-UY","2019/09/17 18:49:32","新北市五股區四維路83號","121.467265","25.0724216666667","6501500","五股區"
"248008","KED-0815","2019/09/17 18:49:39","新北市五股區中興路一段151巷84號","121.465116666667","25.0716566666667","6501500","五股區"
"248020","KED-0813","2019/09/17 18:49:41","新北市五股區凌雲路三段39-2號","121.431616666667","25.1176233333333","6501500","五股區"
"248012","247-BX","2019/09/17 18:49:22","新北市五股區成泰路二段147巷5-17號","121.437145","25.0881616666667","6501500","五股區"
"248004","677-BX","2019/09/17 18:49:25","新北市五股區民義路二段41-1號","121.411456666667","25.1034033333333","6501500","五股區"
"248002","678-BX","2019/09/17 18:49:30","新北市五股區成泰路三段454號","121.451423333333","25.1003566666667","6501500","五股區"
"248010","682-TV","2019/09/17 18:49:30","新北市五股區水碓五路81號","121.43","25.071915","6501500","五股區"
"234023","9380-KE","2019/09/17 18:49:43","新北市永和區竹林路119巷28-3號","121.521856666667","25.0117766666667","6500400","永和區"
"234077","969-R7","2019/09/17 18:49:22","新北市永和區中正路2巷29弄13號","121.513768333333","24.9940116666667","6500400","永和區"
"234067","AAC-212","2019/09/17 18:49:27","新北市中和區永貞路225號","121.513498333333","25.0036933333333","6500400","永和區"
"234003","AAC-295","2019/09/17 18:49:42","新北市永和區中正路657號","121.514861666667","25.0101683333333","6500400","永和區"
"232011","076-UY","2019/09/17 18:49:28","新北市坪林區坪碇路87號","121.711675","24.938985","6502000","坪林區"
"244007","080-UY","2019/09/17 18:49:34","新北市林口區太平里5鄰23號","121.37645","25.1158633333333","6501700","林口區"
"244013","KEA-2802","2019/09/17 18:49:34","新北市林口區麗園二街1巷7-3號","121.378236666667","25.0704","6501700","林口區"
"244023","483-VK","2019/09/17 18:49:24","新北市林口區信義路160號","121.379195","25.08002","6501700","林口區"
"244017","485-VK","2019/09/17 18:49:33","新北市林口區文化二路一段120巷5號","121.367933333333","25.0699916666667","6501700","林口區"
"244009","656-BX","2019/09/17 18:49:33","新北市林口區竹林路358巷10號","121.39234","25.0840833333333","6501700","林口區"
"244011","701-TV","2019/09/17 18:49:22","新北市林口區仁愛路一段285巷32號","121.395611666667","25.0752766666667","6501700","林口區"
"244025","837-TS","2019/09/17 18:49:40","新北市林口區南勢一街6號","121.360508333333","25.074695","6501700","林口區"
"243010","297-R6","2019/09/17 18:49:35","新北市泰山區辭修路48號","121.42856","25.0571733333333","6501600","泰山區"
"243014","KEA-2801","2019/09/17 18:49:37","新北市泰山區犁頭窠3-1號","121.422188333333","25.0605866666667","6501600","泰山區"
"222003","436-BY","2019/09/17 18:49:30","新北市深坑區深南路48號","121.620575","25.008625","6501800","深坑區"
"222002","659-BX","2019/09/17 18:49:39","新北市深坑區文山路一段69號","121.626935","25.0018933333333","6501800","深坑區"
"231061","002-UM","2019/09/17 18:49:24","新北市新店區安華路28-1號","121.519875","24.9606166666667","6500600","新店區"
"231055","0291-UT","2019/09/17 18:49:21","新北市新店區新生街37號","121.539385","24.96694","6500600","新店區"
"231044","046-UY","2019/09/17 18:49:32","新北市新店區力行路11巷57號","121.538563333333","24.961755","6500600","新店區"
"231060","106-UY","2019/09/17 18:49:29","新北市新店區安華路28-1號","121.51971","24.96067","6500600","新店區"
"231049","108-UY","2019/09/17 18:49:34","新北市新店區中央路212號","121.530036666667","24.9734416666667","6500600","新店區"
"231065","110-UY","2019/09/17 18:49:28","新北市新店區安康路三段356-1號","121.486071666667","24.9517266666667","6500600","新店區"
"231062","256-BX","2019/09/17 18:49:36","新北市新店區安一路一段1-1號","121.519671666667","24.9611816666667","6500600","新店區"
"231042","268-BY","2019/09/17 18:49:35","新北市新店區北新路一段126巷27號","121.543191666667","24.9695166666667","6500600","新店區"
"231064","278-BY","2019/09/17 18:49:30","新北市新店區安華路28-1號","121.519665","24.9610316666667","6500600","新店區"
"231050","AAD-862","2019/09/17 18:49:33","新北市新店區安康路一段75-1號","121.530101666667","24.9611433333333","6500600","新店區"
"231045","355-BY","2019/09/17 18:49:34","新北市新店區安華路28-1號","121.519273333333","24.9609083333333","6500600","新店區"
"231058","3713-VJ","2019/09/17 18:49:34","新北市新店區能仁街12-2號","121.540586666667","24.9554666666667","6500600","新店區"
"231056","4715-K9","2019/09/17 18:49:39","新北市新店區大同街10號","121.539706666667","24.9799766666667","6500600","新店區"
"231067","4772-VM","2019/09/17 18:49:37","新北市新店區安華路1-1號","121.519186666667","24.9604816666667","6500600","新店區"
"231051","512-UM","2019/09/17 18:49:28","新北市新店區中央路81號","121.532341666667","24.9765866666667","6500600","新店區"
"231053","513-UM","2019/09/17 18:49:31","新北市新店區長興路43號","121.548973333333","24.9383283333333","6500600","新店區"
"231040","617-UM","2019/09/17 18:49:29","新北市新店區安康路一段81號","121.529765","24.961275","6500600","新店區"
"231041","619-UM","2019/09/17 18:49:28","新北市新店區安華路28-1號","121.519656666667","24.96093","6500600","新店區"
"231063","641-BX","2019/09/17 18:49:39","新北市新店區安華路1-1號","121.519561666667","24.9605016666667","6500600","新店區"
"231048","KED-0819","2019/09/17 18:49:41","新北市新店區光明街123號","121.539105","24.9618683333333","6500600","新店區"
"231054","718-UY","2019/09/17 18:49:41","新北市新店區安康路一段355號","121.519766666667","24.9628366666667","6500600","新店區"
"231046","719-UM","2019/09/17 18:49:42","新北市新店區直潭路71號","121.532388333333","24.9422166666667","6500600","新店區"
"231057","720-UM","2019/09/17 18:49:20","新北市新店區新烏路一段215號","121.549286666667","24.9313816666667","6500600","新店區"
"231059","897-TW","2019/09/17 18:49:29","新北市新店區安華路28-1號","121.519595","24.9608116666667","6500600","新店區"
"231043","899-TW","2019/09/17 18:49:29","新北市新店區安一路一段1-1號","121.519783333333","24.96213","6500600","新店區"
"231066","AKT-0513","2019/09/17 18:49:23","新北市新店區安華路1-1號","121.519433333333","24.9605066666667","6500600","新店區"
"241035","462-BY","2019/09/17 18:49:35","新北市三重區重新路四段121號","121.484886666667","25.0519533333333","6500200","三重區"
"235066","003-UY","2019/09/17 18:49:31","新北市中和區水源路7巷25號","121.504013333333","25.00393","6500300","中和區"
"235063","006-UY","2019/09/17 18:49:22","新北市中和區錦和路216號","121.49047","24.9943283333333","6500300","中和區"
"235056","096-UM","2019/09/17 18:49:13","新北市中和區員山路466巷17弄27號","121.480435","25.007325","6500300","中和區"
"235039","097-UM","2019/09/17 18:49:43","新北市中和區安樂路217巷47號","121.513223333333","24.9978083333333","6500300","中和區"
"235065","098-UM","2019/09/17 18:49:25","新北市中和區中山路二段2巷43號","121.502588333333","25.0070616666667","6500300","中和區"
"235040","150-BY","2019/09/17 18:49:34","新北市中和區安平路36巷3號","121.51023","24.9948516666667","6500300","中和區"
"235058","151-BY","2019/09/17 18:49:27","新北市中和區連城路532巷34弄18號","121.475145","24.9926966666667","6500300","中和區"
"235038","185-VK","2019/09/17 18:49:36","新北市中和區大勇街31巷1號","121.517433333333","24.9940883333333","6500300","中和區"
"235049","186-VK","2019/09/17 18:49:30","新北市中和區景安路177巷19號","121.506241666667","24.9944316666667","6500300","中和區"
"235067","255-BX","2019/09/17 18:49:41","新北市中和區中正路803號","121.484655","25.0011333333333","6500300","中和區"
"235044","293-VK","2019/09/17 18:49:31","新北市中和區中興街169號","121.499925","24.990485","6500300","中和區"
"235072","301-VK","2019/09/17 18:49:32","新北市中和區中山路二段178巷1號","121.500715","25.00284","6500300","中和區"
"235043","352-BY","2019/09/17 18:49:24","新北市中和區秀朗路三段68號","121.52629","24.994815","6500300","中和區"
"235042","KEA-2878","2019/09/17 18:49:40","新北市中和區秀朗路三段100巷2弄5號","121.525028333333","24.993535","6500300","中和區"
"235050","4979-A6","2019/09/17 18:49:40","新北市中和區忠孝街62巷9弄10號","121.513176666667","24.9839783333333","6500300","中和區"
"235069","4980-A6","2019/09/17 18:49:22","新北市中和區南山路54號","121.501763333333","24.997425","6500300","中和區"
"235070","558-UM","2019/09/17 18:49:24","新北市中和區中和路194號","121.505203333333","24.9996883333333","6500300","中和區"
"235045","565-BX","2019/09/17 18:49:33","新北市中和區景新街378號","121.512323333333","24.99015","6500300","中和區"
"235060","KED-0823","2019/09/17 18:49:39","新北市中和區民治街26號","121.475203333333","25.0039233333333","6500300","中和區"
"235054","640-BX","2019/09/17 18:49:36","新北市中和區民享街86巷2號","121.474413333333","25.001075","6500300","中和區"
"235047","732-UM","2019/09/17 18:49:29","新北市中和區興南路二段34巷28弄1號","121.504991666667","24.9865283333333","6500300","中和區"
"235046","733-UM","2019/09/17 18:49:30","新北市中和區興南路一段137號","121.508798333333","24.987555","6500300","中和區"
"235057","801-TS","2019/09/17 18:49:27","新北市中和區民利街40巷1弄11號","121.47897","24.9989033333333","6500300","中和區"
"235041","802-TS","2019/09/17 18:49:31","新北市中和區中安街218號","121.512011666667","24.9989083333333","6500300","中和區"
"235052","805-TS","2019/09/17 18:49:39","新北市中和區興南路二段399巷98弄70號","121.497923333333","24.97637","6500300","中和區"
"235048","896-TW","2019/09/17 18:49:24","新北市中和區華新街109巷4號","121.509068333333","24.9821383333333","6500300","中和區"
"235053","900-TW","2019/09/17 18:49:39","新北市中和區民德路290巷1號","121.467241666667","24.9956716666667","6500300","中和區"
"235064","911-UM","2019/09/17 18:49:19","新北市中和區泰和街28號","121.499451666667","25.00052","6500300","中和區"
"235051","157-BY","2019/09/17 18:49:23","新北市中和區忠孝街29號","121.510486666667","24.9829933333333","6500300","中和區"
"235037","AAC-213","2019/09/17 18:49:41","新北市永和區民生路83號","121.52263","24.9967633333333","6500300","中和區"
"235059","AAC-215","2019/09/17 18:49:31","新北市中和區圓通路393巷26號","121.490133333333","24.9884833333333","6500300","中和區"
"220065","072-UY","2019/09/17 18:49:31","新北市板橋區四川路一段125號","121.459796666667","25.0048166666667","6500100","板橋區"
"220069","AAD-861","2019/09/17 18:49:27","新北市板橋區華興街85號","121.456776666667","25.0051583333333","6500100","板橋區"
"220106","120-SR","2019/09/17 18:49:30","新北市板橋區文化路二段124巷32號","121.471416666667","25.0255383333333","6500100","板橋區"
"226004","312-R5","2019/09/17 18:49:34","新北市平溪區平溪里平溪街46號","121.738046666667","25.0269116666667","6502400","平溪區"
"228003","097-TW","2019/09/17 18:49:27","新北市貢寮區和美里龍洞街56-3號","121.912593333333","25.114305","6502600","貢寮區"
"228001","212-TW","2019/09/17 18:49:27","新北市貢寮區仁理村仁義街8號","121.923778333333","25.0518616666667","6502600","貢寮區"
"228002","663-BX","2019/09/17 18:49:29","新北市貢寮區福隆里東興街6-11號","121.950741666667","25.0210783333333","6502600","貢寮區"
"224006","676-BX","2019/09/17 18:49:39","新北市瑞芳區民權街21-1號","121.807891666667","25.1065866666667","6501200","瑞芳區"
"224002","639-TC","2019/09/17 18:49:34","新北市瑞芳區傑魚坑路311-1號","121.794483333333","25.1074116666667","6501200","瑞芳區"
"224007","285-BY","2019/09/17 18:49:21","新北市瑞芳區大埔路慶安新村17號","121.762655","25.1003833333333","6501200","瑞芳區"
"224009","275-VK","2019/09/17 18:49:34","新北市瑞芳區祈堂路8號","121.858835","25.1140916666667","6501200","瑞芳區"
"224008","273-VK","2019/09/17 18:49:33","新北市瑞芳區逢甲路284號","121.80353","25.1115133333333","6501200","瑞芳區"
"224005","271-BY","2019/09/17 18:49:34","新北市瑞芳區海濱路157號","121.829266666667","25.12188","6501200","瑞芳區"
"227001","642-TC","2019/09/17 18:49:42","新北市雙溪區牡丹里下坑11號","121.851005","25.056205","6502500","雙溪區"
"227002","400-TW","2019/09/17 18:49:35","新北市雙溪區共和里中山路49號","121.866845","25.032035","6502500","雙溪區"
"253005","032-BX","2019/09/17 18:49:21","新北市石門區中山路28-3號","121.565775","25.2898633333333","6502200","石門區"
"253006","295-VK","2019/09/17 18:49:36","新北市石門區下員坑30-7號","121.51955","25.2820383333333","6502200","石門區"
"222001","KEA-2212","2019/09/17 18:49:32","新北市深坑區北深路一段32-1號","121.638163333333","25.01042","6501800","深坑區"
"208002","KEA-2872","2019/09/17 18:49:37","新北市金山區信義路72號","121.635146666667","25.2195333333333","6502700","金山區"
"208003","665-BX","2019/09/17 18:49:39","新北市金山區中山路285號","121.636198333333","25.2232283333333","6502700","金山區"
"251009","008-UM","2019/09/17 18:49:27","新北市淡水區重建街226號","121.441363333333","25.1749783333333","6501000","淡水區"
"251001","011-UM","2019/09/17 18:49:34","新北市淡水區自強路283號","121.462131666667","25.128445","6501000","淡水區"
"251015","KEA-2871","2019/09/17 18:49:24","新北市淡水區糞箕湖60號","121.485223333333","25.1722866666667","6501000","淡水區"
"251016","179-VK","2019/09/17 18:49:31","新北市淡水區下圭柔山71-3號","121.446993333333","25.20622","6501000","淡水區"
"251013","182-VK","2019/09/17 18:49:25","新北市淡水區安子內5-1號","121.483755","25.2152066666667","6501000","淡水區"
"251010","413-VK","2019/09/17 18:49:41","新北市淡水區沙崙路20號","121.421165","25.181165","6501000","淡水區"
"251012","441-VK","2019/09/17 18:49:37","新北市淡水區水碓街55號","121.444295","25.1775866666667","6501000","淡水區"
"251014","577-R6","2019/09/17 18:49:24","新北市淡水區崙頂3號","121.489961666667","25.2239516666667","6501000","淡水區"
"251011","650-BX","2019/09/17 18:49:30","新北市淡水區平遠街5號","121.448088333333","25.1677866666667","6501000","淡水區"
"251002","672-BX","2019/09/17 18:49:35","新北市淡水區學府路75號","121.448518333333","25.169935","6501000","淡水區"
"251003","673-BX","2019/09/17 18:49:30","新北市淡水區中山北路一段212巷38號","121.446093333333","25.1790133333333","6501000","淡水區"
"207003","550-UM","2019/09/17 18:49:27","新北市萬里區野柳里港西路48號","121.67894","25.2015333333333","6502800","萬里區"
"207004","291-VK","2019/09/17 18:49:24","新北市萬里區萬里里獅頭路23號","121.693181666667","25.1783283333333","6502800","萬里區"
"252002","178-VK","2019/09/17 18:49:36","新北市三芝區中正路一段112號","121.504851666667","25.2563566666667","6502100","三芝區"
"252003","249-BX","2019/09/17 18:49:22","新北市三芝區後厝里大片頭81-1號","121.459081666667","25.24441","6502100","三芝區"
"208001","170-UY","2019/09/17 18:49:32","新北市金山區文化三路64號","121.634213333333","25.225585","6502700","金山區"
"237004","KEA-2597","2019/09/17 18:49:29","新北市三峽區有木130-1號","121.435888333333","24.8567066666667","6500900","三峽區"
"237007","153-BY","2019/09/17 18:49:39","新北市三峽區中正路二段399號","121.364915","24.9075533333333","6500900","三峽區"
"237013","252-BX","2019/09/17 18:49:29","新北市三峽區光明路69巷24號","121.376528333333","24.92911","6500900","三峽區"
"237012","275-BY","2019/09/17 18:49:26","新北市三峽區三樹路340號","121.383876666667","24.94332","6500900","三峽區"
"237008","302-VK","2019/09/17 18:49:34","新北市三峽區白雞33號","121.369371666667","24.912385","6500900","三峽區"
"237014","433-BY","2019/09/17 18:49:31","新北市三峽區隆恩街158巷68號","121.364835","24.944665","6500900","三峽區"
"237006","5529-G3","2019/09/17 18:49:25","新北市三峽區溪東路233巷1-1號","121.406851666667","24.9332166666667","6500900","三峽區"
"237011","KEA-2596","2019/09/17 18:49:30","新北市三峽區溪東路137號","121.402655","24.9342833333333","6500900","三峽區"
"237015","649-BX","2019/09/17 18:49:29","新北市三峽區建安74號","121.44955","24.9255166666667","6500900","三峽區"
"237010","706-TV","2019/09/17 18:49:38","新北市三峽區復興路451號","121.362451666667","24.9385333333333","6500900","三峽區"
"237005","AKY-6261","2019/09/17 18:49:33","新北市三峽區中山路459巷92號","121.354505","24.9360416666667","6500900","三峽區"
"236042","KED-0685","2019/09/17 18:49:38","新北市土城區裕民路116號","121.451016666667","24.9865566666667","6501300","土城區"
"236030","253-BX","2019/09/17 18:49:34","新北市土城區忠義路26巷10號","121.439836666667","24.9699083333333","6501300","土城區"
"236026","269-VK","2019/09/17 18:49:39","新北市土城區中央路二段235號","121.440426666667","24.9723133333333","6501300","土城區"
"236014","270-VK","2019/09/17 18:49:25","新北市土城區清水路265號","121.463353333333","24.9848","6501300","土城區"
"236038","271-VK","2019/09/17 18:49:36","新北市土城區明德路一段195巷3弄5號","121.46428","24.9785616666667","6501300","土城區"
"236070","KEA-2877","2019/09/17 18:49:29","新北市土城區延和路21巷19號","121.463903333333","24.9889016666667","6501300","土城區"
"252001","KED-0821","2019/09/17 18:49:27","新北市三芝區中正路三段9號","121.502891666667","25.2539883333333","6502100","三芝區"
"236021","401-BY","2019/09/17 18:49:24","新北市土城區延吉街253巷3號","121.467793333333","24.984685","6501300","土城區"
"236059","912-UM","2019/09/17 18:49:24","新北市土城區金城路二段12號","121.449193333333","24.977235","6501300","土城區"
"236049","913-UM","2019/09/17 18:49:40","新北市土城區青雲路8-1號","121.46023","24.98916","6501300","土城區"
"236063","915-UM","2019/09/17 18:49:30","新北市土城區金城路三段207巷6弄5號","121.47037","24.9901183333333","6501300","土城區"
"236055","AAC-216","2019/09/17 18:49:24","新北市土城區學府路一段169號","121.452748333333","24.9853733333333","6501300","土城區"
"242061","705-TV","2019/09/17 18:49:43","新北市新莊區新樹路287號","121.434066666667","25.02036","6500500","新莊區"
"238023","601-UM","2019/09/17 18:49:26","新北市樹林區工興街14巷4號","121.399103333333","25.0136283333333","6500700","樹林區"
"238024","5061-A6","2019/09/17 18:49:25","新北市樹林區太平路200號","121.418866666667","24.9752783333333","6500700","樹林區"
"238022","KEA-2213","2019/09/17 18:49:23","新北市樹林區中華路391號","121.411581666667","24.9804866666667","6500700","樹林區"
"238021","KEA-2539","2019/09/17 18:49:38","新北市樹林區西圳街二段62號","121.386653333333","24.9593733333333","6500700","樹林區"
"238017","283-BY","2019/09/17 18:49:31","新北市樹林區光興街44號","121.40987","25.0027783333333","6500700","樹林區"
"238014","282-BY","2019/09/17 18:49:33","新北市樹林區大安路111巷41號","121.423338333333","24.9976","6500700","樹林區"
"238020","268-VK","2019/09/17 18:49:27","新北市樹林區俊英街282號","121.423736666667","25.01331","6500700","樹林區"
"238026","172-UY","2019/09/17 18:49:36","新北市樹林區中山路三段166號","121.389136666667","24.9701766666667","6500700","樹林區"
"238016","169-UY","2019/09/17 18:49:32","新北市樹林區中山路一段412號","121.417393333333","24.9851766666667","6500700","樹林區"
"239007","AAC-297","2019/09/17 18:49:39","新北市鶯歌區中正一路建德巷38號","121.364505","24.9578066666667","6500800","鶯歌區"
"239006","891-R6","2019/09/17 18:49:36","新北市鶯歌區鶯桃路296巷57號","121.335955","24.961365","6500800","鶯歌區"
"239008","527-UM","2019/09/17 18:49:31","新北市鶯歌區朝陽街1號","121.336273333333","24.97659","6500800","鶯歌區"
"239005","526-UM","2019/09/17 18:49:24","新北市鶯歌區大湖路361巷62號","121.33107","24.977315","6500800","鶯歌區"
"239001","417-VK","2019/09/17 18:49:28","新北市鶯歌區尖山埔路114號","121.344233333333","24.9503166666667","6500800","鶯歌區"
"239003","360-BY","2019/09/17 18:49:33","新北市鶯歌區鶯桃路526號","121.33167","24.9669216666667","6500800","鶯歌區"
"239002","359-BY","2019/09/17 18:49:30","新北市鶯歌區中正一路232號","121.354106666667","24.9570166666667","6500800","鶯歌區"
"239004","193-VK","2019/09/17 18:49:24","新北市鶯歌區中正三路156巷22號","121.331351666667","24.9423816666667","6500800","鶯歌區"
"221036","130-UY","2019/09/17 18:49:42","新北市汐止區大同路三段61號","121.667161666667","25.07689","6501100","汐止區"
"221015","131-UY","2019/09/17 18:49:25","新北市汐止區吉祥街26號","121.667785","25.08102","6501100","汐止區"
"244019","KED-0667","2019/09/17 18:49:31","新北市林口區麗園二街3巷1-2號","121.378096666667","25.0695783333333","6501700","林口區"
"221032","280-BY","2019/09/17 18:49:39","新北市汐止區橫科路322巷24弄6-1號","121.620446666667","25.050265","6501100","汐止區"
"221029","298-VK","2019/09/17 18:49:22","新北市汐止區工建路56-1號","121.640796666667","25.0631483333333","6501100","汐止區"
"221021","299-VK","2019/09/17 18:49:36","新北市汐止區新興路48號","121.657063333333","25.0631033333333","6501100","汐止區"
"221031","353-TW","2019/09/17 18:49:26","新北市汐止區福德一路272巷11號","121.631856666667","25.0643083333333","6501100","汐止區"
"221035","622-UM","2019/09/17 18:49:27","新北市汐止區大同路二段33-1號","121.647728333333","25.0631833333333","6501100","汐止區"
"221025","623-UM","2019/09/17 18:49:17","新北市汐止區福安街20巷21號","121.661766666667","25.0642516666667","6501100","汐止區"
"221002","707-TV","2019/09/17 18:49:30","新北市汐止區大同路一段154-1號","121.631866666667","25.0558716666667","6501100","汐止區"
"221018","753-BX","2019/09/17 18:49:40","新北市汐止區茄苳路291號","121.672986666667","25.067275","6501100","汐止區"
"220079","145-BY","2019/09/17 18:49:26","新北市板橋區大智街71巷8弄20號","121.452663333333","25.0156333333333","6500100","板橋區"
"220082","610-BX","2019/09/17 18:49:32","新北市板橋區篤行路三段玉平巷32-1號","121.428351666667","24.98656","6500100","板橋區"
"220080","256-TC","2019/09/17 18:49:35","新北市板橋區大觀路二段265巷66弄28號","121.441565","24.997025","6500100","板橋區"
"220056","276-BY","2019/09/17 18:49:40","新北市板橋區四川路一段287號","121.45887","25.0005866666667","6500100","板橋區"
"220072","277-BY","2019/09/17 18:49:28","新北市板橋區金門街25巷16號","121.434085","24.9942966666667","6500100","板橋區"
"220101","280-UM","2019/09/17 18:49:32","新北市板橋區文化路二段182巷7弄1號","121.472016666667","25.026935","6500100","板橋區"
"220094","285-UM","2019/09/17 18:49:38","新北市板橋區文化路二段76號","121.46953","25.02505","6500100","板橋區"
"220083","286-VK","2019/09/17 18:49:26","新北市板橋區大觀路二段22巷38-2號","121.444685","25.0037466666667","6500100","板橋區"
"220081","287-VK","2019/09/17 18:49:26","新北市板橋區南雅西路二段42號","121.452821666667","25.01004","6500100","板橋區"
"220061","293-UM","2019/09/17 18:49:15","新北市板橋區永豐街163號","121.475525","25.0204083333333","6500100","板橋區"
"220084","296-UM","2019/09/17 18:49:34","新北市板橋區大觀路二段150巷20號","121.441698333333","24.999425","6500100","板橋區"
"220053","299-UM","2019/09/17 18:49:41","新北市板橋區永豐街55巷12弄23號","121.472701666667","25.0185683333333","6500100","板橋區"
"220075","303-R5","2019/09/17 18:49:40","新北市板橋區館前西路158-1號","121.454838333333","25.00871","6500100","板橋區"
"220062","305-R5","2019/09/17 18:49:37","新北市板橋區中山路二段25號","121.472466666667","25.0153383333333","6500100","板橋區"
"220092","307-R5","2019/09/17 18:49:26","新北市板橋區文化路一段136巷8弄1號","121.465483333333","25.018275","6500100","板橋區"
"220098","317-R6","2019/09/17 18:49:25","新北市板橋區民生路二段234巷26弄9號","121.470518333333","25.0221416666667","6500100","板橋區"
"220089","487-VK","2019/09/17 18:49:21","新北市板橋區文化路二段472號","121.475088333333","25.032665","6500100","板橋區"
"220088","491-VK","2019/09/17 18:49:30","新北市板橋區莒光路38號","121.470366666667","25.0245166666667","6500100","板橋區"
"220035","560-BX","2019/09/17 18:49:37","新北市板橋區中正路275巷75號","121.452406666667","25.01808","6500100","板橋區"
"220103","561-BX","2019/09/17 18:49:25","新北市板橋區文化路一段188巷11弄14號","121.468958333333","25.0186783333333","6500100","板橋區"
"220071","568-UM","2019/09/17 18:49:33","新北市板橋區四川路一段8-2號","121.459306666667","25.0067366666667","6500100","板橋區"
"220063","609-BX","2019/09/17 18:49:41","新北市板橋區民生路一段80號","121.473575","25.0155083333333","6500100","板橋區"
"220091","637-BX","2019/09/17 18:49:36","新北市板橋區雙十路二段47巷13號","121.475791666667","25.02587","6500100","板橋區"
"220057","686-BX","2019/09/17 18:49:43","新北市板橋區重慶路182號","121.462501666667","25.0034566666667","6500100","板橋區"
"220077","687-BX","2019/09/17 18:49:41","新北市板橋區大觀路二段174巷175號","121.44201","25.0036183333333","6500100","板橋區"
"220093","689-BX","2019/09/17 18:49:30","新北市板橋區民生路三段120-2號","121.466336666667","25.026755","6500100","板橋區"
"220054","741-BX","2019/09/17 18:49:36","新北市板橋區館前東路24號","121.460223333333","25.0071066666667","6500100","板橋區"
"220102","KEA-2699","2019/09/17 18:49:27","新北市板橋區萬板路472號","121.47988","25.0259133333333","6500100","板橋區"
"220055","827-TW","2019/09/17 18:49:33","新北市板橋區重慶路183號","121.462823333333","25.00228","6500100","板橋區"
"220067","829-TW","2019/09/17 18:49:35","新北市板橋區中山路二段90巷47弄6號","121.476835","25.0147933333333","6500100","板橋區"
"220068","830-TW","2019/09/17 18:49:40","新北市板橋區大同街36號","121.47836","25.0274633333333","6500100","板橋區"
"220090","831-TW","2019/09/17 18:49:35","新北市板橋區四維路177巷4弄4號","121.46374","25.026215","6500100","板橋區"
"220074","895-R6","2019/09/17 18:49:30","新北市板橋區南門街39號","121.457321666667","25.0087416666667","6500100","板橋區"
"220073","985-R7","2019/09/17 18:49:43","新北市板橋區館前西路152-2號","121.455303333333","25.0084266666667","6500100","板橋區"
"220097","AAC-210","2019/09/17 18:46:03","新北市板橋區民生路三段50號","121.46719","25.025105","6500100","板橋區"
"220064","AAC-253","2019/09/17 18:49:39","新北市板橋區縣民大道二段106號","121.466745","25.01536","6500100","板橋區"
"235068","KEA-2873","2019/09/17 18:49:43","新北市中和區圓通路265巷32號","121.495846666667","24.99255","6500300","中和區"
"235061","KEA-2875","2019/09/17 18:49:37","新北市中和區民享街67號","121.474253333333","25.0022283333333","6500300","中和區"
"235062","KEA-2876","2019/09/17 18:49:28","新北市中和區中山路二段456號","121.488713333333","25.0045233333333","6500300","中和區"
