"lineid","car","time","location","longitude","latitude","cityid","cityname"
"234046","148-BY","2019/09/17 19:39:26","新北市永和區永利路111號","121.523536666667","25.0025933333333","6500400","永和區"
"234081","298-R6","2019/09/17 19:39:27","新北市永和區國中路104巷11號","121.524656666667","25.0071083333333","6500400","永和區"
"234064","337-UY","2019/09/17 19:39:39","新北市永和區秀朗路二段24巷28弄14號","121.51963","25.0019466666667","6500400","永和區"
"234086","338-UY","2019/09/17 19:39:32","新北市永和區國中路2號","121.52426","25.0042566666667","6500400","永和區"
"234070","552-UM","2019/09/17 19:39:39","新北市永和區永和路二段215號","121.51549","25.0139816666667","6500400","永和區"
"234038","553-UM","2019/09/17 19:39:38","新北市永和區民樂街29號","121.527756666667","25.00152","6500400","永和區"
"234017","745-BX","2019/09/17 19:39:25","新北市永和區環河西路一段51巷24號","121.514173333333","25.0176","6500400","永和區"
"234028","746-BX","2019/09/17 19:38:48","新北市永和區四維街103巷16號","121.523748333333","24.99715","6500400","永和區"
"234054","KEA-2590","2019/09/17 19:39:39","新北市永和區竹林路37號","121.51793","25.0142533333333","6500400","永和區"
"234007","KED-0605","2019/09/17 19:39:31","新北市永和區中和路477號","121.510246666667","25.001855","6500400","永和區"
"234013","KEA-2591","2019/09/17 19:39:25","新北市永和區永平路224號","121.509066666667","25.0106783333333","6500400","永和區"
"234061","AAD-866","2019/09/17 19:39:38","新北市永和區中正路446號","121.51743","25.0027583333333","6500400","永和區"
"234042","862-TW","2019/09/17 19:39:35","新北市永和區中和路305巷2弄1號","121.506675","25.0000766666667","6500400","永和區"
"234050","863-TW","2019/09/17 19:39:40","新北市永和區文化路208號","121.510245","25.0166583333333","6500400","永和區"
"234026","9371-KE","2019/09/17 19:39:33","新北市永和區中和路493號","121.510393333333","25.0025266666667","6500400","永和區"
"249002","305-UY","2019/09/17 19:39:37","新北市八里區頂寮二街33-1號","121.450321666667","25.1251416666667","6502300","八里區"
"249003","593-UM","2019/09/17 19:39:36","新北市八里區中華路二段540號","121.39904","25.14569","6502300","八里區"
"249005","759-BX","2019/09/17 19:39:41","新北市八里區中華路三段170-1號","121.392163333333","25.1304816666667","6502300","八里區"
"248014","025-BX","2019/09/17 19:39:30","新北市五股區五福路42巷27號","121.434853333333","25.0900316666667","6501500","五股區"
"248016","026-BX","2019/09/17 19:39:33","新北市五股區凌雲路一段39號","121.451881666667","25.1007166666667","6501500","五股區"
"248008","KED-0815","2019/09/17 19:39:35","新北市五股區四維路153號","121.46754","25.0745533333333","6501500","五股區"
"248020","KED-0813","2019/09/17 19:39:41","新北市五股區中直路3-11號","121.429201666667","25.1112416666667","6501500","五股區"
"248012","247-BX","2019/09/17 19:39:22","新北市五股區蓬萊路6巷43號","121.435783333333","25.08034","6501500","五股區"
"248004","677-BX","2019/09/17 19:39:24","新北市五股區成泰路二段78號","121.437376666667","25.0822216666667","6501500","五股區"
"248002","678-BX","2019/09/17 19:39:35","新北市五股區成泰路三段577巷88號","121.44947","25.1038866666667","6501500","五股區"
"248010","682-TV","2019/09/17 19:39:30","新北市五股區自強路186號","121.43137","25.06941","6501500","五股區"
"234023","9380-KE","2019/09/17 19:39:23","新北市永和區保生路55號","121.504523333333","25.0108683333333","6500400","永和區"
"234077","969-R7","2019/09/17 19:39:22","新北市永和區民族街67巷20號","121.519596666667","24.997185","6500400","永和區"
"234074","AAC-211","2019/09/17 19:39:42","新北市永和區竹林路225巷21號","121.521945","25.008645","6500400","永和區"
"234067","AAC-212","2019/09/17 19:39:27","新北市永和區中山路一段191巷7弄2號","121.509535","25.0082266666667","6500400","永和區"
"234003","AAC-295","2019/09/17 19:39:42","新北市永和區自由街71號","121.51346","25.00519","6500400","永和區"
"244023","483-VK","2019/09/17 19:39:24","新北市林口區民有街30號","121.37215","25.0766316666667","6501700","林口區"
"243012","AAD-798","2019/09/17 19:39:28","新北市泰山區全興路228號","121.434693333333","25.055085","6501600","泰山區"
"243016","421-VK","2019/09/17 19:39:36","新北市泰山區中山路三段6號","121.420971666667","25.032485","6501600","泰山區"
"243009","KEA-2215","2019/09/17 19:39:36","新北市泰山區美寧街60號","121.430976666667","25.0646916666667","6501600","泰山區"
"243011","KEA-2216","2019/09/17 19:39:26","新北市泰山區明志路三段145巷69號","121.428305","25.0388516666667","6501600","泰山區"
"243015","680-BX","2019/09/17 19:39:33","新北市泰山區民權街101號","121.428435","25.049425","6501600","泰山區"
"222003","436-BY","2019/09/17 19:39:30","新北市深坑區深南路51-1號","121.621073333333","25.0098816666667","6501800","深坑區"
"222002","659-BX","2019/09/17 19:39:39","新北市深坑區北深路一段177號","121.632455","25.0108633333333","6501800","深坑區"
"231061","002-UM","2019/09/17 19:39:43","新北市新店區安民街125-3號","121.516335","24.9689366666667","6500600","新店區"
"231055","0291-UT","2019/09/17 19:39:41","新北市新店區中華路83巷67號","121.538151666667","24.9674116666667","6500600","新店區"
"231044","046-UY","2019/09/17 19:39:32","新北市新店區北新路三段126號","121.541593333333","24.98176","6500600","新店區"
"231060","106-UY","2019/09/17 19:39:29","新北市新店區安康路二段137號","121.511905","24.960365","6500600","新店區"
"231049","108-UY","2019/09/17 19:39:42","新北市新店區大豐路49號","121.540051666667","24.9797633333333","6500600","新店區"
"231065","110-UY","2019/09/17 19:39:27","新北市新店區安祥路109巷85弄9號","121.47806","24.9602616666667","6500600","新店區"
"231062","256-BX","2019/09/17 19:39:36","新北市新店區碧潭路52號","121.534351666667","24.956765","6500600","新店區"
"231042","268-BY","2019/09/17 19:39:35","新北市新店區中興路一段202號","121.54367","24.96539","6500600","新店區"
"231064","278-BY","2019/09/17 19:39:30","新北市新店區安和路二段115號","121.518688333333","24.9704333333333","6500600","新店區"
"231050","AAD-862","2019/09/17 19:39:33","新北市新店區北宜路二段277號","121.55505","24.9536366666667","6500600","新店區"
"231045","355-BY","2019/09/17 19:39:34","新北市新店區北宜路二段211號","121.553176666667","24.953425","6500600","新店區"
"231058","3713-VJ","2019/09/17 19:39:34","新北市新店區寶橋路11號","121.543665","24.9738566666667","6500600","新店區"
"231056","4715-K9","2019/09/17 19:39:39","新北市新店區中正路489號","121.533786666667","24.98224","6500600","新店區"
"231067","4772-VM","2019/09/17 19:39:36","新北市新店區安康路一段355-10號","121.520176666667","24.96385","6500600","新店區"
"231051","512-UM","2019/09/17 19:39:28","新北市新店區中央四街13號","121.529403333333","24.973975","6500600","新店區"
"231053","513-UM","2019/09/17 19:39:31","新北市新店區新烏路二段300號","121.548588333333","24.9129366666667","6500600","新店區"
"231040","617-UM","2019/09/17 19:39:29","新北市新店區北新路一段32號","121.540923333333","24.96596","6500600","新店區"
"231041","619-UM","2019/09/17 19:39:28","新北市新店區中正路487號","121.533875","24.9821416666667","6500600","新店區"
"231063","641-BX","2019/09/17 19:39:39","新北市新店區達觀路40號","121.50305","24.9392666666667","6500600","新店區"
"231048","KED-0819","2019/09/17 19:39:41","新北市新店區中興路一段282-4號","121.54634","24.96832","6500600","新店區"
"231054","718-UY","2019/09/17 19:39:41","新北市新店區文中路45號","121.539641666667","24.9566583333333","6500600","新店區"
"231046","719-UM","2019/09/17 19:39:22","新北市新店區中正路346號","121.536408333333","24.9751383333333","6500600","新店區"
"231057","720-UM","2019/09/17 19:39:20","新北市新店區橘園一路11號","121.547893333333","24.9340083333333","6500600","新店區"
"231059","897-TW","2019/09/17 19:39:29","新北市新店區安和路三段47-1號","121.518023333333","24.9823433333333","6500600","新店區"
"231043","899-TW","2019/09/17 19:39:29","新北市新店區北新路二段6號","121.542756666667","24.9710883333333","6500600","新店區"
"231066","AKT-0513","2019/09/17 19:39:23","新北市新店區安康路三段207巷15號","121.488401666667","24.9508083333333","6500600","新店區"
"241011","013-R5","2019/09/17 19:39:36","新北市三重區秀江街184號","121.497865","25.0716283333333","6500200","三重區"
"241028","022-UY","2019/09/17 19:39:35","新北市三重區中正南路117號","121.494046666667","25.05723","6500200","三重區"
"241008","059-VK","2019/09/17 19:39:35","新北市三重區永福街125巷5號","121.478615","25.0771866666667","6500200","三重區"
"241031","061-VK","2019/09/17 19:39:30","新北市三重區重新路四段244巷22號","121.486591666667","25.05355","6500200","三重區"
"241015","062-VK","2019/09/17 19:39:35","新北市三重區福德北路46號","121.501926666667","25.0655483333333","6500200","三重區"
"241017","063-VK","2019/09/17 19:39:23","新北市三重區重陽路三段5巷23號","121.491508333333","25.065155","6500200","三重區"
"241007","066-VK","2019/09/17 19:39:26","新北市三重區三和路四段125巷47號","121.48612","25.0781683333333","6500200","三重區"
"241019","742-BX","2019/09/17 19:39:33","新北市三重區六張街194巷1弄2號","121.488586666667","25.0680866666667","6500200","三重區"
"241006","262-UM","2019/09/17 19:39:30","新北市三重區三和路四段160巷67號","121.486136666667","25.075145","6500200","三重區"
"241009","267-UM","2019/09/17 19:39:42","新北市三重區三和路四段400巷25號","121.480088333333","25.07925","6500200","三重區"
"241032","269-UM","2019/09/17 19:39:28","新北市三重區重陽路一段60巷63號","121.484511666667","25.0582916666667","6500200","三重區"
"241013","270-UM","2019/09/17 19:39:29","新北市三重區仁賢街22號","121.49622","25.0747783333333","6500200","三重區"
"241025","271-UM","2019/09/17 19:39:31","新北市三重區忠孝路三段84巷5號","121.480188333333","25.06432","6500200","三重區"
"241030","KED-0822","2019/09/17 19:39:33","新北市三重區新興路24號","121.491961666667","25.0532483333333","6500200","三重區"
"241035","462-BY","2019/09/17 19:39:35","新北市三重區信義西街25號","121.497575","25.0645966666667","6500200","三重區"
"241026","480-VK","2019/09/17 19:39:40","新北市三重區中央南路95巷25-3號","121.500365","25.060745","6500200","三重區"
"241014","543-UM","2019/09/17 19:39:32","新北市三重區河邊北街84號","121.504201666667","25.06928","6500200","三重區"
"241023","545-UM","2019/09/17 19:39:23","新北市三重區忠孝路三段99巷11號","121.479796666667","25.064315","6500200","三重區"
"241022","KED-0820","2019/09/17 19:39:27","新北市三重區中正北路148號","121.48481","25.0657883333333","6500200","三重區"
"241001","887-TS","2019/09/17 19:39:41","新北市三重區五華街22號","121.494736666667","25.0805083333333","6500200","三重區"
"241012","941-UM","2019/09/17 19:39:27","新北市三重區仁興街26-8號","121.499101666667","25.0754016666667","6500200","三重區"
"241029","942-UM","2019/09/17 19:39:39","新北市三重區重安街102號","121.492981666667","25.0558966666667","6500200","三重區"
"235066","003-UY","2019/09/17 19:39:31","新北市中和區景新街162號","121.505778333333","24.99723","6500300","中和區"
"235063","006-UY","2019/09/17 19:39:22","新北市中和區中正路406號","121.492548333333","24.9941733333333","6500300","中和區"
"235056","096-UM","2019/09/17 19:39:33","新北市中和區中山路三段114巷26弄1號","121.475898333333","25.0069583333333","6500300","中和區"
"235039","097-UM","2019/09/17 19:39:23","新北市中和區景平路125巷2弄4號","121.514893333333","24.991985","6500300","中和區"
"235065","098-UM","2019/09/17 19:39:25","新北市中和區中山路二段187號","121.500316666667","25.0027916666667","6500300","中和區"
"235040","150-BY","2019/09/17 19:39:24","新北市中和區保健路44巷7號","121.509161666667","24.99684","6500300","中和區"
"235058","151-BY","2019/09/17 19:39:27","新北市中和區員山路146巷15號","121.482243333333","24.99686","6500300","中和區"
"235038","185-VK","2019/09/17 19:39:35","新北市中和區自立路141巷3號","121.522413333333","24.99356","6500300","中和區"
"235049","186-VK","2019/09/17 19:39:30","新北市中和區中正路2-1號","121.503313333333","24.993635","6500300","中和區"
"235067","255-BX","2019/09/17 19:39:21","新北市中和區新生街264號","121.483676666667","24.9971666666667","6500300","中和區"
"235044","293-VK","2019/09/17 19:39:31","新北市中和區南山路421巷1弄3號","121.507351666667","24.9895983333333","6500300","中和區"
"235072","301-VK","2019/09/17 19:39:32","新北市中和區連城路265巷6弄6號","121.490983333333","24.9958733333333","6500300","中和區"
"235043","352-BY","2019/09/17 19:39:44","新北市中和區興南路二段159巷10號","121.505143333333","24.9833033333333","6500300","中和區"
"235042","KEA-2878","2019/09/17 19:39:40","新北市中和區保健路2巷2號","121.507726666667","24.9983133333333","6500300","中和區"
"235070","558-UM","2019/09/17 19:39:24","新北市中和區連勝街51號","121.497906666667","24.99731","6500300","中和區"
"235045","565-BX","2019/09/17 19:39:33","新北市中和區安樂路1號","121.51161","24.9919216666667","6500300","中和區"
"235060","KED-0823","2019/09/17 19:39:39","新北市中和區新生街26號","121.483081666667","25.0039866666667","6500300","中和區"
"235054","640-BX","2019/09/17 19:39:41","新北市中和區莒光路159號","121.472693333333","25.0007266666667","6500300","中和區"
"235047","732-UM","2019/09/17 19:39:29","新北市中和區景安路168號","121.504743333333","24.99273","6500300","中和區"
"235046","733-UM","2019/09/17 19:39:30","新北市中和區景新街496巷29號","121.513433333333","24.98632","6500300","中和區"
"235071","783-BX","2019/09/17 19:39:43","新北市中和區新生街49號","121.4836","25.0025966666667","6500300","中和區"
"235057","801-TS","2019/09/17 19:39:27","新北市中和區民樂路81號","121.484695","25.0014216666667","6500300","中和區"
"235041","802-TS","2019/09/17 19:39:33","新北市中和區中安街32-1號","121.51321","25.00289","6500300","中和區"
"235052","805-TS","2019/09/17 19:39:39","新北市中和區華新街192巷4-1號","121.506715","24.9824783333333","6500300","中和區"
"235048","896-TW","2019/09/17 19:39:24","新北市中和區興南路二段8號","121.50781","24.9862433333333","6500300","中和區"
"235053","900-TW","2019/09/17 19:39:39","新北市中和區民德路146巷14號","121.467873333333","25.000545","6500300","中和區"
"235051","157-BY","2019/09/17 19:39:42","新北市中和區南山路261號","121.503785","24.9927516666667","6500300","中和區"
"235037","AAC-213","2019/09/17 19:39:21","新北市中和區自立路193號","121.524341666667","24.9913133333333","6500300","中和區"
"235059","AAC-215","2019/09/17 19:39:31","新北市中和區錦和路350號","121.490766666667","24.992515","6500300","中和區"
"220065","072-UY","2019/09/17 19:39:42","新北市板橋區國泰街111巷1號","121.466","25.006335","6500100","板橋區"
"220086","073-UY","2019/09/17 19:39:32","新北市板橋區中正路216巷8號","121.456356666667","25.0184033333333","6500100","板橋區"
"220069","AAD-861","2019/09/17 19:39:33","新北市板橋區貴興路101號","121.456313333333","25.0016133333333","6500100","板橋區"
"220106","120-SR","2019/09/17 19:39:29","新北市板橋區民治街57巷30號","121.480165","25.03404","6500100","板橋區"
"247004","336-TH","2019/09/17 19:39:44","新北市蘆洲區中華街6巷16號","121.463041666667","25.082045","6501400","蘆洲區"
"247024","057-VK","2019/09/17 19:39:25","新北市五股區成泰路一段98巷77號","121.452361666667","25.07881","6501400","蘆洲區"
"226004","312-R5","2019/09/17 19:39:40","新北市平溪區十分里十分街143-1號","121.777093333333","25.04357","6502400","平溪區"
"228003","097-TW","2019/09/17 19:39:27","新北市貢寮區真理里美艷山街19-1號","121.923415","25.0685283333333","6502600","貢寮區"
"228001","212-TW","2019/09/17 19:39:26","新北市貢寮區真理里延平街49號","121.924673333333","25.0556583333333","6502600","貢寮區"
"224010","AGQ-8101","2019/09/17 19:39:37","新北市瑞芳區基山街265號","121.841145","25.1075016666667","6501200","瑞芳區"
"224002","639-TC","2019/09/17 19:39:34","新北市瑞芳區三爪子坑路13巷67號","121.814283333333","25.1064966666667","6501200","瑞芳區"
"227001","642-TC","2019/09/17 19:39:38","新北市雙溪區新基里新基北街20號","121.867221666667","25.038855","6502500","雙溪區"
"227002","400-TW","2019/09/17 19:39:35","新北市雙溪區雙溪里太平路58號","121.86494","25.0357083333333","6502500","雙溪區"
"222001","KEA-2212","2019/09/17 19:39:32","新北市深坑區北深路二段183號","121.612331666667","25.0011283333333","6501800","深坑區"
"208002","KEA-2872","2019/09/17 19:39:37","新北市金山區三民街34號","121.634905","25.2235983333333","6502700","金山區"
"208003","665-BX","2019/09/17 19:39:29","新北市金山區中正路120號","121.632521666667","25.2215716666667","6502700","金山區"
"251009","008-UM","2019/09/17 19:39:26","新北市淡水區中山北路一段184巷7號","121.445301666667","25.1785933333333","6501000","淡水區"
"251001","011-UM","2019/09/17 19:39:33","新北市淡水區民權路51號","121.459768333333","25.1390133333333","6501000","淡水區"
"251015","KEA-2871","2019/09/17 19:39:24","新北市淡水區山子頂24-1號","121.4914","25.187165","6501000","淡水區"
"251016","179-VK","2019/09/17 19:39:31","新北市淡水區淡金路三段350巷18號","121.450796666667","25.2083466666667","6501000","淡水區"
"251008","181-VK","2019/09/17 19:39:25","新北市淡水區中正路一段8巷1弄11號","121.42832","25.1764233333333","6501000","淡水區"
"251013","182-VK","2019/09/17 19:39:25","新北市淡水區店子後10號","121.460341666667","25.2190733333333","6501000","淡水區"
"251010","413-VK","2019/09/17 19:39:21","新北市淡水區崁頂93-2號","121.42776","25.2024266666667","6501000","淡水區"
"251007","442-VK","2019/09/17 19:39:25","新北市淡水區中正東路一段111巷23-1號","121.45538","25.1611216666667","6501000","淡水區"
"251005","443-VK","2019/09/17 19:39:31","新北市淡水區原德路108巷2號","121.443408333333","25.1735733333333","6501000","淡水區"
"251006","561-UM","2019/09/17 19:39:32","新北市淡水區中山北路一段207巷52號","121.442398333333","25.179125","6501000","淡水區"
"251014","577-R6","2019/09/17 19:39:24","新北市淡水區中和里12-1號","121.478793333333","25.2312983333333","6501000","淡水區"
"251011","650-BX","2019/09/17 19:39:23","新北市淡水區中正東路二段143巷2弄1號","121.460688333333","25.1471683333333","6501000","淡水區"
"251002","672-BX","2019/09/17 19:39:35","新北市淡水區下圭柔山91-3號","121.430913333333","25.2095633333333","6501000","淡水區"
"207003","550-UM","2019/09/17 19:39:27","新北市萬里區大鵬里萬里加投293號","121.645791666667","25.2185633333333","6502800","萬里區"
"207004","291-VK","2019/09/17 19:39:24","新北市萬里區萬里里瑪鋉路33-1號","121.68752","25.175685","6502800","萬里區"
"252002","178-VK","2019/09/17 19:39:36","新北市三芝區中正路一段36巷25號","121.504078333333","25.2588383333333","6502100","三芝區"
"208001","170-UY","2019/09/17 19:39:32","新北市金山區重和里六股林口57號","121.60191","25.2198916666667","6502700","金山區"
"237004","KEA-2597","2019/09/17 19:39:29","新北市三峽區有木2-2號","121.417175","24.86573","6500900","三峽區"
"237007","153-BY","2019/09/17 19:39:26","新北市三峽區二鬮路136巷22弄7號","121.356561666667","24.91038","6500900","三峽區"
"237009","210-TH","2019/09/17 19:39:35","新北市三峽區中園街69號","121.36812","24.9256333333333","6500900","三峽區"
"237013","252-BX","2019/09/17 19:39:29","新北市三峽區介壽路二段2號","121.389551666667","24.934625","6500900","三峽區"
"237012","275-BY","2019/09/17 19:39:26","新北市三峽區民生街3號","121.374586666667","24.9354283333333","6500900","三峽區"
"237008","302-VK","2019/09/17 19:39:34","新北市三峽區永安街183號","121.373206666667","24.9269383333333","6500900","三峽區"
"237014","433-BY","2019/09/17 19:39:31","新北市三峽區嘉添1-1號","121.3685","24.91197","6500900","三峽區"
"237006","5529-G3","2019/09/17 19:39:25","新北市三峽區中正路一段336巷15弄2號","121.369936666667","24.924955","6500900","三峽區"
"237011","KEA-2596","2019/09/17 19:39:30","新北市三峽區中正路一段290-1號","121.3716","24.9258966666667","6500900","三峽區"
"237015","649-BX","2019/09/17 19:39:29","新北市三峽區成福路217號","121.423551666667","24.928485","6500900","三峽區"
"237010","706-TV","2019/09/17 19:39:38","新北市三峽區復興路49號","121.37332","24.93693","6500900","三峽區"
"237005","AKY-6261","2019/09/17 19:39:33","新北市三峽區中山路169巷9號","121.364371666667","24.936005","6500900","三峽區"
"236042","KED-0685","2019/09/17 19:39:39","新北市土城區裕民路256巷4弄2號","121.454053333333","24.9825216666667","6501300","土城區"
"236030","253-BX","2019/09/17 19:39:34","新北市土城區福祥街65號","121.441066666667","24.9805766666667","6501300","土城區"
"236026","269-VK","2019/09/17 19:39:39","新北市土城區中央路二段61巷26號","121.44329","24.9787983333333","6501300","土城區"
"236038","271-VK","2019/09/17 19:39:39","新北市土城區清水路98巷3弄45號","121.458596666667","24.9809033333333","6501300","土城區"
"236070","KEA-2877","2019/09/17 19:39:29","新北市土城區學士路2號","121.453981666667","24.9833566666667","6501300","土城區"
"252001","KED-0821","2019/09/17 19:39:27","新北市三芝區公正街66號","121.499788333333","25.25744","6502100","三芝區"
"236021","401-BY","2019/09/17 19:39:44","新北市土城區明峰街83號","121.468936666667","24.9873216666667","6501300","土城區"
"236059","912-UM","2019/09/17 19:39:24","新北市土城區中央路二段15號","121.442945","24.9805133333333","6501300","土城區"
"236049","913-UM","2019/09/17 19:39:27","新北市土城區明德路一段57號","121.465278333333","24.9845833333333","6501300","土城區"
"236063","915-UM","2019/09/17 19:39:30","新北市土城區延平街53號","121.467806666667","24.9924466666667","6501300","土城區"
"236055","AAC-216","2019/09/17 19:39:24","新北市土城區立德路95號","121.463161666667","24.987745","6501300","土城區"
"242005","751-BX","2019/09/17 19:39:29","新北市新莊區化成路11巷17號","121.464183333333","25.0434416666667","6500500","新莊區"
"242013","413-TV","2019/09/17 19:39:29","新北市新莊區中泰街112號","121.448641666667","25.0465883333333","6500500","新莊區"
"242039","135-UY","2019/09/17 19:39:38","新北市新莊區建國二路83-20號","121.43088","25.0258116666667","6500500","新莊區"
"242032","175-VK","2019/09/17 19:39:43","新北市新莊區新泰路213巷56號","121.444823333333","25.0384383333333","6500500","新莊區"
"242034","350-TH","2019/09/17 19:39:30","新北市新莊區中正路346號","121.444195","25.0344416666667","6500500","新莊區"
"238015","755-BX","2019/09/17 19:39:23","新北市樹林區中興街20-4號","121.420833333333","24.990145","6500700","樹林區"
"238023","601-UM","2019/09/17 19:39:26","新北市樹林區三福街121巷3號","121.406066666667","25.0159533333333","6500700","樹林區"
"238019","599-UM","2019/09/17 19:39:41","新北市樹林區鎮前街327-5號","121.416865","24.9844133333333","6500700","樹林區"
"238024","5061-A6","2019/09/17 19:39:25","新北市樹林區福德街50號","121.398615","24.974125","6500700","樹林區"
"238022","KEA-2213","2019/09/17 19:39:23","新北市樹林區名園街11號","121.4192","24.9795433333333","6500700","樹林區"
"238021","KEA-2539","2019/09/17 19:39:38","新北市樹林區佳園路三段101巷38弄20號","121.39131","24.950265","6500700","樹林區"
"238025","303-VK","2019/09/17 19:39:34","新北市樹林區保安二街29號","121.4248","24.9938","6500700","樹林區"
"238017","283-BY","2019/09/17 19:39:35","新北市樹林區光興街40號","121.410641666667","25.0027566666667","6500700","樹林區"
"238014","282-BY","2019/09/17 19:39:33","新北市樹林區千歲街4號","121.42507","24.9956983333333","6500700","樹林區"
"238020","268-VK","2019/09/17 19:39:27","新北市樹林區俊英街2號","121.430053333333","24.998975","6500700","樹林區"
"238026","172-UY","2019/09/17 19:39:36","新北市樹林區佳園路二段131號","121.390218333333","24.958025","6500700","樹林區"
"238016","169-UY","2019/09/17 19:39:33","新北市樹林區大安路626號","121.411151666667","24.9827433333333","6500700","樹林區"
"239007","AAC-297","2019/09/17 19:39:39","新北市鶯歌區大湖路109巷14號","121.341771666667","24.96359","6500800","鶯歌區"
"239006","891-R6","2019/09/17 19:39:36","新北市鶯歌區建國路512巷31號","121.339725","24.9511816666667","6500800","鶯歌區"
"239001","417-VK","2019/09/17 19:39:25","新北市鶯歌區尖山埔路114號","121.34427","24.9500716666667","6500800","鶯歌區"
"239002","359-BY","2019/09/17 19:39:30","新北市鶯歌區湖山路65巷1號","121.339685","24.9760283333333","6500800","鶯歌區"
"239004","193-VK","2019/09/17 19:39:24","新北市鶯歌區高職南街13號","121.337485","24.9391566666667","6500800","鶯歌區"
"221008","489-VK","2019/09/17 19:39:32","新北市汐止區康寧街145號","121.621821666667","25.0665633333333","6501100","汐止區"
"221027","281-BY","2019/09/17 19:39:39","新北市汐止區忠孝東路9號","121.658256666667","25.0659116666667","6501100","汐止區"
"221021","299-VK","2019/09/17 19:39:36","新北市汐止區連興街140號","121.654023333333","25.06159","6501100","汐止區"
"221031","353-TW","2019/09/17 19:39:26","新北市汐止區康寧街901號","121.650711666667","25.0752983333333","6501100","汐止區"
"221025","623-UM","2019/09/17 19:39:37","新北市汐止區福安街17號","121.66245","25.06519","6501100","汐止區"
"221038","646-BX","2019/09/17 19:39:41","新北市汐止區忠孝東路225號","121.662281666667","25.0668383333333","6501100","汐止區"
"221033","647-BX","2019/09/17 19:39:38","新北市汐止區南勢街3號","121.62714","25.0375083333333","6501100","汐止區"
"220079","145-BY","2019/09/17 19:39:38","新北市板橋區民權路260巷35號","121.45918","25.0153216666667","6500100","板橋區"
"220082","610-BX","2019/09/17 19:39:32","新北市板橋區大觀路三段133巷12號","121.43328","24.99399","6500100","板橋區"
"220080","256-TC","2019/09/17 19:39:34","新北市板橋區大觀路二段37巷188號","121.449688333333","25.001865","6500100","板橋區"
"220056","276-BY","2019/09/17 19:39:38","新北市板橋區國慶路31號","121.458886666667","24.9955616666667","6500100","板橋區"
"220072","277-BY","2019/09/17 19:39:29","新北市板橋區金門街253巷17弄5號","121.433268333333","24.9888766666667","6500100","板橋區"
"220101","280-UM","2019/09/17 19:39:32","新北市板橋區縣民大道三段93巷30弄1號","121.47465","25.0226433333333","6500100","板橋區"
"220094","285-UM","2019/09/17 19:39:38","新北市板橋區長江路二段163號","121.466341666667","25.0319716666667","6500100","板橋區"
"220083","286-VK","2019/09/17 19:39:26","新北市板橋區龍興街65巷2號","121.443518333333","25.0013916666667","6500100","板橋區"
"220081","287-VK","2019/09/17 19:39:26","新北市板橋區大觀路一段75巷28號","121.448251666667","25.00424","6500100","板橋區"
"220061","293-UM","2019/09/17 19:39:35","新北市板橋區板新路128號","121.470895","25.01559","6500100","板橋區"
"220084","296-UM","2019/09/17 19:39:34","新北市板橋區滿平街84巷98號","121.426546666667","24.986745","6500100","板橋區"
"220053","299-UM","2019/09/17 19:39:34","新北市板橋區民生路一段36-1號","121.474583333333","25.01439","6500100","板橋區"
"220075","303-R5","2019/09/17 19:39:40","新北市板橋區大勇街4巷17號","121.45455","25.0178416666667","6500100","板橋區"
"220062","305-R5","2019/09/17 19:39:38","新北市板橋區三民路二段29巷13號","121.48184","25.0181816666667","6500100","板橋區"
"220092","307-R5","2019/09/17 19:39:26","新北市板橋區四維路259巷68號","121.460388333333","25.0266566666667","6500100","板橋區"
"220098","317-R6","2019/09/17 19:39:25","新北市板橋區民生路三段263巷2弄2號","121.463938333333","25.0294616666667","6500100","板橋區"
"220089","487-VK","2019/09/17 19:39:41","新北市板橋區新海路405號","121.458563333333","25.0268216666667","6500100","板橋區"
"220088","491-VK","2019/09/17 19:39:30","新北市板橋區松柏街85號","121.476836666667","25.030915","6500100","板橋區"
"220035","560-BX","2019/09/17 19:39:37","新北市板橋區中正路332號","121.454268333333","25.0221083333333","6500100","板橋區"
"220103","561-BX","2019/09/17 19:39:25","新北市板橋區文化路一段435巷31弄1號","121.466885","25.0229816666667","6500100","板橋區"
"220071","568-UM","2019/09/17 19:39:33","新北市板橋區四川路一段322號","121.458396666667","25.0000666666667","6500100","板橋區"
"220063","609-BX","2019/09/17 19:39:33","新北市板橋區中山路二段429號","121.481195","25.0199383333333","6500100","板橋區"
"220091","637-BX","2019/09/17 19:39:36","新北市板橋區懷德街127巷14弄1號","121.47939","25.0311533333333","6500100","板橋區"
"220057","686-BX","2019/09/17 19:39:30","新北市板橋區信義路19號","121.456866666667","24.9965833333333","6500100","板橋區"
"220077","687-BX","2019/09/17 19:39:40","新北市板橋區僑中二街86號","121.44651","25.009555","6500100","板橋區"
"220093","689-BX","2019/09/17 19:39:33","新北市板橋區長江路二段255號","121.469205","25.03283","6500100","板橋區"
"220054","741-BX","2019/09/17 19:39:36","新北市板橋區光明街52號","121.460815","25.0026183333333","6500100","板橋區"
"220102","KEA-2699","2019/09/17 19:39:27","新北市板橋區仁化街55號","121.475293333333","25.0318683333333","6500100","板橋區"
"220055","827-TW","2019/09/17 19:39:37","新北市板橋區國慶路149巷1弄1號","121.461296666667","24.9964116666667","6500100","板橋區"
"220067","829-TW","2019/09/17 19:39:35","新北市板橋區長安街138巷1弄5號","121.47307","25.0096866666667","6500100","板橋區"
"220068","830-TW","2019/09/17 19:39:20","新北市板橋區中山路二段412巷9號","121.483273333333","25.0205083333333","6500100","板橋區"
"220090","831-TW","2019/09/17 19:39:35","新北市板橋區龍泉街54巷7弄14號","121.45656","25.0264933333333","6500100","板橋區"
"220021","833-TW","2019/09/17 19:24:20","新北市板橋區華東街1-10號","121.448555","24.9947433333333","6500100","板橋區"
"220074","895-R6","2019/09/17 19:39:30","新北市板橋區館前西路146號","121.456056666667","25.0081233333333","6500100","板橋區"
"220073","985-R7","2019/09/17 19:39:23","新北市板橋區國光路31巷6號","121.45741","25.01792","6500100","板橋區"
"220097","AAC-210","2019/09/17 19:39:23","新北市板橋區文化路一段205號","121.463348333333","25.01682","6500100","板橋區"
"220064","AAC-253","2019/09/17 19:39:39","新北市板橋區實踐路55-1號","121.463768333333","25.00664","6500100","板橋區"
"235068","KEA-2873","2019/09/17 19:39:23","新北市中和區莊敬路16巷15弄10號","121.500665","25.003975","6500300","中和區"
"235061","KEA-2875","2019/09/17 19:39:37","新北市中和區員山路325-3號","121.481198333333","25.0008416666667","6500300","中和區"
