"lineid","car","time","location","longitude","latitude","cityid","cityname"
"234081","298-R6","2019/09/17 20:19:27","新北市永和區永亨路83號","121.52207","25.005535","6500400","永和區"
"234064","337-UY","2019/09/17 20:19:42","新北市永和區中正路340號","121.517861666667","25.0000466666667","6500400","永和區"
"234086","338-UY","2019/09/17 20:19:31","新北市永和區永和路二段127號","121.51494","25.0121483333333","6500400","永和區"
"234070","552-UM","2019/09/17 20:19:39","新北市永和區福和路278號","121.517945","25.0074933333333","6500400","永和區"
"234038","553-UM","2019/09/17 20:19:31","新北市永和區成功路一段93巷20弄4號","121.528056666667","25.00267","6500400","永和區"
"234017","745-BX","2019/09/17 20:19:24","新北市永和區文化路10號","121.515475","25.015075","6500400","永和區"
"234028","746-BX","2019/09/17 20:19:28","新北市永和區民族街81巷58號","121.520076666667","24.9965333333333","6500400","永和區"
"234054","KEA-2590","2019/09/17 20:19:26","新北市永和區光復街2巷16弄9號","121.517598333333","25.0163283333333","6500400","永和區"
"234013","KEA-2591","2019/09/17 20:19:24","新北市永和區保生路40巷2號","121.5061","25.008105","6500400","永和區"
"234061","AAD-866","2019/09/17 20:19:38","新北市永和區得和路51-4號","121.516828333333","25.0001683333333","6500400","永和區"
"234042","862-TW","2019/09/17 20:19:35","新北市中和區中安街168號","121.510818333333","24.9998716666667","6500400","永和區"
"234050","863-TW","2019/09/17 20:19:24","新北市永和區文化路234號","121.509705","25.0170933333333","6500400","永和區"
"249001","173-UM","2019/09/17 20:19:28","新北市八里區中華路二段536-4號","121.399185","25.1451333333333","6502300","八里區"
"249004","303-UY","2019/09/17 20:19:25","新北市八里區中山路一段127號","121.413451666667","25.1593383333333","6502300","八里區"
"249002","305-UY","2019/09/17 20:19:37","新北市八里區龍米路一段172-1號","121.452445","25.1265083333333","6502300","八里區"
"249003","593-UM","2019/09/17 20:19:36","新北市八里區訊塘路56號","121.397708333333","25.1456233333333","6502300","八里區"
"249005","759-BX","2019/09/17 20:19:41","新北市八里區下罟子1-16號","121.38985","25.1422016666667","6502300","八里區"
"248016","026-BX","2019/09/17 20:19:33","新北市五股區凌雲路一段158巷39弄2號","121.446928333333","25.1037883333333","6501500","五股區"
"248008","KED-0815","2019/09/17 20:19:35","新北市五股區中興路一段1巷12弄32號","121.469375","25.0698316666667","6501500","五股區"
"248002","678-BX","2019/09/17 20:19:30","新北市五股區成泰路三段173號","121.445288333333","25.0919916666667","6501500","五股區"
"248010","682-TV","2019/09/17 20:19:30","新北市泰山區新五路一段116號","121.439475","25.0629133333333","6501500","五股區"
"234023","9380-KE","2019/09/17 20:19:36","新北市永和區勵行街42-1號","121.51671","25.0135266666667","6500400","永和區"
"234077","969-R7","2019/09/17 20:19:22","新北市永和區中正路39-1號","121.514438333333","24.99605","6500400","永和區"
"234074","AAC-211","2019/09/17 20:19:42","新北市永和區豫溪街160巷4號","121.523301666667","25.0094533333333","6500400","永和區"
"234067","AAC-212","2019/09/17 20:19:28","新北市永和區保平路236巷15弄11號","121.508028333333","25.00594","6500400","永和區"
"234003","AAC-295","2019/09/17 20:19:22","新北市永和區永和路一段115-1號","121.51391","25.0080816666667","6500400","永和區"
"243012","AAD-798","2019/09/17 20:19:33","新北市泰山區楓江路175-1號","121.440256666667","25.0665833333333","6501600","泰山區"
"243010","297-R6","2019/09/17 20:19:35","新北市泰山區明志路二段254巷1號","121.426473333333","25.0475966666667","6501600","泰山區"
"243016","421-VK","2019/09/17 20:19:36","新北市泰山區明志路二段385號","121.424971666667","25.0437266666667","6501600","泰山區"
"243009","KEA-2215","2019/09/17 20:19:36","新北市泰山區福泰街44號","121.434001666667","25.05954","6501600","泰山區"
"243011","KEA-2216","2019/09/17 20:19:26","新北市泰山區德安街24號","121.418531666667","25.0314166666667","6501600","泰山區"
"243013","646-TV","2019/09/17 20:19:32","新北市泰山區明志路二段359巷22號","121.426006666667","25.0438683333333","6501600","泰山區"
"243015","680-BX","2019/09/17 20:19:33","新北市泰山區明志路一段270號","121.432063333333","25.0602366666667","6501600","泰山區"
"222003","436-BY","2019/09/17 20:19:30","新北市深坑區深坑街3巷6號","121.616715","25.0022816666667","6501800","深坑區"
"222002","659-BX","2019/09/17 20:19:39","新北市深坑區萬福路75巷8號","121.600448333333","25.009385","6501800","深坑區"
"231061","002-UM","2019/09/17 20:19:24","新北市新店區安興路32號","121.51575","24.970375","6500600","新店區"
"231055","0291-UT","2019/09/17 20:19:21","新北市新店區中華路34號","121.54012","24.9679466666667","6500600","新店區"
"231044","046-UY","2019/09/17 20:19:33","新北市新店區順安街2-1號","121.541133333333","24.98465","6500600","新店區"
"231060","106-UY","2019/09/17 20:19:29","新北市新店區安康路三段578-1號","121.481043333333","24.9487066666667","6500600","新店區"
"231049","108-UY","2019/09/17 20:19:34","新北市新店區北新路一段325號","121.541746666667","24.9682933333333","6500600","新店區"
"231065","110-UY","2019/09/17 20:19:27","新北市新店區安祥路102巷32號","121.484136666667","24.9639133333333","6500600","新店區"
"231068","187-VK","2019/09/17 20:19:30","新北市新店區寶安街30號","121.54199","24.9823766666667","6500600","新店區"
"231062","256-BX","2019/09/17 20:19:36","新北市新店區安泰路7巷16號","121.485658333333","24.9509333333333","6500600","新店區"
"231042","268-BY","2019/09/17 20:19:35","新北市新店區中興路二段229號","121.547515","24.974815","6500600","新店區"
"231064","278-BY","2019/09/17 20:19:30","新北市新店區安業街33號","121.51773","24.9770216666667","6500600","新店區"
"231050","AAD-862","2019/09/17 20:19:33","新北市新店區博愛街21號","121.54123","24.973575","6500600","新店區"
"231045","355-BY","2019/09/17 20:19:34","新北市新店區新坡一街111號","121.547488333333","24.9636633333333","6500600","新店區"
"231058","3713-VJ","2019/09/17 20:19:34","新北市新店區薏仁坑路自強巷6號","121.496471666667","24.9584833333333","6500600","新店區"
"231056","4715-K9","2019/09/17 20:19:39","新北市新店區中正路420號","121.534258333333","24.9779166666667","6500600","新店區"
"231067","4772-VM","2019/09/17 20:19:36","新北市新店區安康路一段258號","121.520543333333","24.9639383333333","6500600","新店區"
"231051","512-UM","2019/09/17 20:19:28","新北市新店區中央六街123號","121.52489","24.9777166666667","6500600","新店區"
"231053","513-UM","2019/09/17 20:19:31","新北市新店區松林路1號","121.546998333333","24.9121833333333","6500600","新店區"
"231040","617-UM","2019/09/17 20:19:29","新北市新店區中正路110號","121.543015","24.9706266666667","6500600","新店區"
"231041","619-UM","2019/09/17 20:19:30","新北市新店區民權路46號","121.540108333333","24.9829516666667","6500600","新店區"
"231063","641-BX","2019/09/17 20:19:39","新北市新店區車子路1-1號","121.504741666667","24.9577966666667","6500600","新店區"
"231048","KED-0819","2019/09/17 20:19:41","新北市新店區寶橋路88號","121.546901666667","24.9759266666667","6500600","新店區"
"231054","718-UY","2019/09/17 20:19:41","新北市新店區檳榔路109號","121.544433333333","24.9616666666667","6500600","新店區"
"231057","720-UM","2019/09/17 20:19:40","新北市新店區花園十二路1號","121.554813333333","24.9347066666667","6500600","新店區"
"231059","897-TW","2019/09/17 20:19:29","新北市新店區安德街60巷19號","121.510743333333","24.9628716666667","6500600","新店區"
"231043","899-TW","2019/09/17 20:19:29","新北市新店區建國路131號","121.539395","24.97814","6500600","新店區"
"231066","AKT-0513","2019/09/17 20:19:23","新北市新店區柴埕路52巷3號","121.511688333333","24.9644866666667","6500600","新店區"
"241011","013-R5","2019/09/17 20:19:34","新北市三重區龍門路179號","121.499248333333","25.0731733333333","6500200","三重區"
"241028","022-UY","2019/09/17 20:19:35","新北市三重區大同南路95號","121.496198333333","25.0588","6500200","三重區"
"241008","059-VK","2019/09/17 20:19:35","新北市三重區永福街158號","121.480463333333","25.0744816666667","6500200","三重區"
"241005","060-VK","2019/09/17 20:19:31","新北市三重區碧華街442-1號","121.493126666667","25.08582","6500200","三重區"
"241031","061-VK","2019/09/17 20:19:30","新北市三重區三寧街15號","121.489463333333","25.059785","6500200","三重區"
"241015","062-VK","2019/09/17 20:19:35","新北市三重區文化北路6-2號","121.499636666667","25.0635283333333","6500200","三重區"
"241017","063-VK","2019/09/17 20:19:43","新北市三重區自強路一段270號","121.492286666667","25.0677566666667","6500200","三重區"
"241024","065-VK","2019/09/17 20:19:25","新北市三重區中正北路240號","121.481821666667","25.06797","6500200","三重區"
"241007","066-VK","2019/09/17 20:19:25","新北市三重區溪尾街108巷71號","121.487093333333","25.0781816666667","6500200","三重區"
"241002","090-VK","2019/09/17 20:19:37","新北市三重區五華街19號","121.494905","25.08039","6500200","三重區"
"241003","091-VK","2019/09/17 20:19:32","新北市三重區富華街43號","121.490818333333","25.0832066666667","6500200","三重區"
"241019","742-BX","2019/09/17 20:19:33","新北市三重區忠孝路一段75號","121.490538333333","25.072045","6500200","三重區"
"241006","262-UM","2019/09/17 20:19:30","新北市三重區車路頭街135-1號","121.484223333333","25.0761483333333","6500200","三重區"
"241016","266-UM","2019/09/17 20:19:32","新北市三重區大同北路97-3號","121.494386666667","25.0636016666667","6500200","三重區"
"241009","267-UM","2019/09/17 20:19:22","新北市三重區三和路四段183號","121.482578333333","25.078895","6500200","三重區"
"241018","268-UM","2019/09/17 20:19:24","新北市三重區雙園街81號","121.494198333333","25.0673716666667","6500200","三重區"
"241032","269-UM","2019/09/17 20:19:28","新北市三重區捷運路19巷6弄9號","121.48465","25.0569166666667","6500200","三重區"
"241013","270-UM","2019/09/17 20:19:29","新北市三重區三和路三段167巷56號","121.493846666667","25.0748283333333","6500200","三重區"
"241025","271-UM","2019/09/17 20:19:30","新北市三重區頂崁街187巷8號","121.477908333333","25.0664333333333","6500200","三重區"
"241030","KED-0822","2019/09/17 20:19:33","新北市三重區環河南路254巷53號","121.487995","25.0522783333333","6500200","三重區"
"241035","462-BY","2019/09/17 20:19:35","新北市三重區文化北路15號","121.499676666667","25.0635833333333","6500200","三重區"
"241004","475-VK","2019/09/17 20:19:25","新北市三重區仁愛街390號","121.490878333333","25.0808366666667","6500200","三重區"
"241020","478-VK","2019/09/17 20:19:26","新北市三重區三和路三段170巷19號","121.491973333333","25.072825","6500200","三重區"
"241026","480-VK","2019/09/17 20:19:43","新北市三重區環河南路3號","121.503986666667","25.063615","6500200","三重區"
"241014","543-UM","2019/09/17 20:19:32","新北市三重區龍濱路64號","121.502498333333","25.069225","6500200","三重區"
"241023","545-UM","2019/09/17 20:19:23","新北市三重區忠孝路三段99巷4號","121.48021","25.0642516666667","6500200","三重區"
"241022","KED-0820","2019/09/17 20:19:27","新北市三重區新北大道一段56號","121.487453333333","25.0614366666667","6500200","三重區"
"241001","887-TS","2019/09/17 20:19:41","新北市三重區自強路四段28號","121.488848333333","25.0766766666667","6500200","三重區"
"241012","941-UM","2019/09/17 20:19:27","新北市三重區河邊北街266號","121.501651666667","25.0765183333333","6500200","三重區"
"241029","942-UM","2019/09/17 20:19:39","新北市三重區集美街225號","121.492068333333","25.0551833333333","6500200","三重區"
"241033","AAC-255","2019/09/17 20:19:22","新北市三重區五谷王北街50巷41號","121.475136666667","25.0514233333333","6500200","三重區"
"235066","003-UY","2019/09/17 20:19:31","新北市中和區保平路342號","121.506628333333","25.00415","6500300","中和區"
"235039","097-UM","2019/09/17 20:19:23","新北市中和區大勇街29巷12-1號","121.515903333333","24.9945583333333","6500300","中和區"
"235065","098-UM","2019/09/17 20:19:25","新北市中和區永和路69號","121.49646","25.0056883333333","6500300","中和區"
"235040","150-BY","2019/09/17 20:19:24","新北市中和區安平路93號","121.510968333333","24.9966433333333","6500300","中和區"
"247016","KEA-2869","2019/09/17 20:19:28","新北市蘆洲區光華路132巷41號","121.465888333333","25.08385","6501400","蘆洲區"
"247010","KED-0682","2019/09/17 20:19:27","新北市蘆洲區信義路277號","121.47889","25.0851783333333","6501400","蘆洲區"
"235050","4979-A6","2019/09/17 20:19:40","新北市中和區景平路464巷2弄1-4號","121.505863333333","24.994","6500300","中和區"
"235069","4980-A6","2019/09/17 20:19:28","新北市中和區圓通路198巷2弄3號","121.496206666667","24.9946716666667","6500300","中和區"
"235059","AAC-215","2019/09/17 20:19:39","新北市中和區錦和路408號","121.491215","24.9896033333333","6500300","中和區"
"247006","893-R6","2019/09/17 20:19:37","新北市蘆洲區九芎街139巷22弄8號","121.46581","25.078675","6501400","蘆洲區"
"247018","500-BY","2019/09/17 20:19:40","新北市蘆洲區民族路358號","121.476126666667","25.0908333333333","6501400","蘆洲區"
"247008","341-TH","2019/09/17 20:19:38","新北市蘆洲區集賢路306號","121.481363333333","25.0850766666667","6501400","蘆洲區"
"247012","337-TH","2019/09/17 20:19:24","新北市蘆洲區中興街53號","121.48135","25.0873183333333","6501400","蘆洲區"
"247004","336-TH","2019/09/17 20:19:24","新北市蘆洲區長安街301號","121.458018333333","25.0849483333333","6501400","蘆洲區"
"247024","057-VK","2019/09/17 20:19:25","新北市蘆洲區光榮路120巷8弄41號","121.464521666667","25.087915","6501400","蘆洲區"
"247014","056-VK","2019/09/17 20:19:30","新北市蘆洲區中山二路137巷27號","121.472385","25.080875","6501400","蘆洲區"
"247022","007-UY","2019/09/17 20:19:30","新北市蘆洲區三民路251號","121.468283333333","25.0892966666667","6501400","蘆洲區"
"247002","001-UY","2019/09/17 20:19:28","新北市蘆洲區長安街331巷20號","121.456476666667","25.086595","6501400","蘆洲區"
"227002","400-TW","2019/09/17 20:19:35","新北市雙溪區三貂里政光路3-1號","121.850878333333","25.0631916666667","6502500","雙溪區"
"222001","KEA-2212","2019/09/17 20:19:32","新北市深坑區北深路三段243巷1弄1號","121.599423333333","25.00397","6501800","深坑區"
"251009","008-UM","2019/09/17 20:19:26","新北市淡水區清水街9-8號","121.44453","25.1703366666667","6501000","淡水區"
"251004","009-UM","2019/09/17 20:19:39","新北市淡水區民生路117巷34號","121.464888333333","25.1396083333333","6501000","淡水區"
"251001","011-UM","2019/09/17 20:19:33","新北市淡水區淡金路二段15號","121.446388333333","25.1892383333333","6501000","淡水區"
"251015","KEA-2871","2019/09/17 20:19:24","新北市淡水區埤島80號","121.449615","25.1897483333333","6501000","淡水區"
"251016","179-VK","2019/09/17 20:19:31","新北市淡水區番子田16-10號","121.454356666667","25.2306516666667","6501000","淡水區"
"251008","181-VK","2019/09/17 20:19:25","新北市淡水區淡海路150巷12號","121.422225","25.1841783333333","6501000","淡水區"
"251013","182-VK","2019/09/17 20:19:25","新北市淡水區相公山1-5號","121.47427","25.2066866666667","6501000","淡水區"
"251010","413-VK","2019/09/17 20:19:41","新北市淡水區新民街一段134號","121.427588333333","25.1888816666667","6501000","淡水區"
"251012","441-VK","2019/09/17 20:19:37","新北市淡水區淡金路三段374號","121.44978","25.210025","6501000","淡水區"
"251006","561-UM","2019/09/17 20:19:32","新北市淡水區北新路141巷80弄28號","121.448131666667","25.180315","6501000","淡水區"
"251014","577-R6","2019/09/17 20:19:24","新北市淡水區石頭厝2號","121.458396666667","25.2356033333333","6501000","淡水區"
"251011","650-BX","2019/09/17 20:19:23","新北市淡水區下圭柔山91-3號","121.430886666667","25.209575","6501000","淡水區"
"251002","672-BX","2019/09/17 20:19:35","新北市淡水區中正路232號","121.438948333333","25.1709033333333","6501000","淡水區"
"251003","673-BX","2019/09/17 20:19:30","新北市淡水區中山北路一段196號","121.444466666667","25.17936","6501000","淡水區"
"207003","550-UM","2019/09/17 20:19:27","新北市萬里區野柳里八斗60號","121.668376666667","25.2033166666667","6502800","萬里區"
"207004","291-VK","2019/09/17 20:19:44","新北市萬里區北基里仁三街2號","121.682396666667","25.175505","6502800","萬里區"
"252002","178-VK","2019/09/17 20:19:36","新北市三芝區中正路一段53號","121.503411666667","25.2580466666667","6502100","三芝區"
"237006","5529-G3","2019/09/17 20:19:25","新北市三峽區中正路二段41號","121.366715","24.9187566666667","6500900","三峽區"
"237015","649-BX","2019/09/17 20:19:28","新北市三峽區介壽路二段163號","121.39376","24.935905","6500900","三峽區"
"236030","253-BX","2019/09/17 20:19:33","新北市土城區中央路一段45巷2弄2號","121.448463333333","24.9903283333333","6501300","土城區"
"236026","269-VK","2019/09/17 20:19:39","新北市土城區裕生路82巷4號","121.447181666667","24.985765","6501300","土城區"
"236014","270-VK","2019/09/17 20:19:25","新北市板橋區四川路二段14號","121.45619","24.9962166666667","6501300","土城區"
"236070","KEA-2877","2019/09/17 20:19:29","新北市土城區中山路65號","121.426163333333","24.9649","6501300","土城區"
"252001","KED-0821","2019/09/17 20:19:27","新北市三芝區中山路一段31號","121.500601666667","25.25805","6502100","三芝區"
"236059","912-UM","2019/09/17 20:19:44","新北市土城區大安路101-5號","121.433466666667","24.9685333333333","6501300","土城區"
"242042","AAC-296","2019/09/17 20:19:41","新北市新莊區壽山路61號","121.410261666667","25.0326783333333","6500500","新莊區"
"242005","751-BX","2019/09/17 20:19:36","新北市新莊區頭前路14號","121.46815","25.052485","6500500","新莊區"
"242061","705-TV","2019/09/17 20:19:38","新北市新莊區新樹路232號","121.433363333333","25.0194983333333","6500500","新莊區"
"242029","615-BX","2019/09/17 20:19:36","新北市新莊區中華路二段185號","121.45243","25.052345","6500500","新莊區"
"242027","613-BX","2019/09/17 20:19:22","新北市新莊區中平路181號","121.4448","25.04906","6500500","新莊區"
"242058","612-BX","2019/09/17 20:19:26","新北市新莊區龍安路278巷8號","121.422076666667","25.0188683333333","6500500","新莊區"
"242048","566-BX","2019/09/17 20:19:38","新北市新莊區四維路212巷9弄2號","121.421043333333","25.0200583333333","6500500","新莊區"
"242054","497-BY","2019/09/17 20:19:24","新北市新莊區民安西路261巷18號","121.426756666667","25.012995","6500500","新莊區"
"242051","442-UM","2019/09/17 20:19:41","新北市新莊區民安西路212巷6號","121.425348333333","25.014945","6500500","新莊區"
"242007","440-UM","2019/09/17 20:19:33","新北市新莊區福壽街124巷41弄2號","121.459265","25.0513566666667","6500500","新莊區"
"242044","415-TV","2019/09/17 20:19:41","新北市新莊區中正路895號","121.41238","25.022095","6500500","新莊區"
"242013","413-TV","2019/09/17 20:19:39","新北市新莊區中和街186巷11號","121.448008333333","25.0497983333333","6500500","新莊區"
"242025","362-BY","2019/09/17 20:19:35","新北市新莊區五工二路70巷2號","121.460345","25.06583","6500500","新莊區"
"242023","353-BY","2019/09/17 20:19:27","新北市新莊區化成路728號","121.465653333333","25.0571766666667","6500500","新莊區"
"242015","132-UY","2019/09/17 20:19:35","新北市新莊區永樂街235巷4號","121.446603333333","25.0442466666667","6500500","新莊區"
"242039","135-UY","2019/09/17 20:19:38","新北市新莊區成功街77號","121.424608333333","25.0197783333333","6500500","新莊區"
"242056","172-VK","2019/09/17 20:19:34","新北市新莊區新莊路649巷26弄24號","121.44433","25.0320433333333","6500500","新莊區"
"242017","173-VK","2019/09/17 20:19:32","新北市新莊區中港一街51號","121.450495","25.04544","6500500","新莊區"
"242032","175-VK","2019/09/17 20:19:37","新北市新莊區義豐街21號","121.441103333333","25.0350216666667","6500500","新莊區"
"242021","KED-0687","2019/09/17 20:19:33","新北市新莊區復興路一段10號","121.445775","25.04138","6500500","新莊區"
"242009","346-TH","2019/09/17 20:19:40","新北市新莊區昌隆街60號","121.45488","25.050685","6500500","新莊區"
"242037","348-TH","2019/09/17 20:19:31","新北市新莊區建安街62巷22號","121.426758333333","25.02528","6500500","新莊區"
"242034","350-TH","2019/09/17 20:19:39","新北市新莊區建中街141號","121.444966666667","25.0364483333333","6500500","新莊區"
"242019","351-TH","2019/09/17 20:19:38","新北市新莊區復興路二段96號","121.456196666667","25.0442666666667","6500500","新莊區"
"221008","489-VK","2019/09/17 20:19:31","新北市汐止區忠三街9巷32號","121.624365","25.0802816666667","6501100","汐止區"
"221036","130-UY","2019/09/17 20:19:42","新北市汐止區福安街59巷10號","121.66444","25.0636683333333","6501100","汐止區"
"221015","131-UY","2019/09/17 20:19:25","新北市汐止區建成路142巷19弄15號","121.661878333333","25.0739166666667","6501100","汐止區"
"221010","269-BY","2019/09/17 20:19:40","新北市汐止區八連路一段197巷25號","121.641581666667","25.0796366666667","6501100","汐止區"
"221012","278-VK","2019/09/17 20:19:33","新北市汐止區汐平路一段61號","121.682785","25.0704183333333","6501100","汐止區"
"221023","279-VK","2019/09/17 20:19:35","新北市汐止區明峰街298巷10弄1號","121.624976666667","25.0689116666667","6501100","汐止區"
"221032","280-BY","2019/09/17 20:19:39","新北市汐止區弘道街23號","121.617403333333","25.0487216666667","6501100","汐止區"
"221029","298-VK","2019/09/17 20:19:41","新北市汐止區樟樹一路99巷7弄1號","121.64122","25.063665","6501100","汐止區"
"221021","299-VK","2019/09/17 20:19:36","新北市汐止區水源路一段284號","121.654251666667","25.0583166666667","6501100","汐止區"
"221031","353-TW","2019/09/17 20:19:41","新北市汐止區福德二路104號","121.6323","25.0661016666667","6501100","汐止區"
"221035","622-UM","2019/09/17 20:19:27","新北市汐止區長江街57巷26號","121.65615","25.0724933333333","6501100","汐止區"
"221025","623-UM","2019/09/17 20:19:37","新北市汐止區水源路二段30號","121.654826666667","25.0573566666667","6501100","汐止區"
"221038","646-BX","2019/09/17 20:19:41","新北市汐止區忠孝東路438號","121.666135","25.07235","6501100","汐止區"
"221033","647-BX","2019/09/17 20:19:38","新北市汐止區東勢街215巷12號","121.634798333333","25.04326","6501100","汐止區"
"221002","707-TV","2019/09/17 20:19:30","新北市汐止區福德一路86巷12號","121.637648333333","25.06899","6501100","汐止區"
"221018","753-BX","2019/09/17 20:19:31","新北市汐止區茄安路5號","121.6727","25.0678716666667","6501100","汐止區"
"220079","145-BY","2019/09/17 20:19:26","新北市板橋區公館街27號","121.46101","25.01528","6500100","板橋區"
"220080","256-TC","2019/09/17 20:19:34","新北市板橋區大觀路二段443-2號","121.439046666667","24.9952783333333","6500100","板橋區"
"220083","286-VK","2019/09/17 20:19:26","新北市板橋區僑中二街92巷13號","121.445591666667","25.008965","6500100","板橋區"
"220081","287-VK","2019/09/17 20:19:26","新北市板橋區僑中一街80巷7弄10號","121.447365","25.0128283333333","6500100","板橋區"
"242046","281-VK","2019/09/17 20:19:34","新北市新莊區中正路新生巷12號","121.416765","25.0238433333333","6500500","新莊區"
"220103","317-R6","2019/09/17 20:19:26","新北市板橋區漢生東路33巷7號","121.465603333333","25.0172133333333","6500100","板橋區"
"242011","280-VK","2019/09/17 20:19:39","新北市新莊區幸福路670巷12號","121.451021666667","25.050265","6500500","新莊區"
"220054","741-BX","2019/09/17 20:19:36","新北市板橋區實踐路93巷23號","121.465135","25.005385","6500100","板橋區"
"220055","827-TW","2019/09/17 20:19:25","新北市板橋區重慶路290巷44-3號","121.461546666667","24.9987116666667","6500100","板橋區"
"220074","895-R6","2019/09/17 20:19:30","新北市板橋區館前西路68號","121.457706666667","25.00716","6500100","板橋區"
"235068","KEA-2873","2019/09/17 20:19:23","新北市中和區永和路71巷7號","121.496018333333","25.0068483333333","6500300","中和區"
"235026","KEA-2876","2019/09/17 19:50:58","新北市中和區員山路36巷16-3號","121.485026666667","24.991465","6500300","中和區"
