"lineid","car","time","location","longitude","latitude","cityid","cityname"
"234081","298-R6","2019/09/17 20:39:27","新北市永和區永貞路76號","121.520291666667","25.0050766666667","6500400","永和區"
"234064","337-UY","2019/09/17 20:39:22","新北市永和區中正路433號","121.517031666667","25.0050383333333","6500400","永和區"
"234061","AAD-866","2019/09/17 20:39:38","新北市永和區秀朗路一段126號","121.517751666667","25.0034783333333","6500400","永和區"
"234042","862-TW","2019/09/17 20:39:35","新北市永和區安樂路348號","121.514493333333","25.0064283333333","6500400","永和區"
"249001","173-UM","2019/09/17 20:39:28","新北市八里區中山路三段382號","121.368553333333","25.1359266666667","6502300","八里區"
"249004","303-UY","2019/09/17 20:39:25","新北市八里區中山路一段153號","121.412736666667","25.158925","6502300","八里區"
"234074","AAC-211","2019/09/17 20:39:42","新北市永和區竹林路112-1號","121.519803333333","25.011785","6500400","永和區"
"243012","AAD-798","2019/09/17 20:39:28","新北市泰山區泰林路二段465號","121.425478333333","25.0640466666667","6501600","泰山區"
"243009","KEA-2215","2019/09/17 20:39:36","新北市泰山區泰林路二段542巷1弄17號","121.422995","25.06407","6501600","泰山區"
"222003","436-BY","2019/09/17 20:39:30","新北市深坑區文山路二段30巷31號","121.615558333333","24.998715","6501800","深坑區"
"222002","659-BX","2019/09/17 20:39:39","新北市深坑區萬福路45號","121.599446666667","25.00681","6501800","深坑區"
"231061","002-UM","2019/09/17 20:39:24","新北市新店區新和街33號","121.519103333333","24.9847733333333","6500600","新店區"
"231055","0291-UT","2019/09/17 20:39:41","新北市新店區薏仁坑路6號","121.500298333333","24.9579983333333","6500600","新店區"
"231044","046-UY","2019/09/17 20:39:32","新北市新店區民權路90巷36號","121.53699","24.98443","6500600","新店區"
"231060","106-UY","2019/09/17 20:39:29","新北市新店區錦秀路34號","121.479208333333","24.9439583333333","6500600","新店區"
"231049","108-UY","2019/09/17 20:39:34","新北市新店區永業路81巷5弄4號","121.53039","24.9490616666667","6500600","新店區"
"231065","110-UY","2019/09/17 20:39:27","新北市新店區安祥路102巷57號","121.486076666667","24.9638816666667","6500600","新店區"
"231068","187-VK","2019/09/17 20:39:32","新北市新店區寶慶街41號","121.542901666667","24.98658","6500600","新店區"
"231062","256-BX","2019/09/17 20:39:36","新北市新店區安泰路22號","121.485408333333","24.948445","6500600","新店區"
"231042","268-BY","2019/09/17 20:39:35","新北市新店區寶高路116號","121.554508333333","24.9760333333333","6500600","新店區"
"231064","278-BY","2019/09/17 20:39:30","新北市新店區永平街16巷35號","121.517175","24.9843666666667","6500600","新店區"
"231050","AAD-862","2019/09/17 20:39:32","新北市新店區中正路265巷1號","121.538053333333","24.973795","6500600","新店區"
"231045","355-BY","2019/09/17 20:39:34","新北市新店區長春路83號","121.55119","24.9581533333333","6500600","新店區"
"231058","3713-VJ","2019/09/17 20:39:34","新北市新店區自由街27號","121.534998333333","24.9743183333333","6500600","新店區"
"231056","4715-K9","2019/09/17 20:39:39","新北市新店區安民街65巷11號","121.515403333333","24.966455","6500600","新店區"
"231067","4772-VM","2019/09/17 20:39:36","新北市新店區安華路28-1號","121.52003","24.9609116666667","6500600","新店區"
"231051","512-UM","2019/09/17 20:39:28","新北市新店區溪園路247號","121.525223333333","24.983205","6500600","新店區"
"231053","513-UM","2019/09/17 20:39:31","新北市新店區松林路51號","121.544441666667","24.9113616666667","6500600","新店區"
"231040","617-UM","2019/09/17 20:39:29","新北市新店區中正路247巷4弄10號","121.538463333333","24.9733333333333","6500600","新店區"
"231041","619-UM","2019/09/17 20:39:28","新北市新店區中正路543-3號","121.533633333333","24.987305","6500600","新店區"
"231063","641-BX","2019/09/17 20:39:39","新北市新店區玫瑰路4-1號","121.493581666667","24.9513383333333","6500600","新店區"
"231048","KED-0819","2019/09/17 20:39:21","新北市新店區寶慶街12-1號","121.543558333333","24.98689","6500600","新店區"
"231054","718-UY","2019/09/17 20:39:41","新北市新店區行政街20號","121.543226666667","24.9658433333333","6500600","新店區"
"231057","720-UM","2019/09/17 20:39:40","新北市新店區花園二路一段9-5號","121.556351666667","24.93279","6500600","新店區"
"231059","897-TW","2019/09/17 20:39:29","新北市新店區安豐路45號","121.50015","24.955045","6500600","新店區"
"231043","899-TW","2019/09/17 20:39:29","新北市新店區中正路244號","121.539766666667","24.9733183333333","6500600","新店區"
"231066","AKT-0513","2019/09/17 20:39:22","新北市新店區安民街341-1號","121.516695","24.9748783333333","6500600","新店區"
"241011","013-R5","2019/09/17 20:39:34","新北市三重區龍濱路172號","121.501356666667","25.0728366666667","6500200","三重區"
"241028","022-UY","2019/09/17 20:39:35","新北市三重區光興街93號","121.497348333333","25.0599283333333","6500200","三重區"
"241008","059-VK","2019/09/17 20:39:35","新北市三重區下竹圍街42-1號","121.481035","25.0749066666667","6500200","三重區"
"241005","060-VK","2019/09/17 20:39:31","新北市三重區五華街213號","121.489645","25.085725","6500200","三重區"
"241031","061-VK","2019/09/17 20:39:30","新北市三重區重陽路一段43巷30號","121.488216666667","25.0586233333333","6500200","三重區"
"241015","062-VK","2019/09/17 20:39:35","新北市三重區文化北路111號","121.4978","25.0685516666667","6500200","三重區"
"241017","063-VK","2019/09/17 20:39:43","新北市三重區大同北路251號","121.49098","25.0669633333333","6500200","三重區"
"241024","065-VK","2019/09/17 20:39:25","新北市三重區中正北路276巷28號","121.480306666667","25.06718","6500200","三重區"
"241007","066-VK","2019/09/17 20:39:25","新北市三重區自強路四段28號","121.488836666667","25.0768316666667","6500200","三重區"
"241002","090-VK","2019/09/17 20:39:37","新北市三重區仁義街161-2號","121.497071666667","25.08127","6500200","三重區"
"241003","091-VK","2019/09/17 20:39:32","新北市三重區五華街141巷58號","121.493513333333","25.0867466666667","6500200","三重區"
"241019","742-BX","2019/09/17 20:39:43","新北市三重區重陽路四段130號","121.492445","25.0713766666667","6500200","三重區"
"241006","262-UM","2019/09/17 20:39:30","新北市三重區車路頭街139巷12號","121.484253333333","25.076205","6500200","三重區"
"241016","266-UM","2019/09/17 20:39:32","新北市三重區自強路一段143號","121.49465","25.066855","6500200","三重區"
"241009","267-UM","2019/09/17 20:39:22","新北市三重區碧華街57號","121.48475","25.081315","6500200","三重區"
"241018","268-UM","2019/09/17 20:39:44","新北市三重區重陽路4段37-1號","121.491698333333","25.0699133333333","6500200","三重區"
"241032","269-UM","2019/09/17 20:39:28","新北市三重區重陽路一段120巷48號","121.485051666667","25.0601666666667","6500200","三重區"
"241013","270-UM","2019/09/17 20:39:29","新北市三重區三和路三段146-1號","121.49323","25.0728066666667","6500200","三重區"
"241025","271-UM","2019/09/17 20:39:30","新北市三重區頂崁街140號","121.477618333333","25.06506","6500200","三重區"
"241030","KED-0822","2019/09/17 20:39:33","新北市三重區成功路73巷11號","121.489458333333","25.0518783333333","6500200","三重區"
"241035","462-BY","2019/09/17 20:39:35","新北市三重區正義北路378號","121.493356666667","25.071565","6500200","三重區"
"241004","475-VK","2019/09/17 20:39:25","新北市三重區仁愛街418號","121.49048","25.0814233333333","6500200","三重區"
"241020","478-VK","2019/09/17 20:39:26","新北市三重區忠孝路一段101號","121.489483333333","25.072175","6500200","三重區"
"241026","480-VK","2019/09/17 20:39:23","新北市三重區文化南路7號","121.500038333333","25.0623366666667","6500200","三重區"
"241014","543-UM","2019/09/17 20:39:32","新北市三重區萬壽街14號","121.499391666667","25.0694066666667","6500200","三重區"
"241023","545-UM","2019/09/17 20:39:23","新北市三重區頂崁街203巷29弄1號","121.478165","25.06675","6500200","三重區"
"241022","KED-0820","2019/09/17 20:39:27","新北市三重區新北大道一段7號","121.489623333333","25.0612866666667","6500200","三重區"
"241001","887-TS","2019/09/17 20:39:21","新北市三重區三和路四段160巷82號","121.485648333333","25.07462","6500200","三重區"
"241012","941-UM","2019/09/17 20:39:27","新北市三重區秀江街31號","121.502038333333","25.0729283333333","6500200","三重區"
"241029","942-UM","2019/09/17 20:39:39","新北市三重區集美街202號","121.490948333333","25.05401","6500200","三重區"
"241033","AAC-255","2019/09/17 20:39:22","新北市三重區光復路二段3-1號","121.474076666667","25.0538316666667","6500200","三重區"
"247016","KEA-2869","2019/09/17 20:39:28","新北市蘆洲區中山一路280號","121.47117","25.0791716666667","6501400","蘆洲區"
"247010","KED-0682","2019/09/17 20:39:27","新北市蘆洲區中山一路138號","121.47618","25.0817183333333","6501400","蘆洲區"
"235069","4980-A6","2019/09/17 20:39:28","新北市中和區中正路636號","121.485621666667","24.9962116666667","6500300","中和區"
"235059","AAC-215","2019/09/17 20:39:31","新北市中和區員山路74號","121.480856666667","24.9937816666667","6500300","中和區"
"247006","893-R6","2019/09/17 20:39:37","新北市蘆洲區和平路166號","121.466558333333","25.0811616666667","6501400","蘆洲區"
"247008","341-TH","2019/09/17 20:39:38","新北市蘆洲區重陽街42-1號","121.481155","25.082575","6501400","蘆洲區"
"247012","337-TH","2019/09/17 20:39:44","新北市蘆洲區集賢路224巷72號","121.480541666667","25.0884683333333","6501400","蘆洲區"
"247004","336-TH","2019/09/17 20:39:43","新北市蘆洲區長安街222號","121.45815","25.08501","6501400","蘆洲區"
"247024","057-VK","2019/09/17 20:39:25","新北市蘆洲區長樂路56-2號","121.463036666667","25.0862466666667","6501400","蘆洲區"
"247014","056-VK","2019/09/17 20:39:30","新北市蘆洲區成功路62號","121.472645","25.0805383333333","6501400","蘆洲區"
"247022","007-UY","2019/09/17 20:39:28","新北市蘆洲區中正路243巷15號","121.46693","25.0863","6501400","蘆洲區"
"247002","001-UY","2019/09/17 20:39:28","新北市蘆洲區長榮路343號","121.459523333333","25.0875366666667","6501400","蘆洲區"
"222001","KEA-2212","2019/09/17 20:39:32","新北市深坑區北深路三段199號","121.600905","25.0036383333333","6501800","深坑區"
"251001","011-UM","2019/09/17 20:39:33","新北市淡水區水源街二段177巷32弄20號","121.455015","25.1782283333333","6501000","淡水區"
"251015","KEA-2871","2019/09/17 20:39:44","新北市淡水區淡金路三段446號","121.450801666667","25.2144216666667","6501000","淡水區"
"251016","179-VK","2019/09/17 20:39:36","新北市淡水區後洲子16-1號","121.449388333333","25.2240016666667","6501000","淡水區"
"251013","182-VK","2019/09/17 20:39:25","新北市淡水區下圭柔山28巷8號","121.457378333333","25.20412","6501000","淡水區"
"251010","413-VK","2019/09/17 20:39:41","新北市淡水區沙崙路181巷15號","121.423958333333","25.18435","6501000","淡水區"
"251012","441-VK","2019/09/17 20:39:37","新北市淡水區興仁路108號","121.451676666667","25.218145","6501000","淡水區"
"251007","442-VK","2019/09/17 20:39:25","新北市淡水區忠愛街3-1號","121.458041666667","25.1715916666667","6501000","淡水區"
"251006","561-UM","2019/09/17 20:39:42","新北市淡水區商工路186巷1號","121.450416666667","25.18832","6501000","淡水區"
"251014","577-R6","2019/09/17 20:39:24","新北市淡水區公埔子36-1號","121.462545","25.2322283333333","6501000","淡水區"
"251002","672-BX","2019/09/17 20:39:35","新北市淡水區中正路38-1號","121.44368","25.1692433333333","6501000","淡水區"
"251003","673-BX","2019/09/17 20:39:30","新北市淡水區新民街152巷6弄22號","121.438798333333","25.1785","6501000","淡水區"
"252002","178-VK","2019/09/17 20:39:36","新北市三芝區淡金路二段91號","121.504086666667","25.2608816666667","6502100","三芝區"
"247020","KED-0683","2019/09/17 20:39:23","新北市蘆洲區民族路424號","121.473848333333","25.0918083333333","6501400","蘆洲區"
"252001","KED-0821","2019/09/17 20:39:27","新北市三芝區中山路一段97號","121.501356666667","25.2568416666667","6502100","三芝區"
"242042","AAC-296","2019/09/17 20:39:41","新北市新莊區中正路694巷3弄24號","121.41792","25.0280583333333","6500500","新莊區"
"242005","751-BX","2019/09/17 20:39:30","新北市新莊區化成路371巷30弄2號","121.463338333333","25.057015","6500500","新莊區"
"242061","705-TV","2019/09/17 20:39:38","新北市新莊區新樹路262-2號","121.432555","25.0149583333333","6500500","新莊區"
"242029","615-BX","2019/09/17 20:39:36","新北市新莊區中華路二段30號","121.453541666667","25.0451633333333","6500500","新莊區"
"242027","613-BX","2019/09/17 20:39:42","新北市新莊區思源路289號","121.459731666667","25.0483533333333","6500500","新莊區"
"242058","612-BX","2019/09/17 20:39:27","新北市新莊區四維路103號","121.423221666667","25.0234983333333","6500500","新莊區"
"242048","566-BX","2019/09/17 20:39:38","新北市新莊區中正路654號","121.421356666667","25.0284616666667","6500500","新莊區"
"242054","497-BY","2019/09/17 20:39:42","新北市新莊區民安西路229巷7弄19號","121.426481666667","25.0147233333333","6500500","新莊區"
"242051","442-UM","2019/09/17 20:39:40","新北市新莊區民安西路170號","121.426045","25.0159933333333","6500500","新莊區"
"242002","441-UM","2019/09/17 20:39:38","新北市新莊區明中街12-2號","121.458375","25.0386433333333","6500500","新莊區"
"242007","440-UM","2019/09/17 20:39:30","新北市新莊區福壽街56巷7號","121.458768333333","25.0488216666667","6500500","新莊區"
"242044","415-TV","2019/09/17 20:39:41","新北市新莊區龍安路47號","121.415195","25.0216816666667","6500500","新莊區"
"242013","413-TV","2019/09/17 20:39:29","新北市新莊區中和街175巷11號","121.447271666667","25.0505816666667","6500500","新莊區"
"242025","362-BY","2019/09/17 20:39:35","新北市新莊區化成路579巷2號","121.464093333333","25.0662716666667","6500500","新莊區"
"242023","353-BY","2019/09/17 20:39:27","新北市新莊區頭前路82號","121.466218333333","25.052635","6500500","新莊區"
"242015","132-UY","2019/09/17 20:39:35","新北市新莊區中和街35號","121.448115","25.04418","6500500","新莊區"
"242039","135-UY","2019/09/17 20:39:38","新北市新莊區瓊林路204-13號","121.43743","25.0212966666667","6500500","新莊區"
"242056","172-VK","2019/09/17 20:39:34","新北市新莊區瓊泰路94巷34號","121.444326666667","25.0294266666667","6500500","新莊區"
"242017","173-VK","2019/09/17 20:39:32","新北市新莊區中和街62號","121.44788","25.0459716666667","6500500","新莊區"
"242032","175-VK","2019/09/17 20:39:37","新北市新莊區中正路508巷5弄2號","121.435033333333","25.0338583333333","6500500","新莊區"
"242021","KED-0687","2019/09/17 20:39:33","新北市新莊區中華路一段73號","121.452195","25.040095","6500500","新莊區"
"242009","346-TH","2019/09/17 20:39:27","新北市新莊區昌隆街67號","121.457128333333","25.051","6500500","新莊區"
"242037","348-TH","2019/09/17 20:39:31","新北市新莊區建安街16巷3號","121.428441666667","25.0263983333333","6500500","新莊區"
"242034","350-TH","2019/09/17 20:39:30","新北市新莊區中正路334巷18號","121.44569","25.0356833333333","6500500","新莊區"
"242019","351-TH","2019/09/17 20:39:38","新北市新莊區中港路五守新村1巷7號","121.455328333333","25.0380916666667","6500500","新莊區"
"221008","489-VK","2019/09/17 20:39:31","新北市汐止區康寧街459號","121.631545","25.0683966666667","6501100","汐止區"
"221036","130-UY","2019/09/17 20:39:42","新北市汐止區新昌路13號","121.661951666667","25.0673233333333","6501100","汐止區"
"221015","131-UY","2019/09/17 20:39:25","新北市汐止區建成路80號","121.662726666667","25.0731483333333","6501100","汐止區"
"221010","269-BY","2019/09/17 20:39:40","新北市汐止區八連路二段494號","121.628945","25.1061833333333","6501100","汐止區"
"221012","278-VK","2019/09/17 20:39:33","新北市汐止區保新街149號","121.688225","25.0697266666667","6501100","汐止區"
"221023","279-VK","2019/09/17 20:39:35","新北市汐止區湖東街27號","121.635023333333","25.07266","6501100","汐止區"
"221032","280-BY","2019/09/17 20:39:39","新北市汐止區弘道街53巷30弄6號","121.619231666667","25.05006","6501100","汐止區"
"221029","298-VK","2019/09/17 20:39:41","新北市汐止區大同路一段507號","121.645106666667","25.0624833333333","6501100","汐止區"
"221021","299-VK","2019/09/17 20:39:36","新北市汐止區水源路一段282巷3號","121.653995","25.0582533333333","6501100","汐止區"
"221031","353-TW","2019/09/17 20:39:25","新北市汐止區中興路110巷34號","121.634283333333","25.064665","6501100","汐止區"
"221035","622-UM","2019/09/17 20:39:27","新北市汐止區長江街101-5號","121.65864","25.073225","6501100","汐止區"
"221025","623-UM","2019/09/17 20:39:36","新北市汐止區水源路二段185號","121.657785","25.0535233333333","6501100","汐止區"
"221038","646-BX","2019/09/17 20:39:41","新北市汐止區龍安路28巷20號","121.654483333333","25.0645133333333","6501100","汐止區"
"221033","647-BX","2019/09/17 20:39:37","新北市汐止區合順街18巷8弄5號","121.620331666667","25.0419366666667","6501100","汐止區"
"221002","707-TV","2019/09/17 20:39:30","新北市汐止區福德二路167號","121.63088","25.0651283333333","6501100","汐止區"
"221018","753-BX","2019/09/17 20:39:31","新北市汐止區茄苳路70號","121.666676666667","25.0706716666667","6501100","汐止區"
"220083","286-VK","2019/09/17 20:39:26","新北市板橋區大觀路一段36號","121.44598","25.007775","6500100","板橋區"
"242046","281-VK","2019/09/17 20:39:34","新北市新莊區裕民街23號","121.41915","25.02548","6500500","新莊區"
"242011","280-VK","2019/09/17 20:39:29","新北市新莊區中榮街124號","121.4465","25.0527916666667","6500500","新莊區"
"220021","833-TW","2019/09/17 20:39:21","新北市板橋區華東街1-10號","121.448618333333","24.9947333333333","6500100","板橋區"
