"lineid","car","time","location","longitude","latitude","cityid","cityname"
"251004","009-UM","2019/09/17 22:29:38","新北市淡水區民族路33號","121.462283333333","25.1357966666667","6501000","淡水區"
"251008","181-VK","2019/09/17 22:29:24","新北市淡水區學府路104號","121.449873333333","25.1717666666667","6501000","淡水區"
"251010","413-VK","2019/09/17 22:29:40","新北市淡水區沙崙路257號","121.426675","25.18562","6501000","淡水區"
"251007","442-VK","2019/09/17 22:29:25","新北市淡水區北新路184巷1號","121.449498333333","25.1786166666667","6501000","淡水區"
"251011","650-BX","2019/09/17 22:29:23","新北市淡水區水碓街7號","121.443158333333","25.1771316666667","6501000","淡水區"
