"lineid","car","time","location","longitude","latitude","cityid","cityname"
"231007","189-VK","2019/11/08 10:14:07","新北市新店區新潭路二段165號","121.510743333333","24.9199866666667","6500600","新店區"
"231009","192-VK","2019/11/08 10:13:32","新北市新店區成功路50巷1號","121.544846666667","24.904035","6500600","新店區"
"223008","406-TH","2019/11/08 10:13:54","新北市石碇區小粗坑(潭邊里)9-2號","121.678838333333","24.9859266666667","6501900","石碇區"
"227003","282-VK","2019/11/08 10:07:38","新北市雙溪區泰平里灣潭路35-1號","121.81276","24.9290733333333","6502500","雙溪區"
"237013","760-BX","2019/11/08 10:14:02","新北市三峽區中山路459巷135號","121.348833333333","24.9331516666667","6500900","三峽區"
