"lineid","car","time","location","longitude","latitude","cityid","cityname"
"234044","148-BY","2019/11/08 13:59:28","新北市永和區成功路一段14號","121.527038333333","25.0051483333333","6500400","永和區"
"234078","298-R6","2019/11/08 13:59:33","新北市永和區永利路77號","121.5213","25.0037716666667","6500400","永和區"
"234036","336-UY","2019/11/08 13:59:37","新北市永和區成功路二段80號","121.52662","24.998795","6500400","永和區"
"234062","337-UY","2019/11/08 13:59:31","新北市永和區中正路412巷20弄28號","121.518995","25.00135","6500400","永和區"
"234084","338-UY","2019/11/08 13:59:41","新北市永和區福和路90號","121.522516666667","25.0080316666667","6500400","永和區"
"234068","552-UM","2019/11/08 13:59:34","新北市永和區國光路12巷5號","121.518975","25.0085716666667","6500400","永和區"
"234015","745-BX","2019/11/08 13:59:26","新北市永和區文化路58號","121.514475","25.0151216666667","6500400","永和區"
"234028","746-BX","2019/11/08 13:59:29","新北市永和區民權路49巷39號","121.522033333333","24.9977316666667","6500400","永和區"
"234052","KEA-2590","2019/11/08 13:59:37","新北市永和區竹林路39巷46號","121.520306666667","25.0152316666667","6500400","永和區"
"234005","KED-0605","2019/11/08 13:59:27","新北市永和區中和路395號","121.508771666667","25.00023","6500400","永和區"
"234012","KEA-2591","2019/11/08 13:59:28","新北市永和區保生路55號","121.504705","25.0106266666667","6500400","永和區"
"234060","AAD-866","2019/11/08 13:59:36","新北市永和區中正路151巷14號","121.515646666667","24.9988433333333","6500400","永和區"
"234040","862-TW","2019/11/08 13:59:39","新北市永和區中和路335巷18弄24號","121.50803","25.0001816666667","6500400","永和區"
"234048","863-TW","2019/11/08 13:59:27","新北市永和區保安路260號","121.505983333333","25.0124116666667","6500400","永和區"
"234025","9371-KE","2019/11/08 13:59:27","新北市永和區自由街58號","121.513866666667","25.005925","6500400","永和區"
"234010","9373-KE","2019/11/08 13:59:25","新北市永和區仁愛路352巷122弄10號","121.500758333333","25.0087366666667","6500400","永和區"
"248019","KED-0813","2019/11/08 13:59:44","新北市五股區凌雲路三段57號","121.425305","25.1249766666667","6501500","五股區"
"234022","9380-KE","2019/11/08 13:59:30","新北市永和區復興街41巷5號","121.516361666667","25.0133216666667","6500400","永和區"
"234076","969-R7","2019/11/08 13:59:29","新北市永和區民族街45號","121.518471666667","24.998415","6500400","永和區"
"234072","AAC-211","2019/11/08 13:59:25","新北市永和區豫溪街134號","121.52105","25.0102983333333","6500400","永和區"
"234066","AAC-212","2019/11/08 13:59:27","新北市永和區保平路131號","121.510416666667","25.0062716666667","6500400","永和區"
"234001","AAC-295","2019/11/08 13:59:39","新北市永和區自強街32巷10號","121.516008333333","25.0075883333333","6500400","永和區"
"244004","248-BX","2019/11/08 13:59:27","新北市林口區南勢里31號","121.35221","25.0703933333333","6501700","林口區"
"243011","267-VK","2019/11/08 13:59:35","新北市泰山區犁頭窠16-1號","121.420793333333","25.0536416666667","6501600","泰山區"
"231003","001-UM","2019/11/08 13:59:35","新北市新店區光明街32號","121.538403333333","24.958885","6500600","新店區"
"231030","002-UM","2019/11/08 13:59:40","新北市新店區安康路一段302-3號","121.517718333333","24.9641233333333","6500600","新店區"
"231027","0293-UT","2019/11/08 13:59:32","新北市新店區中興路一段24號","121.538778333333","24.9583016666667","6500600","新店區"
"231005","046-UY","2019/11/08 13:59:32","新北市新店區中興路三段188號","121.543995","24.9815616666667","6500600","新店區"
"231029","106-UY","2019/11/08 13:59:34","新北市新店區安康路二段3-3號","121.51596","24.9636283333333","6500600","新店區"
"231018","107-UY","2019/11/08 13:59:38","新北市新店區百忍街50巷2弄1號","121.53373","24.9763533333333","6500600","新店區"
"231013","108-UY","2019/11/08 13:59:42","新北市新店區明德路64號","121.5417","24.97955","6500600","新店區"
"231036","110-UY","2019/11/08 13:59:33","新北市新店區安祥路109巷3弄1號","121.47782","24.9612266666667","6500600","新店區"
"231032","256-BX","2019/11/08 13:59:27","新北市新店區莒光路44巷21弄11-6號","121.518833333333","24.9522116666667","6500600","新店區"
"231023","260-TV","2019/11/08 13:59:32","新北市新店區文中路40號","121.53971","24.9565983333333","6500600","新店區"
"231035","278-BY","2019/11/08 13:59:42","新北市新店區安和路二段115號","121.51867","24.97041","6500600","新店區"
"231016","AAD-862","2019/11/08 13:59:28","新北市新店區北宜路二段118號","121.556596666667","24.9537566666667","6500600","新店區"
"231006","355-BY","2019/11/08 13:59:41","新北市新店區北宜路二段85號","121.549965","24.9518933333333","6500600","新店區"
"231038","3712-VJ","2019/11/08 13:59:39","新北市新店區安華路30巷1號","121.519531666667","24.9593066666667","6500600","新店區"
"231024","4716-K9","2019/11/08 13:59:38","新北市新店區新生街13巷13號","121.539478333333","24.96592","6500600","新店區"
"231025","4715-K9","2019/11/08 13:59:42","新北市新店區中正路302巷10號","121.537941666667","24.9751183333333","6500600","新店區"
"231022","513-UM","2019/11/08 13:59:35","新北市新店區屈尺路75號","121.5458","24.92266","6500600","新店區"
"231002","618-UM","2019/11/08 13:59:27","新北市新店區中正路614號","121.534146666667","24.9885566666667","6500600","新店區"
"231034","641-BX","2019/11/08 13:59:32","新北市新店區達觀路40號","121.503758333333","24.9386533333333","6500600","新店區"
"231012","KED-0819","2019/11/08 13:59:36","新北市新店區中興路二段83號","121.547011666667","24.9711033333333","6500600","新店區"
"231010","719-UM","2019/11/08 13:59:26","新北市新店區安康路一段226號","121.523483333333","24.9636183333333","6500600","新店區"
"231026","720-UM","2019/11/08 13:59:40","新北市新店區中央路95巷6號","121.531553333333","24.974935","6500600","新店區"
"231028","897-TW","2019/11/08 13:59:29","新北市新店區安和路三段40號","121.518005","24.9816566666667","6500600","新店區"
"231001","898-TW","2019/11/08 13:59:41","新北市新店區三民路45號","121.537066666667","24.9708666666667","6500600","新店區"
"231004","899-TW","2019/11/08 13:59:27","新北市新店區北新路二段156號","121.542951666667","24.975445","6500600","新店區"
"231037","AKT-0513","2019/11/08 13:59:24","新北市新店區安康路三段355巷35號","121.484923333333","24.9496766666667","6500600","新店區"
"235028","005-UY","2019/11/08 13:59:32","新北市中和區中和路26巷12號","121.49927","25.001665","6500300","中和區"
"235027","006-UY","2019/11/08 13:59:35","新北市中和區連城路395號","121.486408333333","24.99627","6500300","中和區"
"235020","096-UM","2019/11/08 13:59:33","新北市中和區中正路1220巷5號","121.479801666667","25.0112833333333","6500300","中和區"
"235039","097-UM","2019/11/08 13:59:32","新北市中和區秀朗路三段179號","121.524308333333","24.9908533333333","6500300","中和區"
"235029","098-UM","2019/11/08 13:59:32","新北市中和區莊敬路35號","121.500678333333","25.0048083333333","6500300","中和區"
"235004","150-BY","2019/11/08 13:59:35","新北市中和區保健路61巷1號","121.509583333333","24.9973133333333","6500300","中和區"
"235022","151-BY","2019/11/08 13:59:42","新北市中和區連城路607號","121.478031666667","24.9929983333333","6500300","中和區"
"235019","183-VK","2019/11/08 13:59:38","新北市中和區德光路47號","121.470183333333","25.0041516666667","6500300","中和區"
"235002","185-VK","2019/11/08 13:59:31","新北市中和區立人街24-4號","121.51892","24.9942066666667","6500300","中和區"
"235031","255-BX","2019/11/08 13:59:23","新北市中和區新生街268號","121.483486666667","24.997115","6500300","中和區"
"235008","293-VK","2019/11/08 13:59:42","新北市中和區中興街178號","121.499875","24.990955","6500300","中和區"
"235036","301-VK","2019/11/08 13:59:28","新北市中和區中山路二段146-1號","121.501875","25.0029","6500300","中和區"
"235006","KEA-2878","2019/11/08 13:59:39","新北市中和區秀朗路三段50巷2弄7號","121.526013333333","24.9958733333333","6500300","中和區"
"247015","KEA-2869","2019/11/08 13:59:34","新北市蘆洲區光華路47號","121.468698333333","25.0830016666667","6501400","蘆洲區"
"247009","KED-0682","2019/11/08 13:59:34","新北市蘆洲區集賢路223-1號","121.48266","25.086285","6501400","蘆洲區"
"235014","4979-A6","2019/11/08 13:59:40","新北市中和區華新街50巷2號","121.507755","24.984085","6500300","中和區"
"235033","4980-A6","2019/11/08 13:59:22","新北市中和區南山路9號","121.50208","24.99935","6500300","中和區"
"235034","558-UM","2019/11/08 13:59:38","新北市中和區中和路115號","121.501491666667","25.0003333333333","6500300","中和區"
"235009","565-BX","2019/11/08 13:59:39","新北市中和區景新街467巷38弄2號","121.514558333333","24.9885883333333","6500300","中和區"
"235018","640-BX","2019/11/08 13:59:35","新北市中和區國光街109巷25號","121.469436666667","24.9995466666667","6500300","中和區"
"235035","647-TV","2019/11/08 13:59:29","新北市中和區立德街19號","121.488836666667","25.0071","6500300","中和區"
"235011","732-UM","2019/11/08 13:59:34","新北市中和區興南路二段94號","121.505281666667","24.9842416666667","6500300","中和區"
"235010","733-UM","2019/11/08 13:59:29","新北市中和區興南路二段31巷17號","121.508058333333","24.9852333333333","6500300","中和區"
"235026","800-TS","2019/11/08 13:59:29","新北市中和區橋安街17號","121.492721666667","25.004035","6500300","中和區"
"235021","801-TS","2019/11/08 13:59:33","新北市中和區民利街48號","121.479343333333","24.9988366666667","6500300","中和區"
"235005","802-TS","2019/11/08 13:59:32","新北市中和區中安街32號","121.513215","25.0027766666667","6500300","中和區"
"235016","805-TS","2019/11/08 13:59:20","新北市中和區興南路二段131-10號","121.504041666667","24.9807883333333","6500300","中和區"
"235012","896-TW","2019/11/08 13:59:40","新北市中和區華新街45號","121.50778","24.98459","6500300","中和區"
"235017","900-TW","2019/11/08 13:59:26","新北市板橋區和平路197號","121.464225","24.9965066666667","6500300","中和區"
"235015","157-BY","2019/11/08 13:59:31","新北市中和區仁愛街53號","121.511235","24.98798","6500300","中和區"
"235001","AAC-213","2019/11/08 13:59:37","新北市中和區秀朗路三段60巷32號","121.525238333333","24.9949983333333","6500300","中和區"
"235023","AAC-215","2019/11/08 13:59:27","新北市中和區圓通路294巷15號","121.488766666667","24.99013","6500300","中和區"
"220013","072-UY","2019/11/08 13:59:24","新北市板橋區漢生東路344號","121.471943333333","25.0074816666667","6500100","板橋區"
"220034","073-UY","2019/11/08 13:59:42","新北市板橋區中正路74號","121.45685","25.014695","6500100","板橋區"
"220017","AAD-861","2019/11/08 13:59:25","新北市板橋區貴興路5號","121.45777","25.0044483333333","6500100","板橋區"
"220105","120-SR","2019/11/08 13:59:42","新北市板橋區文化路二段59號","121.46927","25.025335","6500100","板橋區"
"247005","893-R6","2019/11/08 13:59:32","新北市蘆洲區中山一路312號","121.469203333333","25.07711","6501400","蘆洲區"
"247019","546-UM","2019/11/08 13:59:38","新北市蘆洲區民族路422巷82弄2號","121.47364","25.0936483333333","6501400","蘆洲區"
"247023","500-BY","2019/11/08 13:59:30","新北市蘆洲區光榮路120巷9號","121.46522","25.08884","6501400","蘆洲區"
"247003","341-TH","2019/11/08 13:59:35","新北市蘆洲區中華街40號","121.462415","25.0810316666667","6501400","蘆洲區"
"247013","056-VK","2019/11/08 13:59:43","新北市蘆洲區中正路134巷4號","121.46931","25.0853966666667","6501400","蘆洲區"
"247021","007-UY","2019/11/08 13:59:26","新北市蘆洲區中正路186號","121.466935","25.0880216666667","6501400","蘆洲區"
"247007","002-UY","2019/11/08 13:59:35","新北市蘆洲區重陽一街3號","121.481715","25.0814633333333","6501400","蘆洲區"
"247001","001-UY","2019/11/08 13:59:30","新北市蘆洲區三民路605號","121.460658333333","25.0936816666667","6501400","蘆洲區"
"235013","251-BX","2019/11/08 13:59:36","新北市中和區明仁街8號","121.505968333333","24.99547","6500300","中和區"
"207002","749-BX","2019/11/08 13:59:40","新北市萬里區溪底里溪底路9-1號","121.618186666667","25.14874","6502800","萬里區"
"207001","662-BX","2019/11/08 13:59:30","新北市萬里區磺潭里清水13號","121.635145","25.202025","6502800","萬里區"
"236040","KED-0685","2019/11/08 13:59:31","新北市土城區城林路6巷80號","121.438545","24.979745","6501300","土城區"
"220038","KED-0812","2019/11/08 13:59:41","新北市板橋區文化路二段481號","121.475555","25.0336983333333","6500100","板橋區"
"236077","166-UM","2019/11/08 13:59:33","新北市土城區永寧路32巷10弄3號","121.428871666667","24.96101","6501300","土城區"
"236029","253-BX","2019/11/08 13:59:22","新北市土城區城林路6巷80號","121.438473333333","24.9797283333333","6501300","土城區"
"236024","269-VK","2019/11/08 13:59:37","新北市土城區承天路37號","121.43764","24.9646016666667","6501300","土城區"
"236013","270-VK","2019/11/08 13:59:43","新北市土城區員福街50號","121.44045","24.979115","6501300","土城區"
"236032","271-VK","2019/11/08 13:59:22","新北市土城區明德路一段385-1號","121.452568333333","24.9800316666667","6501300","土城區"
"247011","KED-0683","2019/11/08 13:59:30","新北市蘆洲區民族路184號","121.479935","25.086965","6501400","蘆洲區"
"236067","KEA-2877","2019/11/08 13:59:38","新北市土城區和平路54號","121.44527","24.9689666666667","6501300","土城區"
"236016","401-BY","2019/11/08 13:59:37","新北市土城區城林路6巷80號","121.438596666667","24.9797583333333","6501300","土城區"
"236057","912-UM","2019/11/08 13:59:32","新北市土城區中央路三段254-2號","121.427478333333","24.96411","6501300","土城區"
"236045","913-UM","2019/11/08 13:59:39","新北市土城區城林路6巷80號","121.438488333333","24.9797533333333","6501300","土城區"
"236060","915-UM","2019/11/08 13:59:39","新北市土城區城林路6巷80號","121.438463333333","24.979805","6501300","土城區"
"236054","AAC-216","2019/11/08 13:59:32","新北市土城區城林路6巷80號","121.43817","24.9798033333333","6501300","土城區"
"220027","145-BY","2019/11/08 13:59:25","新北市板橋區南雅西路二段180巷19號","121.452895","25.0139266666667","6500100","板橋區"
"220030","610-BX","2019/11/08 13:59:41","新北市板橋區篤行路三段玉平巷76弄7號","121.427508333333","24.9858033333333","6500100","板橋區"
"220040","267-BY","2019/11/08 13:59:24","新北市板橋區大同街8巷43號","121.477831666667","25.02632","6500100","板橋區"
"220004","276-BY","2019/11/08 13:59:25","新北市板橋區信義路116號","121.458351666667","24.992565","6500100","板橋區"
"220020","277-BY","2019/11/08 13:59:29","新北市板橋區篤行路一段18號","121.432076666667","24.995005","6500100","板橋區"
"220050","280-UM","2019/11/08 13:59:41","新北市板橋區萬板路53巷2號","121.47143","25.021635","6500100","板橋區"
"220043","283-UM","2019/11/08 13:59:33","新北市板橋區光武街155號","121.465453333333","25.0296183333333","6500100","板橋區"
"220019","283-VK","2019/11/08 13:59:35","新北市板橋區重慶路245巷42號","121.464871666667","25.0008366666667","6500100","板橋區"
"220001","285-VK","2019/11/08 13:59:24","新北市板橋區太和街5巷20號","121.473176666667","25.0196166666667","6500100","板橋區"
"220107","286-VK","2019/11/08 13:59:36","新北市板橋區僑中二街152號","121.444835","25.0043133333333","6500100","板橋區"
"220029","287-VK","2019/11/08 13:59:41","新北市板橋區光華街19巷1號","121.45374","25.0120683333333","6500100","板橋區"
"220039","288-VK","2019/11/08 13:59:37","新北市板橋區裕民街11號","121.462268333333","25.02909","6500100","板橋區"
"220009","293-UM","2019/11/08 13:59:39","新北市板橋區中山路二段273號","121.477718333333","25.017875","6500100","板橋區"
"220032","296-UM","2019/11/08 13:59:36","新北市板橋區篤行路一段16號","121.431326666667","24.9954816666667","6500100","板橋區"
"220023","303-R5","2019/11/08 13:59:38","新北市板橋區南興路34號","121.454693333333","25.007665","6500100","板橋區"
"220010","305-R5","2019/11/08 13:59:37","新北市板橋區三民路二段245巷4弄2號","121.480983333333","25.012215","6500100","板橋區"
"220041","307-R5","2019/11/08 13:59:27","新北市板橋區文化路二段225巷60弄66號","121.469098333333","25.0299066666667","6500100","板橋區"
"220047","317-R6","2019/11/08 13:59:31","新北市板橋區文化路一段366號","121.469326666667","25.0236833333333","6500100","板橋區"
"220037","491-VK","2019/11/08 13:59:27","台北市萬華區青年路69號","121.502983333333","25.0242716666667","6500100","板橋區"
"220104","560-BX","2019/11/08 13:59:30","新北市板橋區中正路341巷33號","121.454256666667","25.0197733333333","6500100","板橋區"
"220052","561-BX","2019/11/08 13:59:40","新北市板橋區介壽街82號","121.469861666667","25.0188666666667","6500100","板橋區"
"220028","568-UM","2019/11/08 13:59:32","新北市板橋區大觀路二段205號","121.444743333333","24.9994066666667","6500100","板橋區"
"220005","686-BX","2019/11/08 13:59:20","新北市板橋區重慶路253-3號","121.46339","25.0002833333333","6500100","板橋區"
"220025","687-BX","2019/11/08 13:59:34","新北市板橋區大觀路二段174巷157號","121.441613333333","25.0028833333333","6500100","板橋區"
"220042","689-BX","2019/11/08 13:59:40","新北市板橋區民生路三段211號","121.464965","25.0281266666667","6500100","板橋區"
"220002","741-BX","2019/11/08 13:59:36","新北市板橋區成都街60號","121.463018333333","25.0050783333333","6500100","板橋區"
"220051","KEA-2699","2019/11/08 13:59:44","新北市板橋區萬板路810號","121.482701666667","25.0273883333333","6500100","板橋區"
"220003","827-TW","2019/11/08 13:59:41","新北市板橋區新站路3號","121.467045","25.011375","6500100","板橋區"
"220016","830-TW","2019/11/08 13:59:42","新北市板橋區中山路二段465巷13號","121.481441666667","25.021005","6500100","板橋區"
"220014","831-TW","2019/11/08 13:59:24","新北市板橋區三民路二段正隆巷12弄2號","121.478025","25.0127933333333","6500100","板橋區"
"220022","895-R6","2019/11/08 13:59:39","新北市板橋區林園街1號","121.453863333333","25.0091066666667","6500100","板橋區"
"220021","985-R7","2019/11/08 13:59:40","新北市板橋區西門街2號","121.455811666667","25.011495","6500100","板橋區"
"220046","AAC-210","2019/11/08 13:59:36","新北市板橋區新海路135巷33號","121.459953333333","25.02277","6500100","板橋區"
"220012","AAC-253","2019/11/08 13:59:30","新北市板橋區板新路79號","121.47344","25.013705","6500100","板橋區"
"235032","KEA-2873","2019/11/08 13:59:31","新北市中和區景平路545巷1弄15號","121.498801666667","24.9988166666667","6500300","中和區"
"235025","KEA-2875","2019/11/08 13:59:32","新北市中和區員山路294巷22號","121.482415","25.0023216666667","6500300","中和區"
