"lineid","car","time","location","longitude","latitude","cityid","cityname"
"234044","148-BY","2019/11/08 14:13:28","新北市永和區得和路291號","121.52262","24.9998016666667","6500400","永和區"
"234078","298-R6","2019/11/08 14:13:35","新北市永和區永亨路98號","121.523083333333","25.0048516666667","6500400","永和區"
"234036","336-UY","2019/11/08 14:13:37","新北市永和區成功路一段93巷23弄13號","121.528501666667","25.0033666666667","6500400","永和區"
"234062","337-UY","2019/11/08 14:13:31","新北市永和區永利路156號","121.522626666667","25.0028483333333","6500400","永和區"
"234084","338-UY","2019/11/08 14:13:40","新北市永和區中正路617號","121.516076666667","25.0098066666667","6500400","永和區"
"234068","552-UM","2019/11/08 14:13:32","新北市永和區永亨路31號","121.519721666667","25.0061133333333","6500400","永和區"
"234052","KEA-2590","2019/11/08 14:13:37","新北市永和區博愛街5號","121.5167","25.01581","6500400","永和區"
"234005","KED-0605","2019/11/08 14:13:27","新北市永和區中山路一段6號","121.51424","25.0103666666667","6500400","永和區"
"234012","KEA-2591","2019/11/08 14:13:29","新北市永和區保生路40巷2號","121.506128333333","25.0081083333333","6500400","永和區"
"234060","AAD-866","2019/11/08 14:13:36","新北市永和區得和路76號","121.516383333333","25.0000783333333","6500400","永和區"
"234040","862-TW","2019/11/08 14:13:40","新北市永和區中和路453號","121.509933333333","25.0014716666667","6500400","永和區"
"234048","863-TW","2019/11/08 14:13:27","新北市永和區新生路28巷16號","121.508315","25.0164016666667","6500400","永和區"
"234025","9371-KE","2019/11/08 14:13:27","新北市永和區安樂路198巷4弄2號","121.515595","25.0020133333333","6500400","永和區"
"248019","KED-0813","2019/11/08 13:59:44","新北市五股區凌雲路三段57號","121.425305","25.1249766666667","6501500","五股區"
"234022","9380-KE","2019/11/08 14:13:27","新北市永和區竹林路25巷36弄2號","121.518208333333","25.0148683333333","6500400","永和區"
"234076","969-R7","2019/11/08 14:13:29","新北市永和區民族街81巷48號","121.519811666667","24.9964833333333","6500400","永和區"
"234072","AAC-211","2019/11/08 14:13:22","新北市永和區竹林路206號","121.520718333333","25.00842","6500400","永和區"
"234066","AAC-212","2019/11/08 14:13:27","新北市永和區保平路268巷16號","121.50786","25.00606","6500400","永和區"
"234001","AAC-295","2019/11/08 14:13:39","新北市永和區中正路609巷28號","121.515931666667","25.00876","6500400","永和區"
"244004","248-BX","2019/11/08 14:13:27","新北市林口區南勢里31號","121.352211666667","25.0703366666667","6501700","林口區"
"231003","001-UM","2019/11/08 14:13:35","新北市新店區中興路一段170號","121.542893333333","24.9643616666667","6500600","新店區"
"231030","002-UM","2019/11/08 14:13:19","新北市新店區安民街65巷21-2號","121.515171666667","24.9675066666667","6500600","新店區"
"231027","0293-UT","2019/11/08 14:13:32","新北市新店區光明街24號","121.53846","24.9586683333333","6500600","新店區"
"231005","046-UY","2019/11/08 14:13:35","新北市新店區中興路三段225號","121.543161666667","24.98326","6500600","新店區"
"231029","106-UY","2019/11/08 14:13:34","新北市新店區安康路二段161號","121.510155","24.9594483333333","6500600","新店區"
"231018","107-UY","2019/11/08 14:13:38","新北市新店區中央五街42-1號","121.528303333333","24.97512","6500600","新店區"
"231013","108-UY","2019/11/08 14:13:22","新北市新店區北新路三段49號","121.541828333333","24.9805683333333","6500600","新店區"
"231036","110-UY","2019/11/08 14:13:33","新北市新店區安祥路109巷90弄79號","121.4759","24.9580866666667","6500600","新店區"
"231032","256-BX","2019/11/08 14:13:27","新北市新店區永業路31巷1號","121.53296","24.9555833333333","6500600","新店區"
"231023","260-TV","2019/11/08 14:13:32","新北市新店區文中路40號","121.53968","24.956585","6500600","新店區"
"231035","278-BY","2019/11/08 14:13:42","新北市新店區安和路二段115號","121.518685","24.97045","6500600","新店區"
"231016","AAD-862","2019/11/08 14:13:28","新北市新店區中生路22巷4弄1號","121.56184","24.95271","6500600","新店區"
"231006","355-BY","2019/11/08 14:13:41","新北市新店區北宜路二段82-13號","121.554721666667","24.9535033333333","6500600","新店區"
"231038","3712-VJ","2019/11/08 14:13:39","新北市新店區溪洲路59-1號","121.533531666667","24.9607933333333","6500600","新店區"
"231024","4716-K9","2019/11/08 14:13:38","新北市新店區光華街29號","121.515556666667","24.9697916666667","6500600","新店區"
"231025","4715-K9","2019/11/08 14:13:22","新北市新店區民族路161號","121.537741666667","24.9767466666667","6500600","新店區"
"231022","513-UM","2019/11/08 14:13:35","新北市新店區自強路108號","121.545896666667","24.9226333333333","6500600","新店區"
"231002","618-UM","2019/11/08 14:13:27","新北市新店區中正路500號","121.533956666667","24.9821816666667","6500600","新店區"
"231034","641-BX","2019/11/08 14:13:31","新北市新店區車子路11號","121.503016666667","24.951995","6500600","新店區"
"231012","KED-0819","2019/11/08 14:13:36","新北市新店區五峰路63巷8弄20-1號","121.547663333333","24.9689166666667","6500600","新店區"
"231028","897-TW","2019/11/08 14:13:29","新北市新店區安業街1號","121.516016666667","24.9786433333333","6500600","新店區"
"231001","898-TW","2019/11/08 14:13:41","新北市新店區中華路59號","121.539951666667","24.9680483333333","6500600","新店區"
"231004","899-TW","2019/11/08 14:13:27","新北市新店區北新路二段94號","121.543108333333","24.9730666666667","6500600","新店區"
"231037","AKT-0513","2019/11/08 14:13:24","新北市新店區安康路三段73號","121.492198333333","24.9520866666667","6500600","新店區"
"235030","003-UY","2019/11/08 14:13:25","新北市中和區中和路102號","121.502666666667","24.9997366666667","6500300","中和區"
"235028","005-UY","2019/11/08 14:13:32","新北市中和區南山路81巷29號","121.502956666667","24.9982716666667","6500300","中和區"
"235027","006-UY","2019/11/08 14:13:35","新北市中和區連勝街130號","121.494323333333","24.9966666666667","6500300","中和區"
"235020","096-UM","2019/11/08 14:13:33","新北市中和區員山路511號","121.479868333333","25.0065","6500300","中和區"
"235039","097-UM","2019/11/08 14:13:32","新北市中和區秀峰街103巷8弄12號","121.519668333333","24.9896416666667","6500300","中和區"
"235029","098-UM","2019/11/08 14:13:31","新北市中和區中山路二段2巷5弄13號","121.504276666667","25.0060416666667","6500300","中和區"
"235004","150-BY","2019/11/08 14:13:30","新北市中和區宜安路66號","121.511398333333","24.9970816666667","6500300","中和區"
"235022","151-BY","2019/11/08 14:13:22","新北市中和區和城路一段271巷1號","121.485558333333","24.9919633333333","6500300","中和區"
"235019","183-VK","2019/11/08 14:13:38","新北市中和區中山路三段181巷26號","121.47307","25.0051716666667","6500300","中和區"
"235002","185-VK","2019/11/08 14:13:31","新北市中和區大仁街11號","121.517675","24.9927216666667","6500300","中和區"
"235031","255-BX","2019/11/08 14:13:23","新北市中和區連城路280號","121.484423333333","24.9963366666667","6500300","中和區"
"235008","293-VK","2019/11/08 14:13:23","新北市中和區中興街266巷2號","121.498576666667","24.9875483333333","6500300","中和區"
"235036","301-VK","2019/11/08 14:13:28","新北市中和區永和路66巷2號","121.498758333333","25.004545","6500300","中和區"
"235006","KEA-2878","2019/11/08 14:13:39","新北市中和區自強路11號","121.520286666667","24.993395","6500300","中和區"
"247015","KEA-2869","2019/11/08 14:13:34","新北市蘆洲區光華路68號","121.468113333333","25.0828333333333","6501400","蘆洲區"
"247009","KED-0682","2019/11/08 14:13:34","新北市蘆洲區信義路158-6號","121.47943","25.08391","6501400","蘆洲區"
"235014","4979-A6","2019/11/08 14:13:31","新北市中和區景安路208巷31號","121.502353333333","24.9922833333333","6500300","中和區"
"235033","4980-A6","2019/11/08 14:13:22","新北市中和區福美路266號","121.498131666667","25.0051233333333","6500300","中和區"
"235034","558-UM","2019/11/08 14:13:38","新北市中和區中和路18號","121.499746666667","25.00204","6500300","中和區"
"235009","565-BX","2019/11/08 14:13:40","新北市中和區景新街423巷43號","121.514448333333","24.9897466666667","6500300","中和區"
"235024","KED-0823","2019/11/08 14:13:39","新北市中和區新生街118巷14號","121.482925","25.0018083333333","6500300","中和區"
"235018","640-BX","2019/11/08 14:13:35","新北市中和區國光街102巷2號","121.470315","25.00037","6500300","中和區"
"235035","647-TV","2019/11/08 14:13:29","新北市中和區中山路二段472號","121.488161666667","25.0049533333333","6500300","中和區"
"235011","732-UM","2019/11/08 14:13:34","新北市中和區興南路一段56巷30號","121.510221666667","24.9914166666667","6500300","中和區"
"235010","733-UM","2019/11/08 14:13:29","新北市中和區忠孝街2巷2-6號","121.509978333333","24.982375","6500300","中和區"
"235026","800-TS","2019/11/08 14:13:29","新北市中和區錦和路3號","121.485976666667","25.00384","6500300","中和區"
"235021","801-TS","2019/11/08 14:13:33","新北市中和區台新街43號","121.479811666667","25.00483","6500300","中和區"
"235005","802-TS","2019/11/08 14:13:41","新北市中和區安平路148號","121.51236","24.9982366666667","6500300","中和區"
"235016","805-TS","2019/11/08 14:13:40","新北市中和區興南路二段142巷19弄22號","121.502655","24.9836016666667","6500300","中和區"
"235012","896-TW","2019/11/08 14:13:39","新北市中和區華新街109巷24號","121.50857","24.9805066666667","6500300","中和區"
"235017","900-TW","2019/11/08 14:13:26","新北市中和區華安街17巷27號","121.467415","24.9982783333333","6500300","中和區"
"235015","157-BY","2019/11/08 14:13:31","新北市中和區和平街29-1號","121.507496666667","24.99112","6500300","中和區"
"235001","AAC-213","2019/11/08 14:13:37","新北市中和區秀朗路三段10巷14弄108號","121.522886666667","24.9966683333333","6500300","中和區"
"235023","AAC-215","2019/11/08 14:13:27","新北市中和區圓通路252巷36弄1號","121.49234","24.9930883333333","6500300","中和區"
"220013","072-UY","2019/11/08 14:13:43","新北市板橋區民族路129巷14號","121.467638333333","25.0085116666667","6500100","板橋區"
"220034","073-UY","2019/11/08 14:13:26","新北市板橋區中正路236巷37號","121.457465","25.0193083333333","6500100","板橋區"
"220017","AAD-861","2019/11/08 14:13:25","新北市板橋區貴興路8號","121.457685","25.0044516666667","6500100","板橋區"
"220105","120-SR","2019/11/08 14:13:41","新北市板橋區長江路二段275號","121.469888333333","25.0330233333333","6500100","板橋區"
"247005","893-R6","2019/11/08 14:13:40","新北市蘆洲區永安南路二段16巷18-1號","121.468146666667","25.077885","6501400","蘆洲區"
"247023","500-BY","2019/11/08 14:13:30","新北市蘆洲區長榮路518號","121.459526666667","25.0898566666667","6501400","蘆洲區"
"247003","341-TH","2019/11/08 14:13:33","新北市蘆洲區長安街172巷13號","121.459568333333","25.0836933333333","6501400","蘆洲區"
"247013","056-VK","2019/11/08 14:13:23","新北市蘆洲區中山一路203號","121.47423","25.081085","6501400","蘆洲區"
"247017","053-VK","2019/11/08 14:13:30","新北市蘆洲區復興路119號","121.477411666667","25.088185","6501400","蘆洲區"
"247021","007-UY","2019/11/08 14:13:26","新北市蘆洲區三民路256號","121.467745","25.0900633333333","6501400","蘆洲區"
"247007","002-UY","2019/11/08 14:13:35","新北市蘆洲區中山一路285號","121.471978333333","25.0795366666667","6501400","蘆洲區"
"247001","001-UY","2019/11/08 14:13:30","新北市蘆洲區長榮路518號","121.459481666667","25.0900483333333","6501400","蘆洲區"
"235013","251-BX","2019/11/08 14:13:36","新北市中和區景新街230巷3號","121.508211666667","24.9940133333333","6500300","中和區"
"207002","749-BX","2019/11/08 14:13:40","新北市萬里區溪底里溪底路23號","121.61048","25.1481066666667","6502800","萬里區"
"207001","662-BX","2019/11/08 14:13:30","新北市萬里區磺潭里清水18號","121.637806666667","25.197475","6502800","萬里區"
"236040","KED-0685","2019/11/08 14:13:31","新北市土城區裕生路79號","121.446878333333","24.9844333333333","6501300","土城區"
"220038","KED-0812","2019/11/08 14:13:40","新北市板橋區文化路一段283號","121.464866666667","25.0186216666667","6500100","板橋區"
"236077","166-UM","2019/11/08 14:13:33","新北市土城區永安街130號","121.429568333333","24.96419","6501300","土城區"
"236029","253-BX","2019/11/08 14:13:22","新北市土城區員福街38號","121.440866666667","24.978875","6501300","土城區"
"236024","269-VK","2019/11/08 14:13:37","新北市土城區承天路65號","121.439556666667","24.9637533333333","6501300","土城區"
"236013","270-VK","2019/11/08 14:13:43","新北市土城區青雲路39巷7號","121.460318333333","24.9875466666667","6501300","土城區"
"236032","271-VK","2019/11/08 14:13:22","新北市土城區青雲路451巷3號","121.459105","24.974695","6501300","土城區"
"247011","KED-0683","2019/11/08 14:13:30","新北市蘆洲區復興路81號","121.476286666667","25.087465","6501400","蘆洲區"
"236067","KEA-2877","2019/11/08 14:13:38","新北市土城區明德路一段295號","121.460038333333","24.9772316666667","6501300","土城區"
"236016","401-BY","2019/11/08 14:13:37","新北市土城區員林街72號","121.444295","24.9769616666667","6501300","土城區"
"236057","912-UM","2019/11/08 14:13:32","新北市土城區中央路四段342號","121.413396666667","24.9553283333333","6501300","土城區"
"236045","913-UM","2019/11/08 14:13:39","新北市土城區明德路一段365-1號","121.453556666667","24.9790316666667","6501300","土城區"
"236060","915-UM","2019/11/08 14:13:39","新北市土城區金城路三段202-3號","121.469446666667","24.9885933333333","6501300","土城區"
"236054","AAC-216","2019/11/08 14:13:32","新北市土城區中華路二段92號","121.438333333333","24.9747666666667","6501300","土城區"
"220027","145-BY","2019/11/08 14:13:25","新北市板橋區民權路192號","121.459225","25.0136283333333","6500100","板橋區"
"220030","610-BX","2019/11/08 14:13:41","新北市板橋區溪崑二街27號","121.4286","24.9912516666667","6500100","板橋區"
"220040","267-BY","2019/11/08 14:13:24","新北市板橋區萬板路456號","121.479195","25.025675","6500100","板橋區"
"220004","276-BY","2019/11/08 14:13:25","新北市板橋區信義路200號","121.45984","24.9910716666667","6500100","板橋區"
"220020","277-BY","2019/11/08 14:13:29","新北市板橋區金門街354號","121.42771","24.98426","6500100","板橋區"
"220050","280-UM","2019/11/08 14:13:43","新北市板橋區莊敬路9號","121.474006666667","25.02817","6500100","板橋區"
"220043","283-UM","2019/11/08 14:13:33","新北市板橋區光武街110巷16-2號","121.466571666667","25.0297633333333","6500100","板橋區"
"220019","283-VK","2019/11/08 14:13:31","新北市板橋區重慶路327巷19弄1號","121.464706666667","24.99872","6500100","板橋區"
"220001","285-VK","2019/11/08 14:13:40","新北市板橋區富山街53巷1弄2號","121.477538333333","25.0206416666667","6500100","板橋區"
"220107","286-VK","2019/11/08 14:13:36","新北市板橋區大觀路二段174巷166弄14號","121.44236","25.0030633333333","6500100","板橋區"
"220029","287-VK","2019/11/08 14:13:33","新北市板橋區南雅西路二段28號","121.452968333333","25.0098116666667","6500100","板橋區"
"220039","288-VK","2019/11/08 14:13:28","新北市板橋區裕民街88號","121.460396666667","25.0281983333333","6500100","板橋區"
"220009","293-UM","2019/11/08 14:13:39","新北市板橋區中山路二段211巷4號","121.476441666667","25.017365","6500100","板橋區"
"220032","296-UM","2019/11/08 14:13:36","新北市板橋區溪北路73巷5號","121.428355","24.9899316666667","6500100","板橋區"
"220023","303-R5","2019/11/08 14:13:38","新北市板橋區西門街18-5號","121.454403333333","25.011135","6500100","板橋區"
"220010","305-R5","2019/11/08 14:13:28","新北市板橋區三民路二段居仁巷1弄37號","121.48043","25.0136516666667","6500100","板橋區"
"220041","307-R5","2019/11/08 14:13:25","新北市板橋區光武街2巷43號","121.468383333333","25.0258533333333","6500100","板橋區"
"220047","317-R6","2019/11/08 14:13:36","新北市板橋區民有街49號","121.46551","25.0260133333333","6500100","板橋區"
"220037","491-VK","2019/11/08 14:13:27","台北市萬華區萬大路277巷7號","121.500933333333","25.02556","6500100","板橋區"
"220104","560-BX","2019/11/08 14:13:37","新北市板橋區中正路358號","121.45462","25.0238616666667","6500100","板橋區"
"220052","561-BX","2019/11/08 14:13:40","新北市板橋區文化路一段270巷2號","121.467401666667","25.0205983333333","6500100","板橋區"
"220028","568-UM","2019/11/08 14:13:32","新北市板橋區大觀路二段19巷106號","121.44984","25.0026983333333","6500100","板橋區"
"220005","686-BX","2019/11/08 14:13:40","新北市板橋區和平路153號","121.463361666667","24.99572","6500100","板橋區"
"220025","687-BX","2019/11/08 14:13:33","新北市板橋區大觀路二段281號","121.442576666667","24.9989133333333","6500100","板橋區"
"220042","689-BX","2019/11/08 14:13:34","新北市板橋區新海路119號","121.46104","25.0229083333333","6500100","板橋區"
"220002","741-BX","2019/11/08 14:13:39","新北市板橋區四川路一段205號","121.460165","25.0036183333333","6500100","板橋區"
"220051","KEA-2699","2019/11/08 14:13:34","新北市板橋區松柏街15巷9-3號","121.474016666667","25.030065","6500100","板橋區"
"220003","827-TW","2019/11/08 14:13:40","新北市板橋區新民街6巷7號","121.464993333333","25.01026","6500100","板橋區"
"220016","830-TW","2019/11/08 14:13:42","新北市板橋區三民路一段1巷51弄1號","121.480476666667","25.0251533333333","6500100","板橋區"
"220014","831-TW","2019/11/08 14:13:24","新北市板橋區三民路二段正隆巷62號","121.476576666667","25.0144083333333","6500100","板橋區"
"220022","895-R6","2019/11/08 14:13:39","新北市板橋區府中路126-1號","121.455073333333","25.00955","6500100","板橋區"
"220021","985-R7","2019/11/08 14:13:20","新北市板橋區中正路191號","121.456413333333","25.0169916666667","6500100","板橋區"
"220046","AAC-210","2019/11/08 14:13:36","新北市板橋區新海路134號","121.460946666667","25.02314","6500100","板橋區"
"220012","AAC-253","2019/11/08 14:13:30","新北市板橋區板新路194號","121.469425","25.01603","6500100","板橋區"
"235032","KEA-2873","2019/11/08 14:13:31","新北市中和區景平路493巷3-1號","121.499791666667","24.9975516666667","6500300","中和區"
"235025","KEA-2875","2019/11/08 14:13:32","新北市中和區民利街31巷2弄10號","121.47973","24.9986466666667","6500300","中和區"
