"lineid","car","time","location","longitude","latitude","cityid","cityname"
"234025","9371-KE","2019/11/08 14:59:27","新北市永和區永貞路267號","121.511841666667","25.004765","6500400","永和區"
"248019","KED-0813","2019/11/08 14:59:41","新北市五股區中直路15號","121.424163333333","25.11207","6501500","五股區"
"244004","248-BX","2019/11/08 14:59:26","新北市林口區南勢里31號","121.352118333333","25.0704283333333","6501700","林口區"
"231003","001-UM","2019/11/08 14:59:35","新北市新店區中興路二段100巷1號","121.547598333333","24.971645","6500600","新店區"
"231030","002-UM","2019/11/08 14:59:40","新北市新店區安民街341-1號","121.516873333333","24.9749183333333","6500600","新店區"
"231005","046-UY","2019/11/08 14:59:32","新北市新店區復興路66號","121.537813333333","24.98685","6500600","新店區"
"231029","106-UY","2019/11/08 14:59:34","新北市新店區錦秀路11巷11號","121.47985","24.9447483333333","6500600","新店區"
"231018","107-UY","2019/11/08 14:59:38","新北市新店區中央路192號","121.530881666667","24.9746433333333","6500600","新店區"
"231013","108-UY","2019/11/08 14:59:42","新北市新店區華城路11號","121.5294","24.9593266666667","6500600","新店區"
"231036","110-UY","2019/11/08 14:59:33","新北市新店區安祥路102巷56號","121.485231666667","24.9643533333333","6500600","新店區"
"231039","187-VK","2019/11/08 14:59:36","新北市新店區中興路二段192號","121.548366666667","24.9734666666667","6500600","新店區"
"231032","256-BX","2019/11/08 14:59:27","新北市新店區安泰路18號","121.485566666667","24.9487383333333","6500600","新店區"
"231023","260-TV","2019/11/08 14:59:32","新北市新店區檳榔路105號","121.544595","24.9616633333333","6500600","新店區"
"231035","278-BY","2019/11/08 14:59:41","新北市新店區安和路三段99號","121.51782","24.9843216666667","6500600","新店區"
"231016","AAD-862","2019/11/08 14:59:28","新北市新店區北宜路三段221號","121.59235","24.95323","6500600","新店區"
"231006","355-BY","2019/11/08 14:59:41","新北市新店區中興路一段110號","121.541146666667","24.9620983333333","6500600","新店區"
"231038","3712-VJ","2019/11/08 14:59:39","新北市新店區安華路28-1號","121.519731666667","24.9610033333333","6500600","新店區"
"231024","4716-K9","2019/11/08 14:59:42","新北市新店區力行路14巷4號","121.539391666667","24.9648383333333","6500600","新店區"
"231025","4715-K9","2019/11/08 14:59:40","新北市新店區大同街8巷2號","121.539771666667","24.980115","6500600","新店區"
"231022","513-UM","2019/11/08 14:59:35","新北市新店區永福路30-1號","121.548626666667","24.9290783333333","6500600","新店區"
"231002","618-UM","2019/11/08 14:59:27","新北市新店區民權路83號","121.538208333333","24.98284","6500600","新店區"
"231034","641-BX","2019/11/08 14:59:31","新北市新店區玫瑰路4-1號","121.493596666667","24.9514216666667","6500600","新店區"
"231012","KED-0819","2019/11/08 14:59:36","新北市新店區寶橋路88號","121.546695","24.97582","6500600","新店區"
"231026","720-UM","2019/11/08 14:59:35","新北市新店區中正路120號","121.542325","24.9712133333333","6500600","新店區"
"231028","897-TW","2019/11/08 14:59:28","新北市新店區安德街171號","121.508645","24.9590733333333","6500600","新店區"
"231001","898-TW","2019/11/08 14:59:41","新北市新店區中正路268號","121.538993333333","24.9735466666667","6500600","新店區"
"231004","899-TW","2019/11/08 14:59:42","新北市新店區民族路12號","121.541483333333","24.9789033333333","6500600","新店區"
"231037","AKT-0513","2019/11/08 14:59:26","新北市新店區柴埕路60巷1-1號","121.510156666667","24.96361","6500600","新店區"
"235030","003-UY","2019/11/08 14:59:25","新北市中和區中山路二段1號","121.505551666667","25.0056916666667","6500300","中和區"
"235020","096-UM","2019/11/08 14:59:33","新北市中和區中山路三段170巷8弄11號","121.47291","25.007685","6500300","中和區"
"235039","097-UM","2019/11/08 14:59:32","新北市中和區安樂路217巷56號","121.513075","24.9976566666667","6500300","中和區"
"235029","098-UM","2019/11/08 14:59:37","新北市中和區永和路108號","121.496553333333","25.005745","6500300","中和區"
"235004","150-BY","2019/11/08 14:59:30","新北市中和區景安路79巷21號","121.507013333333","24.99676","6500300","中和區"
"235008","293-VK","2019/11/08 14:59:43","新北市中和區中正路63號","121.50131","24.993165","6500300","中和區"
"235036","301-VK","2019/11/08 14:59:34","新北市中和區中山路二段3巷22弄7號","121.506261666667","25.0051116666667","6500300","中和區"
"235014","4979-A6","2019/11/08 14:59:31","新北市中和區景平路155號","121.513363333333","24.99201","6500300","中和區"
"235033","4980-A6","2019/11/08 14:59:42","新北市中和區景新街34巷8號","121.503078333333","24.99906","6500300","中和區"
"235035","647-TV","2019/11/08 14:59:29","新北市中和區建二路64號","121.485386666667","25.00373","6500300","中和區"
"235010","733-UM","2019/11/08 14:59:29","新北市中和區忠孝街31巷25-7號","121.510035","24.98408","6500300","中和區"
"235005","802-TS","2019/11/08 14:59:32","新北市板橋區三民路二段220巷17號","121.478078333333","25.0114516666667","6500300","中和區"
"235012","896-TW","2019/11/08 14:59:39","新北市中和區忠孝街1巷2-1號","121.509201666667","24.983125","6500300","中和區"
"235015","157-BY","2019/11/08 14:59:31","新北市中和區景新街487號","121.513586666667","24.98738","6500300","中和區"
"235001","AAC-213","2019/11/08 14:59:37","新北市中和區大勇街25巷1號","121.51719","24.9930633333333","6500300","中和區"
"235023","AAC-215","2019/11/08 14:59:27","新北市中和區圓通路335巷3弄2號","121.49255","24.990105","6500300","中和區"
"220013","072-UY","2019/11/08 14:59:24","新北市板橋區海山路27號","121.467666666667","25.0090483333333","6500100","板橋區"
"220034","073-UY","2019/11/08 14:59:39","新北市板橋區中正路79號","121.456413333333","25.014185","6500100","板橋區"
"220017","AAD-861","2019/11/08 14:59:25","新北市板橋區南雅南路二段18號","121.454641666667","25.003435","6500100","板橋區"
"220105","120-SR","2019/11/08 14:59:41","新北市板橋區文聖街50號","121.476608333333","25.03116","6500100","板橋區"
"207002","749-BX","2019/11/08 14:59:39","新北市萬里區崁腳里崁腳路73號","121.6476","25.1595816666667","6502800","萬里區"
"207001","662-BX","2019/11/08 14:59:30","新北市萬里區雙興里二坪路5-1號","121.649241666667","25.1754983333333","6502800","萬里區"
"236040","KED-0685","2019/11/08 14:59:36","新北市土城區學士路27號","121.453075","24.9824516666667","6501300","土城區"
"220038","KED-0812","2019/11/08 14:59:20","新北市板橋區互助街10號","121.46305","25.02759","6500100","板橋區"
"236077","166-UM","2019/11/08 14:59:33","新北市土城區中央路四段185巷23號","121.415645","24.955845","6501300","土城區"
"236029","253-BX","2019/11/08 14:59:42","新北市土城區福仁街18號","121.440161666667","24.9759016666667","6501300","土城區"
"236024","269-VK","2019/11/08 14:59:37","新北市土城區中正路70號","121.444448333333","24.9754216666667","6501300","土城區"
"236013","270-VK","2019/11/08 14:59:23","新北市土城區立德路13巷22號","121.461623333333","24.9888183333333","6501300","土城區"
"236032","271-VK","2019/11/08 14:59:22","新北市土城區清水路141巷6號","121.458431666667","24.9818166666667","6501300","土城區"
"236067","KEA-2877","2019/11/08 14:59:38","新北市土城區裕生路84巷1號","121.447248333333","24.98538","6501300","土城區"
"236016","401-BY","2019/11/08 14:59:37","新北市土城區延吉街215號","121.468468333333","24.9852916666667","6501300","土城區"
"236057","912-UM","2019/11/08 14:59:32","新北市土城區金城路二段252號","121.457193333333","24.98342","6501300","土城區"
"236045","913-UM","2019/11/08 14:59:39","新北市土城區青雲路316號","121.458916666667","24.9782183333333","6501300","土城區"
"236060","915-UM","2019/11/08 14:59:39","新北市土城區延和路88巷7號","121.466788333333","24.9889916666667","6501300","土城區"
"236054","AAC-216","2019/11/08 14:59:32","新北市土城區學成路20號","121.45305","24.9869633333333","6501300","土城區"
"220027","145-BY","2019/11/08 14:59:40","新北市板橋區復興街22號","121.457935","25.0172716666667","6500100","板橋區"
"220030","610-BX","2019/11/08 14:59:41","新北市板橋區存德街11號","121.429971666667","24.9918783333333","6500100","板橋區"
"220040","267-BY","2019/11/08 14:59:24","新北市板橋區文聖街138號","121.478478333333","25.028065","6500100","板橋區"
"220004","276-BY","2019/11/08 14:59:41","新北市板橋區南雅南路二段49號","121.451563333333","24.9944783333333","6500100","板橋區"
"220020","277-BY","2019/11/08 14:59:29","新北市板橋區金門街109巷27-2號","121.433941666667","24.9916716666667","6500100","板橋區"
"220050","280-UM","2019/11/08 14:59:30","新北市板橋區莒光路171巷1弄18號","121.474583333333","25.0246316666667","6500100","板橋區"
"220043","283-UM","2019/11/08 14:59:33","新北市板橋區文化路一段134號","121.465255","25.0187466666667","6500100","板橋區"
"220019","283-VK","2019/11/08 14:59:31","新北市板橋區五權街32巷24號","121.46394","24.9928566666667","6500100","板橋區"
"220001","285-VK","2019/11/08 14:59:44","新北市板橋區永豐街69號","121.47383","25.0187","6500100","板橋區"
"220107","286-VK","2019/11/08 14:58:59","新北市板橋區僑中二街90巷22號","121.445201666667","25.0093283333333","6500100","板橋區"
"220029","287-VK","2019/11/08 14:59:33","新北市板橋區僑中一街80巷6弄1號","121.447706666667","25.01221","6500100","板橋區"
"220009","293-UM","2019/11/08 14:59:39","新北市板橋區四川路一段202號","121.459568333333","25.0022833333333","6500100","板橋區"
"220032","296-UM","2019/11/08 14:59:36","新北市板橋區篤行路三段43號","121.428203333333","24.9864316666667","6500100","板橋區"
"220023","303-R5","2019/11/08 14:59:38","新北市板橋區金華街3號","121.455528333333","25.0201033333333","6500100","板橋區"
"220010","305-R5","2019/11/08 14:59:28","新北市板橋區中山路二段368號","121.481801666667","25.02021","6500100","板橋區"
"220041","307-R5","2019/11/08 14:59:25","新北市板橋區漢生西路73號","121.462945","25.0187666666667","6500100","板橋區"
"220047","317-R6","2019/11/08 14:59:31","新北市板橋區新海路385巷24號","121.457965","25.025615","6500100","板橋區"
"220037","491-VK","2019/11/08 14:59:27","新北市板橋區仁化街124號","121.477208333333","25.0326483333333","6500100","板橋區"
"220104","560-BX","2019/11/08 14:59:30","新北市板橋區新生街53巷3弄12號","121.457033333333","25.02179","6500100","板橋區"
"220052","561-BX","2019/11/08 14:59:40","新北市板橋區漢生西路19號","121.463466666667","25.01822","6500100","板橋區"
"220005","686-BX","2019/11/08 14:59:40","新北市板橋區德興街37巷2號","121.453643333333","24.993765","6500100","板橋區"
"220025","687-BX","2019/11/08 14:59:13","新北市板橋區僑中一街70號","121.44755","25.0113833333333","6500100","板橋區"
"220042","689-BX","2019/11/08 14:59:34","新北市板橋區長江路二段190號","121.467213333333","25.032095","6500100","板橋區"
"220002","741-BX","2019/11/08 14:59:27","新北市板橋區忠孝路201巷38號","121.465046666667","25.0036583333333","6500100","板橋區"
"220051","KEA-2699","2019/11/08 14:59:33","新北市板橋區莒光路40巷7弄4號","121.470543333333","25.0237616666667","6500100","板橋區"
"220003","827-TW","2019/11/08 14:59:40","新北市板橋區仁愛路78號","121.460581666667","24.9994466666667","6500100","板橋區"
"220016","830-TW","2019/11/08 14:59:42","新北市板橋區中山路二段450號","121.484521666667","25.021685","6500100","板橋區"
"220014","831-TW","2019/11/08 14:59:24","新北市板橋區中山路一段206巷109號","121.47277","25.0137566666667","6500100","板橋區"
"220022","895-R6","2019/11/08 14:59:39","新北市板橋區民權路65號","121.46157","25.0111383333333","6500100","板橋區"
"220021","985-R7","2019/11/08 14:59:40","新北市板橋區南雅西路二段103號","121.45257","25.0106683333333","6500100","板橋區"
"220046","AAC-210","2019/11/08 14:59:37","新北市板橋區公館街31號","121.461413333333","25.015535","6500100","板橋區"
"220012","AAC-253","2019/11/08 14:59:38","新北市板橋區館前東路112-1號","121.463421666667","25.007405","6500100","板橋區"
"235032","KEA-2873","2019/11/08 14:59:31","新北市中和區福美路242號","121.498748333333","25.005245","6500300","中和區"
