"lineid","car","time","location","longitude","latitude","cityid","cityname"
"249005","172-UM","2019/11/08 17:13:31","新北市八里區華富山29-2號","121.419378333333","25.131915","6502300","八里區"
"249001","173-UM","2019/11/08 17:13:22","新北市八里區中華路二段165巷2號","121.40776","25.150705","6502300","八里區"
"249004","303-UY","2019/11/08 17:13:39","新北市八里區文化街39號","121.423525","25.1598483333333","6502300","八里區"
"249002","305-UY","2019/11/08 17:13:30","新北市八里區龍米路二段147巷6號","121.44251","25.1501183333333","6502300","八里區"
"249003","593-UM","2019/11/08 17:13:23","新北市八里區中山路二段427號","121.39703","25.146065","6502300","八里區"
"244007","080-UY","2019/11/08 17:13:35","新北市林口區湖子15-5號","121.386305","25.0904883333333","6501700","林口區"
"244019","402-UM","2019/11/08 17:13:42","新北市林口區文化二路一段346號","121.372883333333","25.0752016666667","6501700","林口區"
"244023","483-VK","2019/11/08 17:13:24","新北市林口區仁愛路一段647號","121.388516666667","25.076655","6501700","林口區"
"244009","656-BX","2019/11/08 17:13:24","新北市林口區文化北路二段550巷8號","121.378746666667","25.0920016666667","6501700","林口區"
"244025","837-TS","2019/11/08 17:13:37","新北市林口區文化三路二段8號","121.373036666667","25.0784666666667","6501700","林口區"
"244021","838-TS","2019/11/08 17:13:30","新北市林口區粉寮路二段288-1號","121.404986666667","25.09607","6501700","林口區"
"231046","719-UM","2019/11/08 17:10:26","新北市新店區直潭四街77號","121.531751666667","24.940805","6500600","新店區"
"241011","013-R5","2019/11/08 17:13:22","新北市三重區河邊北街100巷4號","121.503725","25.0703683333333","6500200","三重區"
"241028","022-UY","2019/11/08 17:13:35","新北市三重區仁化街40號","121.493448333333","25.0596116666667","6500200","三重區"
"241008","059-VK","2019/11/08 17:13:25","新北市三重區下竹圍街93巷1號","121.481086666667","25.0745983333333","6500200","三重區"
"241023","060-VK","2019/11/08 17:13:28","新北市三重區忠孝路三段126號","121.480176666667","25.0637183333333","6500200","三重區"
"241015","062-VK","2019/11/08 17:13:25","新北市三重區中央北路79號","121.500388333333","25.0666","6500200","三重區"
"241017","063-VK","2019/11/08 17:13:36","新北市三重區大同北路91號","121.494658333333","25.063625","6500200","三重區"
"241024","065-VK","2019/11/08 17:13:40","新北市三重區中正北路171號","121.47824","25.0694366666667","6500200","三重區"
"241007","066-VK","2019/11/08 17:13:32","新北市三重區慈愛街8號","121.484503333333","25.0784166666667","6500200","三重區"
"241002","090-VK","2019/11/08 17:13:29","新北市三重區自強路五段27-1號","121.493415","25.080975","6500200","三重區"
"241003","091-VK","2019/11/08 17:13:35","新北市三重區富福街63號","121.49215","25.0846316666667","6500200","三重區"
"241009","742-BX","2019/11/08 17:12:58","新北市三重區碧華街148巷20-2號","121.484565","25.0825766666667","6500200","三重區"
"241006","262-UM","2019/11/08 17:13:42","新北市三重區車路頭街142號","121.484165","25.0757533333333","6500200","三重區"
"241016","266-UM","2019/11/08 17:13:38","新北市三重區大同北路54巷1號","121.494218333333","25.0636133333333","6500200","三重區"
"241018","268-UM","2019/11/08 17:13:25","新北市三重區正義北路278-1號","121.49546","25.06907","6500200","三重區"
"241032","269-UM","2019/11/08 17:13:34","新北市三重區興華街125號","121.483368333333","25.0599083333333","6500200","三重區"
"241013","270-UM","2019/11/08 17:13:28","新北市三重區仁福街28號","121.496751666667","25.0746416666667","6500200","三重區"
"241025","271-UM","2019/11/08 17:13:30","新北市三重區中正北路335號","121.47336","25.07161","6500200","三重區"
"241030","KED-0822","2019/11/08 17:13:25","新北市三重區集美街115號","121.489661666667","25.0529583333333","6500200","三重區"
"241014","462-BY","2019/11/08 17:13:35","新北市三重區長壽街120巷8弄31號","121.501638333333","25.0689016666667","6500200","三重區"
"241004","475-VK","2019/11/08 17:13:42","新北市三重區五華街110巷17弄3號","121.490911666667","25.08231","6500200","三重區"
"241020","478-VK","2019/11/08 17:13:23","新北市三重區自強路三段7巷30號","121.488061666667","25.072235","6500200","三重區"
"241026","480-VK","2019/11/08 17:13:37","新北市三重區重新路一段52-1號","121.502768333333","25.0634483333333","6500200","三重區"
"241001","547-UM","2019/11/08 17:13:42","新北市三重區仁愛街271號","121.493021666667","25.078745","6500200","三重區"
"241019","KEA-2593","2019/11/08 17:13:30","新北市三重區三張街151號","121.486486666667","25.069565","6500200","三重區"
"241005","AAD-863","2019/11/08 17:13:35","新北市三重區碧華街1號","121.483518333333","25.080935","6500200","三重區"
"241012","743-BX","2019/11/08 17:13:36","新北市三重區河邊北街248巷17號","121.501225","25.0757916666667","6500200","三重區"
"241022","KED-0820","2019/11/08 17:13:29","新北市三重區重陽路二段34巷37號","121.485526666667","25.0640733333333","6500200","三重區"
"241029","942-UM","2019/11/08 17:13:22","新北市三重區過圳街7巷1號","121.489513333333","25.0585433333333","6500200","三重區"
"241033","AAC-255","2019/11/08 17:13:28","新北市三重區中興北街243號","121.469153333333","25.05907","6500200","三重區"
"247016","KEA-2869","2019/11/08 17:13:37","新北市蘆洲區正和街70號","121.468675","25.081155","6501400","蘆洲區"
"247010","KED-0682","2019/11/08 17:13:33","新北市蘆洲區鷺江街59號","121.477503333333","25.0826566666667","6501400","蘆洲區"
"247006","893-R6","2019/11/08 17:13:26","新北市蘆洲區長安街108巷2號","121.461315","25.0817483333333","6501400","蘆洲區"
"247020","546-UM","2019/11/08 17:13:38","新北市蘆洲區民族路426巷18號","121.473276666667","25.092555","6501400","蘆洲區"
"247024","500-BY","2019/11/08 17:13:38","新北市蘆洲區長榮路98號","121.462175","25.08373","6501400","蘆洲區"
"247004","341-TH","2019/11/08 17:13:36","新北市蘆洲區長安街207巷28號","121.459051666667","25.0817316666667","6501400","蘆洲區"
"247014","056-VK","2019/11/08 17:13:26","新北市蘆洲區得勝街145號","121.471706666667","25.083135","6501400","蘆洲區"
"247018","053-VK","2019/11/08 17:13:26","新北市蘆洲區復興路85號","121.47649","25.08746","6501400","蘆洲區"
"247022","007-UY","2019/11/08 17:13:29","新北市蘆洲區三民路128巷34號","121.47117","25.0885133333333","6501400","蘆洲區"
"247008","002-UY","2019/11/08 17:13:29","新北市蘆洲區信義路30巷112號","121.475098333333","25.0770483333333","6501400","蘆洲區"
"247002","001-UY","2019/11/08 17:13:28","新北市蘆洲區永樂街38巷19弄19號","121.457211666667","25.0891583333333","6501400","蘆洲區"
"228001","212-TW","2019/11/08 17:13:28","新北市貢寮區仁理村尖山腳街6號","121.925713333333","25.0484066666667","6502600","貢寮區"
"228002","663-BX","2019/11/08 17:13:31","新北市貢寮區龍崗里泮宮路51-1號","121.907896666667","25.0166416666667","6502600","貢寮區"
"228003","828-UM","2019/11/08 17:13:26","新北市貢寮區福隆里東興街52號","121.948436666667","25.0177766666667","6502600","貢寮區"
"224006","676-BX","2019/11/08 17:13:27","新北市瑞芳區大寮路53號","121.781901666667","25.0981716666667","6501200","瑞芳區"
"224009","275-VK","2019/11/08 17:13:25","新北市瑞芳區輕便路32-1號","121.844088333333","25.1107616666667","6501200","瑞芳區"
"224008","273-VK","2019/11/08 17:13:28","新北市瑞芳區柴寮路70號","121.827503333333","25.086945","6501200","瑞芳區"
"224005","271-BY","2019/11/08 17:13:26","新北市瑞芳區鼻頭路247號","121.912625","25.1238783333333","6501200","瑞芳區"
"227001","642-TC","2019/11/08 17:13:34","新北市雙溪區三貂里定福路2號","121.851008333333","25.0667566666667","6502500","雙溪區"
"227002","400-TW","2019/11/08 17:13:35","新北市雙溪區平林里梅竹蹊65號","121.848308333333","25.0317466666667","6502500","雙溪區"
"251004","009-UM","2019/11/08 17:10:15","新北市淡水區中正東路二段88巷15號","121.459043333333","25.1505116666667","6501000","淡水區"
"251005","010-UM","2019/11/08 17:13:43","新北市淡水區鄧公路19-1號","121.450258333333","25.1699566666667","6501000","淡水區"
"251008","181-VK","2019/11/08 17:13:42","新北市淡水區民生路169號","121.469718333333","25.1421966666667","6501000","淡水區"
"251010","413-VK","2019/11/08 17:13:35","新北市淡水區中正路二段31號","121.419466666667","25.1814816666667","6501000","淡水區"
"251012","441-VK","2019/11/08 17:13:29","新北市淡水區中山北路一段158號","121.444206666667","25.1778933333333","6501000","淡水區"
"251007","442-VK","2019/11/08 17:13:35","新北市淡水區民權路22號","121.459916666667","25.1377616666667","6501000","淡水區"
"251006","561-UM","2019/11/08 17:13:34","新北市淡水區真理街6號","121.438423333333","25.17448","6501000","淡水區"
"251009","575-R6","2019/11/08 17:13:39","新北市淡水區中正路233-2號","121.435496666667","25.173345","6501000","淡水區"
"251011","650-BX","2019/11/08 17:13:32","新北市淡水區坪頂路50號","121.457983333333","25.1625633333333","6501000","淡水區"
"251002","672-BX","2019/11/08 17:13:34","新北市淡水區中正路二段31號","121.419331666667","25.1815533333333","6501000","淡水區"
"251003","766-UM","2019/11/08 17:13:33","新北市淡水區中正路二段31號","121.419456666667","25.181435","6501000","淡水區"
"252002","178-VK","2019/11/08 17:13:26","新北市三芝區忠孝街1-14號","121.505511666667","25.2539416666667","6502100","三芝區"
"252001","KED-0821","2019/11/08 17:13:27","新北市三芝區埔頭里埔頭18號","121.494018333333","25.2600933333333","6502100","三芝區"
"242041","AAC-296","2019/11/08 17:13:35","新北市新莊區三和路12-11號","121.441878333333","25.0369516666667","6500500","新莊區"
"242005","751-BX","2019/11/08 17:13:25","新北市新莊區三和路12-21號","121.442326666667","25.0382766666667","6500500","新莊區"
"242029","615-BX","2019/11/08 17:13:26","新北市新莊區幸福路815號","121.445606666667","25.049015","6500500","新莊區"
"242027","613-BX","2019/11/08 17:13:37","新北市新莊區新泰路255巷83號","121.442468333333","25.0389616666667","6500500","新莊區"
"242058","612-BX","2019/11/08 17:13:27","新北市新莊區新泰路255巷83號","121.442143333333","25.0390383333333","6500500","新莊區"
"242048","566-BX","2019/11/08 17:10:36","新北市新莊區中正路486-1號","121.436796666667","25.033085","6500500","新莊區"
"242054","497-BY","2019/11/08 17:13:38","新北市新莊區瓊泰路63巷21弄9號","121.442215","25.0284616666667","6500500","新莊區"
"242013","442-UM","2019/11/08 17:13:28","新北市新莊區新泰路255巷83號","121.442101666667","25.0389066666667","6500500","新莊區"
"242002","441-UM","2019/11/08 17:13:34","新北市新莊區瓊泰路63巷21弄12號","121.442193333333","25.0282566666667","6500500","新莊區"
"242044","415-TV","2019/11/08 17:13:31","新北市新莊區福營路94號","121.436896666667","25.0330316666667","6500500","新莊區"
"242025","362-BY","2019/11/08 17:13:33","新北市新莊區新泰路361巷23號","121.442535","25.04292","6500500","新莊區"
"242023","353-BY","2019/11/08 17:13:40","新北市新莊區新泰路357巷3弄53號","121.44252","25.0399633333333","6500500","新莊區"
"242039","135-UY","2019/11/08 17:13:41","新北市新莊區中正路384號","121.441976666667","25.03444","6500500","新莊區"
"242056","172-VK","2019/11/08 17:13:34","新北市新莊區三和路10號","121.441935","25.0358783333333","6500500","新莊區"
"242017","173-VK","2019/11/08 17:13:29","新北市新莊區三和路12-21號","121.441875","25.0387333333333","6500500","新莊區"
"242032","175-VK","2019/11/08 17:13:35","新北市新莊區三和路12-21號","121.442063333333","25.038635","6500500","新莊區"
"242021","KED-0687","2019/11/08 17:13:28","新北市新莊區三和路12-21號","121.4422","25.03817","6500500","新莊區"
"242007","346-TH","2019/11/08 17:13:41","新北市新莊區三和路12-21號","121.44192","25.0383533333333","6500500","新莊區"
"242037","348-TH","2019/11/08 17:13:25","新北市泰山區磚雅厝3號","121.442153333333","25.0416283333333","6500500","新莊區"
"242009","349-TH","2019/11/08 17:13:38","新北市新莊區三和路12-21號","121.44218","25.0382916666667","6500500","新莊區"
"242034","350-TH","2019/11/08 17:13:21","新北市新莊區瓊林路60號","121.44547","25.0286816666667","6500500","新莊區"
"242019","351-TH","2019/11/08 17:13:37","新北市新莊區新泰路357巷3弄1號","121.442435","25.0413816666667","6500500","新莊區"
"238015","755-BX","2019/11/08 17:13:36","新北市樹林區大安路523號","121.41402","24.9861033333333","6500700","樹林區"
"238019","599-UM","2019/11/08 17:13:33","新北市樹林區八德街1172號","121.390253333333","24.9682866666667","6500700","樹林區"
"238018","KEA-2217","2019/11/08 17:13:33","新北市樹林區博愛街223號","121.424016666667","24.9861883333333","6500700","樹林區"
"238022","KEA-2213","2019/11/08 17:13:28","新北市樹林區忠孝街33號","121.423761666667","24.9821783333333","6500700","樹林區"
"238017","283-BY","2019/11/08 17:13:43","新北市樹林區光武街2-5號","121.415415","25.00438","6500700","樹林區"
"239007","AAC-297","2019/11/08 17:13:21","新北市鶯歌區行政路40號","121.35287","24.9559866666667","6500800","鶯歌區"
"239006","891-R6","2019/11/08 17:13:29","新北市鶯歌區八德路29號","121.335565","24.9518216666667","6500800","鶯歌區"
"239008","527-UM","2019/11/08 17:13:26","新北市鶯歌區文化路134號","121.351981666667","24.95133","6500800","鶯歌區"
"239005","526-UM","2019/11/08 17:13:35","新北市鶯歌區鶯桃路451-1號","121.332278333333","24.9655966666667","6500800","鶯歌區"
"239001","417-VK","2019/11/08 17:13:38","新北市鶯歌區尖山路156巷1號","121.346013333333","24.9488666666667","6500800","鶯歌區"
"239003","360-BY","2019/11/08 17:13:25","新北市鶯歌區德昌二街70巷32弄15號","121.33145","24.958465","6500800","鶯歌區"
"239002","359-BY","2019/11/08 17:13:41","新北市鶯歌區建國路280-2號","121.346041666667","24.95316","6500800","鶯歌區"
"239004","193-VK","2019/11/08 17:13:37","新北市鶯歌區文化路417-17號","121.353713333333","24.949335","6500800","鶯歌區"
"242046","281-VK","2019/11/08 17:13:34","新北市新莊區新樹路69號","121.438993333333","25.0299983333333","6500500","新莊區"
"242011","280-VK","2019/11/08 17:13:26","新北市新莊區三和路12-21號","121.441946666667","25.0383316666667","6500500","新莊區"
