"lineid","car","time","location","longitude","latitude","cityid","cityname"
"234026","9371-KE","2019/11/08 17:43:34","新北市永和區永和路一段147-1號","121.514226666667","25.009175","6500400","永和區"
"249005","172-UM","2019/11/08 17:43:31","新北市八里區荖阡坑路34-1號","121.402753333333","25.1297283333333","6502300","八里區"
"249001","173-UM","2019/11/08 17:43:42","新北市八里區龍米路二段153-8號","121.440165","25.1534816666667","6502300","八里區"
"249004","303-UY","2019/11/08 17:43:39","新北市八里區中華路一段88號","121.420661666667","25.1575983333333","6502300","八里區"
"249002","305-UY","2019/11/08 17:43:29","新北市八里區龍形三街9巷2號","121.450653333333","25.13178","6502300","八里區"
"249003","593-UM","2019/11/08 17:43:43","新北市八里區中山路二段212號","121.405413333333","25.1517933333333","6502300","八里區"
"248004","677-BX","2019/11/08 17:43:40","新北市五股區中興路二段37巷28號","121.460258333333","25.0747583333333","6501500","五股區"
"232011","375-UM","2019/11/08 17:43:26","新北市坪林區北宜路八段99號","121.70603","24.9348533333333","6502000","坪林區"
"244007","080-UY","2019/11/08 17:43:35","新北市林口區佳林路9號","121.38709","25.0823116666667","6501700","林口區"
"244019","402-UM","2019/11/08 17:43:42","新北市林口區麗園路167號","121.371586666667","25.066915","6501700","林口區"
"244013","KEA-2802","2019/11/08 17:43:25","新北市林口區中山路151號","121.38683","25.0791816666667","6501700","林口區"
"244023","483-VK","2019/11/08 17:43:24","新北市林口區興林路362巷9號","121.388123333333","25.0693483333333","6501700","林口區"
"244017","485-VK","2019/11/08 17:43:39","新北市林口區文化二路一段226號","121.369473333333","25.072375","6501700","林口區"
"244009","656-BX","2019/11/08 17:43:24","新北市林口區文化一路二段199號","121.383925","25.08222","6501700","林口區"
"244011","701-TV","2019/11/08 17:43:40","新北市林口區中正路265號","121.390215","25.0776766666667","6501700","林口區"
"244025","837-TS","2019/11/08 17:43:37","新北市林口區文化三路一段175號","121.36193","25.06944","6501700","林口區"
"244021","838-TS","2019/11/08 17:43:30","新北市林口區仁愛路一段61巷13號","121.398255","25.0695533333333","6501700","林口區"
"222003","436-BY","2019/11/08 17:43:30","新北市深坑區北深路二段125-1號","121.616403333333","25.00303","6501800","深坑區"
"222002","659-BX","2019/11/08 17:43:27","新北市深坑區平埔街22巷17弄1號","121.614801666667","25.00084","6501800","深坑區"
"241024","065-VK","2019/11/08 17:43:40","新北市三重區力行路二段9巷17號","121.483046666667","25.0721533333333","6500200","三重區"
"241007","066-VK","2019/11/08 17:31:11","新北市三重區車路頭街142號","121.484075","25.0758233333333","6500200","三重區"
"241016","266-UM","2019/11/08 17:43:38","新北市三重區新北大道一段7號","121.48964","25.0613333333333","6500200","三重區"
"241033","AAC-255","2019/11/08 17:43:28","新北市三重區光復路一段47號","121.472196666667","25.0485283333333","6500200","三重區"
"235063","006-UY","2019/11/08 17:43:40","新北市中和區員山路36巷16-3號","121.484996666667","24.9912816666667","6500300","中和區"
"235065","098-UM","2019/11/08 17:43:31","新北市中和區員山路36巷16-3號","121.485168333333","24.9911383333333","6500300","中和區"
"247016","KEA-2869","2019/11/08 17:43:37","新北市蘆洲區中正路185巷31弄15號","121.466656666667","25.083925","6501400","蘆洲區"
"247010","KED-0682","2019/11/08 17:43:33","新北市蘆洲區民族路64號","121.477241666667","25.084735","6501400","蘆洲區"
"235057","801-TS","2019/11/08 17:43:22","新北市中和區員山路36巷16-3號","121.485008333333","24.9915216666667","6500300","中和區"
"247006","893-R6","2019/11/08 17:43:26","新北市蘆洲區長安街23巷23號","121.463366666667","25.07834","6501400","蘆洲區"
"247020","546-UM","2019/11/08 17:43:38","新北市蘆洲區民義街76號","121.473343333333","25.0902083333333","6501400","蘆洲區"
"247024","500-BY","2019/11/08 17:43:38","新北市蘆洲區光榮路101巷2號","121.464383333333","25.0897033333333","6501400","蘆洲區"
"247004","341-TH","2019/11/08 17:43:36","新北市蘆洲區長安街172巷5號","121.459395","25.0834916666667","6501400","蘆洲區"
"247014","056-VK","2019/11/08 17:43:26","新北市蘆洲區中正路187號","121.46855","25.0856983333333","6501400","蘆洲區"
"247018","053-VK","2019/11/08 17:43:26","新北市蘆洲區復興路124號","121.476445","25.0873616666667","6501400","蘆洲區"
"247022","007-UY","2019/11/08 17:43:29","新北市蘆洲區中正路304-1號","121.464733333333","25.09063","6501400","蘆洲區"
"247008","002-UY","2019/11/08 17:43:29","新北市蘆洲區和平路29巷9號","121.472021666667","25.078655","6501400","蘆洲區"
"247002","001-UY","2019/11/08 17:43:27","新北市蘆洲區永平街32巷7號","121.458895","25.09127","6501400","蘆洲區"
"228001","212-TW","2019/11/08 17:43:28","新北市貢寮區真理里新港街26巷28-6號","121.92783","25.0554366666667","6502600","貢寮區"
"228002","663-BX","2019/11/08 17:43:31","新北市貢寮區福隆里外隆林街14號","121.959126666667","25.0035966666667","6502600","貢寮區"
"228003","828-UM","2019/11/08 17:43:26","新北市貢寮區真理里延平街56號","121.924851666667","25.0572516666667","6502600","貢寮區"
"224006","676-BX","2019/11/08 17:43:27","新北市瑞芳區瑞興新村12巷1號","121.788446666667","25.10833","6501200","瑞芳區"
"224009","275-VK","2019/11/08 17:43:25","新北市瑞芳區金光路376號","121.850873333333","25.1108633333333","6501200","瑞芳區"
"224008","273-VK","2019/11/08 17:43:28","新北市瑞芳區明燈路一段37號","121.821933333333","25.107225","6501200","瑞芳區"
"224005","271-BY","2019/11/08 17:43:30","新北市瑞芳區海濱路30號","121.83096","25.1241233333333","6501200","瑞芳區"
"227001","642-TC","2019/11/08 17:23:09","新北市雙溪區三貂里定福路1-2號","121.850785","25.063435","6502500","雙溪區"
"227002","400-TW","2019/11/08 17:43:35","新北市雙溪區共和里東榮街52號","121.866313333333","25.0336566666667","6502500","雙溪區"
"253006","295-VK","2019/11/08 17:43:36","新北市石門區中山路64號","121.567253333333","25.2908683333333","6502200","石門區"
"251004","009-UM","2019/11/08 17:43:45","新北市淡水區民權路4號","121.459323333333","25.1403266666667","6501000","淡水區"
"251005","010-UM","2019/11/08 17:43:23","新北市淡水區鄧公路35巷4號","121.451625","25.1711866666667","6501000","淡水區"
"251008","181-VK","2019/11/08 17:43:22","新北市淡水區八勢路50巷2-3號","121.463043333333","25.1527633333333","6501000","淡水區"
"251010","413-VK","2019/11/08 17:43:35","新北市淡水區淡海路280巷33弄34-2號","121.418713333333","25.188595","6501000","淡水區"
"251012","441-VK","2019/11/08 17:43:29","新北市淡水區淡金路一段571號","121.452666666667","25.1805316666667","6501000","淡水區"
"251007","442-VK","2019/11/08 17:43:35","新北市淡水區民生路52巷35號","121.463223333333","25.13779","6501000","淡水區"
"251006","561-UM","2019/11/08 17:43:34","新北市淡水區大信街13-3號","121.441835","25.176625","6501000","淡水區"
"251009","575-R6","2019/11/08 17:43:39","新北市淡水區中正路36號","121.443818333333","25.169265","6501000","淡水區"
"251011","650-BX","2019/11/08 17:43:32","新北市淡水區小坪頂73號","121.484641666667","25.1587783333333","6501000","淡水區"
"251002","672-BX","2019/11/08 17:43:13","新北市淡水區中山路151-7號","121.440345","25.172355","6501000","淡水區"
"251003","766-UM","2019/11/08 17:43:33","新北市淡水區中山北路一段104號","121.442703333333","25.1765416666667","6501000","淡水區"
"207003","681-TV","2019/11/08 17:43:43","新北市萬里區龜吼里漁澳路7號","121.686533333333","25.1942466666667","6502800","萬里區"
"207004","291-VK","2019/11/08 17:43:39","新北市萬里區中幅里中福路8-1號","121.685608333333","25.1645516666667","6502800","萬里區"
"252002","178-VK","2019/11/08 17:43:45","新北市三芝區中正路二段1號","121.504816666667","25.2558766666667","6502100","三芝區"
"237004","KEA-2597","2019/11/08 17:43:28","新北市三峽區中山路365號","121.358851666667","24.9371533333333","6500900","三峽區"
"237009","210-TH","2019/11/08 17:43:29","新北市三峽區中山路281號","121.36199","24.9375466666667","6500900","三峽區"
"237013","252-BX","2019/11/08 17:43:35","新北市三峽區愛國路26號","121.374363333333","24.9333783333333","6500900","三峽區"
"237014","433-BY","2019/11/08 17:43:40","新北市三峽區中山路196號","121.363398333333","24.9370666666667","6500900","三峽區"
"237011","KEA-2596","2019/11/08 17:43:33","新北市三峽區大智路69號","121.360505","24.9357716666667","6500900","三峽區"
"237010","706-TV","2019/11/08 17:43:32","新北市三峽區中山路121號","121.365498333333","24.935945","6500900","三峽區"
"237005","AKY-6261","2019/11/08 17:43:33","新北市三峽區中山路459巷137號","121.349838333333","24.9334766666667","6500900","三峽區"
"236042","KED-0685","2019/11/08 17:43:38","新北市土城區城林路6巷80號","121.43849","24.9795566666667","6501300","土城區"
"236079","166-UM","2019/11/08 17:43:32","新北市土城區中華路二段2號","121.439428333333","24.979555","6501300","土城區"
"236026","269-VK","2019/11/08 17:43:27","新北市土城區城林路6巷80號","121.438425","24.9796583333333","6501300","土城區"
"236014","270-VK","2019/11/08 17:43:31","新北市土城區城林路6巷80號","121.438448333333","24.979635","6501300","土城區"
"247012","KED-0683","2019/11/08 17:43:36","新北市蘆洲區復興路60巷1弄16號","121.475275","25.08631","6501400","蘆洲區"
"252001","KED-0821","2019/11/08 17:43:27","新北市三芝區淡金路一段59號","121.5003","25.2589633333333","6502100","三芝區"
"236059","912-UM","2019/11/08 17:43:34","新北市土城區城林路6巷80號","121.438471666667","24.9796966666667","6501300","土城區"
"236055","AAC-216","2019/11/08 17:43:25","新北市土城區城林路6巷80號","121.438471666667","24.9796233333333","6501300","土城區"
"242041","AAC-296","2019/11/08 17:43:35","新北市新莊區中正路514號","121.429743333333","25.0352633333333","6500500","新莊區"
"242060","986-R7","2019/11/08 17:43:31","新北市新莊區瓊林南路73-30號","121.435028333333","25.0150783333333","6500500","新莊區"
"242005","751-BX","2019/11/08 17:43:25","新北市新莊區自立街212號","121.45712","25.045365","6500500","新莊區"
"242029","615-BX","2019/11/08 17:43:32","新北市新莊區復興路一段89號","121.448506666667","25.042745","6500500","新莊區"
"242027","613-BX","2019/11/08 17:43:37","新北市新莊區福壽街126號","121.457785","25.051305","6500500","新莊區"
"242058","612-BX","2019/11/08 17:43:34","新北市新莊區中正路672號","121.420925","25.0284483333333","6500500","新莊區"
"242048","566-BX","2019/11/08 17:43:23","新北市新莊區萬安街115號","121.42087","25.0226616666667","6500500","新莊區"
"242054","497-BY","2019/11/08 17:43:38","新北市新莊區新樹路605號","121.43324","25.00562","6500500","新莊區"
"242013","442-UM","2019/11/08 17:43:28","新北市新莊區幸福路753巷1號","121.448561666667","25.0486633333333","6500500","新莊區"
"242002","441-UM","2019/11/08 17:43:37","新北市新莊區新莊路354號","121.449885","25.0335066666667","6500500","新莊區"
"242044","415-TV","2019/11/08 17:43:31","新北市新莊區中正路871巷16號","121.419108333333","25.02657","6500500","新莊區"
"242025","362-BY","2019/11/08 17:43:33","新北市新莊區思源路118號","121.460148333333","25.0468683333333","6500500","新莊區"
"242023","353-BY","2019/11/08 17:43:40","新北市新莊區民樂街74號","121.457948333333","25.0435016666667","6500500","新莊區"
"242015","132-UY","2019/11/08 17:43:32","新北市新莊區新泰路380號","121.44415","25.043235","6500500","新莊區"
"242039","135-UY","2019/11/08 17:43:41","新北市新莊區民安西路1號","121.42665","25.021915","6500500","新莊區"
"242056","172-VK","2019/11/08 17:43:34","新北市新莊區瓊林路38-9號","121.448075","25.03028","6500500","新莊區"
"242017","173-VK","2019/11/08 17:43:29","新北市新莊區復興路一段109號","121.449255","25.04296","6500500","新莊區"
"242032","175-VK","2019/11/08 17:43:35","新北市新莊區新泰路345號","121.444765","25.0420783333333","6500500","新莊區"
"242021","KED-0687","2019/11/08 17:43:41","新北市新莊區中華路一段226號","121.452645","25.043055","6500500","新莊區"
"242007","346-TH","2019/11/08 17:43:41","新北市新莊區福樂街118巷6號","121.457343333333","25.0480216666667","6500500","新莊區"
"242050","347-TH","2019/11/08 17:43:30","新北市新莊區西盛街193號","121.428108333333","25.017285","6500500","新莊區"
"242037","348-TH","2019/11/08 17:43:25","新北市新莊區建福路59巷30號","121.428098333333","25.0275783333333","6500500","新莊區"
"242009","349-TH","2019/11/08 17:43:38","新北市新莊區福壽街169巷11號","121.45691","25.0536083333333","6500500","新莊區"
"242034","350-TH","2019/11/08 17:43:41","新北市新莊區瓊泰路170號","121.44328","25.0328516666667","6500500","新莊區"
"242019","351-TH","2019/11/08 17:43:37","新北市新莊區中港路271號","121.453518333333","25.0435366666667","6500500","新莊區"
"238015","755-BX","2019/11/08 17:43:36","新北市樹林區長壽街58號","121.422156666667","24.9940316666667","6500700","樹林區"
"238023","601-UM","2019/11/08 17:43:36","新北市樹林區福興街13巷7號","121.404243333333","25.0167733333333","6500700","樹林區"
"238019","599-UM","2019/11/08 17:43:40","新北市樹林區中華路221-1號","121.419138333333","24.9808166666667","6500700","樹林區"
"238024","5061-A6","2019/11/08 17:43:26","新北市樹林區育德街113號","121.389538333333","24.96828","6500700","樹林區"
"238018","KEA-2217","2019/11/08 17:43:33","新北市樹林區鎮前街8號","121.42636","24.9934033333333","6500700","樹林區"
"238022","KEA-2213","2019/11/08 17:43:28","新北市樹林區太元街29號","121.4184","24.9797616666667","6500700","樹林區"
"238021","KEA-2539","2019/11/08 17:43:31","新北市樹林區柑園街一段68號","121.402276666667","24.9603116666667","6500700","樹林區"
"238025","303-VK","2019/11/08 17:43:28","新北市樹林區三俊街27號","121.412145","25.0156","6500700","樹林區"
"238017","283-BY","2019/11/08 17:43:23","新北市樹林區三德街32-2號","121.414761666667","25.01308","6500700","樹林區"
"238014","282-BY","2019/11/08 17:43:38","新北市樹林區保安街一段233號","121.420201666667","24.9964966666667","6500700","樹林區"
"238020","268-VK","2019/11/08 17:43:36","新北市樹林區俊英街168號","121.426521666667","25.0069866666667","6500700","樹林區"
"238026","172-UY","2019/11/08 17:43:37","新北市樹林區新興街19巷34弄25號","121.402338333333","24.9725916666667","6500700","樹林區"
"238016","169-UY","2019/11/08 17:43:22","新北市樹林區啟智街129-1號","121.41804","24.98934","6500700","樹林區"
"239007","AAC-297","2019/11/08 17:43:41","新北市鶯歌區鶯桃路182巷20號","121.337431666667","24.9561116666667","6500800","鶯歌區"
"239006","891-R6","2019/11/08 17:43:29","新北市鶯歌區永和街117號","121.33379","24.9685133333333","6500800","鶯歌區"
"239008","527-UM","2019/11/08 17:43:26","新北市鶯歌區大湖路385號","121.330958333333","24.9786816666667","6500800","鶯歌區"
"239005","526-UM","2019/11/08 17:43:36","新北市鶯歌區鳳吉四街21號","121.326686666667","24.9727383333333","6500800","鶯歌區"
"239001","417-VK","2019/11/08 17:43:38","新北市鶯歌區中正三路234-4號","121.33058","24.93701","6500800","鶯歌區"
"239003","360-BY","2019/11/08 17:43:25","新北市鶯歌區鶯桃路206巷30號","121.33782","24.9597233333333","6500800","鶯歌區"
"239002","359-BY","2019/11/08 17:43:22","新北市鶯歌區育德街1號","121.345013333333","24.9551933333333","6500800","鶯歌區"
"239004","193-VK","2019/11/08 17:43:37","新北市鶯歌區文化路324巷1-35號","121.352915","24.945435","6500800","鶯歌區"
"221008","489-VK","2019/11/08 17:43:38","新北市汐止區康寧街901號","121.651448333333","25.075035","6501100","汐止區"
"221010","269-BY","2019/11/08 17:43:35","新北市汐止區汐萬路一段418巷40號","121.650846666667","25.07879","6501100","汐止區"
"221029","298-VK","2019/11/08 17:43:32","新北市汐止區康寧街901號","121.651778333333","25.07495","6501100","汐止區"
"242046","281-VK","2019/11/08 17:43:34","新北市新莊區福營路103號","121.43391","25.032275","6500500","新莊區"
"242011","280-VK","2019/11/08 17:43:26","新北市新莊區榮華路二段2號","121.45082","25.055775","6500500","新莊區"
