"lineid","car","time","location","longitude","latitude","cityid","cityname"
"234026","9371-KE","2019/11/08 17:59:34","新北市永和區永和路一段41號","121.512795","25.00622","6500400","永和區"
"249005","172-UM","2019/11/08 17:59:31","新北市八里區荖阡坑路18號","121.397831666667","25.1382783333333","6502300","八里區"
"249001","173-UM","2019/11/08 17:59:42","新北市八里區龍米路二段35號","121.448406666667","25.14001","6502300","八里區"
"249004","303-UY","2019/11/08 17:59:39","新北市八里區大崁腳47-3號","121.424515","25.1589766666667","6502300","八里區"
"249002","305-UY","2019/11/08 17:59:29","新北市八里區龍形五街15號","121.450061666667","25.1334566666667","6502300","八里區"
"249003","593-UM","2019/11/08 17:59:43","新北市八里區中華路二段199號","121.406376666667","25.1503166666667","6502300","八里區"
"248014","025-BX","2019/11/08 17:59:23","新北市五股區中興路四段42號","121.438238333333","25.0829116666667","6501500","五股區"
"248002","KED-0815","2019/11/08 17:59:36","新北市五股區中興路二段150號","121.458596666667","25.0785566666667","6501500","五股區"
"248018","KED-0813","2019/11/08 17:59:27","新北市五股區中興路二段57-6號","121.460466666667","25.0753033333333","6501500","五股區"
"248004","677-BX","2019/11/08 17:59:40","新北市五股區更洲路47號","121.456875","25.0790733333333","6501500","五股區"
"248010","682-TV","2019/11/08 17:59:41","新北市五股區更洲路47號","121.456921666667","25.0789816666667","6501500","五股區"
"232011","375-UM","2019/11/08 17:59:26","新北市坪林區北宜路八段165號","121.707443333333","24.9345666666667","6502000","坪林區"
"244007","080-UY","2019/11/08 17:59:35","新北市林口區林口路126號","121.388446666667","25.08157","6501700","林口區"
"244019","402-UM","2019/11/08 17:59:21","新北市林口區文化一路一段100巷12號","121.373928333333","25.07067","6501700","林口區"
"244013","KEA-2802","2019/11/08 17:59:25","新北市林口區中山路130號","121.392185","25.0786683333333","6501700","林口區"
"244023","483-VK","2019/11/08 17:59:24","新北市林口區東湖路77號","121.384913333333","25.0733483333333","6501700","林口區"
"244017","485-VK","2019/11/08 17:59:38","新北市林口區忠孝路371-1號","121.369025","25.0720933333333","6501700","林口區"
"244009","656-BX","2019/11/08 17:59:24","新北市林口區佳林路56巷6弄20號","121.38528","25.0823766666667","6501700","林口區"
"244011","701-TV","2019/11/08 17:59:40","新北市林口區粉寮路一段41號","121.396491666667","25.0773966666667","6501700","林口區"
"244025","837-TS","2019/11/08 17:59:37","新北市林口區三民路77-5號","121.358866666667","25.0685533333333","6501700","林口區"
"244021","838-TS","2019/11/08 17:59:30","新北市林口區中正路13號","121.396996666667","25.0773483333333","6501700","林口區"
"222003","436-BY","2019/11/08 17:59:30","新北市深坑區炮子崙23號","121.607208333333","24.99091","6501800","深坑區"
"222002","659-BX","2019/11/08 17:59:27","新北市深坑區文化街98號","121.617055","25.0018666666667","6501800","深坑區"
"231045","355-BY","2019/11/08 17:59:31","新北市新店區安華路28-1號","121.518956666667","24.960895","6500600","新店區"
"231040","898-TW","2019/11/08 17:59:29","新北市新店區安華路28-1號","121.519438333333","24.9608283333333","6500600","新店區"
"241024","065-VK","2019/11/08 17:59:40","新北市三重區國道路一段58巷20號","121.481076666667","25.07207","6500200","三重區"
"241007","066-VK","2019/11/08 17:31:11","新北市三重區車路頭街142號","121.484075","25.0758233333333","6500200","三重區"
"241016","266-UM","2019/11/08 17:59:38","新北市五股區成泰路三段358號","121.451011666667","25.0976766666667","6500200","三重區"
"241033","AAC-255","2019/11/08 17:59:28","新北市三重區光復路一段62號","121.471995","25.0489783333333","6500200","三重區"
"235064","005-UY","2019/11/08 17:59:40","新北市中和區錦和路350-1號","121.490348333333","24.9935233333333","6500300","中和區"
"235063","006-UY","2019/11/08 17:59:40","新北市中和區員山路36巷16-3號","121.485083333333","24.9912533333333","6500300","中和區"
"235065","098-UM","2019/11/08 17:59:31","新北市中和區中山路二段369號","121.487525","25.0047983333333","6500300","中和區"
"235058","151-BY","2019/11/08 17:59:28","新北市中和區圓通路367巷33弄63號","121.495816666667","24.9861483333333","6500300","中和區"
"235038","185-VK","2019/11/08 17:59:42","新北市中和區景平路353號","121.504806666667","24.9933883333333","6500300","中和區"
"235042","KEA-2878","2019/11/08 17:59:34","新北市中和區中正路175號","121.497588333333","24.993695","6500300","中和區"
"247016","KEA-2869","2019/11/08 17:59:37","新北市蘆洲區光華路110巷38號","121.465915","25.0840383333333","6501400","蘆洲區"
"235069","4980-A6","2019/11/08 17:59:36","新北市中和區和城路一段271巷1號","121.485416666667","24.991785","6500300","中和區"
"235070","558-UM","2019/11/08 17:59:21","新北市中和區員山路36巷16-2號","121.485213333333","24.9915166666667","6500300","中和區"
"235045","565-BX","2019/11/08 17:54:06","新北市中和區員山路36巷16號","121.484155","24.99213","6500300","中和區"
"235054","640-BX","2019/11/08 17:59:35","新北市中和區連城路508號","121.476896666667","24.9920116666667","6500300","中和區"
"235062","800-TS","2019/11/08 17:59:40","新北市中和區連城路308號","121.483678333333","24.9962716666667","6500300","中和區"
"235057","801-TS","2019/11/08 17:59:42","新北市中和區民安街133號","121.475971666667","24.9998883333333","6500300","中和區"
"235052","805-TS","2019/11/08 17:59:36","新北市中和區錦和路350-1號","121.490526666667","24.99356","6500300","中和區"
"235051","157-BY","2019/11/08 17:59:32","新北市中和區中正路637巷52弄1號","121.48548","24.9934416666667","6500300","中和區"
"235001","AAC-213","2019/11/08 17:59:37","新北市中和區景平路149號","121.513808333333","24.9921266666667","6500300","中和區"
"247006","893-R6","2019/11/08 17:59:26","新北市蘆洲區長安街91號","121.462045","25.0802683333333","6501400","蘆洲區"
"247002","001-UY","2019/11/08 17:59:27","新北市蘆洲區永平街32巷57弄14號","121.459345","25.09313","6501400","蘆洲區"
"226004","312-R5","2019/11/08 17:59:30","新北市平溪區石底里公園街18-3號","121.73333","25.0258733333333","6502400","平溪區"
"228001","212-TW","2019/11/08 17:59:08","新北市貢寮區仁理村仁愛路106巷36號","121.928706666667","25.0534866666667","6502600","貢寮區"
"228002","663-BX","2019/11/08 17:59:31","新北市貢寮區福連里香蘭街2-1號","121.970295","25.0238833333333","6502600","貢寮區"
"228003","828-UM","2019/11/08 17:59:26","新北市貢寮區真理里美艷山街6-2號","121.928873333333","25.06073","6502600","貢寮區"
"224006","676-BX","2019/11/08 17:59:27","新北市瑞芳區傑魚坑路183號","121.788558333333","25.1081816666667","6501200","瑞芳區"
"224007","285-BY","2019/11/08 17:59:40","新北市瑞芳區大寮路84號","121.780306666667","25.1012516666667","6501200","瑞芳區"
"224009","275-VK","2019/11/08 17:59:25","新北市瑞芳區山尖路191號","121.851243333333","25.111825","6501200","瑞芳區"
"224008","273-VK","2019/11/08 17:59:28","新北市瑞芳區明燈路一段45巷100號","121.821285","25.104005","6501200","瑞芳區"
"224005","271-BY","2019/11/08 17:59:26","新北市瑞芳區深澳路189-8號","121.821053333333","25.1342733333333","6501200","瑞芳區"
"227001","642-TC","2019/11/08 17:57:03","新北市雙溪區三貂里定福路1-2號","121.850768333333","25.0634383333333","6502500","雙溪區"
"227002","400-TW","2019/11/08 17:59:35","新北市雙溪區共和里東榮街52號","121.866308333333","25.0336483333333","6502500","雙溪區"
"253005","032-BX","2019/11/08 17:59:38","新北市石門區中山路62-11號","121.567613333333","25.2897266666667","6502200","石門區"
"253006","295-VK","2019/11/08 17:59:36","新北市石門區大丘田45-1號","121.549755","25.2752333333333","6502200","石門區"
"222001","KEA-2212","2019/11/08 17:59:01","新北市深坑區北深路二段187號","121.612263333333","25.0011633333333","6501800","深坑區"
"208002","KEA-2872","2019/11/08 17:59:43","新北市金山區三界壇路56號","121.621183333333","25.2300766666667","6502700","金山區"
"208003","665-BX","2019/11/08 17:59:25","新北市金山區磺港里磺港路127號","121.646641666667","25.227675","6502700","金山區"
"251004","009-UM","2019/11/08 17:59:24","新北市淡水區民權路187號","121.459726666667","25.1335266666667","6501000","淡水區"
"251005","010-UM","2019/11/08 17:59:23","新北市淡水區英專路133號","121.446426666667","25.1727316666667","6501000","淡水區"
"251001","011-UM","2019/11/08 17:59:35","新北市淡水區民權路94巷1號","121.463065","25.1247516666667","6501000","淡水區"
"251008","181-VK","2019/11/08 17:59:22","新北市淡水區中正東路二段69-12號","121.460761666667","25.15439","6501000","淡水區"
"251010","413-VK","2019/11/08 17:59:35","新北市淡水區中正路一段87巷1號","121.421733333333","25.1791166666667","6501000","淡水區"
"251012","441-VK","2019/11/08 17:59:29","新北市淡水區北新路三段38巷7號","121.484416666667","25.1869866666667","6501000","淡水區"
"251006","561-UM","2019/11/08 17:59:34","新北市淡水區建設街1巷1號","121.438898333333","25.1730566666667","6501000","淡水區"
"251009","575-R6","2019/11/08 17:59:39","新北市淡水區中山路130號","121.44175","25.1711566666667","6501000","淡水區"
"251011","650-BX","2019/11/08 17:59:12","新北市淡水區吳(仔)厝20號","121.479325","25.1483716666667","6501000","淡水區"
"251002","672-BX","2019/11/08 17:59:33","新北市淡水區中山路20號","121.444621666667","25.1695816666667","6501000","淡水區"
"251003","766-UM","2019/11/08 17:59:33","新北市淡水區大忠街90號","121.444818333333","25.1763033333333","6501000","淡水區"
"207003","681-TV","2019/11/08 17:59:25","新北市萬里區野柳里東澳路66號","121.692648333333","25.2009183333333","6502800","萬里區"
"207004","291-VK","2019/11/08 17:59:39","新北市萬里區萬里里瑪鋉路5號","121.685921666667","25.1748683333333","6502800","萬里區"
"252002","178-VK","2019/11/08 17:59:25","新北市三芝區中山路二段39號","121.502936666667","25.2550966666667","6502100","三芝區"
"208001","170-UY","2019/11/08 17:59:35","新北市金山區磺港里磺港路160號","121.644783333333","25.2257083333333","6502700","金山區"
"237004","KEA-2597","2019/11/08 17:59:28","新北市三峽區大埔路134巷1號","121.367155","24.9045483333333","6500900","三峽區"
"237007","153-BY","2019/11/08 17:59:35","新北市三峽區中園街161號","121.367171666667","24.92204","6500900","三峽區"
"237009","210-TH","2019/11/08 17:59:29","新北市三峽區中山路106巷3號","121.365998333333","24.935995","6500900","三峽區"
"237013","252-BX","2019/11/08 17:59:35","新北市三峽區長泰街53號","121.377416666667","24.93279","6500900","三峽區"
"237012","275-BY","2019/11/08 17:59:41","新北市三峽區民生街29號","121.375868333333","24.9363966666667","6500900","三峽區"
"237008","302-VK","2019/11/08 17:59:38","新北市三峽區正義街153號","121.368285","24.9154866666667","6500900","三峽區"
"237014","433-BY","2019/11/08 17:59:40","新北市三峽區和平街36巷7弄4號","121.37086","24.9373083333333","6500900","三峽區"
"237006","5529-G3","2019/11/08 17:59:33","新北市三峽區介壽路二段138巷1弄42-3號","121.397981666667","24.93283","6500900","三峽區"
"237011","KEA-2596","2019/11/08 17:59:33","新北市三峽區光明路48號","121.374696666667","24.9296433333333","6500900","三峽區"
"237015","649-BX","2019/11/08 17:59:28","新北市三峽區紫微路105號","121.409748333333","24.912325","6500900","三峽區"
"237010","706-TV","2019/11/08 17:59:35","新北市三峽區仁愛街15號","121.368453333333","24.93358","6500900","三峽區"
"237005","AKY-6261","2019/11/08 17:59:33","新北市三峽區和平街79巷8號","121.369723333333","24.937395","6500900","三峽區"
"236042","KED-0685","2019/11/08 17:59:38","新北市土城區城林路6巷80號","121.438528333333","24.979585","6501300","土城區"
"236079","166-UM","2019/11/08 17:59:32","新北市土城區永寧路32巷10弄3號","121.428866666667","24.9610233333333","6501300","土城區"
"236030","253-BX","2019/11/08 17:59:24","新北市土城區城林路6巷80號","121.438713333333","24.9796216666667","6501300","土城區"
"236026","269-VK","2019/11/08 17:59:27","新北市土城區中央路二段280號","121.4408","24.9740733333333","6501300","土城區"
"236014","270-VK","2019/11/08 17:59:32","新北市土城區中華路二段2號","121.438905","24.9798383333333","6501300","土城區"
"236039","271-VK","2019/11/08 17:59:37","新北市土城區城林路6巷80號","121.438506666667","24.979595","6501300","土城區"
"247012","KED-0683","2019/11/08 17:59:36","新北市蘆洲區民族路220號","121.479648333333","25.0878666666667","6501400","蘆洲區"
"236069","KEA-2877","2019/11/08 17:59:35","新北市土城區中華路一段277號","121.440188333333","24.9801383333333","6501300","土城區"
"252001","KED-0821","2019/11/08 17:59:27","新北市三芝區中興街二段2號","121.498326666667","25.2566633333333","6502100","三芝區"
"236020","401-BY","2019/11/08 17:59:39","新北市土城區城林路6巷80號","121.438748333333","24.9796433333333","6501300","土城區"
"236059","912-UM","2019/11/08 17:59:34","新北市土城區中央路三段223號","121.429416666667","24.9645","6501300","土城區"
"236048","913-UM","2019/11/08 17:59:24","新北市土城區中華路二段2號","121.43887","24.979855","6501300","土城區"
"236063","915-UM","2019/11/08 17:59:34","新北市土城區城林路6巷80號","121.43852","24.9796966666667","6501300","土城區"
"236055","AAC-216","2019/11/08 17:59:25","新北市土城區城林路6巷80號","121.438518333333","24.97959","6501300","土城區"
"242041","AAC-296","2019/11/08 17:59:35","新北市新莊區中正路723-3號","121.423345","25.029195","6500500","新莊區"
"242060","986-R7","2019/11/08 17:59:27","新北市新莊區新樹路583號","121.432945","25.00682","6500500","新莊區"
"242005","751-BX","2019/11/08 17:59:25","新北市新莊區福樂街72巷14號","121.458665","25.046605","6500500","新莊區"
"242029","615-BX","2019/11/08 17:59:26","新北市新莊區中平路110巷13號","121.445748333333","25.0460533333333","6500500","新莊區"
"242027","613-BX","2019/11/08 17:59:37","新北市新莊區思源路455號","121.459733333333","25.0534283333333","6500500","新莊區"
"242058","612-BX","2019/11/08 17:59:27","新北市新莊區新北大道七段357號","121.412425","25.027155","6500500","新莊區"
"242048","566-BX","2019/11/08 17:59:43","新北市新莊區裕民街19巷6號","121.419921666667","25.02497","6500500","新莊區"
"242054","497-BY","2019/11/08 17:59:38","新北市新莊區光華街64號","121.428266666667","25.01199","6500500","新莊區"
"242013","442-UM","2019/11/08 17:59:27","新北市新莊區中和街125巷12號","121.446983333333","25.0486066666667","6500500","新莊區"
"242002","441-UM","2019/11/08 17:59:34","新北市新莊區中正路153-1號","121.455971666667","25.0367483333333","6500500","新莊區"
"242044","415-TV","2019/11/08 17:59:31","新北市新莊區中正路700-26號","121.417848333333","25.0267366666667","6500500","新莊區"
"242025","362-BY","2019/11/08 17:59:33","新北市三重區中興北街283號","121.469186666667","25.06171","6500500","新莊區"
"242023","353-BY","2019/11/08 17:59:40","新北市新莊區福壽街51號","121.458248333333","25.0488566666667","6500500","新莊區"
"242015","132-UY","2019/11/08 17:59:35","新北市新莊區中平路87巷3號","121.444483333333","25.0457616666667","6500500","新莊區"
"242039","135-UY","2019/11/08 17:59:40","新北市新莊區民安西路24巷19號","121.42616","25.020745","6500500","新莊區"
"242056","172-VK","2019/11/08 17:59:34","新北市新莊區豐年街124巷39號","121.445375","25.02983","6500500","新莊區"
"242017","173-VK","2019/11/08 17:59:29","新北市新莊區中和街60巷17號","121.44872","25.0448433333333","6500500","新莊區"
"242032","175-VK","2019/11/08 17:59:35","新北市新莊區新泰路305巷4號","121.44488","25.0410166666667","6500500","新莊區"
"242021","KED-0687","2019/11/08 17:59:28","新北市新莊區建興街33號","121.450125","25.0365033333333","6500500","新莊區"
"242007","346-TH","2019/11/08 17:59:41","新北市新莊區自信街65巷7號","121.455446666667","25.0486866666667","6500500","新莊區"
"242050","347-TH","2019/11/08 17:59:30","新北市新莊區民安西路155巷7弄2號","121.42684","25.0165483333333","6500500","新莊區"
"242037","348-TH","2019/11/08 17:59:25","新北市新莊區建福路25號","121.4262","25.0290483333333","6500500","新莊區"
"242009","349-TH","2019/11/08 17:59:38","新北市新莊區中華路二段290號","121.452493333333","25.0535816666667","6500500","新莊區"
"242034","350-TH","2019/11/08 17:59:41","新北市新莊區中正路377巷8號","121.446143333333","25.0342166666667","6500500","新莊區"
"242019","351-TH","2019/11/08 17:59:37","新北市新莊區明中街51巷4號","121.456468333333","25.039355","6500500","新莊區"
"238015","755-BX","2019/11/08 17:59:36","新北市樹林區啟智街170號","121.414755","24.987335","6500700","樹林區"
"238023","601-UM","2019/11/08 17:59:28","新北市樹林區龍興街44號","121.403026666667","25.0155266666667","6500700","樹林區"
"238019","599-UM","2019/11/08 17:59:33","新北市樹林區太平路213號","121.418648333333","24.9775916666667","6500700","樹林區"
"238018","KEA-2217","2019/11/08 17:59:33","新北市樹林區中正路7-1號","121.430361666667","24.997445","6500700","樹林區"
"238022","KEA-2213","2019/11/08 17:59:28","新北市樹林區國凱街21-1號","121.418895","24.9781983333333","6500700","樹林區"
"238021","KEA-2539","2019/11/08 17:59:31","新北市樹林區柑園街一段169號","121.399823333333","24.957405","6500700","樹林區"
"238025","303-VK","2019/11/08 17:59:28","新北市樹林區三俊街72-1號","121.413586666667","25.0156283333333","6500700","樹林區"
"238017","283-BY","2019/11/08 17:59:23","新北市樹林區三俊街2號","121.410795","25.015135","6500700","樹林區"
"238014","282-BY","2019/11/08 17:59:38","新北市樹林區中正路45巷10號","121.426503333333","24.999265","6500700","樹林區"
"238020","268-VK","2019/11/08 17:59:36","新北市樹林區三俊街199巷37號","121.420811666667","25.01842","6500700","樹林區"
"238026","172-UY","2019/11/08 17:59:38","新北市樹林區中洲街30巷8號","121.397425","24.971585","6500700","樹林區"
"238016","169-UY","2019/11/08 17:59:42","新北市樹林區復興路295巷19號","121.41939","24.9885266666667","6500700","樹林區"
"239007","AAC-297","2019/11/08 17:59:41","新北市鶯歌區永樂街34號","121.342063333333","24.9539916666667","6500800","鶯歌區"
"239006","891-R6","2019/11/08 17:59:29","新北市鶯歌區鶯桃路455巷10弄2號","121.331618333333","24.9641433333333","6500800","鶯歌區"
"239008","527-UM","2019/11/08 17:59:26","新北市鶯歌區香賓街得月巷2號","121.33685","24.9794833333333","6500800","鶯歌區"
"239005","526-UM","2019/11/08 17:59:36","新北市鶯歌區鶯桃路668巷74-1號","121.329886666667","24.9716516666667","6500800","鶯歌區"
"239001","417-VK","2019/11/08 17:59:38","新北市鶯歌區中正三路256-1號","121.329616666667","24.9363516666667","6500800","鶯歌區"
"239003","360-BY","2019/11/08 17:59:25","新北市鶯歌區永吉街15號","121.336128333333","24.9578416666667","6500800","鶯歌區"
"239002","359-BY","2019/11/08 17:59:41","新北市鶯歌區光明街34號","121.348445","24.9559133333333","6500800","鶯歌區"
"239004","193-VK","2019/11/08 17:59:37","新北市鶯歌區尖山路88號","121.348645","24.9494983333333","6500800","鶯歌區"
"221008","489-VK","2019/11/08 17:59:38","新北市汐止區康寧街609號","121.636111666667","25.0708983333333","6501100","汐止區"
"221015","131-UY","2019/11/08 17:59:21","新北市汐止區長江街190號","121.660151666667","25.0757933333333","6501100","汐止區"
"221010","269-BY","2019/11/08 17:59:35","新北市汐止區汐萬路二段247號","121.646463333333","25.0882633333333","6501100","汐止區"
"221023","279-VK","2019/11/08 17:59:33","新北市汐止區明峰街72號","121.631481666667","25.0711683333333","6501100","汐止區"
"221029","298-VK","2019/11/08 17:59:32","新北市汐止區樟樹二路328號","121.641438333333","25.070245","6501100","汐止區"
"221021","299-VK","2019/11/08 17:59:38","新北市汐止區水源路一段16號","121.657153333333","25.066705","6501100","汐止區"
"221031","353-TW","2019/11/08 17:59:38","新北市汐止區中興路96巷1-3號","121.635235","25.06249","6501100","汐止區"
"221035","622-UM","2019/11/08 17:59:42","新北市汐止區汐萬路一段204號","121.652093333333","25.0722366666667","6501100","汐止區"
"221025","623-UM","2019/11/08 17:59:30","新北市汐止區仁愛路13號","121.659126666667","25.0639616666667","6501100","汐止區"
"221038","646-BX","2019/11/08 17:59:22","新北市汐止區新台五路一段147號","121.653346666667","25.06232","6501100","汐止區"
"221033","647-BX","2019/11/08 17:59:29","新北市汐止區合順街37號","121.620683333333","25.04319","6501100","汐止區"
"221002","707-TV","2019/11/08 17:59:38","新北市汐止區工建路207號","121.635826666667","25.06175","6501100","汐止區"
"221018","753-BX","2019/11/08 17:59:26","新北市汐止區忠孝東路339巷7號","121.66462","25.07013","6501100","汐止區"
"224002","257-TC","2019/11/08 17:59:33","新北市瑞芳區三爪子坑路131號","121.810321666667","25.1067","6501200","瑞芳區"
"242046","281-VK","2019/11/08 17:59:42","新北市新莊區福營路165巷19號","121.432503333333","25.0306083333333","6500500","新莊區"
"242011","280-VK","2019/11/08 17:59:26","新北市新莊區中港路中慶巷26號","121.44966","25.0537866666667","6500500","新莊區"
"235061","KEA-2875","2019/11/08 17:59:15","新北市中和區連城路518巷1號","121.476695","24.9918933333333","6500300","中和區"
