"lineid","car","time","location","longitude","latitude","cityid","cityname"
"234026","9371-KE","2019/11/08 18:13:34","新北市永和區大新街19巷4號","121.515053333333","25.0088983333333","6500400","永和區"
"249005","172-UM","2019/11/08 18:13:31","新北市八里區荖阡坑路15號","121.401568333333","25.14003","6502300","八里區"
"249001","173-UM","2019/11/08 18:13:42","新北市八里區龍米路一段237號","121.451146666667","25.1330733333333","6502300","八里區"
"249004","303-UY","2019/11/08 18:13:39","新北市八里區龍米路二段200巷3號","121.433723333333","25.1587166666667","6502300","八里區"
"249002","305-UY","2019/11/08 18:13:29","新北市八里區龍米路一段386巷2號","121.451875","25.131945","6502300","八里區"
"249003","593-UM","2019/11/08 18:13:23","新北市八里區松子腳1-7號","121.400258333333","25.1453283333333","6502300","八里區"
"248014","025-BX","2019/11/08 18:13:23","新北市五股區成泰路一段175號","121.435045","25.0755083333333","6501500","五股區"
"248016","026-BX","2019/11/08 18:13:29","新北市五股區成泰路三段221巷16號","121.445746666667","25.09342","6501500","五股區"
"248006","077-UY","2019/11/08 18:13:34","新北市五股區中興路一段181號","121.464371666667","25.0738516666667","6501500","五股區"
"248002","KED-0815","2019/11/08 18:13:36","新北市五股區更洲路32巷8弄14號","121.459245","25.0796066666667","6501500","五股區"
"248018","KED-0813","2019/11/08 18:13:26","新北市五股區成泰路三段83號","121.444271666667","25.0898533333333","6501500","五股區"
"248004","677-BX","2019/11/08 18:13:40","新北市五股區中興路四段54號","121.438095","25.08304","6501500","五股區"
"248010","682-TV","2019/11/08 18:13:41","新北市五股區成泰路一段219-19號","121.434588333333","25.077695","6501500","五股區"
"232011","375-UM","2019/11/08 18:13:26","新北市坪林區坪雙路一段41號","121.711711666667","24.9424166666667","6502000","坪林區"
"244007","080-UY","2019/11/08 18:13:35","新北市林口區林口路296號","121.386158333333","25.0853916666667","6501700","林口區"
"244019","402-UM","2019/11/08 18:13:21","新北市林口區忠孝路581巷6號","121.3751","25.0684416666667","6501700","林口區"
"244013","KEA-2802","2019/11/08 18:13:25","新北市林口區佳林路101巷36號","121.387011666667","25.0799566666667","6501700","林口區"
"244023","483-VK","2019/11/08 18:13:24","新北市林口區東湖路153巷135號","121.382246666667","25.073545","6501700","林口區"
"244017","485-VK","2019/11/08 18:13:38","新北市林口區八德路48巷1號","121.366783333333","25.066215","6501700","林口區"
"244009","656-BX","2019/11/08 18:13:44","新北市林口區文化三路二段315號","121.379446666667","25.08711","6501700","林口區"
"244011","701-TV","2019/11/08 18:13:40","新北市林口區仁愛路一段266號","121.39391","25.0760466666667","6501700","林口區"
"244025","837-TS","2019/11/08 18:13:37","新北市林口區文化北路一段299巷36號","121.35892","25.0725","6501700","林口區"
"244021","838-TS","2019/11/08 18:13:30","新北市林口區自強一街12號","121.398135","25.0783666666667","6501700","林口區"
"243013","646-TV","2019/11/08 18:13:29","新北市泰山區犁頭窠18號","121.421243333333","25.0501716666667","6501600","泰山區"
"222003","436-BY","2019/11/08 18:13:30","新北市深坑區文山路二段31號","121.616591666667","24.9988033333333","6501800","深坑區"
"222002","659-BX","2019/11/08 18:13:27","新北市深坑區文化街10號","121.620395","25.0013416666667","6501800","深坑區"
"231042","001-UM","2019/11/08 18:13:33","新北市新店區安華路28-1號","121.519485","24.9607916666667","6500600","新店區"
"231058","0293-UT","2019/11/08 18:13:39","新北市新店區安一路一段1-1號","121.519738333333","24.9615283333333","6500600","新店區"
"231044","046-UY","2019/11/08 18:13:29","新北市新店區安華路28-1號","121.51948","24.96099","6500600","新店區"
"231060","106-UY","2019/11/08 18:13:34","新北市新店區安華路28-1號","121.519791666667","24.9610033333333","6500600","新店區"
"231065","110-UY","2019/11/08 18:13:25","新北市新店區安一路一段1-1號","121.519418333333","24.9614283333333","6500600","新店區"
"231062","256-BX","2019/11/08 18:13:40","新北市新店區安一路一段1-1號","121.519751666667","24.9611633333333","6500600","新店區"
"231054","260-TV","2019/11/08 18:13:39","新北市新店區安一路一段1-1號","121.519376666667","24.9612616666667","6500600","新店區"
"231050","AAD-862","2019/11/08 18:13:22","新北市新店區安華路28-1號","121.519863333333","24.96099","6500600","新店區"
"231045","355-BY","2019/11/08 18:13:31","新北市新店區安華路28-1號","121.51918","24.9609316666667","6500600","新店區"
"231055","4716-K9","2019/11/08 18:13:38","新北市新店區安華路28-1號","121.519673333333","24.9607416666667","6500600","新店區"
"231053","513-UM","2019/11/08 18:13:26","新北市新店區安一路一段1-1號","121.519838333333","24.961415","6500600","新店區"
"231063","641-BX","2019/11/08 18:13:29","新北市新店區安華路1-1號","121.51953","24.9605116666667","6500600","新店區"
"231057","720-UM","2019/11/08 18:13:24","新北市新店區安一路一段1-1號","121.519596666667","24.961395","6500600","新店區"
"231040","898-TW","2019/11/08 18:13:29","新北市新店區安華路28-1號","121.519538333333","24.9609533333333","6500600","新店區"
"231043","899-TW","2019/11/08 18:13:33","新北市新店區安華路28-1號","121.518921666667","24.96086","6500600","新店區"
"241033","AAC-255","2019/11/08 18:13:28","新北市新莊區化成路352巷33號","121.467215","25.0492616666667","6500200","三重區"
"235066","003-UY","2019/11/08 18:13:22","新北市中和區中山路二段311-3號","121.494676666667","25.0017283333333","6500300","中和區"
"235064","005-UY","2019/11/08 18:13:40","新北市中和區圓通路167巷6號","121.498036666667","24.99505","6500300","中和區"
"235063","006-UY","2019/11/08 18:13:40","新北市中和區中正路585號","121.485948333333","24.9945033333333","6500300","中和區"
"235039","097-UM","2019/11/08 18:13:30","新北市中和區中正路271-1號","121.495755","24.9935783333333","6500300","中和區"
"235065","098-UM","2019/11/08 18:13:31","新北市中和區莊敬路49巷18號","121.501641666667","25.0061283333333","6500300","中和區"
"235040","150-BY","2019/11/08 18:13:27","新北市中和區錦和路350-1號","121.490996666667","24.9935783333333","6500300","中和區"
"235058","151-BY","2019/11/08 18:13:43","新北市中和區圓通路369巷35號","121.489193333333","24.98658","6500300","中和區"
"235055","183-VK","2019/11/08 18:13:27","新北市中和區新生街226號","121.483855","24.9983633333333","6500300","中和區"
"235038","185-VK","2019/11/08 18:13:42","新北市中和區大智街30號","121.521295","24.9920516666667","6500300","中和區"
"235072","301-VK","2019/11/08 18:13:43","新北市中和區錦和路168號","121.489893333333","24.9956866666667","6500300","中和區"
"235042","KEA-2878","2019/11/08 18:13:34","新北市中和區景平路155號","121.513678333333","24.99238","6500300","中和區"
"235050","4979-A6","2019/11/08 18:13:28","新北市中和區中正路277號","121.495286666667","24.9937066666667","6500300","中和區"
"235069","4980-A6","2019/11/08 18:12:40","新北市中和區建八路1號","121.485548333333","24.998615","6500300","中和區"
"235070","558-UM","2019/11/08 18:13:41","新北市中和區圓通路173號","121.497585","24.9951716666667","6500300","中和區"
"235045","565-BX","2019/11/08 18:13:37","新北市中和區景安路200巷2弄1號","121.503838333333","24.991505","6500300","中和區"
"235060","KED-0823","2019/11/08 18:13:39","新北市中和區員山路127-1號","121.481036666667","24.9956333333333","6500300","中和區"
"235054","640-BX","2019/11/08 18:13:34","新北市中和區民享街86巷8號","121.474033333333","25.0008766666667","6500300","中和區"
"235047","732-UM","2019/11/08 18:13:36","新北市中和區中正路589巷9號","121.485901666667","24.994035","6500300","中和區"
"235046","733-UM","2019/11/08 18:13:21","新北市中和區員山路36巷16-3號","121.484845","24.99141","6500300","中和區"
"235062","800-TS","2019/11/08 18:13:40","新北市中和區景平路999巷1號","121.495396666667","25.0059383333333","6500300","中和區"
"235057","801-TS","2019/11/08 18:13:42","新北市中和區民享街97巷19號","121.475423333333","24.9995533333333","6500300","中和區"
"235041","802-TS","2019/11/08 18:13:37","新北市中和區中正路637巷60弄61號","121.485415","24.9930633333333","6500300","中和區"
"235052","805-TS","2019/11/08 18:13:36","新北市中和區興南路二段37號","121.507656666667","24.9856916666667","6500300","中和區"
"235051","157-BY","2019/11/08 18:13:32","新北市中和區捷運路8-8號","121.509781666667","24.98969","6500300","中和區"
"235001","AAC-213","2019/11/08 18:13:37","新北市中和區景平路151巷39號","121.51464","24.9906766666667","6500300","中和區"
"226004","312-R5","2019/11/08 18:13:30","新北市平溪區薯榔里薯榔寮32-3號","121.711341666667","25.0190616666667","6502400","平溪區"
"235049","251-BX","2019/11/08 18:13:25","新北市中和區員山路36巷13號","121.484111666667","24.9909083333333","6500300","中和區"
"228001","212-TW","2019/11/08 18:13:28","新北市貢寮區真理里新港街26巷55弄2-1號","121.927391666667","25.0528316666667","6502600","貢寮區"
"228002","663-BX","2019/11/08 18:13:31","新北市貢寮區福連里馬崗街20號","122.00259","25.0137416666667","6502600","貢寮區"
"228003","828-UM","2019/11/08 18:13:26","新北市貢寮區真理里美艷山街28號","121.926025","25.0657816666667","6502600","貢寮區"
"224006","676-BX","2019/11/08 18:13:27","新北市瑞芳區三爪子坑路106巷35號","121.809171666667","25.10391","6501200","瑞芳區"
"224007","285-BY","2019/11/08 18:13:40","新北市瑞芳區頂埔巷1弄2號","121.765906666667","25.10247","6501200","瑞芳區"
"224009","275-VK","2019/11/08 18:13:25","新北市瑞芳區新山路43號","121.855923333333","25.1083233333333","6501200","瑞芳區"
"224008","273-VK","2019/11/08 18:13:28","新北市瑞芳區三爪子坑路9號","121.813988333333","25.1077116666667","6501200","瑞芳區"
"224005","271-BY","2019/11/08 18:13:26","新北市瑞芳區建基路二段11號","121.80725","25.1328983333333","6501200","瑞芳區"
"227001","642-TC","2019/11/08 18:13:33","新北市雙溪區三貂里政光路3號","121.851583333333","25.0629633333333","6502500","雙溪區"
"227002","400-TW","2019/11/08 18:13:35","新北市雙溪區雙溪里太平路16號","121.864351666667","25.0351933333333","6502500","雙溪區"
"253005","032-BX","2019/11/08 18:13:38","新北市石門區崁子腳76-1號","121.570308333333","25.29672","6502200","石門區"
"253006","295-VK","2019/11/08 18:13:36","新北市石門區老梅路52巷21號","121.546346666667","25.2885216666667","6502200","石門區"
"222001","KEA-2212","2019/11/08 18:13:41","新北市深坑區北深路二段66號","121.618993333333","25.00412","6501800","深坑區"
"208002","KEA-2872","2019/11/08 18:13:22","新北市金山區海興路84號","121.631276666667","25.2351033333333","6502700","金山區"
"208003","665-BX","2019/11/08 18:13:32","新北市金山區民生路196號","121.645425","25.2217833333333","6502700","金山區"
"251004","009-UM","2019/11/08 18:13:45","新北市淡水區民族路102號","121.462435","25.135345","6501000","淡水區"
"251005","010-UM","2019/11/08 18:13:23","新北市淡水區水源街一段126號","121.447398333333","25.17174","6501000","淡水區"
"251001","011-UM","2019/11/08 18:13:35","新北市淡水區自立路1巷27號","121.46262","25.1295716666667","6501000","淡水區"
"251008","181-VK","2019/11/08 18:13:42","新北市淡水區淡金路16巷47號","121.458495","25.1606833333333","6501000","淡水區"
"251010","413-VK","2019/11/08 18:13:35","新北市淡水區中正路二段52號","121.41947","25.1831333333333","6501000","淡水區"
"251012","441-VK","2019/11/08 18:13:29","新北市淡水區北新路三段126號","121.487923333333","25.1896583333333","6501000","淡水區"
"251006","561-UM","2019/11/08 18:13:34","新北市淡水區新民街76巷14號","121.438988333333","25.1767633333333","6501000","淡水區"
"251011","650-BX","2019/11/08 18:13:32","新北市淡水區三空泉9-2號","121.474075","25.16353","6501000","淡水區"
"251002","672-BX","2019/11/08 18:13:33","新北市淡水區中正東路一段87-2號","121.45287","25.16191","6501000","淡水區"
"251003","766-UM","2019/11/08 18:13:33","新北市淡水區北新路182巷56號","121.44849","25.1775683333333","6501000","淡水區"
"207003","681-TV","2019/11/08 18:13:25","新北市萬里區野柳里港東路167-1號","121.6901","25.2051733333333","6502800","萬里區"
"207004","291-VK","2019/11/08 18:13:39","新北市萬里區中幅里中福路111號","121.676491666667","25.1684783333333","6502800","萬里區"
"252002","178-VK","2019/11/08 18:13:25","新北市三芝區中山路二段39號","121.502928333333","25.2551066666667","6502100","三芝區"
"252003","249-BX","2019/11/08 18:13:34","新北市三芝區古庄里四棧橋18-3號","121.48972","25.26113","6502100","三芝區"
"208001","170-UY","2019/11/08 18:13:35","新北市金山區民生路51巷13號","121.64285","25.221415","6502700","金山區"
"237004","KEA-2597","2019/11/08 18:13:28","新北市三峽區大埔1-3號","121.374786666667","24.89044","6500900","三峽區"
"237007","153-BY","2019/11/08 18:13:35","新北市三峽區中正路二段393號","121.364806666667","24.9078533333333","6500900","三峽區"
"237009","210-TH","2019/11/08 18:13:29","新北市三峽區大仁路66巷22號","121.364683333333","24.93821","6500900","三峽區"
"237013","252-BX","2019/11/08 18:13:35","新北市三峽區永安街57號","121.375891666667","24.9299616666667","6500900","三峽區"
"237012","275-BY","2019/11/08 18:13:41","新北市三峽區民生街1巷5-14號","121.378795","24.93623","6500900","三峽區"
"237008","302-VK","2019/11/08 18:13:38","新北市三峽區白雞53號","121.384673333333","24.9125433333333","6500900","三峽區"
"237014","433-BY","2019/11/08 18:13:40","新北市三峽區復興路132巷6號","121.372363333333","24.9388483333333","6500900","三峽區"
"237006","5529-G3","2019/11/08 18:13:25","新北市三峽區溪東路178巷13弄12號","121.406223333333","24.9321666666667","6500900","三峽區"
"237011","KEA-2596","2019/11/08 18:13:33","新北市三峽區介壽路一段322號","121.381268333333","24.93023","6500900","三峽區"
"237015","649-BX","2019/11/08 18:13:28","新北市三峽區紫新路28號","121.422481666667","24.9217566666667","6500900","三峽區"
"237010","706-TV","2019/11/08 18:13:32","新北市三峽區民族街91號","121.369443333333","24.9291233333333","6500900","三峽區"
"237005","AKY-6261","2019/11/08 18:13:33","新北市三峽區忠孝街27-6號","121.371488333333","24.9344266666667","6500900","三峽區"
"236042","KED-0685","2019/11/08 18:13:38","新北市土城區裕生路96號","121.447198333333","24.9848466666667","6501300","土城區"
"236079","166-UM","2019/11/08 18:13:32","新北市土城區永寧路4號","121.430391666667","24.9641066666667","6501300","土城區"
"236030","253-BX","2019/11/08 18:13:44","新北市土城區中華路二段2號","121.439281666667","24.9796266666667","6501300","土城區"
"236026","269-VK","2019/11/08 18:13:27","新北市土城區承天路67號","121.439586666667","24.9634183333333","6501300","土城區"
"236014","270-VK","2019/11/08 18:13:31","新北市土城區青雲路39巷7號","121.460308333333","24.9874","6501300","土城區"
"236039","271-VK","2019/11/08 18:13:37","新北市土城區青雲路449-1號","121.458876666667","24.974745","6501300","土城區"
"236069","KEA-2877","2019/11/08 18:13:35","新北市土城區明德路一段128巷9號","121.463251666667","24.9790083333333","6501300","土城區"
"252001","KED-0821","2019/11/08 18:13:27","新北市三芝區中興街二段2號","121.498308333333","25.256665","6502100","三芝區"
"236020","401-BY","2019/11/08 18:13:39","新北市土城區員林街5號","121.442521666667","24.9781366666667","6501300","土城區"
"236059","912-UM","2019/11/08 18:13:35","新北市土城區中央路四段378號","121.41297","24.954625","6501300","土城區"
"236048","913-UM","2019/11/08 18:13:24","新北市土城區明德路一段365-1號","121.45356","24.97903","6501300","土城區"
"236063","915-UM","2019/11/08 18:13:34","新北市土城區金城路二段217號","121.454746666667","24.98176","6501300","土城區"
"236055","AAC-216","2019/11/08 18:13:25","新北市土城區中華路二段92號","121.438226666667","24.9747083333333","6501300","土城區"
"242041","AAC-296","2019/11/08 18:13:35","新北市新莊區天祥街76號","121.415818333333","25.0293266666667","6500500","新莊區"
"242060","986-R7","2019/11/08 18:13:26","新北市新莊區新樹路329號","121.433183333333","25.0188633333333","6500500","新莊區"
"242005","751-BX","2019/11/08 18:13:25","新北市新莊區中華路二段13號","121.453788333333","25.04561","6500500","新莊區"
"242029","615-BX","2019/11/08 18:13:37","新北市新莊區幸福路914號","121.442635","25.04895","6500500","新莊區"
"242027","613-BX","2019/11/08 18:13:37","新北市新莊區中華路二段126號","121.452963333333","25.0491533333333","6500500","新莊區"
"242058","612-BX","2019/11/08 18:13:31","新北市新莊區壽山路49-3號","121.414238333333","25.03077","6500500","新莊區"
"242048","566-BX","2019/11/08 18:13:43","新北市新莊區萬安街7號","121.421728333333","25.0248516666667","6500500","新莊區"
"242054","497-BY","2019/11/08 18:13:40","新北市新莊區民安西路410巷8弄1號","121.428413333333","25.0095016666667","6500500","新莊區"
"242013","442-UM","2019/11/08 18:13:27","新北市新莊區新樹路69-66號","121.442145","25.0293716666667","6500500","新莊區"
"242002","441-UM","2019/11/08 18:13:34","新北市新莊區碧江街11號","121.45589","25.0348766666667","6500500","新莊區"
"242044","415-TV","2019/11/08 18:13:31","新北市新莊區新北大道七段339號","121.412973333333","25.027585","6500500","新莊區"
"242025","362-BY","2019/11/08 18:13:33","新北市新莊區五工路86號","121.457203333333","25.0640733333333","6500500","新莊區"
"242015","132-UY","2019/11/08 18:13:39","新北市新莊區中平路152巷39號","121.446381666667","25.0473983333333","6500500","新莊區"
"242039","135-UY","2019/11/08 18:13:40","新北市新莊區新樹路206巷18號","121.432786666667","25.0219033333333","6500500","新莊區"
"242056","172-VK","2019/11/08 18:13:34","新北市新莊區豐年街豐2巷1號","121.446728333333","25.030885","6500500","新莊區"
"242032","175-VK","2019/11/08 18:13:35","新北市新莊區新泰路255巷18號","121.445285","25.03978","6500500","新莊區"
"242021","KED-0687","2019/11/08 18:13:36","新北市新莊區新興街52號","121.450718333333","25.0374583333333","6500500","新莊區"
"242007","346-TH","2019/11/08 18:13:41","新北市新莊區自立街79巷13號","121.45441","25.045955","6500500","新莊區"
"242050","347-TH","2019/11/08 18:13:30","新北市新莊區民本街23巷17號","121.429101666667","25.0197933333333","6500500","新莊區"
"242037","348-TH","2019/11/08 18:13:25","新北市新莊區後港一路49巷3弄11號","121.425085","25.0266566666667","6500500","新莊區"
"242009","349-TH","2019/11/08 18:13:37","新北市新莊區昌平街71巷15號","121.453733333333","25.0535783333333","6500500","新莊區"
"242019","351-TH","2019/11/08 18:13:37","新北市新莊區公園路138號","121.452731666667","25.04001","6500500","新莊區"
"238015","755-BX","2019/11/08 18:13:36","新北市樹林區文化街65號","121.416868333333","24.9890666666667","6500700","樹林區"
"238023","601-UM","2019/11/08 18:13:28","新北市樹林區忠義街18號","121.409521666667","25.0142933333333","6500700","樹林區"
"238019","599-UM","2019/11/08 18:13:33","新北市樹林區水源街32巷6號","121.42555","24.9815983333333","6500700","樹林區"
"238018","KEA-2217","2019/11/08 18:13:33","新北市樹林區博愛街123號","121.426153333333","24.9907416666667","6500700","樹林區"
"238021","KEA-2539","2019/11/08 18:13:31","新北市樹林區柑園街二段161號","121.381253333333","24.953725","6500700","樹林區"
"238025","303-VK","2019/11/08 18:13:28","新北市樹林區保安街二段59號","121.416041666667","25.000415","6500700","樹林區"
"238017","283-BY","2019/11/08 18:13:33","新北市樹林區中正路691號","121.411821666667","25.0136733333333","6500700","樹林區"
"238014","282-BY","2019/11/08 18:13:38","新北市樹林區大安路111巷11號","121.423095","24.9976233333333","6500700","樹林區"
"238020","268-VK","2019/11/08 18:13:36","新北市樹林區俊興街298號","121.418606666667","25.0180783333333","6500700","樹林區"
"238026","172-UY","2019/11/08 18:13:37","新北市樹林區育德街57號","121.39128","24.9701166666667","6500700","樹林區"
"238016","169-UY","2019/11/08 18:13:22","新北市樹林區復興路286號","121.417728333333","24.987885","6500700","樹林區"
"239007","AAC-297","2019/11/08 18:13:41","新北市鶯歌區育英街69號","121.347271666667","24.9520666666667","6500800","鶯歌區"
"239006","891-R6","2019/11/08 18:13:29","新北市鶯歌區德昌街140巷83號","121.332571666667","24.962555","6500800","鶯歌區"
"239008","527-UM","2019/11/08 18:13:26","新北市鶯歌區朝陽街61巷35號","121.338918333333","24.9776333333333","6500800","鶯歌區"
"239005","526-UM","2019/11/08 18:13:35","新北市鶯歌區鶯桃路668巷73號","121.329926666667","24.9717833333333","6500800","鶯歌區"
"239001","417-VK","2019/11/08 18:13:38","新北市鶯歌區國中街62號","121.342078333333","24.943095","6500800","鶯歌區"
"239003","360-BY","2019/11/08 18:13:25","新北市鶯歌區福安街11巷2號","121.335408333333","24.9652066666667","6500800","鶯歌區"
"239002","359-BY","2019/11/08 18:13:41","新北市鶯歌區中山路162號","121.349273333333","24.9570316666667","6500800","鶯歌區"
"239004","193-VK","2019/11/08 18:13:37","新北市鶯歌區尖山路88號","121.348673333333","24.9494533333333","6500800","鶯歌區"
"221036","130-UY","2019/11/08 18:13:39","新北市汐止區大同路三段116號","121.672096666667","25.0767816666667","6501100","汐止區"
"221015","131-UY","2019/11/08 18:13:41","新北市汐止區長江街341號","121.667153333333","25.0819683333333","6501100","汐止區"
"221010","269-BY","2019/11/08 18:13:34","新北市汐止區汐萬路二段275巷3弄1號","121.645306666667","25.08878","6501100","汐止區"
"221012","278-VK","2019/11/08 18:13:29","新北市汐止區保一街81-1號","121.674725","25.0801983333333","6501100","汐止區"
"221023","279-VK","2019/11/08 18:13:29","新北市汐止區民族五街77號","121.627631666667","25.0700583333333","6501100","汐止區"
"221032","280-BY","2019/11/08 18:13:22","新北市汐止區橫科路45號","121.618228333333","25.0511033333333","6501100","汐止區"
"221027","281-BY","2019/11/08 18:13:27","新北市汐止區和平街6巷8-1號","121.663463333333","25.07148","6501100","汐止區"
"221029","298-VK","2019/11/08 18:13:32","新北市汐止區樟樹二路318號","121.64143","25.0699733333333","6501100","汐止區"
"221021","299-VK","2019/11/08 18:13:38","新北市汐止區復興路20號","121.655821666667","25.063915","6501100","汐止區"
"221031","353-TW","2019/11/08 18:13:37","新北市汐止區中興路181巷12弄7號","121.629991666667","25.066745","6501100","汐止區"
"221035","622-UM","2019/11/08 18:13:42","新北市汐止區汐萬路一段115巷50號","121.652905","25.070055","6501100","汐止區"
"221025","623-UM","2019/11/08 18:13:30","新北市汐止區勤進路8號","121.659763333333","25.0616383333333","6501100","汐止區"
"221038","646-BX","2019/11/08 18:13:21","新北市汐止區勤進路6號","121.660026666667","25.06194","6501100","汐止區"
"221033","647-BX","2019/11/08 18:13:29","新北市汐止區宜興街40巷9弄1號","121.622661666667","25.0413383333333","6501100","汐止區"
"221002","707-TV","2019/11/08 18:13:38","新北市汐止區福德一路213巷35號","121.635825","25.064825","6501100","汐止區"
"221018","753-BX","2019/11/08 18:13:26","新北市汐止區忠孝東路384號","121.665561666667","25.0701083333333","6501100","汐止區"
"224002","257-TC","2019/11/08 18:13:32","新北市瑞芳區三爪子坑路149巷22-4號","121.81141","25.1062916666667","6501200","瑞芳區"
"242046","281-VK","2019/11/08 18:13:34","新北市新莊區福營路385-2號","121.422541666667","25.0273633333333","6500500","新莊區"
"242011","280-VK","2019/11/08 18:13:26","新北市新莊區中港路587號","121.451013333333","25.0522516666667","6500500","新莊區"
"235068","KEA-2873","2019/11/08 18:13:33","新北市中和區員山路36巷16-2號","121.485353333333","24.9913783333333","6500300","中和區"
"235061","KEA-2875","2019/11/08 18:13:15","新北市中和區民德路187號","121.468381666667","24.9992533333333","6500300","中和區"
