"lineid","car","time","location","longitude","latitude","cityid","cityname"
"234081","298-R6","2019/11/08 20:29:40","新北市永和區永貞路41號","121.520996666667","25.00642","6500400","永和區"
"234038","336-UY","2019/11/08 20:29:24","新北市永和區民樂街31巷10弄11號","121.528911666667","25.0009083333333","6500400","永和區"
"234064","337-UY","2019/11/08 20:29:35","新北市永和區中正路433號","121.517181666667","25.0050233333333","6500400","永和區"
"234086","338-UY","2019/11/08 20:29:10","新北市永和區永和路二段310號","121.516183333333","25.016115","6500400","永和區"
"234070","552-UM","2019/11/08 20:29:42","新北市永和區永利路62號","121.519321666667","25.00507","6500400","永和區"
"234030","746-BX","2019/11/08 20:29:36","新北市新店區安民街65巷11號","121.515445","24.96657","6500400","永和區"
"234054","KEA-2590","2019/11/08 20:29:34","新北市永和區環河東路一段82號","121.51969","25.0164766666667","6500400","永和區"
"234061","AAD-866","2019/11/08 20:29:33","新北市永和區安樂路194巷19號","121.515845","25.00097","6500400","永和區"
"234042","862-TW","2019/11/08 20:29:39","新北市永和區安樂路282號","121.514451666667","25.0043833333333","6500400","永和區"
"234050","863-TW","2019/11/08 20:29:40","新北市永和區新生路138巷3弄1號","121.506501666667","25.0144916666667","6500400","永和區"
"249001","173-UM","2019/11/08 20:29:27","新北市八里區中山路三段106號","121.391018333333","25.1422883333333","6502300","八里區"
"249004","303-UY","2019/11/08 20:29:40","新北市八里區中山路一段129巷19-1號","121.413936666667","25.1586566666667","6502300","八里區"
"249002","305-UY","2019/11/08 20:29:29","新北市八里區龍米路二段58-1號","121.448175","25.141035","6502300","八里區"
"249003","593-UM","2019/11/08 20:29:37","新北市八里區舊城路21號","121.399848333333","25.1470666666667","6502300","八里區"
"248002","678-BX","2019/11/08 20:29:30","新北市五股區新五路二段333號","121.44374","25.087355","6501500","五股區"
"234023","9380-KE","2019/11/08 20:29:31","新北市永和區博愛街32巷17-1號","121.518886666667","25.0152783333333","6500400","永和區"
"234074","AAC-211","2019/11/08 20:29:34","新北市永和區竹林路119巷30弄1號","121.522075","25.0116866666667","6500400","永和區"
"234067","AAC-212","2019/11/08 20:29:40","新北市永和區保平路292巷4號","121.507933333333","25.0047966666667","6500400","永和區"
"243012","AAD-798","2019/11/08 20:27:43","新北市泰山區楓樹街33巷29號","121.434835","25.06357","6501600","泰山區"
"243010","297-R6","2019/11/08 20:18:25","新北市泰山區明志路二段254號","121.426946666667","25.0476383333333","6501600","泰山區"
"243014","KEA-2801","2019/11/08 20:29:39","新北市泰山區泰林路二段509號","121.424325","25.0638733333333","6501600","泰山區"
"243016","421-VK","2019/11/08 20:29:42","新北市泰山區文程路36-1號","121.42964","25.048595","6501600","泰山區"
"243009","KEA-2215","2019/11/08 20:29:22","新北市泰山區忠孝街16巷15號","121.428115","25.0650716666667","6501600","泰山區"
"243011","KEA-2216","2019/11/08 20:29:37","新北市泰山區明志路三段42巷18號","121.424156666667","25.0423366666667","6501600","泰山區"
"243013","646-TV","2019/11/08 20:29:41","新北市泰山區民國街24號","121.42573","25.0429916666667","6501600","泰山區"
"243015","680-BX","2019/11/08 20:29:25","新北市泰山區仁德路125號","121.432621666667","25.056135","6501600","泰山區"
"222003","436-BY","2019/11/08 20:29:30","新北市深坑區深坑街84號","121.614263333333","25.00156","6501800","深坑區"
"222002","659-BX","2019/11/08 20:29:27","新北市深坑區萬福路45號","121.599471666667","25.0068566666667","6501800","深坑區"
"231042","001-UM","2019/11/08 20:29:33","新北市新店區寶橋路236號","121.55158","24.97887","6500600","新店區"
"231061","002-UM","2019/11/08 20:29:33","新北市新店區安興路33-1號","121.515923333333","24.9704266666667","6500600","新店區"
"231058","0293-UT","2019/11/08 20:29:39","新北市新店區中央路31號","121.533001666667","24.9778666666667","6500600","新店區"
"231044","046-UY","2019/11/08 20:29:29","新北市新店區建國路168號","121.538318333333","24.97956","6500600","新店區"
"231060","106-UY","2019/11/08 20:29:34","新北市新店區錦秀路11巷96弄2號","121.48011","24.9421366666667","6500600","新店區"
"231051","107-UY","2019/11/08 20:29:42","新北市新店區中央七街24號","121.529653333333","24.9752033333333","6500600","新店區"
"231049","108-UY","2019/11/08 20:29:39","新北市新店區永業路81巷60號","121.529411666667","24.948105","6500600","新店區"
"231065","110-UY","2019/11/08 20:29:24","新北市新店區安祥路102巷46弄79號","121.48707","24.963305","6500600","新店區"
"231068","187-VK","2019/11/08 20:29:36","新北市新店區寶元路一段74巷21號","121.543041666667","24.9838816666667","6500600","新店區"
"231062","256-BX","2019/11/08 20:29:40","新北市新店區安泰路60巷13號","121.48376","24.9466833333333","6500600","新店區"
"231054","260-TV","2019/11/08 20:29:38","新北市新店區檳榔路111號","121.544518333333","24.96151","6500600","新店區"
"231064","278-BY","2019/11/08 20:29:37","新北市新店區新和街59巷17號","121.519273333333","24.98601","6500600","新店區"
"231050","AAD-862","2019/11/08 20:29:42","新北市新店區建國路51號","121.540555","24.9757266666667","6500600","新店區"
"231045","355-BY","2019/11/08 20:29:31","新北市新店區新坡一街4號","121.548686666667","24.961405","6500600","新店區"
"231056","4715-K9","2019/11/08 20:29:37","新北市新店區中央六街30號","121.529108333333","24.9751083333333","6500600","新店區"
"231067","4772-VM","2019/11/08 20:29:43","新北市新店區安華路28-1號","121.51964","24.9608433333333","6500600","新店區"
"231053","513-UM","2019/11/08 20:29:26","新北市新店區松林路38號","121.546346666667","24.9102066666667","6500600","新店區"
"231041","618-UM","2019/11/08 20:29:43","新北市新店區民權路133號","121.534926666667","24.9826316666667","6500600","新店區"
"231063","641-BX","2019/11/08 20:29:29","新北市新店區玫瑰路4-1號","121.493606666667","24.95138","6500600","新店區"
"231048","KED-0819","2019/11/08 20:29:26","新北市新店區寶元路一段15巷11號","121.542005","24.987215","6500600","新店區"
"231057","720-UM","2019/11/08 20:29:44","新北市新店區花園十路二段2號","121.555586666667","24.9333733333333","6500600","新店區"
"231059","897-TW","2019/11/08 20:29:34","新北市新店區安康路二段309-1號","121.501463333333","24.9571166666667","6500600","新店區"
"231040","898-TW","2019/11/08 20:29:29","新北市新店區三民路149-1號","121.533961666667","24.97317","6500600","新店區"
"231043","899-TW","2019/11/08 20:29:33","新北市新店區明德路67巷17號","121.540433333333","24.977095","6500600","新店區"
"231066","AKT-0513","2019/11/08 20:29:24","新北市新店區安興路83-8號","121.515243333333","24.9756766666667","6500600","新店區"
"241011","013-R5","2019/11/08 20:29:38","新北市三重區龍門路62號","121.496671666667","25.0725983333333","6500200","三重區"
"241028","022-UY","2019/11/08 20:29:35","新北市三重區光興街95號","121.4973","25.0598916666667","6500200","三重區"
"241008","059-VK","2019/11/08 20:29:24","新北市三重區下竹圍街42-1號","121.481076666667","25.0748933333333","6500200","三重區"
"241023","060-VK","2019/11/08 20:29:26","新北市三重區自由街16號","121.479865","25.0665216666667","6500200","三重區"
"241031","061-VK","2019/11/08 20:29:29","新北市三重區三寧街15號","121.489436666667","25.0598016666667","6500200","三重區"
"241015","062-VK","2019/11/08 20:29:24","新北市三重區長元街2-2號","121.498748333333","25.06593","6500200","三重區"
"241017","063-VK","2019/11/08 20:29:35","新北市三重區自強路一段288號","121.491641666667","25.0682","6500200","三重區"
"241024","065-VK","2019/11/08 20:29:39","新北市三重區三民街241號","121.479851666667","25.0674916666667","6500200","三重區"
"241007","066-VK","2019/11/08 20:29:26","新北市三重區自強路四段20號","121.488546666667","25.0763683333333","6500200","三重區"
"241002","090-VK","2019/11/08 20:29:29","新北市三重區仁義街211巷18號","121.497308333333","25.0821666666667","6500200","三重區"
"241003","091-VK","2019/11/08 20:29:33","新北市三重區分子尾街45號","121.489251666667","25.0820666666667","6500200","三重區"
"241009","742-BX","2019/11/08 20:29:38","新北市三重區三和路四段390巷61號","121.479176666667","25.0785033333333","6500200","三重區"
"241006","262-UM","2019/11/08 20:29:36","新北市三重區車路頭街139巷14號","121.484266666667","25.0762083333333","6500200","三重區"
"241016","266-UM","2019/11/08 20:29:38","新北市三重區正義北路190巷1號","121.496163333333","25.0668366666667","6500200","三重區"
"241018","268-UM","2019/11/08 20:29:25","新北市三重區正義北路155號","121.496493333333","25.06709","6500200","三重區"
"241032","269-UM","2019/11/08 20:29:28","新北市三重區重陽路一段120巷16號","121.485983333333","25.0599816666667","6500200","三重區"
"241013","270-UM","2019/11/08 20:29:38","新北市三重區三和路四段12號","121.491488333333","25.0739816666667","6500200","三重區"
"241025","271-UM","2019/11/08 20:29:36","新北市三重區頂崁街210巷23弄1號","121.475826666667","25.06817","6500200","三重區"
"241035","KEA-2210","2019/11/08 20:29:26","新北市三重區正義北路113號","121.496943333333","25.0655883333333","6500200","三重區"
"241030","KED-0822","2019/11/08 20:29:25","新北市三重區成功路75號","121.488568333333","25.0511466666667","6500200","三重區"
"241014","462-BY","2019/11/08 20:29:35","新北市三重區長興街98號","121.501756666667","25.06922","6500200","三重區"
"241004","475-VK","2019/11/08 20:29:22","新北市三重區溪尾街257號","121.487888333333","25.08183","6500200","三重區"
"241020","478-VK","2019/11/08 20:29:23","新北市三重區忠孝路一段21號","121.492001666667","25.0718716666667","6500200","三重區"
"241026","480-VK","2019/11/08 20:29:28","新北市三重區環河南路23號","121.503613333333","25.062295","6500200","三重區"
"241001","547-UM","2019/11/08 20:29:42","新北市三重區三和路四段160巷87號","121.48543","25.0748716666667","6500200","三重區"
"241019","KEA-2593","2019/11/08 20:29:34","新北市三重區重陽路四段77號","121.49256","25.0709683333333","6500200","三重區"
"241005","AAD-863","2019/11/08 20:29:35","新北市三重區五華街167號","121.490285","25.085095","6500200","三重區"
"241012","743-BX","2019/11/08 20:29:36","新北市三重區龍濱路281-2號","121.50129","25.0734233333333","6500200","三重區"
"241022","KED-0820","2019/11/08 20:29:31","新北市三重區過圳街27-5號","121.487978333333","25.0624266666667","6500200","三重區"
"241029","942-UM","2019/11/08 20:29:35","新北市三重區集美街116號","121.48869","25.0539266666667","6500200","三重區"
"241033","AAC-255","2019/11/08 20:29:28","新北市三重區五谷王北街80巷5號","121.475831666667","25.0531833333333","6500200","三重區"
"235055","183-VK","2019/11/08 20:29:27","新北市林口區太平里180號","121.366441666667","25.1344516666667","6500300","中和區"
"247016","KEA-2869","2019/11/08 20:29:44","新北市蘆洲區光華路71號","121.46803","25.0826783333333","6501400","蘆洲區"
"247010","KED-0682","2019/11/08 20:29:31","新北市蘆洲區民族路75號","121.479271666667","25.0859633333333","6501400","蘆洲區"
"235050","4979-A6","2019/11/08 20:29:28","新北市中和區景新街133號","121.505801666667","24.9972166666667","6500300","中和區"
"235069","4980-A6","2019/11/08 20:29:39","新北市中和區中正路456號","121.490703333333","24.994245","6500300","中和區"
"235059","AAC-215","2019/11/08 20:29:23","新北市中和區員山路49-7號","121.480676666667","24.9914216666667","6500300","中和區"
"220065","072-UY","2019/11/08 20:29:34","新北市樹林區八德街247巷24-1號","121.421125","24.9740566666667","6500100","板橋區"
"247006","893-R6","2019/11/08 20:29:24","新北市蘆洲區和平路121巷14弄38號","121.466136666667","25.08021","6501400","蘆洲區"
"247020","546-UM","2019/11/08 20:29:29","新北市蘆洲區水湳街395號","121.469265","25.094475","6501400","蘆洲區"
"247024","500-BY","2019/11/08 20:29:44","新北市蘆洲區光復路78號","121.464395","25.08544","6501400","蘆洲區"
"247004","341-TH","2019/11/08 20:29:28","新北市蘆洲區長安街222號","121.458281666667","25.0847933333333","6501400","蘆洲區"
"247014","056-VK","2019/11/08 20:29:41","新北市蘆洲區中山二路38號","121.474443333333","25.0821016666667","6501400","蘆洲區"
"247018","053-VK","2019/11/08 20:29:30","新北市蘆洲區民族路336巷26號","121.477638333333","25.0911183333333","6501400","蘆洲區"
"247022","007-UY","2019/11/08 20:29:27","新北市蘆洲區中正路239號","121.467981666667","25.08665","6501400","蘆洲區"
"247008","002-UY","2019/11/08 20:29:31","新北市蘆洲區永安北路二段76巷15號","121.482713333333","25.0852183333333","6501400","蘆洲區"
"247002","001-UY","2019/11/08 20:29:39","新北市蘆洲區環堤大道128號","121.455566666667","25.0877466666667","6501400","蘆洲區"
"222001","KEA-2212","2019/11/08 20:29:21","新北市深坑區北深路三段272號","121.598306666667","25.0047433333333","6501800","深坑區"
"251001","011-UM","2019/11/08 20:29:35","新北市淡水區新市一路三段8號","121.445025","25.1829133333333","6501000","淡水區"
"251008","181-VK","2019/11/08 20:29:42","新北市淡水區淡海路189巷10號","121.419776666667","25.18444","6501000","淡水區"
"251010","413-VK","2019/11/08 20:29:35","新北市淡水區沙崙路181巷1號","121.42402","25.1843483333333","6501000","淡水區"
"251012","441-VK","2019/11/08 20:29:29","新北市淡水區頂田寮路58號","121.455206666667","25.2163933333333","6501000","淡水區"
"251006","561-UM","2019/11/08 20:29:34","新北市淡水區商工路393號","121.474766666667","25.1848183333333","6501000","淡水區"
"251002","672-BX","2019/11/08 20:29:33","新北市淡水區中正路27號","121.442473333333","25.1695566666667","6501000","淡水區"
"251003","766-UM","2019/11/08 20:29:33","新北市淡水區新民街21號","121.43937","25.1751916666667","6501000","淡水區"
"207004","291-VK","2019/11/08 20:29:39","新北市萬里區北基里忠二街13號","121.684913333333","25.1753933333333","6502800","萬里區"
"252002","178-VK","2019/11/08 20:29:25","新北市三芝區淡金路二段47-2號","121.503718333333","25.260485","6502100","三芝區"
"236030","253-BX","2019/11/08 20:29:24","新北市土城區城林路6巷80號","121.438535","24.9800416666667","6501300","土城區"
"236014","270-VK","2019/11/08 20:29:31","新北市板橋區四川路二段140巷16弄13號","121.44891","24.9935783333333","6501300","土城區"
"247012","KED-0683","2019/11/08 20:29:32","新北市蘆洲區復興路262號","121.480118333333","25.0896866666667","6501400","蘆洲區"
"252001","KED-0821","2019/11/08 20:29:27","新北市三芝區中山路一段34號","121.500801666667","25.2576466666667","6502100","三芝區"
"242041","AAC-296","2019/11/08 20:29:33","新北市新莊區天祥街54巷2弄1號","121.416638333333","25.0292016666667","6500500","新莊區"
"242060","986-R7","2019/11/08 20:29:22","新北市新莊區民安東路139巷21號","121.431071666667","25.021875","6500500","新莊區"
"242005","751-BX","2019/11/08 20:29:45","新北市新莊區頭前路38號","121.46737","25.052505","6500500","新莊區"
"242029","615-BX","2019/11/08 20:29:35","新北市新莊區昌平街1號","121.454553333333","25.0513633333333","6500500","新莊區"
"242027","613-BX","2019/11/08 20:29:30","新北市新莊區幸福路602號","121.452106666667","25.0493466666667","6500500","新莊區"
"242058","612-BX","2019/11/08 20:29:33","新北市新莊區四維路169號","121.422415","25.021595","6500500","新莊區"
"242048","566-BX","2019/11/08 20:29:43","新北市新莊區成功街206號","121.421268333333","25.0180083333333","6500500","新莊區"
"242054","497-BY","2019/11/08 20:29:31","新北市新莊區西盛街344巷20號","121.427348333333","25.0141833333333","6500500","新莊區"
"242013","442-UM","2019/11/08 20:29:27","新北市新莊區中平路302巷10號","121.445321666667","25.0519266666667","6500500","新莊區"
"242002","441-UM","2019/11/08 20:29:34","新北市新莊區中正路82-1號","121.457005","25.0372833333333","6500500","新莊區"
"242044","415-TV","2019/11/08 20:29:30","新北市新莊區中正路新建巷17號","121.414163333333","25.02237","6500500","新莊區"
"242025","362-BY","2019/11/08 20:29:42","新北市新莊區五工二路50巷23號","121.461673333333","25.06604","6500500","新莊區"
"242023","353-BY","2019/11/08 20:29:35","新北市新莊區化成路547號","121.465056666667","25.064805","6500500","新莊區"
"242015","132-UY","2019/11/08 20:29:40","新北市新莊區中平路46巷32號","121.44602","25.0438183333333","6500500","新莊區"
"242039","135-UY","2019/11/08 20:29:39","新北市新莊區民安路357號","121.43125","25.0230466666667","6500500","新莊區"
"242056","172-VK","2019/11/08 20:29:37","新北市新莊區瓊泰路205號","121.443105","25.0323066666667","6500500","新莊區"
"242017","173-VK","2019/11/08 20:29:37","新北市新莊區中港二街52號","121.450313333333","25.046035","6500500","新莊區"
"242032","175-VK","2019/11/08 20:29:30","新北市新莊區中正路508巷18號","121.438666666667","25.0348833333333","6500500","新莊區"
"242021","KED-0687","2019/11/08 20:29:39","新北市新莊區公園路10巷1號","121.4479","25.0387566666667","6500500","新莊區"
"242007","346-TH","2019/11/08 20:29:22","新北市新莊區思源路335號","121.459771666667","25.0497833333333","6500500","新莊區"
"242050","347-TH","2019/11/08 20:29:31","新北市新莊區民安西路189巷12號","121.426551666667","25.01529","6500500","新莊區"
"242037","348-TH","2019/11/08 20:29:29","新北市新莊區後港一路46巷4號","121.426123333333","25.0259133333333","6500500","新莊區"
"242009","349-TH","2019/11/08 20:29:37","新北市新莊區昌隆街94號","121.456135","25.0507066666667","6500500","新莊區"
"242034","350-TH","2019/11/08 20:29:26","新北市新莊區中正路334巷27號","121.445526666667","25.0358966666667","6500500","新莊區"
"242019","351-TH","2019/11/08 20:29:44","新北市新莊區銘德街49巷4弄2號","121.45726","25.0431766666667","6500500","新莊區"
"221008","489-VK","2019/11/08 20:29:38","新北市汐止區康寧街60號","121.618915","25.0665783333333","6501100","汐止區"
"221036","130-UY","2019/11/08 20:29:39","新北市汐止區仁愛路151巷26號","121.663355","25.0652616666667","6501100","汐止區"
"221015","131-UY","2019/11/08 20:29:40","新北市汐止區建成路160巷41號","121.661691666667","25.07407","6501100","汐止區"
"221010","269-BY","2019/11/08 20:29:34","新北市汐止區八連路二段231號","121.632963333333","25.095835","6501100","汐止區"
"221012","278-VK","2019/11/08 20:29:29","新北市汐止區汐平路二段66號","121.69834","25.0610716666667","6501100","汐止區"
"221023","279-VK","2019/11/08 20:29:38","新北市汐止區明峰街109號","121.631283333333","25.0711166666667","6501100","汐止區"
"221032","280-BY","2019/11/08 20:29:42","新北市汐止區弘道街53巷11號","121.618658333333","25.0489683333333","6501100","汐止區"
"221029","298-VK","2019/11/08 20:29:31","新北市汐止區樟樹一路129巷34弄13號","121.640415","25.0650383333333","6501100","汐止區"
"221021","299-VK","2019/11/08 20:29:38","新北市汐止區水源路一段286號","121.65419","25.0582233333333","6501100","汐止區"
"221031","353-TW","2019/11/08 20:29:37","新北市汐止區中興路150巷13號","121.632986666667","25.064985","6501100","汐止區"
"221035","622-UM","2019/11/08 20:29:42","新北市汐止區長江街97號","121.658153333333","25.0728333333333","6501100","汐止區"
"221025","623-UM","2019/11/08 20:29:29","新北市汐止區水源路二段88巷1弄9號","121.656593333333","25.0554483333333","6501100","汐止區"
"221038","646-BX","2019/11/08 20:29:27","新北市汐止區新興路3號","121.656305","25.0652866666667","6501100","汐止區"
"221033","647-BX","2019/11/08 20:29:29","新北市汐止區林森街69巷2號","121.623075","25.0407266666667","6501100","汐止區"
"221002","707-TV","2019/11/08 20:29:38","新北市汐止區福德二路110號","121.631968333333","25.0659666666667","6501100","汐止區"
"221018","753-BX","2019/11/08 20:24:46","新北市汐止區茄苳路225巷6號","121.671235","25.0690216666667","6501100","汐止區"
"220083","286-VK","2019/11/08 20:29:40","新北市板橋區僑中二街104巷11號","121.445446666667","25.0079416666667","6500100","板橋區"
"220081","287-VK","2019/11/08 20:29:26","新北市板橋區大觀路二段142號","121.44273","24.9990666666667","6500100","板橋區"
"242046","281-VK","2019/11/08 20:29:34","新北市新莊區中正路新雅巷5號","121.417938333333","25.025405","6500500","新莊區"
"242011","280-VK","2019/11/08 20:29:40","新北市新莊區中義街26號","121.450551666667","25.0511983333333","6500500","新莊區"
"235068","KEA-2873","2019/11/08 20:29:33","新北市中和區永和路126號","121.49659","25.0067433333333","6500300","中和區"
