"lineid","car","time","location","longitude","latitude","cityid","cityname"
"231063","641-BX","2019/11/08 21:29:29","新北市新店區玫瑰路10號","121.494421666667","24.9506783333333","6500600","新店區"
"241017","063-VK","2019/11/08 21:29:35","新北市三重區中正北路25巷2號","121.493268333333","25.0626866666667","6500200","三重區"
"241024","065-VK","2019/11/08 21:29:39","新北市三重區中正北路145巷8弄2號","121.484058333333","25.0677683333333","6500200","三重區"
"241007","066-VK","2019/11/08 21:29:26","新北市三重區信義西街140號","121.495445","25.0640933333333","6500200","三重區"
"241003","091-VK","2019/11/08 21:29:38","新北市三重區進安街196號","121.49376","25.086145","6500200","三重區"
"241030","KED-0822","2019/11/08 21:29:24","新北市八里區荖阡坑路15-66號","121.398686666667","25.14028","6500200","三重區"
"241005","AAD-863","2019/11/08 21:29:34","新北市三重區碧華街1號","121.483565","25.0812216666667","6500200","三重區"
"241012","743-BX","2019/11/08 21:29:36","新北市三重區重光街105-2號","121.467225","25.0649033333333","6500200","三重區"
"247006","893-R6","2019/11/08 21:29:24","新北市五股區天乙路102-18號","121.447618333333","25.1071216666667","6501400","蘆洲區"
"247008","002-UY","2019/11/08 21:29:31","新北市五股區芳洲九路36號","121.447811666667","25.0875183333333","6501400","蘆洲區"
"251004","009-UM","2019/11/08 21:29:25","新北市淡水區民權路119號","121.460123333333","25.1369333333333","6501000","淡水區"
"251005","010-UM","2019/11/08 21:29:23","新北市淡水區水源街一段52-1號","121.444181666667","25.17221","6501000","淡水區"
"251001","011-UM","2019/11/08 21:29:35","新北市淡水區新市二路三段22號","121.433033333333","25.1928366666667","6501000","淡水區"
"251008","181-VK","2019/11/08 21:29:41","新北市淡水區水源街二段118-1號","121.452946666667","25.1746233333333","6501000","淡水區"
"251010","413-VK","2019/11/08 21:29:35","新北市淡水區沙崙路25巷21號","121.420628333333","25.1824716666667","6501000","淡水區"
"251012","441-VK","2019/11/08 21:29:29","新北市淡水區淡金路五段35巷46號","121.452518333333","25.23475","6501000","淡水區"
"251006","561-UM","2019/11/08 21:29:32","新北市淡水區公明街63號","121.443628333333","25.16859","6501000","淡水區"
"251009","575-R6","2019/11/08 21:29:26","新北市淡水區民族路31巷90號","121.46343","25.136855","6501000","淡水區"
"251011","650-BX","2019/11/08 21:29:36","新北市淡水區新民街158號","121.437181666667","25.1783366666667","6501000","淡水區"
"251002","672-BX","2019/11/08 21:29:33","新北市淡水區學府路172巷21號","121.448245","25.17481","6501000","淡水區"
"251003","766-UM","2019/11/08 21:29:32","新北市淡水區新春街65巷15號","121.437716666667","25.1825583333333","6501000","淡水區"
"242009","349-TH","2019/11/08 21:29:37","新北市林口區太平里180號","121.368241666667","25.1344233333333","6500500","新莊區"
