"lineid","car","time","location","longitude","latitude","cityid","cityname"
"241012","743-BX","2019/11/08 21:59:36","新北市八里區中華路三段7巷5號","121.39733","25.14378","6500200","三重區"
"251004","009-UM","2019/11/08 21:59:25","新北市淡水區民權路229號","121.459631666667","25.1298533333333","6501000","淡水區"
"251005","010-UM","2019/11/08 21:59:43","新北市淡水區鄧公路30巷1弄65號","121.45445","25.1696266666667","6501000","淡水區"
"251008","181-VK","2019/11/08 21:59:41","新北市淡水區學府路104號","121.449886666667","25.17184","6501000","淡水區"
"251010","413-VK","2019/11/08 21:59:35","新北市淡水區中正路二段206號","121.426226666667","25.1890933333333","6501000","淡水區"
"251007","442-VK","2019/11/08 21:59:34","新北市淡水區北新路184巷19號","121.450293333333","25.1780633333333","6501000","淡水區"
"251006","561-UM","2019/11/08 21:43:55","新北市淡水區中正路11巷3號","121.437881666667","25.17073","6501000","淡水區"
"251011","650-BX","2019/11/08 21:59:36","新北市淡水區水碓街3號","121.442958333333","25.1768816666667","6501000","淡水區"
"251003","766-UM","2019/11/08 21:59:32","新北市淡水區新春街89號","121.439018333333","25.182645","6501000","淡水區"
