"lineid","car","time","location","longitude","latitude","cityid","cityname"
"232009","291-BY","2019/11/09 06:43:41","新北市坪林區鶯子瀨1-2號","121.70942","24.9181116666667","6502000","坪林區"
"232010","375-UM","2019/11/09 06:43:31","新北市坪林區北宜路八段558號","121.718021666667","24.9092616666667","6502000","坪林區"
"232016","705-BZ","2019/11/09 06:43:33","新北市坪林區北宜路八段558號","121.718191666667","24.9093316666667","6502000","坪林區"
"232004","758-BX","2019/11/09 06:43:37","新北市坪林區北宜路八段451號","121.706926666667","24.9235116666667","6502000","坪林區"
"244005","248-BX","2019/11/09 06:43:42","新北市林口區粉寮路二段160巷28號","121.40514","25.0907583333333","6501700","林口區"
"223006","022-BY","2019/11/09 06:43:26","新北市石碇區八分寮55-5號","121.645083333333","25.01649","6501900","石碇區"
"223002","KEA-2673","2019/11/09 06:43:40","新北市石碇區摸乳巷8-2號","121.65921","24.9807833333333","6501900","石碇區"
"223003","205-TH","2019/11/09 06:43:26","新北市石碇區湳窟26號","121.66184","24.9916733333333","6501900","石碇區"
"223004","437-BY","2019/11/09 06:43:28","新北市石碇區小粗坑(潭邊里)1-3號","121.672863333333","24.9831883333333","6501900","石碇區"
"223001","592-UM","2019/11/09 06:43:36","新北市石碇區湳窟26號","121.662425","24.9918983333333","6501900","石碇區"
"223007","661-BX","2019/11/09 06:43:36","新北市石碇區雙溪52號","121.6518","25.006415","6501900","石碇區"
"227004","282-VK","2019/11/09 06:43:29","新北市雙溪區新基里朝陽街7號","121.86615","25.038545","6502500","雙溪區"
