"lineid","car","time","location","longitude","latitude","cityid","cityname"
"234078","298-R6","2019/07/27 12:29:41","新北市永和區福和路1號","121.526251666667","25.00967","6500400","永和區"
"234084","338-UY","2019/07/27 12:29:28","新北市永和區福和路8巷1號","121.525025","25.0090383333333","6500400","永和區"
"234015","745-BX","2019/07/27 12:29:25","新北市永和區福和路1號","121.526345","25.009635","6500400","永和區"
"234012","KEA-2591","2019/07/27 12:29:34","新北市永和區福和路1號","121.526351666667","25.0094916666667","6500400","永和區"
"234040","862-TW","2019/07/27 12:29:40","","121.525593333333","25.0094","6500400","永和區"
"234022","9380-KE","2019/07/27 12:29:41","新北市永和區福和路1號","121.52638","25.0096516666667","6500400","永和區"
"234076","969-R7","2019/07/27 12:29:29","新北市永和區福和路1號","121.52642","25.009645","6500400","永和區"
"235031","255-BX","2019/07/27 12:29:39","新北市中和區和城路一段271巷1號","121.485603333333","24.9918083333333","6500300","中和區"
"235073","800-TS","2019/07/27 12:29:27","新北市中和區員山路36巷16-3號","121.485198333333","24.9911233333333","6500300","中和區"
"228005","097-TW","2019/07/27 12:29:37","新北市貢寮區福連里蓬萊街15號","121.994163333333","25.0019216666667","6502600","貢寮區"
"228004","212-TW","2019/07/27 12:29:40","新北市貢寮區龍崗里嵩陽街2-1號","121.902541666667","25.0159616666667","6502600","貢寮區"
"207002","749-BX","2019/07/27 12:29:27","新北市萬里區中幅里大湖路6號","121.660561666667","25.1711433333333","6502800","萬里區"
"235025","KEA-2875","2019/07/27 12:25:48","新北市中和區和城路一段271巷1號","121.485563333333","24.99168","6500300","中和區"
