"lineid","car","time","location","longitude","latitude","cityid","cityname"
"234044","148-BY","2019/07/27 13:19:42","新北市永和區得和路361號","121.524561666667","24.99945","6500400","永和區"
"234078","298-R6","2019/07/27 13:19:41","新北市永和區福和路7巷2號","121.524956666667","25.0082733333333","6500400","永和區"
"234036","336-UY","2019/07/27 13:19:33","新北市永和區民樂街70號","121.52736","24.9983216666667","6500400","永和區"
"234062","337-UY","2019/07/27 13:19:38","新北市永和區永元路17巷12號","121.521481666667","25.0009483333333","6500400","永和區"
"234084","338-UY","2019/07/27 13:19:30","新北市永和區永利路69號","121.519483333333","25.0050283333333","6500400","永和區"
"234015","745-BX","2019/07/27 13:19:45","新北市永和區環河西路一段85巷4弄20號","121.512111666667","25.0169233333333","6500400","永和區"
"234028","746-BX","2019/07/27 13:19:46","新北市永和區厚德街91號","121.523883333333","24.998845","6500400","永和區"
"234052","KEA-2590","2019/07/27 13:19:45","新北市永和區中興街32號","121.516276666667","25.011755","6500400","永和區"
"234005","KED-0605","2019/07/27 13:19:39","新北市中和區中山路二段47號","121.504451666667","25.00496","6500400","永和區"
"234012","KEA-2591","2019/07/27 13:19:34","新北市永和區信義路23號","121.51381","25.0122366666667","6500400","永和區"
"234060","AAD-866","2019/07/27 13:19:24","新北市永和區秀朗路一段175號","121.517013333333","25.0036916666667","6500400","永和區"
"234068","748-BX","2019/07/27 13:19:45","新北市永和區豫溪街57巷2號","121.517351666667","25.0100883333333","6500400","永和區"
"234040","862-TW","2019/07/27 13:19:40","新北市永和區保平路151巷2弄4號","121.50991","25.0055166666667","6500400","永和區"
"234048","863-TW","2019/07/27 13:19:28","新北市永和區仁愛路138號","121.51118","25.0135416666667","6500400","永和區"
"234025","9371-KE","2019/07/27 13:19:27","新北市永和區豫溪街42巷6號","121.51543","25.0095033333333","6500400","永和區"
"234010","9373-KE","2019/07/27 13:19:38","新北市永和區忠孝街34巷18號","121.514473333333","25.016785","6500400","永和區"
"248017","KED-0813","2019/07/27 13:19:36","新北市五股區御史路136號","121.433646666667","25.0987066666667","6501500","五股區"
"234022","9380-KE","2019/07/27 13:19:41","新北市永和區竹林路100-1號","121.519586666667","25.0120033333333","6500400","永和區"
"234076","969-R7","2019/07/27 13:19:29","新北市永和區民有街63號","121.517648333333","24.99586","6500400","永和區"
"234072","AAC-211","2019/07/27 13:19:25","新北市永和區竹林路30-1號","121.51699","25.0146966666667","6500400","永和區"
"234066","AAC-212","2019/07/27 13:19:28","新北市永和區保平路50巷13號","121.510946666667","25.0075283333333","6500400","永和區"
"234001","AAC-295","2019/07/27 13:19:40","新北市永和區保福路一段80號","121.512365","25.0101966666667","6500400","永和區"
"244005","248-BX","2019/07/27 13:19:35","新北市林口區南勢街420-1號","121.35531","25.0775766666667","6501700","林口區"
"231030","002-UM","2019/07/27 13:19:31","新北市新店區安華路28-1號","121.519695","24.9607866666667","6500600","新店區"
"231024","0291-UT","2019/07/27 13:19:32","新北市新店區秀山路72號","121.531285","24.960895","6500600","新店區"
"231027","0293-UT","2019/07/27 13:19:31","新北市新店區安康路一段355-3號","121.519815","24.9626083333333","6500600","新店區"
"231029","106-UY","2019/07/27 13:19:43","新北市新店區安華路28-1號","121.51951","24.9608","6500600","新店區"
"231018","107-UY","2019/07/27 13:19:32","新北市新店區秀山路68號","121.530935","24.9609783333333","6500600","新店區"
"231036","110-UY","2019/07/27 13:19:44","新北市新店區建業路15號","121.482471666667","24.952655","6500600","新店區"
"231033","256-BX","2019/07/27 13:19:26","新北市新店區安一路一段1-1號","121.519716666667","24.9612133333333","6500600","新店區"
"231023","260-TV","2019/07/27 13:19:37","新北市新店區安一路一段1-1號","121.519316666667","24.9612933333333","6500600","新店區"
"231003","268-BY","2019/07/27 13:19:27","新北市新店區中正路71號","121.543511666667","24.9697566666667","6500600","新店區"
"231035","278-BY","2019/07/27 13:19:27","新北市新店區安一路一段1-1號","121.519521666667","24.9611783333333","6500600","新店區"
"231017","AAD-862","2019/07/27 13:19:43","新北市新店區安一路一段1-1號","121.519741666667","24.961405","6500600","新店區"
"231006","355-BY","2019/07/27 13:19:37","新北市新店區安華路28-1號","121.519181666667","24.9607366666667","6500600","新店區"
"231038","3712-VJ","2019/07/27 13:19:29","新北市新店區安華路28-1號","121.51945","24.9608316666667","6500600","新店區"
"231025","4715-K9","2019/07/27 13:19:28","新北市新店區中央路135號","121.530365","24.9737766666667","6500600","新店區"
"231020","513-UM","2019/07/27 13:19:43","新北市新店區安康路一段9-2號","121.533745","24.9605083333333","6500600","新店區"
"231001","617-UM","2019/07/27 13:19:39","新北市新店區安華路28-1號","121.519411666667","24.96088","6500600","新店區"
"231002","619-UM","2019/07/27 13:19:28","新北市新店區安華路28-1號","121.51949","24.9608966666667","6500600","新店區"
"231034","641-BX","2019/07/27 13:19:29","新北市新店區安華路1-1號","121.519406666667","24.9604016666667","6500600","新店區"
"231012","KED-0819","2019/07/27 13:19:30","新北市新店區安一路一段1-1號","121.519826666667","24.9611616666667","6500600","新店區"
"231010","719-UM","2019/07/27 13:19:31","新北市新店區安康路一段124號","121.526906666667","24.9626533333333","6500600","新店區"
"231026","720-UM","2019/07/27 13:19:33","新北市新店區安一路一段1-1號","121.519383333333","24.9616516666667","6500600","新店區"
"231028","897-TW","2019/07/27 13:19:33","新北市新店區安華路28-1號","121.519758333333","24.9606466666667","6500600","新店區"
"231004","899-TW","2019/07/27 13:19:27","新北市新店區安華路28-1號","121.519355","24.96079","6500600","新店區"
"231037","AKT-0513","2019/07/27 13:19:37","新北市新店區安華路1-1號","121.519458333333","24.9604833333333","6500600","新店區"
"235030","003-UY","2019/07/27 13:19:28","新北市中和區中山路二段119號","121.502921666667","25.0037183333333","6500300","中和區"
"235028","005-UY","2019/07/27 13:19:37","新北市中和區圓通路145巷9弄3號","121.498726666667","24.9946766666667","6500300","中和區"
"235027","006-UY","2019/07/27 13:19:42","新北市中和區中正路585號","121.48588","24.9944866666667","6500300","中和區"
"235020","096-UM","2019/07/27 13:19:26","新北市中和區連城路308號","121.483623333333","24.9962616666667","6500300","中和區"
"235003","097-UM","2019/07/27 13:19:43","新北市中和區安平路38號","121.50997","24.9949983333333","6500300","中和區"
"235029","098-UM","2019/07/27 13:19:36","新北市中和區莊敬路49巷20弄20號","121.502641666667","25.005825","6500300","中和區"
"235022","151-BY","2019/07/27 13:19:43","新北市中和區圓通路369巷51號","121.490006666667","24.98409","6500300","中和區"
"235019","183-VK","2019/07/27 13:19:34","新北市中和區莒光路220號","121.470095","24.9959616666667","6500300","中和區"
"235002","185-VK","2019/07/27 13:19:41","新北市中和區大智街42巷1-7號","121.522103333333","24.99217","6500300","中和區"
"235013","186-VK","2019/07/27 13:19:43","新北市中和區錦和路350-1號","121.490493333333","24.9935983333333","6500300","中和區"
"235031","255-BX","2019/07/27 13:19:39","新北市中和區連城路340巷14弄19號","121.482838333333","24.9971583333333","6500300","中和區"
"235036","301-VK","2019/07/27 13:19:34","新北市中和區連城路263巷4弄2號","121.491526666667","24.9958866666667","6500300","中和區"
"235007","352-BY","2019/07/27 13:19:34","新北市中和區景平路381號","121.503793333333","24.9932916666667","6500300","中和區"
"235006","KEA-2878","2019/07/27 13:19:27","新北市中和區景平路159巷33號","121.513065","24.9910283333333","6500300","中和區"
"247013","KEA-2869","2019/07/27 13:19:35","新北市五股區中興路三段163號","121.449145","25.0807866666667","6501400","蘆洲區"
"235014","4979-A6","2019/07/27 13:19:24","新北市中和區南山路325號","121.505166666667","24.99125","6500300","中和區"
"235033","4980-A6","2019/07/27 13:19:43","新北市中和區圓通路299巷2號","121.49506","24.9912983333333","6500300","中和區"
"235005","551-UM","2019/07/27 13:19:36","新北市中和區中和路302-1號","121.508721666667","24.999895","6500300","中和區"
"235034","558-UM","2019/07/27 13:19:33","新北市中和區景平路598號","121.50087","24.9962616666667","6500300","中和區"
"235009","565-BX","2019/07/27 13:19:36","新北市中和區復興路42號","121.504713333333","24.9901","6500300","中和區"
"235024","KED-0823","2019/07/27 13:19:27","新北市中和區員山路283號","121.481251666667","24.9997266666667","6500300","中和區"
"235018","640-BX","2019/07/27 13:19:44","新北市中和區民享街86巷4號","121.474225","25.0009283333333","6500300","中和區"
"235011","732-UM","2019/07/27 13:19:35","新北市中和區錦和路350-1號","121.490308333333","24.9935116666667","6500300","中和區"
"235010","733-UM","2019/07/27 13:19:42","新北市中和區錦和路350-1號","121.490248333333","24.9935366666667","6500300","中和區"
"235035","783-BX","2019/07/27 13:19:31","新北市中和區中板路18巷3弄18號","121.483491666667","25.0133116666667","6500300","中和區"
"235073","800-TS","2019/07/27 13:19:37","新北市中和區景平路989巷4-2號","121.495441666667","25.0055516666667","6500300","中和區"
"235021","801-TS","2019/07/27 13:19:38","新北市中和區民享街97巷11號","121.47531","24.999505","6500300","中和區"
"235016","805-TS","2019/07/27 13:19:38","新北市中和區興南路二段29號","121.507731666667","24.9858733333333","6500300","中和區"
"235012","896-TW","2019/07/27 13:19:38","新北市中和區員山路36巷16-2號","121.485215","24.9915283333333","6500300","中和區"
"235017","900-TW","2019/07/27 13:19:39","新北市中和區員山路36巷16-2號","121.485201666667","24.99151","6500300","中和區"
"235005","911-UM","2019/07/27 13:19:35","新北市中和區員山路36巷16-2號","121.48531","24.991775","6500300","中和區"
"235015","157-BY","2019/07/27 13:19:32","新北市中和區忠孝街60巷2弄2號","121.511621666667","24.983735","6500300","中和區"
"235001","AAC-213","2019/07/27 13:19:40","新北市中和區景新街383巷48-1號","121.514355","24.9908833333333","6500300","中和區"
"235023","AAC-215","2019/07/27 13:19:34","新北市中和區員山路36巷16-3號","121.485095","24.9912833333333","6500300","中和區"
"247007","341-TH","2019/07/27 13:19:43","新北市五股區中興路三段2巷10號","121.449275","25.0811","6501400","蘆洲區"
"247023","337-TH","2019/07/27 13:19:31","新北市五股區中興路三段163號","121.449293333333","25.0807933333333","6501400","蘆洲區"
"247011","056-VK","2019/07/27 13:19:45","新北市五股區中興路三段2巷10號","121.449278333333","25.0810466666667","6501400","蘆洲區"
"228005","097-TW","2019/07/27 13:19:37","新北市貢寮區美豐里丹裡街18-2號","121.91235","25.0573566666667","6502600","貢寮區"
"228004","212-TW","2019/07/27 13:19:40","新北市貢寮區吉林里內寮街21號","121.901578333333","24.983695","6502600","貢寮區"
"253003","6232-TK","2019/07/27 13:19:39","新北市石門區石崩山20-2號","121.567146666667","25.2732966666667","6502200","石門區"
"253004","6251-TK","2019/07/27 13:19:35","新北市石門區竹子湖1號","121.613095","25.2671166666667","6502200","石門區"
"253002","637-UY","2019/07/27 13:19:36","新北市石門區大溪墘9-1號","121.552633333333","25.27404","6502200","石門區"
"253001","KEC-0718","2019/07/27 13:19:39","新北市石門區崁子腳1-1號","121.531868333333","25.2879983333333","6502200","石門區"
"207002","749-BX","2019/07/27 13:19:27","新北市萬里區崁腳里內崁路2號","121.638093333333","25.1609716666667","6502800","萬里區"
"252005","073-UM","2019/07/27 13:19:32","新北市三芝區八賢里八連溪63-1號","121.517178333333","25.2316083333333","6502100","三芝區"
"207001","662-BX","2019/07/27 13:19:34","新北市萬里區龜吼里玉田路29號","121.680793333333","25.194795","6502800","萬里區"
"221029","298-VK","2019/07/27 13:19:32","新北市汐止區福德二路359巷7號","121.62406","25.063375","6501100","汐止區"
"220012","AAC-253","2019/07/27 13:19:42","新北市板橋區華東街1-10號","121.448383333333","24.994935","6500100","板橋區"
"235032","KEA-2873","2019/07/27 13:19:24","新北市中和區員山路36巷16-3號","121.484925","24.9912383333333","6500300","中和區"
"235025","KEA-2875","2019/07/27 13:19:39","新北市中和區民享街97巷11號","121.475278333333","24.99948","6500300","中和區"
