"lineid","car","time","location","longitude","latitude","cityid","cityname"
"234044","148-BY","2019/07/27 14:09:41","新北市永和區得和路327號","121.523486666667","24.9996416666667","6500400","永和區"
"234078","298-R6","2019/07/27 14:09:41","新北市永和區林森路112巷12弄2號","121.522375","25.0043133333333","6500400","永和區"
"234036","336-UY","2019/07/27 14:09:33","新北市永和區成功路一段47巷28號","121.527656666667","25.0038766666667","6500400","永和區"
"234062","337-UY","2019/07/27 14:09:38","新北市永和區永利路81巷7號","121.52168","25.0039583333333","6500400","永和區"
"234084","338-UY","2019/07/27 14:09:28","新北市永和區福和路278號","121.517776666667","25.0075033333333","6500400","永和區"
"234015","745-BX","2019/07/27 14:09:45","新北市永和區仁愛路46號","121.51409","25.0134033333333","6500400","永和區"
"234028","746-BX","2019/07/27 14:09:30","新北市永和區民權路49巷5弄8號","121.520801666667","24.9975","6500400","永和區"
"234052","KEA-2590","2019/07/27 14:09:44","新北市永和區博愛街31巷2號","121.518408333333","25.0158933333333","6500400","永和區"
"234005","KED-0605","2019/07/27 14:09:39","新北市中和區保平路326巷1號","121.507151666667","25.004215","6500400","永和區"
"234012","KEA-2591","2019/07/27 14:09:34","新北市永和區中山路一段214號","121.508455","25.0084216666667","6500400","永和區"
"234060","AAD-866","2019/07/27 14:09:44","新北市永和區安樂路100巷5號","121.514196666667","24.9993966666667","6500400","永和區"
"234068","748-BX","2019/07/27 14:09:45","新北市永和區福和路183巷1號","121.519931666667","25.0073983333333","6500400","永和區"
"234040","862-TW","2019/07/27 14:09:40","新北市永和區水源街45巷14號","121.50925","25.0035683333333","6500400","永和區"
"234048","863-TW","2019/07/27 14:09:41","新北市永和區環河西路二段7-7號","121.508973333333","25.0167766666667","6500400","永和區"
"234025","9371-KE","2019/07/27 14:09:27","新北市永和區安樂路270號","121.514518333333","25.0041216666667","6500400","永和區"
"234010","9373-KE","2019/07/27 14:09:37","新北市永和區仁愛路352巷122弄11號","121.500703333333","25.0087733333333","6500400","永和區"
"248017","KED-0813","2019/07/27 14:09:36","新北市五股區民義路一段314-1號","121.422265","25.09559","6501500","五股區"
"234022","9380-KE","2019/07/27 14:09:41","新北市永和區博愛街32巷17-1號","121.518951666667","25.0151633333333","6500400","永和區"
"234076","969-R7","2019/07/27 14:09:31","新北市永和區民有街75巷10弄33號","121.519238333333","24.996015","6500400","永和區"
"234072","AAC-211","2019/07/27 14:09:45","新北市永和區竹林路201巷24弄2號","121.52217","25.00949","6500400","永和區"
"234066","AAC-212","2019/07/27 14:09:47","新北市永和區保平路270號","121.508678333333","25.0050933333333","6500400","永和區"
"234001","AAC-295","2019/07/27 14:09:40","新北市永和區中正路716號","121.515956666667","25.0100816666667","6500400","永和區"
"231030","002-UM","2019/07/27 14:09:31","新北市新店區安興路7-1號","121.515026666667","24.96851","6500600","新店區"
"231024","0291-UT","2019/07/27 14:09:32","新北市新店區力行路96號","121.538093333333","24.9667566666667","6500600","新店區"
"231027","0293-UT","2019/07/27 14:09:31","新北市新店區北宜路一段3號","121.53844","24.9584783333333","6500600","新店區"
"231005","046-UY","2019/07/27 14:09:28","新北市新店區寶安街68巷11號","121.54247","24.98457","6500600","新店區"
"231029","106-UY","2019/07/27 14:09:43","新北市新店區安康路二段161號","121.510136666667","24.9593683333333","6500600","新店區"
"231018","107-UY","2019/07/27 14:09:32","新北市新店區中央五街17號","121.529483333333","24.974415","6500600","新店區"
"231013","108-UY","2019/07/27 14:09:38","新北市新店區北新路三段65巷34弄26號","121.54015","24.9817966666667","6500600","新店區"
"231036","110-UY","2019/07/27 14:09:44","新北市新店區安祥路108巷23號","121.47524","24.95776","6500600","新店區"
"231033","256-BX","2019/07/27 14:09:45","新北市新店區碧潭路40號","121.53426","24.956525","6500600","新店區"
"231023","260-TV","2019/07/27 14:09:37","新北市新店區文中路40號","121.539685","24.9565533333333","6500600","新店區"
"231003","268-BY","2019/07/27 14:09:47","新北市新店區中興路一段51號","121.53963","24.960225","6500600","新店區"
"231035","278-BY","2019/07/27 14:09:26","新北市新店區安和路一段52巷2-1號","121.517695","24.966375","6500600","新店區"
"231017","AAD-862","2019/07/27 14:09:43","新北市新店區北宜路二段447號","121.561335","24.954185","6500600","新店區"
"231006","355-BY","2019/07/27 14:09:37","新北市新店區北宜路二段207號","121.553125","24.95332","6500600","新店區"
"231038","3712-VJ","2019/07/27 14:09:32","新北市新店區安康路一段52巷2號","121.530158333333","24.9611533333333","6500600","新店區"
"231025","4715-K9","2019/07/27 14:09:28","新北市新店區二十張路129巷3弄1號","121.536213333333","24.9788816666667","6500600","新店區"
"231020","513-UM","2019/07/27 14:09:43","新北市新店區屈尺路83-2號","121.544853333333","24.9220666666667","6500600","新店區"
"231001","617-UM","2019/07/27 14:09:39","新北市新店區中華路50號","121.539651666667","24.968455","6500600","新店區"
"231002","619-UM","2019/07/27 14:09:28","新北市新店區中正路487號","121.533803333333","24.9821766666667","6500600","新店區"
"231034","641-BX","2019/07/27 14:09:29","新北市新店區黎明路3號","121.503226666667","24.9521833333333","6500600","新店區"
"231012","KED-0819","2019/07/27 14:09:30","新北市新店區中興路一段256號","121.544613333333","24.9668916666667","6500600","新店區"
"231028","897-TW","2019/07/27 14:09:33","新北市新店區安和路三段119號","121.51768","24.9849366666667","6500600","新店區"
"231004","899-TW","2019/07/27 14:09:46","新北市新店區北新路二段203號","121.542495","24.9783383333333","6500600","新店區"
"231037","AKT-0513","2019/07/27 14:09:37","新北市新店區安康路三段165巷2弄1號","121.489446666667","24.9512833333333","6500600","新店區"
"235030","003-UY","2019/07/27 14:09:28","新北市中和區廣福路66號","121.50352","25.0016816666667","6500300","中和區"
"235028","005-UY","2019/07/27 14:09:36","新北市中和區泰和街48號","121.499033333333","24.999655","6500300","中和區"
"235027","006-UY","2019/07/27 14:09:42","新北市中和區連勝街121巷16號","121.494983333333","24.9944633333333","6500300","中和區"
"235020","096-UM","2019/07/27 14:09:46","新北市中和區員山路498號","121.479803333333","25.0071616666667","6500300","中和區"
"235003","097-UM","2019/07/27 14:09:43","新北市中和區秀峰街119巷2弄1號","121.519885","24.9903966666667","6500300","中和區"
"235029","098-UM","2019/07/27 14:09:36","新北市中和區中山路二段2巷3弄1號","121.50485","25.0061183333333","6500300","中和區"
"235040","150-BY","2019/07/27 14:09:43","新北市中和區保健路44巷4號","121.50922","24.99693","6500300","中和區"
"235022","151-BY","2019/07/27 14:09:43","新北市中和區連城路523巷11弄1號","121.48173","24.99429","6500300","中和區"
"235019","183-VK","2019/07/27 14:09:34","新北市中和區中山路三段197號","121.472291666667","25.0064066666667","6500300","中和區"
"235002","185-VK","2019/07/27 14:07:18","新北市中和區大仁街20巷22-3號","121.518713333333","24.9932333333333","6500300","中和區"
"235013","186-VK","2019/07/27 14:09:43","新北市中和區景新街206號","121.50655","24.9954916666667","6500300","中和區"
"235031","255-BX","2019/07/27 14:09:39","新北市中和區中正路677號","121.484976666667","24.9971516666667","6500300","中和區"
"235008","293-VK","2019/07/27 14:09:29","新北市中和區中興街222-6號","121.500605","24.9897266666667","6500300","中和區"
"235036","301-VK","2019/07/27 14:09:35","新北市中和區中山路二段259號","121.49712","25.0022366666667","6500300","中和區"
"235007","352-BY","2019/07/27 14:09:34","新北市中和區景平路136號","121.518713333333","24.9919666666667","6500300","中和區"
"235006","KEA-2878","2019/07/27 14:09:27","新北市中和區自強路7巷2號","121.520118333333","24.9935533333333","6500300","中和區"
"247013","KEA-2869","2019/07/27 14:09:35","新北市蘆洲區忠孝路31號","121.471461666667","25.0856216666667","6501400","蘆洲區"
"235014","4979-A6","2019/07/27 14:09:44","新北市中和區復興路280巷18弄3號","121.501813333333","24.9920366666667","6500300","中和區"
"235033","4980-A6","2019/07/27 14:09:42","新北市中和區廣福路81號","121.502286666667","25.0008983333333","6500300","中和區"
"235005","551-UM","2019/07/27 14:09:36","新北市中和區中安街132號","121.511026666667","25.0003533333333","6500300","中和區"
"235034","558-UM","2019/07/27 14:09:26","新北市中和區連城路2號","121.49939","25.002505","6500300","中和區"
"235009","565-BX","2019/07/27 14:09:36","新北市中和區景新街439號","121.513341666667","24.9890166666667","6500300","中和區"
"235024","KED-0823","2019/07/27 14:09:27","新北市中和區中山路三段111號","121.474836666667","25.0059566666667","6500300","中和區"
"235018","640-BX","2019/07/27 14:09:46","新北市中和區國光街112巷16弄2號","121.469755","25.0013666666667","6500300","中和區"
"235011","732-UM","2019/07/27 14:09:35","新北市中和區興南路一段56巷3弄2號","121.5105","24.9910766666667","6500300","中和區"
"235010","733-UM","2019/07/27 14:09:42","新北市中和區華新街115號","121.50722","24.9820933333333","6500300","中和區"
"235035","783-BX","2019/07/27 14:09:31","新北市中和區中板路47巷23號","121.48212","25.0110166666667","6500300","中和區"
"235073","800-TS","2019/07/27 14:09:37","新北市中和區中山路二段472號","121.488251666667","25.0046116666667","6500300","中和區"
"235021","801-TS","2019/07/27 14:09:38","新北市中和區員山路423巷12弄1號","121.48047","25.0030983333333","6500300","中和區"
"235016","805-TS","2019/07/27 14:09:37","新北市中和區興南路二段142巷19弄52號","121.502048333333","24.9834266666667","6500300","中和區"
"235012","896-TW","2019/07/27 14:09:38","新北市中和區工專路165-3號","121.508778333333","24.9791183333333","6500300","中和區"
"235017","900-TW","2019/07/27 14:09:39","新北市中和區華安街30巷11-2號","121.46686","24.9974116666667","6500300","中和區"
"235005","911-UM","2019/07/27 14:02:25","新北市中和區員山路36巷16-2號","121.48528","24.9917983333333","6500300","中和區"
"235015","157-BY","2019/07/27 14:09:32","新北市中和區仁愛街95號","121.511953333333","24.9868216666667","6500300","中和區"
"235001","AAC-213","2019/07/27 14:09:40","新北市中和區秀朗路三段10巷37弄6號","121.523936666667","24.9958133333333","6500300","中和區"
"235023","AAC-215","2019/07/27 14:09:33","新北市中和區圓通路417-1號","121.488651666667","24.9890516666667","6500300","中和區"
"220016","015-TV","2019/07/27 14:09:39","新北市板橋區翠華街6巷40號","121.481555","25.0245466666667","6500100","板橋區"
"220013","072-UY","2019/07/27 14:09:33","新北市板橋區民族路247巷5弄2號","121.47057","25.00755","6500100","板橋區"
"220034","073-UY","2019/07/27 14:09:40","新北市板橋區中正路212號","121.455918333333","25.0182016666667","6500100","板橋區"
"220105","075-UY","2019/07/27 14:09:35","新北市板橋區雙十路三段66巷1號","121.470585","25.03198","6500100","板橋區"
"220017","AAD-861","2019/07/27 14:09:29","新北市板橋區華興街29號","121.458381666667","25.0044883333333","6500100","板橋區"
"247003","893-R6","2019/07/27 14:09:40","新北市蘆洲區長安街209號","121.459923333333","25.082255","6501400","蘆洲區"
"247017","546-UM","2019/07/27 14:09:45","新北市蘆洲區復興路156號","121.477406666667","25.0880016666667","6501400","蘆洲區"
"247007","341-TH","2019/07/27 14:09:43","新北市蘆洲區中山一路257號","121.472863333333","25.0802416666667","6501400","蘆洲區"
"247023","337-TH","2019/07/27 14:09:31","新北市蘆洲區光榮路118-2號","121.464865","25.0892683333333","6501400","蘆洲區"
"247001","336-TH","2019/07/27 14:09:33","新北市蘆洲區永平街65號","121.457356666667","25.0914433333333","6501400","蘆洲區"
"247021","057-VK","2019/07/27 14:09:41","新北市蘆洲區保和街29號","121.470536666667","25.0865183333333","6501400","蘆洲區"
"247011","056-VK","2019/07/27 14:09:25","新北市蘆洲區信義路331號","121.47808","25.0867183333333","6501400","蘆洲區"
"247015","053-VK","2019/07/27 14:09:39","新北市蘆洲區光華路53號","121.468531666667","25.0829133333333","6501400","蘆洲區"
"247019","007-UY","2019/07/27 14:09:41","新北市蘆洲區民族路422巷15弄19號","121.473265","25.0928516666667","6501400","蘆洲區"
"247005","002-UY","2019/07/27 14:09:37","新北市蘆洲區九芎街15巷10號","121.467985","25.0779333333333","6501400","蘆洲區"
"228005","097-TW","2019/07/27 14:09:37","新北市雙溪區三港里雙澳路91號","121.888898333333","25.0575466666667","6502600","貢寮區"
"228004","212-TW","2019/07/27 14:09:40","新北市貢寮區雙玉里德心街11-1號","121.91878","25.0156383333333","6502600","貢寮區"
"253003","6232-TK","2019/07/27 14:09:39","新北市石門區尖子鹿53-2號","121.580895","25.2706166666667","6502200","石門區"
"253004","6251-TK","2019/07/27 14:09:35","新北市石門區坪林21號","121.593223333333","25.2686633333333","6502200","石門區"
"253002","637-UY","2019/07/27 14:09:36","新北市石門區豬槽潭13-1號","121.553153333333","25.2605766666667","6502200","石門區"
"253001","KEC-0718","2019/07/27 14:09:39","新北市石門區八甲73-1號","121.530938333333","25.2689516666667","6502200","石門區"
"207002","749-BX","2019/07/27 14:09:27","新北市萬里區溪底里溪底路9-1號","121.619455","25.1491133333333","6502800","萬里區"
"252005","073-UM","2019/07/27 14:07:32","新北市三芝區圓山里二坪頂78號","121.541973333333","25.2459916666667","6502100","三芝區"
"207001","662-BX","2019/07/27 14:09:34","新北市萬里區磺潭里清水18號","121.637845","25.1976933333333","6502800","萬里區"
"236040","KED-0685","2019/07/27 14:09:26","新北市土城區城林路6巷80號","121.438563333333","24.9796833333333","6501300","土城區"
"220038","KED-0812","2019/07/27 14:09:12","新北市板橋區文化路一段339號","121.466586666667","25.0206566666667","6500100","板橋區"
"236074","166-UM","2019/07/27 14:09:47","新北市土城區永寧路27巷2號","121.430905","24.9638033333333","6501300","土城區"
"236029","253-BX","2019/07/27 14:09:42","新北市土城區城林路6巷80號","121.438575","24.979735","6501300","土城區"
"236024","269-VK","2019/07/27 14:09:30","新北市土城區承天路43巷4號","121.43918","24.9638033333333","6501300","土城區"
"236013","270-VK","2019/07/27 14:09:30","新北市土城區學府路一段12號","121.459235","24.988435","6501300","土城區"
"236032","271-VK","2019/07/27 14:09:46","新北市土城區明德路一段280-1號","121.457515","24.9774383333333","6501300","土城區"
"247009","KED-0683","2019/07/27 14:09:46","新北市蘆洲區三民路52號","121.475395","25.0835383333333","6501400","蘆洲區"
"236068","KEA-2877","2019/07/27 14:09:31","新北市土城區明德路一段128巷5號","121.463321666667","24.9790483333333","6501300","土城區"
"236017","401-BY","2019/07/27 14:09:38","新北市土城區城林路6巷80號","121.438243333333","24.9795133333333","6501300","土城區"
"236057","912-UM","2019/07/27 14:09:39","新北市土城區中央路四段139-3號","121.415721666667","24.9571783333333","6501300","土城區"
"236045","913-UM","2019/07/27 14:09:39","新北市土城區明德路一段365-1號","121.453561666667","24.97903","6501300","土城區"
"236060","915-UM","2019/07/27 14:09:36","新北市土城區金城路二段392號","121.463743333333","24.9857","6501300","土城區"
"236054","AAC-216","2019/07/27 14:09:43","新北市土城區中華路二段92號","121.438201666667","24.9747566666667","6501300","土城區"
"220027","145-BY","2019/07/27 14:09:30","新北市板橋區中正路9號","121.456071666667","25.0121466666667","6500100","板橋區"
"220028","200-UY","2019/07/27 14:09:29","新北市板橋區大觀路二段153巷44弄3號","121.446393333333","24.9993433333333","6500100","板橋區"
"220030","610-BX","2019/07/27 14:09:45","新北市板橋區溪崑二街11-3號","121.428963333333","24.991815","6500100","板橋區"
"220032","256-TC","2019/07/27 14:09:43","新北市板橋區篤行路二段94號","121.431373333333","24.991565","6500100","板橋區"
"220040","267-BY","2019/07/27 14:09:37","新北市板橋區文聖街223號","121.480445","25.025715","6500100","板橋區"
"220004","276-BY","2019/07/27 14:09:38","新北市板橋區信義路150巷38號","121.457266666667","24.991795","6500100","板橋區"
"220020","277-BY","2019/07/27 14:09:27","新北市板橋區金門街372巷33號","121.42736","24.984955","6500100","板橋區"
"220050","280-UM","2019/07/27 14:09:36","新北市板橋區莊敬路21號","121.473913333333","25.0281033333333","6500100","板橋區"
"220019","283-VK","2019/07/27 14:09:26","新北市板橋區重慶路269巷67-2號","121.465258333333","24.9988383333333","6500100","板橋區"
"220043","285-UM","2019/07/27 14:09:45","新北市板橋區吳鳳路19巷16號","121.466765","25.0306583333333","6500100","板橋區"
"220001","285-VK","2019/07/27 14:09:36","新北市板橋區懷仁街25巷2號","121.476615","25.0198066666667","6500100","板橋區"
"220031","286-VK","2019/07/27 14:09:36","新北市板橋區龍興街99巷2號","121.444231666667","25.0029583333333","6500100","板橋區"
"220029","287-VK","2019/07/27 14:09:29","新北市板橋區南雅西路二段156巷1號","121.451955","25.0134133333333","6500100","板橋區"
"220039","288-VK","2019/07/27 14:09:40","新北市板橋區長江路一段106巷12弄3號","121.459975","25.0289766666667","6500100","板橋區"
"220009","293-UM","2019/07/27 14:09:27","新北市板橋區中山路二段291-14號","121.478388333333","25.0181683333333","6500100","板橋區"
"220023","303-R5","2019/07/27 14:09:31","新北市板橋區大智街25巷40號","121.45384","25.0150583333333","6500100","板橋區"
"220010","305-R5","2019/07/27 14:09:41","新北市板橋區三民路二段居仁巷1弄47號","121.480753333333","25.0136716666667","6500100","板橋區"
"220041","307-R5","2019/07/27 14:09:40","新北市板橋區松江街72巷22號","121.469453333333","25.0278433333333","6500100","板橋區"
"220047","317-R6","2019/07/27 14:09:41","新北市板橋區民生路三段105號","121.466711666667","25.02522","6500100","板橋區"
"220037","491-VK","2019/07/27 14:09:32","新北市板橋區文化路二段182巷1弄17號","121.471403333333","25.0279116666667","6500100","板橋區"
"220104","560-BX","2019/07/27 14:09:27","新北市板橋區中正路387號","121.454331666667","25.021705","6500100","板橋區"
"220052","561-BX","2019/07/27 14:09:45","新北市板橋區文化路一段270巷1號","121.467453333333","25.020635","6500100","板橋區"
"220011","609-BX","2019/07/27 14:09:33","新北市板橋區三民路二段243號","121.479236666667","25.0126216666667","6500100","板橋區"
"220005","686-BX","2019/07/27 14:09:35","新北市板橋區國慶路182巷10號","121.462773333333","24.9959033333333","6500100","板橋區"
"220025","687-BX","2019/07/27 14:09:33","新北市板橋區僑中二街152號","121.44484","25.00438","6500100","板橋區"
"220042","689-BX","2019/07/27 14:09:40","新北市板橋區新海路69號","121.461811666667","25.0216783333333","6500100","板橋區"
"220002","741-BX","2019/07/27 14:09:44","新北市板橋區重慶路75號","121.462025","25.0067133333333","6500100","板橋區"
"220051","KEA-2699","2019/07/27 14:09:40","新北市板橋區文聖街147號","121.478493333333","25.02812","6500100","板橋區"
"220003","827-TW","2019/07/27 14:09:41","新北市板橋區新民街7巷12號","121.463585","25.0103216666667","6500100","板橋區"
"220014","829-TW","2019/07/27 14:09:37","新北市板橋區民享街116巷2弄15號","121.477306666667","25.0153833333333","6500100","板橋區"
"220022","895-R6","2019/07/27 14:09:29","新北市板橋區西門街55巷1號","121.454055","25.010235","6500100","板橋區"
"220021","985-R7","2019/07/27 14:09:37","新北市板橋區民權路241號","121.45741","25.0156483333333","6500100","板橋區"
"220046","AAC-210","2019/07/27 14:09:27","新北市板橋區幸福路60巷4號","121.460716666667","25.02089","6500100","板橋區"
"220012","AAC-253","2019/07/27 14:09:42","新北市板橋區縣民大道二段84號","121.465958333333","25.0149366666667","6500100","板橋區"
"235032","KEA-2873","2019/07/27 14:09:24","新北市中和區連勝街57巷13號","121.498005","24.99691","6500300","中和區"
"235025","KEA-2875","2019/07/27 14:09:39","新北市中和區員山路203巷8號","121.480821666667","24.9976933333333","6500300","中和區"
