"lineid","car","time","location","longitude","latitude","cityid","cityname"
"234026","9371-KE","2019/07/27 17:39:31","新北市永和區中正路708號","121.515975","25.0100316666667","6500400","永和區"
"249005","172-UM","2019/07/27 17:39:51","新北市八里區荖阡坑路34-1號","121.402728333333","25.1296533333333","6502300","八里區"
"249001","173-UM","2019/07/27 17:39:26","新北市八里區龍米路二段150號","121.43569","25.1569133333333","6502300","八里區"
"249004","303-UY","2019/07/27 17:39:40","新北市八里區大崁一街6號","121.42049","25.1579483333333","6502300","八里區"
"249002","305-UY","2019/07/27 17:39:28","新北市八里區石壁腳19號","121.441706666667","25.1353516666667","6502300","八里區"
"249003","593-UM","2019/07/27 17:39:51","新北市八里區中山路二段165號","121.404981666667","25.1506983333333","6502300","八里區"
"232011","375-UM","2019/07/27 17:39:47","新北市坪林區北宜路八段105號","121.706116666667","24.9347966666667","6502000","坪林區"
"244007","080-UY","2019/07/27 17:39:45","新北市林口區林口路206號","121.387141666667","25.0833","6501700","林口區"
"244013","KEA-2802","2019/07/27 17:39:51","新北市林口區中正路501號","121.383358333333","25.0776933333333","6501700","林口區"
"244023","483-VK","2019/07/27 17:39:33","新北市林口區興林路152巷30號","121.387328333333","25.0717333333333","6501700","林口區"
"244017","485-VK","2019/07/27 17:39:38","新北市林口區文化二路一段226號","121.369416666667","25.0724216666667","6501700","林口區"
"244009","657-BX","2019/07/27 17:39:33","新北市林口區中北三街61號","121.384733333333","25.0854216666667","6501700","林口區"
"244011","701-TV","2019/07/27 17:39:40","新北市林口區佳林路188號","121.383168333333","25.0763066666667","6501700","林口區"
"244025","837-TS","2019/07/27 17:39:34","新北市林口區忠孝一路33號","121.363425","25.0731016666667","6501700","林口區"
"244021","838-TS","2019/07/27 17:39:48","新北市林口區仁愛路一段211巷10號","121.398026666667","25.07392","6501700","林口區"
"222002","659-BX","2019/07/27 17:39:40","新北市深坑區深南路88巷1號","121.6212","25.0112816666667","6501800","深坑區"
"231046","719-UM","2019/07/27 17:12:59","新北市新店區直潭十街27號","121.53441","24.9383383333333","6500600","新店區"
"241001","060-VK","2019/07/27 17:39:31","新北市八里區下罟子23號","121.37593","25.13942","6500200","三重區"
"241017","063-VK","2019/07/27 17:39:44","新北市三重區大同北路32號","121.495205","25.062515","6500200","三重區"
"241024","065-VK","2019/07/27 17:39:43","新北市三重區車路頭街36號","121.48387","25.0718166666667","6500200","三重區"
"241030","066-VK","2019/07/27 17:38:07","新北市三重區中正南路252巷5號","121.493323333333","25.0522766666667","6500200","三重區"
"241005","262-UM","2019/07/27 17:39:34","新北市三重區仁愛街510號","121.487478333333","25.0822066666667","6500200","三重區"
"241016","266-UM","2019/07/27 17:39:43","新北市三重區正義北路15-4號","121.497681666667","25.0630983333333","6500200","三重區"
"241009","267-UM","2019/07/27 17:39:39","新北市三重區力行路二段136巷23弄26號","121.481085","25.0763766666667","6500200","三重區"
"241007","398-BY","2019/07/27 17:39:36","新北市三重區車路頭街79號","121.484453333333","25.0740816666667","6500200","三重區"
"241014","543-UM","2019/07/27 17:39:44","新北市三重區龍濱路19號","121.50301","25.06781","6500200","三重區"
"241023","545-UM","2019/07/27 17:39:47","新北市三重區中華路85號","121.483555","25.0628583333333","6500200","三重區"
"241015","887-TS","2019/07/27 17:39:46","新北市三重區三和路一段3號","121.504021666667","25.0643833333333","6500200","三重區"
"241033","AAC-255","2019/07/27 17:39:34","新北市三重區光復路一段60號","121.472008333333","25.0488666666667","6500200","三重區"
"235064","005-UY","2019/07/27 17:39:41","新北市中和區員山路36巷16-3號","121.485026666667","24.9912366666667","6500300","中和區"
"235063","006-UY","2019/07/27 17:39:31","新北市中和區員山路36巷16-3號","121.484906666667","24.9914583333333","6500300","中和區"
"235065","098-UM","2019/07/27 17:39:35","新北市中和區員山路36巷16-3號","121.48504","24.99112","6500300","中和區"
"247014","KEA-2869","2019/07/27 17:39:47","新北市蘆洲區中山二路16號","121.475043333333","25.0819566666667","6501400","蘆洲區"
"247004","893-R6","2019/07/27 17:39:34","新北市蘆洲區長安街249巷11號","121.458475","25.0828916666667","6501400","蘆洲區"
"247018","546-UM","2019/07/27 17:39:35","新北市蘆洲區水湳街10號","121.472673333333","25.08866","6501400","蘆洲區"
"247008","341-TH","2019/07/27 17:38:53","新北市蘆洲區和平路29巷6號","121.471946666667","25.0788833333333","6501400","蘆洲區"
"247024","337-TH","2019/07/27 17:39:42","新北市蘆洲區長樂路125-1號","121.462115","25.08804","6501400","蘆洲區"
"247002","336-TH","2019/07/27 17:39:35","新北市蘆洲區永平街59號","121.457586666667","25.0914333333333","6501400","蘆洲區"
"247022","057-VK","2019/07/27 17:39:30","新北市蘆洲區中正路327號","121.465973333333","25.08907","6501400","蘆洲區"
"247012","056-VK","2019/07/27 17:39:28","新北市蘆洲區民權路28號","121.476523333333","25.08614","6501400","蘆洲區"
"247016","053-VK","2019/07/27 17:39:40","新北市蘆洲區中正路185巷31弄22號","121.466778333333","25.0837583333333","6501400","蘆洲區"
"247020","007-UY","2019/07/27 17:39:42","新北市蘆洲區民族路331-17號","121.473203333333","25.0919233333333","6501400","蘆洲區"
"247006","002-UY","2019/07/27 17:39:39","新北市蘆洲區長安街51號","121.463205","25.0796616666667","6501400","蘆洲區"
"228003","097-TW","2019/07/27 17:39:46","新北市貢寮區仁理村仁和路268號","121.924225","25.0544783333333","6502600","貢寮區"
"228002","663-BX","2019/07/27 17:39:46","新北市貢寮區福隆里龜壽谷街26號","121.952641666667","25.0084066666667","6502600","貢寮區"
"224010","AGQ-8101","2019/07/27 17:39:30","新北市瑞芳區岳王路71號","121.807198333333","25.111585","6501200","瑞芳區"
"224006","676-BX","2019/07/27 17:39:46","新北市瑞芳區傑魚坑路73號","121.793035","25.11049","6501200","瑞芳區"
"224009","275-VK","2019/07/27 17:39:31","新北市瑞芳區金光路334號","121.848541666667","25.1099916666667","6501200","瑞芳區"
"224008","273-VK","2019/07/27 17:39:48","新北市瑞芳區瑞柑新村30號","121.829026666667","25.106805","6501200","瑞芳區"
"224005","271-BY","2019/07/27 17:39:51","新北市瑞芳區籠山路15-1號","121.83177","25.1240333333333","6501200","瑞芳區"
"227001","642-TC","2019/07/27 17:23:00","新北市雙溪區三貂里定福路1-2號","121.850765","25.0634016666667","6502500","雙溪區"
"227002","400-TW","2019/07/27 17:39:37","新北市雙溪區共和里東榮街52號","121.866323333333","25.0336883333333","6502500","雙溪區"
"251009","008-UM","2019/07/27 17:39:43","新北市淡水區中正路208號","121.439588333333","25.1702266666667","6501000","淡水區"
"251004","009-UM","2019/07/27 17:39:32","新北市淡水區中正東路二段145號","121.459235","25.147285","6501000","淡水區"
"251005","010-UM","2019/07/27 17:39:47","新北市淡水區鄧公路35巷1號","121.451683333333","25.1713216666667","6501000","淡水區"
"251015","KEA-2871","2019/07/27 17:39:45","新北市淡水區樹林口16號","121.477351666667","25.1671533333333","6501000","淡水區"
"251016","179-VK","2019/07/27 17:39:38","新北市淡水區埤島39-15號","121.45273","25.19589","6501000","淡水區"
"251008","181-VK","2019/07/27 17:39:35","新北市淡水區中正東路二段161巷11弄10號","121.46151","25.1460866666667","6501000","淡水區"
"251013","182-VK","2019/07/27 17:39:35","新北市淡水區演戲埔腳3號","121.472183333333","25.1935083333333","6501000","淡水區"
"251012","441-VK","2019/07/27 17:39:29","新北市淡水區北新路200巷8號","121.451686666667","25.1796783333333","6501000","淡水區"
"251007","442-VK","2019/07/27 17:39:40","新北市淡水區民族路35巷1號","121.464503333333","25.137175","6501000","淡水區"
"251006","561-UM","2019/07/27 17:39:45","新北市淡水區大信街26號","121.442085","25.1768816666667","6501000","淡水區"
"251014","577-R6","2019/07/27 17:39:36","新北市淡水區北勢子21號","121.477228333333","25.229145","6501000","淡水區"
"251011","650-BX","2019/07/27 17:39:50","新北市淡水區坪頂路712號","121.482513333333","25.158505","6501000","淡水區"
"251002","672-BX","2019/07/27 17:39:36","新北市淡水區重建街永興巷11號","121.439446666667","25.1726166666667","6501000","淡水區"
"251003","673-BX","2019/07/27 17:39:32","新北市淡水區重建街226號","121.441498333333","25.17508","6501000","淡水區"
"251010","766-UM","2019/07/27 17:39:45","新北市淡水區淡海路280巷16號","121.419793333333","25.189625","6501000","淡水區"
"207004","681-TV","2019/07/27 17:39:48","新北市萬里區中幅里中福路42-2號","121.680353333333","25.16823","6502800","萬里區"
"207003","550-UM","2019/07/27 17:39:32","新北市萬里區龜吼里漁澳路61-1號","121.687223333333","25.1952083333333","6502800","萬里區"
"252002","178-VK","2019/07/27 17:39:30","新北市三芝區中正路二段15號","121.50446","25.255395","6502100","三芝區"
"237013","252-BX","2019/07/27 17:39:43","新北市三峽區介壽路一段1號","121.37515","24.9339766666667","6500900","三峽區"
"237014","433-BY","2019/07/27 17:39:44","新北市三峽區中山路459巷163-3號","121.3488","24.932605","6500900","三峽區"
"237011","KEA-2596","2019/07/27 17:39:39","新北市三峽區中山路321號","121.360755","24.937795","6500900","三峽區"
"237010","706-TV","2019/07/27 17:39:50","新北市三峽區中山路221號","121.363383333333","24.9369666666667","6500900","三峽區"
"236042","KED-0685","2019/07/27 17:39:47","新北市土城區城林路6巷80號","121.438453333333","24.9797216666667","6501300","土城區"
"236079","166-UM","2019/07/27 17:39:34","新北市土城區城林路6巷80號","121.43846","24.9796983333333","6501300","土城區"
"236038","271-VK","2019/07/27 17:39:42","新北市土城區城林路6巷80號","121.438541666667","24.97958","6501300","土城區"
"247010","KED-0683","2019/07/27 17:39:48","新北市蘆洲區集賢路412號","121.479823333333","25.081405","6501400","蘆洲區"
"236070","KEA-2877","2019/07/27 17:39:48","新北市土城區城林路6巷80號","121.438561666667","24.9797083333333","6501300","土城區"
"252001","KED-0821","2019/07/27 17:39:31","新北市三芝區淡金路一段83號","121.502166666667","25.2589","6502100","三芝區"
"236055","AAC-216","2019/07/27 17:39:33","新北市土城區城林路6巷80號","121.438441666667","24.979735","6501300","土城區"
"242039","AAC-296","2019/07/27 17:39:51","新北市新莊區民安路332號","121.429038333333","25.0220066666667","6500500","新莊區"
"242061","986-R7","2019/07/27 17:39:42","新北市新莊區瓊林南路118-21號","121.433826666667","25.0109433333333","6500500","新莊區"
"242002","751-BX","2019/07/27 17:39:44","新北市新莊區新莊路357號","121.451871666667","25.0338966666667","6500500","新莊區"
"242029","615-BX","2019/07/27 17:39:39","新北市新莊區復興路一段151號","121.450556666667","25.043225","6500500","新莊區"
"242058","612-BX","2019/07/27 17:39:33","新北市新莊區中正路713號","121.42521","25.029825","6500500","新莊區"
"242051","497-BY","2019/07/27 17:39:43","新北市新莊區西盛街187-16號","121.429015","25.017225","6500500","新莊區"
"242046","442-UM","2019/07/27 17:39:33","新北市新莊區福營路103號","121.433993333333","25.032265","6500500","新莊區"
"242056","441-UM","2019/07/27 17:39:28","新北市新莊區泰豐街22號","121.448461666667","25.0316066666667","6500500","新莊區"
"242004","440-UM","2019/07/27 17:39:46","新北市新莊區自立街115號","121.45566","25.0454333333333","6500500","新莊區"
"242042","415-TV","2019/07/27 17:39:36","新北市新莊區中正路514巷49號","121.432186666667","25.03354","6500500","新莊區"
"242011","413-TV","2019/07/27 17:39:43","新北市新莊區中港路607號","121.45139","25.0532233333333","6500500","新莊區"
"242048","400-BY","2019/07/27 17:39:39","新北市新莊區萬安街138號","121.420128333333","25.0213783333333","6500500","新莊區"
"242025","362-BY","2019/07/27 17:39:42","新北市新莊區思源路118號","121.460128333333","25.04693","6500500","新莊區"
"242023","353-BY","2019/07/27 17:39:40","新北市新莊區公園路222巷1號","121.456273333333","25.040555","6500500","新莊區"
"242013","132-UY","2019/07/27 17:39:38","新北市新莊區中誠街97號","121.450001666667","25.047655","6500500","新莊區"
"242036","135-UY","2019/07/27 17:39:35","新北市新莊區建福路59巷30號","121.428121666667","25.02761","6500500","新莊區"
"242053","172-VK","2019/07/27 17:39:45","新北市新莊區新樹路699巷9號","121.432641666667","25.0019","6500500","新莊區"
"242015","173-VK","2019/07/27 17:39:44","新北市新莊區新泰路285號","121.445625","25.04058","6500500","新莊區"
"242021","175-VK","2019/07/27 17:39:35","新北市新莊區中華路一段88號","121.452221666667","25.0394516666667","6500500","新莊區"
"242019","KED-0687","2019/07/27 17:39:43","新北市新莊區中港路164號","121.45497","25.0415333333333","6500500","新莊區"
"242034","348-TH","2019/07/27 17:39:40","新北市新莊區新莊路534號","121.445585","25.0329333333333","6500500","新莊區"
"242007","349-TH","2019/07/27 17:39:45","新北市新莊區福樂街71巷1號","121.457023333333","25.0477","6500500","新莊區"
"242031","350-TH","2019/07/27 17:39:48","新北市新莊區新泰路369巷24號","121.442428333333","25.0432416666667","6500500","新莊區"
"242017","351-TH","2019/07/27 17:39:40","新北市新莊區復興路一段149巷21弄13號","121.449611666667","25.043975","6500500","新莊區"
"238015","755-BX","2019/07/27 17:39:46","新北市樹林區樹德街122號","121.419373333333","24.9929066666667","6500700","樹林區"
"238023","601-UM","2019/07/27 17:39:35","新北市樹林區三福街114號","121.406358333333","25.01631","6500700","樹林區"
"238019","599-UM","2019/07/27 17:39:45","新北市樹林區太平路109號","121.419186666667","24.9808516666667","6500700","樹林區"
"238024","5061-A6","2019/07/27 17:39:35","新北市樹林區環河路2-2號","121.42573","24.97706","6500700","樹林區"
"238018","KEA-2217","2019/07/27 17:39:40","新北市樹林區博愛街6號","121.427591666667","24.9931766666667","6500700","樹林區"
"238022","KEA-2213","2019/07/27 17:39:30","新北市樹林區中華路185-1號","121.420438333333","24.9817233333333","6500700","樹林區"
"238021","KEA-2539","2019/07/27 17:39:32","新北市樹林區柑園街一段253巷1號","121.395565","24.9564416666667","6500700","樹林區"
"238025","303-VK","2019/07/27 17:39:41","新北市樹林區保安街三段69號","121.412566666667","25.0120266666667","6500700","樹林區"
"238017","283-BY","2019/07/27 17:39:49","新北市樹林區三俊街74巷47號","121.41438","25.0130616666667","6500700","樹林區"
"238014","282-BY","2019/07/27 17:39:44","新北市樹林區保安街一段313巷14號","121.417335","24.997515","6500700","樹林區"
"238020","268-VK","2019/07/27 17:39:44","新北市樹林區俊英街116巷41弄19號","121.428681666667","25.0068816666667","6500700","樹林區"
"238026","172-UY","2019/07/27 17:39:40","新北市樹林區新興街19巷36弄2號","121.402323333333","24.9735216666667","6500700","樹林區"
"238016","169-UY","2019/07/27 17:39:47","新北市樹林區育英街137號","121.419641666667","24.9893533333333","6500700","樹林區"
"239006","891-R6","2019/07/27 17:39:44","新北市鶯歌區永和街34巷10弄8號","121.3333","24.9671616666667","6500800","鶯歌區"
"239008","527-UM","2019/07/27 17:39:43","桃園市龜山區宏德司法新村4號","121.331108333333","24.9793433333333","6500800","鶯歌區"
"239005","526-UM","2019/07/27 17:38:13","新北市鶯歌區鳳吉四街16號","121.32673","24.9726533333333","6500800","鶯歌區"
"239001","417-VK","2019/07/27 17:39:33","新北市鶯歌區中正三路176-1號","121.33328","24.9383333333333","6500800","鶯歌區"
"239003","360-BY","2019/07/27 17:39:34","新北市鶯歌區鶯桃路206巷9號","121.337543333333","24.9594433333333","6500800","鶯歌區"
"239002","359-BY","2019/07/27 17:39:39","新北市鶯歌區國慶街58號","121.349556666667","24.9550066666667","6500800","鶯歌區"
"239007","292-BY","2019/07/27 17:39:42","新北市鶯歌區鶯桃路182巷96弄8號","121.339936666667","24.95733","6500800","鶯歌區"
"239004","193-VK","2019/07/27 17:39:37","新北市鶯歌區三鶯路86號","121.358228333333","24.9430816666667","6500800","鶯歌區"
"221008","489-VK","2019/07/27 17:39:42","新北市汐止區康寧街901號","121.651453333333","25.07507","6501100","汐止區"
"244019","KED-0667","2019/07/27 17:39:32","新北市林口區公園路122號","121.370858333333","25.0713016666667","6501700","林口區"
"221029","298-VK","2019/07/27 17:39:46","新北市汐止區康寧街901號","121.651731666667","25.0749866666667","6501100","汐止區"
"233002","KEA-2870","2019/07/27 17:39:33","新北市烏來區西羅岸路22號","121.54909","24.867485","6502900","烏來區"
"233001","KEC-0709","2019/07/27 17:39:34","新北市烏來區溫泉街106號","121.551521666667","24.8606033333333","6502900","烏來區"
"242044","281-VK","2019/07/27 17:39:38","新北市新莊區富國路65巷7號","121.419928333333","25.0265766666667","6500500","新莊區"
"242009","280-VK","2019/07/27 17:39:32","新北市新莊區昌明街14巷8弄2號","121.457391666667","25.053155","6500500","新莊區"
"235061","KEA-2875","2019/07/27 17:12:51","新北市中和區員山路36巷16-2號","121.485251666667","24.9916716666667","6500300","中和區"
