"lineid","car","time","location","longitude","latitude","cityid","cityname"
"234026","9371-KE","2019/07/27 17:49:31","新北市永和區永平路173號","121.510515","25.00912","6500400","永和區"
"249005","172-UM","2019/07/27 17:49:30","新北市八里區荖阡坑路34-2號","121.402308333333","25.13103","6502300","八里區"
"249001","173-UM","2019/07/27 17:49:46","新北市八里區龍米路二段108號","121.443585","25.1497133333333","6502300","八里區"
"249004","303-UY","2019/07/27 17:49:40","新北市八里區中華路一段309巷53-6號","121.415728333333","25.1550333333333","6502300","八里區"
"249002","305-UY","2019/07/27 17:49:47","新北市八里區龍形五街35巷3號","121.449143333333","25.1329566666667","6502300","八里區"
"249003","593-UM","2019/07/27 17:49:51","新北市八里區文昌二街37號","121.409645","25.1558233333333","6502300","八里區"
"248002","678-BX","2019/07/27 17:49:40","新北市五股區中興路二段83巷26-6號","121.460026666667","25.07519","6501500","五股區"
"232011","375-UM","2019/07/27 17:49:47","新北市坪林區北宜路八段157號","121.707273333333","24.934485","6502000","坪林區"
"244007","080-UY","2019/07/27 17:49:45","新北市林口區竹林路77號","121.388276666667","25.079275","6501700","林口區"
"244013","KEA-2802","2019/07/27 17:49:31","新北市林口區林口路46號","121.391121666667","25.0786133333333","6501700","林口區"
"244023","483-VK","2019/07/27 17:49:32","新北市林口區東湖路58號","121.387788333333","25.0741183333333","6501700","林口區"
"244017","485-VK","2019/07/27 17:49:38","新北市林口區文化二路一段260巷9-1號","121.37111","25.0728383333333","6501700","林口區"
"244009","657-BX","2019/07/27 17:49:33","新北市林口區林口路241號","121.386616666667","25.0837383333333","6501700","林口區"
"244011","701-TV","2019/07/27 17:49:41","新北市林口區中正路266號","121.389556666667","25.0777466666667","6501700","林口區"
"244025","837-TS","2019/07/27 17:49:34","新北市林口區忠孝三路一段110號","121.359428333333","25.0710866666667","6501700","林口區"
"244021","838-TS","2019/07/27 17:49:48","新北市林口區仁愛路一段61巷13號","121.398545","25.0695733333333","6501700","林口區"
"222003","436-BY","2019/07/27 17:49:48","新北市深坑區阿柔洋51-2號","121.609418333333","24.9984233333333","6501800","深坑區"
"222002","659-BX","2019/07/27 17:49:40","新北市深坑區平埔街22巷17弄1號","121.614915","25.0008733333333","6501800","深坑區"
"231055","4716-K9","2019/07/27 17:49:35","新北市新店區安華路28-1號","121.519698333333","24.96059","6500600","新店區"
"241024","065-VK","2019/07/27 17:49:43","新北市三重區車路頭街53號","121.484023333333","25.0724916666667","6500200","三重區"
"241030","066-VK","2019/07/27 17:38:07","新北市三重區中正南路252巷5號","121.493323333333","25.0522766666667","6500200","三重區"
"241016","266-UM","2019/07/27 17:49:43","新北市三重區新北大道一段3-1號","121.490168333333","25.0613866666667","6500200","三重區"
"241009","267-UM","2019/07/27 17:49:39","新北市三重區力行路二段162巷53號","121.481136666667","25.0764266666667","6500200","三重區"
"241007","398-BY","2019/07/27 17:49:36","新北市五股區中興路二段182巷15弄13-1號","121.457213333333","25.0811916666667","6500200","三重區"
"241015","887-TS","2019/07/27 17:49:46","新北市三重區龍濱路196號","121.501075","25.0732983333333","6500200","三重區"
"241033","AAC-255","2019/07/27 17:48:34","新北市三重區光復路一段17號","121.472105","25.0473783333333","6500200","三重區"
"235064","005-UY","2019/07/27 17:49:41","新北市中和區員山路36巷16-3號","121.484883333333","24.9912916666667","6500300","中和區"
"235063","006-UY","2019/07/27 17:49:51","新北市中和區員山路36巷16-3號","121.484905","24.9913833333333","6500300","中和區"
"235065","098-UM","2019/07/27 17:49:35","新北市中和區員山路36巷16-8號","121.48545","24.9924783333333","6500300","中和區"
"235058","151-BY","2019/07/27 17:49:40","新北市中和區員山路36巷16-3號","121.485056666667","24.9913733333333","6500300","中和區"
"247014","KEA-2869","2019/07/27 17:49:47","新北市蘆洲區中正路79-3號","121.470275","25.08332","6501400","蘆洲區"
"235057","801-TS","2019/07/27 17:49:40","新北市中和區員山路36巷16-3號","121.485101666667","24.9915733333333","6500300","中和區"
"247018","546-UM","2019/07/27 17:49:48","新北市蘆洲區復興路227巷2弄6號","121.480285","25.0900933333333","6501400","蘆洲區"
"247008","341-TH","2019/07/27 17:49:35","新北市蘆洲區信義路28號","121.47418","25.079255","6501400","蘆洲區"
"247024","337-TH","2019/07/27 17:49:42","新北市蘆洲區長樂路187號","121.461366666667","25.0887083333333","6501400","蘆洲區"
"247002","336-TH","2019/07/27 17:49:35","新北市蘆洲區永平街32巷21弄35號","121.457851666667","25.092325","6501400","蘆洲區"
"247022","057-VK","2019/07/27 17:49:50","新北市蘆洲區中正路490號","121.46206","25.09609","6501400","蘆洲區"
"247012","056-VK","2019/07/27 17:49:48","新北市蘆洲區復興路132號","121.476681666667","25.0875566666667","6501400","蘆洲區"
"247016","053-VK","2019/07/27 17:49:40","新北市蘆洲區中正路185巷27號","121.466635","25.08442","6501400","蘆洲區"
"247020","007-UY","2019/07/27 17:49:42","新北市蘆洲區民義街71巷29號","121.472156666667","25.0909416666667","6501400","蘆洲區"
"247006","002-UY","2019/07/27 17:49:39","新北市蘆洲區九芎街90巷1弄1號","121.465615","25.08024","6501400","蘆洲區"
"228003","097-TW","2019/07/27 17:49:46","新北市貢寮區真理里美艷山街13號","121.92813","25.0604416666667","6502600","貢寮區"
"228002","663-BX","2019/07/27 17:49:46","新北市貢寮區福隆里龜壽谷街11-1號","121.9553","25.0065366666667","6502600","貢寮區"
"224006","676-BX","2019/07/27 17:49:46","新北市瑞芳區傑魚坑路181-1號","121.788495","25.1083533333333","6501200","瑞芳區"
"224009","275-VK","2019/07/27 17:49:51","新北市瑞芳區新山路88號","121.851278333333","25.1091766666667","6501200","瑞芳區"
"224008","273-VK","2019/07/27 17:49:46","新北市瑞芳區明燈路一段118號","121.818701666667","25.1089283333333","6501200","瑞芳區"
"224005","271-BY","2019/07/27 17:49:51","新北市瑞芳區建基路一段46號","121.819655","25.1226116666667","6501200","瑞芳區"
"227001","642-TC","2019/07/27 17:23:00","新北市雙溪區三貂里定福路1-2號","121.850765","25.0634016666667","6502500","雙溪區"
"227002","400-TW","2019/07/27 17:49:37","新北市雙溪區共和里東榮街42號","121.866241666667","25.03371","6502500","雙溪區"
"253006","032-BX","2019/07/27 17:49:36","新北市石門區老崩山2-1號","121.554316666667","25.29193","6502200","石門區"
"251009","008-UM","2019/07/27 17:49:48","新北市淡水區長興街3號","121.443801666667","25.1707033333333","6501000","淡水區"
"251004","009-UM","2019/07/27 17:49:32","新北市淡水區民權一街17巷2號","121.458713333333","25.1365933333333","6501000","淡水區"
"251005","010-UM","2019/07/27 17:49:47","新北市淡水區學府路100巷4號","121.450285","25.17193","6501000","淡水區"
"251015","KEA-2871","2019/07/27 17:49:45","新北市淡水區糞箕湖17-3號","121.488103333333","25.1689383333333","6501000","淡水區"
"251016","179-VK","2019/07/27 17:49:38","新北市淡水區埤島39-15號","121.452821666667","25.19582","6501000","淡水區"
"251008","181-VK","2019/07/27 17:49:35","新北市淡水區八勢路一段123巷7弄4號","121.466128333333","25.157065","6501000","淡水區"
"251013","182-VK","2019/07/27 17:49:35","新北市淡水區泉洲厝31號","121.479583333333","25.1910016666667","6501000","淡水區"
"251012","441-VK","2019/07/27 17:49:49","新北市淡水區商工路388號","121.469785","25.1837033333333","6501000","淡水區"
"251007","442-VK","2019/07/27 17:49:40","新北市淡水區民生路16巷30號","121.461696666667","25.1374483333333","6501000","淡水區"
"251006","561-UM","2019/07/27 17:49:45","新北市淡水區大信街3號","121.441518333333","25.17631","6501000","淡水區"
"251014","577-R6","2019/07/27 17:49:35","新北市淡水區公埔子16-6號","121.481018333333","25.2244833333333","6501000","淡水區"
"251011","650-BX","2019/07/27 17:49:50","新北市淡水區小坪頂13-3號","121.486621666667","25.1561416666667","6501000","淡水區"
"251002","672-BX","2019/07/27 17:49:36","新北市淡水區中山路93-2號","121.44227","25.1705866666667","6501000","淡水區"
"251003","673-BX","2019/07/27 17:49:32","新北市淡水區大忠街5巷1號","121.443051666667","25.1764033333333","6501000","淡水區"
"251010","766-UM","2019/07/27 17:49:45","新北市淡水區淡海路202號","121.420263333333","25.185445","6501000","淡水區"
"207004","681-TV","2019/07/27 17:49:49","新北市萬里區萬里里瑪鋉路53號","121.687905","25.1761116666667","6502800","萬里區"
"207003","550-UM","2019/07/27 17:49:31","新北市萬里區野柳里東澳路66號","121.692856666667","25.2009766666667","6502800","萬里區"
"252002","178-VK","2019/07/27 17:49:30","新北市三芝區智成街18號","121.503368333333","25.2566783333333","6502100","三芝區"
"237004","KEA-2597","2019/07/27 17:49:44","新北市三峽區仁愛街47-1號","121.368473333333","24.932865","6500900","三峽區"
"237007","153-BY","2019/07/27 17:49:49","新北市三峽區中正路二段42巷40-5號","121.365936666667","24.9197316666667","6500900","三峽區"
"237009","210-TH","2019/07/27 17:49:31","新北市三峽區大勇路3巷39號","121.367486666667","24.9367733333333","6500900","三峽區"
"237013","252-BX","2019/07/27 17:49:50","新北市三峽區中華路8-1號","121.374993333333","24.9329166666667","6500900","三峽區"
"237008","302-VK","2019/07/27 17:49:38","新北市三峽區中正路一段528號","121.369173333333","24.92008","6500900","三峽區"
"237014","433-BY","2019/07/27 17:49:43","新北市三峽區和平街36巷17號","121.371243333333","24.9369833333333","6500900","三峽區"
"237006","5529-G3","2019/07/27 17:49:49","新北市三峽區介壽路二段38巷42-2號","121.391661666667","24.9345333333333","6500900","三峽區"
"237011","KEA-2596","2019/07/27 17:49:39","新北市三峽區民族街176號","121.368628333333","24.9277783333333","6500900","三峽區"
"237015","649-BX","2019/07/27 17:49:47","新北市三峽區白雞149-2號","121.40015","24.90557","6500900","三峽區"
"237010","706-TV","2019/07/27 17:49:30","新北市三峽區復興路235號","121.36823","24.93876","6500900","三峽區"
"237012","756-BX","2019/07/27 17:49:36","新北市三峽區民生街108號","121.373551666667","24.9352866666667","6500900","三峽區"
"237005","AKY-6261","2019/07/27 17:49:38","新北市三峽區中山路162號","121.364665","24.9364833333333","6500900","三峽區"
"236042","KED-0685","2019/07/27 17:49:47","新北市土城區城林路6巷80號","121.438456666667","24.979745","6501300","土城區"
"236079","166-UM","2019/07/27 17:49:34","新北市土城區中央路三段180號","121.430798333333","24.965085","6501300","土城區"
"236030","253-BX","2019/07/27 17:49:31","新北市土城區城林路6巷80號","121.438608333333","24.979625","6501300","土城區"
"236014","270-VK","2019/07/27 17:49:40","新北市土城區城林路6巷80號","121.438455","24.9796083333333","6501300","土城區"
"236038","271-VK","2019/07/27 17:49:42","新北市土城區城林路6巷80號","121.43852","24.9795833333333","6501300","土城區"
"247010","KED-0683","2019/07/27 17:49:48","新北市蘆洲區信義路283號","121.478561666667","25.085355","6501400","蘆洲區"
"236070","KEA-2877","2019/07/27 17:49:48","新北市土城區明德路二段65號","121.451865","24.98071","6501300","土城區"
"252001","KED-0821","2019/07/27 17:49:31","新北市三芝區中興街一段37號","121.497635","25.25785","6502100","三芝區"
"236021","401-BY","2019/07/27 17:49:31","新北市土城區城林路6巷80號","121.438468333333","24.9795683333333","6501300","土城區"
"236059","912-UM","2019/07/27 17:49:47","新北市土城區永寧路5號","121.43053","24.9646066666667","6501300","土城區"
"236063","915-UM","2019/07/27 17:49:36","新北市土城區城林路6巷80號","121.438546666667","24.979605","6501300","土城區"
"236055","AAC-216","2019/07/27 17:49:33","新北市土城區中央路二段280號","121.440728333333","24.9740733333333","6501300","土城區"
"242039","AAC-296","2019/07/27 17:49:43","新北市新莊區民安路135號","121.425076666667","25.024145","6500500","新莊區"
"242061","986-R7","2019/07/27 17:49:42","新北市新莊區新樹路579號","121.432941666667","25.00689","6500500","新莊區"
"242002","751-BX","2019/07/27 17:49:44","新北市新莊區景德路174號","121.450215","25.0341616666667","6500500","新莊區"
"242029","615-BX","2019/07/27 17:49:35","新北市新莊區新泰路324號","121.445045","25.0417466666667","6500500","新莊區"
"242058","612-BX","2019/07/27 17:49:35","新北市新莊區中正路704-1號","121.417355","25.0257716666667","6500500","新莊區"
"242051","497-BY","2019/07/27 17:49:43","新北市新莊區西盛街245巷19號","121.428853333333","25.0162","6500500","新莊區"
"242046","442-UM","2019/07/27 17:49:32","新北市新莊區建國一路23號","121.43397","25.03144","6500500","新莊區"
"242056","441-UM","2019/07/27 17:49:48","新北市新莊區瓊林路38巷29號","121.446998333333","25.0304533333333","6500500","新莊區"
"242004","440-UM","2019/07/27 17:49:46","新北市新莊區思源路177巷4號","121.45933","25.045345","6500500","新莊區"
"242042","415-TV","2019/07/27 17:49:36","新北市新莊區中正路612-1號","121.426173333333","25.030275","6500500","新莊區"
"242011","413-TV","2019/07/27 17:49:40","新北市新莊區中港路748號","121.450318333333","25.0585266666667","6500500","新莊區"
"242048","400-BY","2019/07/27 17:49:38","新北市新莊區萬安街66號","121.420986666667","25.0233933333333","6500500","新莊區"
"242025","362-BY","2019/07/27 17:49:42","新北市三重區新北大道二段37號","121.471075","25.0612516666667","6500500","新莊區"
"242023","353-BY","2019/07/27 17:49:40","新北市新莊區福樂街36號","121.457853333333","25.0456016666667","6500500","新莊區"
"242013","132-UY","2019/07/27 17:49:38","新北市新莊區中誠街168號","121.448088333333","25.047465","6500500","新莊區"
"242036","135-UY","2019/07/27 17:49:35","新北市新莊區建福路59巷16號","121.427573333333","25.0274433333333","6500500","新莊區"
"242053","172-VK","2019/07/27 17:49:45","新北市新莊區民安西路470-1號","121.431681666667","25.00777","6500500","新莊區"
"242015","173-VK","2019/07/27 17:49:44","新北市新莊區新泰路421-1號","121.443058333333","25.0448183333333","6500500","新莊區"
"242021","175-VK","2019/07/27 17:49:36","新北市新莊區中港路142號","121.455161666667","25.0409783333333","6500500","新莊區"
"242019","KED-0687","2019/07/27 17:49:43","新北市新莊區復興路二段31號","121.454243333333","25.04406","6500500","新莊區"
"242034","348-TH","2019/07/27 17:49:39","新北市新莊區新莊路682號","121.441131666667","25.03271","6500500","新莊區"
"242007","349-TH","2019/07/27 17:49:45","新北市新莊區福樂街63號","121.457335","25.0477016666667","6500500","新莊區"
"242031","350-TH","2019/07/27 17:49:48","新北市新莊區新泰路321巷25號","121.443563333333","25.0411466666667","6500500","新莊區"
"242017","351-TH","2019/07/27 17:49:40","新北市新莊區永安街39號","121.45166","25.044715","6500500","新莊區"
"238015","755-BX","2019/07/27 17:49:46","新北市樹林區復興路104號","121.421313333333","24.9928516666667","6500700","樹林區"
"238023","601-UM","2019/07/27 17:49:15","新北市樹林區龍興街14巷29號","121.401731666667","25.01575","6500700","樹林區"
"238019","599-UM","2019/07/27 17:49:45","新北市樹林區太順街7號","121.419885","24.9802283333333","6500700","樹林區"
"238018","KEA-2217","2019/07/27 17:49:37","新北市樹林區鎮前街136號","121.424665","24.990525","6500700","樹林區"
"238022","KEA-2213","2019/07/27 17:49:30","新北市樹林區太順街62巷3弄21號","121.416956666667","24.9792933333333","6500700","樹林區"
"238021","KEA-2539","2019/07/27 17:49:32","新北市樹林區田尾街3號","121.40671","24.9621883333333","6500700","樹林區"
"238025","303-VK","2019/07/27 17:49:41","新北市樹林區俊興街191號","121.41725","25.013305","6500700","樹林區"
"238017","283-BY","2019/07/27 17:49:49","新北市樹林區三俊街83-1號","121.416013333333","25.0153833333333","6500700","樹林區"
"238014","282-BY","2019/07/27 17:49:44","新北市樹林區大安路123號","121.422705","24.9971833333333","6500700","樹林區"
"238020","268-VK","2019/07/27 17:49:44","新北市樹林區俊英街129號","121.424405","25.0112333333333","6500700","樹林區"
"238026","172-UY","2019/07/27 17:49:40","新北市樹林區新興街19巷2弄38號","121.401876666667","24.9729333333333","6500700","樹林區"
"238016","169-UY","2019/07/27 17:49:47","新北市樹林區復興路347號","121.417605","24.98751","6500700","樹林區"
"239006","891-R6","2019/07/27 17:49:44","新北市鶯歌區鶯桃路417號","121.33273","24.9645616666667","6500800","鶯歌區"
"239008","527-UM","2019/07/27 17:49:43","新北市鶯歌區大湖路700巷22弄21號","121.333918333333","24.9773183333333","6500800","鶯歌區"
"239005","526-UM","2019/07/27 17:49:33","新北市鶯歌區鶯桃路658巷5號","121.32932","24.9693883333333","6500800","鶯歌區"
"239001","417-VK","2019/07/27 17:49:33","新北市鶯歌區中正三路322號","121.328121666667","24.9353483333333","6500800","鶯歌區"
"239003","360-BY","2019/07/27 17:49:45","新北市鶯歌區鶯桃路285巷6號","121.33443","24.95933","6500800","鶯歌區"
"239002","359-BY","2019/07/27 17:49:49","新北市鶯歌區育智路88號","121.345095","24.95442","6500800","鶯歌區"
"239007","292-BY","2019/07/27 17:49:42","新北市鶯歌區永利街22號","121.339276666667","24.954805","6500800","鶯歌區"
"239004","193-VK","2019/07/27 17:49:37","新北市鶯歌區文化路369-1號","121.352341666667","24.9509033333333","6500800","鶯歌區"
"221008","489-VK","2019/07/27 17:49:41","新北市汐止區康寧街901號","121.651426666667","25.0750866666667","6501100","汐止區"
"244019","KED-0667","2019/07/27 17:49:13","新北市林口區文化一路一段83巷14弄102號","121.372985","25.071815","6501700","林口區"
"221023","279-VK","2019/07/27 17:49:37","新北市汐止區康寧街609號","121.636148333333","25.070965","6501100","汐止區"
"221029","298-VK","2019/07/27 17:41:46","新北市汐止區康寧街901號","121.651711666667","25.0750466666667","6501100","汐止區"
"221031","353-TW","2019/07/27 17:49:39","新北市汐止區連峰街1巷3號","121.646243333333","25.0760033333333","6501100","汐止區"
"233002","KEA-2870","2019/07/27 17:49:33","新北市烏來區西羅岸路22號","121.549095","24.86749","6502900","烏來區"
"242044","281-VK","2019/07/27 17:49:49","新北市新莊區中正路855巷2號","121.419645","25.0276166666667","6500500","新莊區"
"242009","280-VK","2019/07/27 17:49:32","新北市新莊區昌明街30巷3弄2號","121.456728333333","25.0526833333333","6500500","新莊區"
