"lineid","car","time","location","longitude","latitude","cityid","cityname"
"234046","148-BY","2019/07/27 18:29:29","新北市永和區福和路1號","121.526386666667","25.0100216666667","6500400","永和區"
"234038","336-UY","2019/07/27 18:29:48","新北市永和區福和路1號","121.526433333333","25.0096666666667","6500400","永和區"
"234007","KED-0605","2019/07/27 18:29:33","新北市永和區環河西路二段7-11號","121.509108333333","25.0169766666667","6500400","永和區"
"234026","9371-KE","2019/07/27 18:29:50","新北市永和區永貞路417巷33號","121.5056","25.0089583333333","6500400","永和區"
"234011","9373-KE","2019/07/27 18:29:47","新北市永和區保安路53號","121.509405","25.0157783333333","6500400","永和區"
"249005","172-UM","2019/07/27 18:29:30","新北市八里區中華路三段134號","121.3915","25.1340666666667","6502300","八里區"
"249001","173-UM","2019/07/27 18:29:46","新北市八里區龍米路一段152號","121.452756666667","25.1258066666667","6502300","八里區"
"249004","303-UY","2019/07/27 18:29:40","新北市八里區忠孝路67號","121.426943333333","25.1603083333333","6502300","八里區"
"249002","305-UY","2019/07/27 18:29:48","新北市八里區龍形三街2號","121.450301666667","25.1317983333333","6502300","八里區"
"248016","026-BX","2019/07/27 18:29:40","新北市五股區凌雲路一段83巷1-4號","121.450446666667","25.1008116666667","6501500","五股區"
"248008","KED-0815","2019/07/27 18:29:47","新北市五股區四維路185巷42弄3-1號","121.463405","25.077315","6501500","五股區"
"248020","KED-0813","2019/07/27 18:29:48","新北市五股區孝義路55巷5號","121.451925","25.11214","6501500","五股區"
"248012","247-BX","2019/07/27 18:29:51","新北市五股區御成路80號","121.441733333333","25.0928816666667","6501500","五股區"
"248014","261-SL","2019/07/27 18:29:36","新北市五股區成泰路一段110-3號","121.435613333333","25.07227","6501500","五股區"
"248010","272-BY","2019/07/27 18:29:37","新北市五股區水碓路16巷34號","121.433948333333","25.0726783333333","6501500","五股區"
"248004","677-BX","2019/07/27 18:29:39","新北市五股區民義路一段147號","121.432993333333","25.08747","6501500","五股區"
"248002","678-BX","2019/07/27 18:29:40","新北市五股區西雲路116-6號","121.444578333333","25.0937433333333","6501500","五股區"
"232011","375-UM","2019/07/27 18:29:47","新北市坪林區坪雙路一段41號","121.711706666667","24.94244","6502000","坪林區"
"244007","080-UY","2019/07/27 18:29:45","新北市林口區中湖62號","121.384756666667","25.100805","6501700","林口區"
"244013","KEA-2802","2019/07/27 18:29:51","新北市林口區信義路58-5號","121.38244","25.078375","6501700","林口區"
"244023","483-VK","2019/07/27 18:29:32","新北市林口區仁愛路二段34號","121.385258333333","25.0759716666667","6501700","林口區"
"244017","485-VK","2019/07/27 18:29:38","新北市林口區文化二路一段98號","121.366833333333","25.0699916666667","6501700","林口區"
"244009","657-BX","2019/07/27 18:29:33","新北市林口區中山路576-8號","121.37645","25.0852183333333","6501700","林口區"
"244011","701-TV","2019/07/27 18:29:41","新北市林口區中正路225號","121.391175","25.077575","6501700","林口區"
"244025","837-TS","2019/07/27 18:29:34","新北市林口區源泉街62號","121.356796666667","25.0730466666667","6501700","林口區"
"244021","838-TS","2019/07/27 18:29:49","新北市林口區自強六街16號","121.399646666667","25.0765366666667","6501700","林口區"
"243014","KEA-2801","2019/07/27 18:29:43","新北市泰山區犁頭窠3-1號","121.422301666667","25.06037","6501600","泰山區"
"222003","436-BY","2019/07/27 18:29:48","新北市深坑區旺耽路35號","121.627505","25.0041333333333","6501800","深坑區"
"222002","659-BX","2019/07/27 18:29:40","新北市深坑區雲鄉路154號","121.623021666667","24.9980166666667","6501800","深坑區"
"231061","002-UM","2019/07/27 18:29:40","新北市新店區安華路28-1號","121.519728333333","24.9607683333333","6500600","新店區"
"231058","0293-UT","2019/07/27 18:29:47","新北市新店區北新路一段43號","121.53801","24.9594433333333","6500600","新店區"
"231044","046-UY","2019/07/27 18:29:51","新北市新店區安華路28-1號","121.519218333333","24.9607766666667","6500600","新店區"
"231060","106-UY","2019/07/27 18:29:29","新北市新店區安華路28-1號","121.51998","24.9606816666667","6500600","新店區"
"231051","107-UY","2019/07/27 18:29:38","新北市新店區安一路一段1-1號","121.51903","24.9613083333333","6500600","新店區"
"231054","260-TV","2019/07/27 18:29:46","新北市新店區安一路一段1-1號","121.519238333333","24.961225","6500600","新店區"
"231042","268-BY","2019/07/27 18:29:34","新北市新店區安康路一段17號","121.53309","24.9604066666667","6500600","新店區"
"231050","AAD-862","2019/07/27 18:29:37","新北市新店區安華路28-1號","121.519818333333","24.9608883333333","6500600","新店區"
"231055","4716-K9","2019/07/27 18:29:35","新北市新店區中正路128巷2號","121.542223333333","24.9714866666667","6500600","新店區"
"231056","4715-K9","2019/07/27 18:29:45","新北市新店區二十張路129巷5弄3號","121.536576666667","24.9787616666667","6500600","新店區"
"231052","513-UM","2019/07/27 18:29:40","新北市新店區北宜路一段248號","121.545268333333","24.9529233333333","6500600","新店區"
"231040","617-UM","2019/07/27 18:29:38","新北市新店區安華路28-1號","121.519385","24.9608166666667","6500600","新店區"
"231063","641-BX","2019/07/27 18:29:33","新北市新店區安華路1-1號","121.519505","24.9605133333333","6500600","新店區"
"231048","KED-0819","2019/07/27 18:29:39","新北市新店區安一路一段1-1號","121.519863333333","24.9611466666667","6500600","新店區"
"231059","897-TW","2019/07/27 18:29:35","新北市新店區安華路28-1號","121.51987","24.96079","6500600","新店區"
"231066","AKT-0513","2019/07/27 18:29:33","新北市新店區安華路28-1號","121.51955","24.9605333333333","6500600","新店區"
"241030","066-VK","2019/07/27 18:29:42","新北市三重區中正南路252巷5號","121.493318333333","25.052305","6500200","三重區"
"235066","003-UY","2019/07/27 18:29:47","新北市中和區中山路二段120號","121.502653333333","25.0037833333333","6500300","中和區"
"235064","005-UY","2019/07/27 18:29:41","新北市中和區連城路109巷77號","121.497391666667","24.99771","6500300","中和區"
"235063","006-UY","2019/07/27 18:29:31","新北市中和區連城路401號","121.486201666667","24.9961016666667","6500300","中和區"
"235056","096-UM","2019/07/27 18:29:51","新北市中和區員山路611巷1號","121.47786","25.0112866666667","6500300","中和區"
"235039","097-UM","2019/07/27 18:29:47","新北市中和區安平路210號","121.51373","24.9997133333333","6500300","中和區"
"235065","098-UM","2019/07/27 18:29:35","新北市中和區莊敬路49巷20弄24號","121.50281","25.0058766666667","6500300","中和區"
"235040","150-BY","2019/07/27 18:29:42","新北市中和區安平路59號","121.509548333333","24.9950416666667","6500300","中和區"
"235058","151-BY","2019/07/27 18:29:40","新北市中和區圓通路369巷30弄12號","121.489115","24.9849616666667","6500300","中和區"
"235055","183-VK","2019/07/27 18:29:42","新北市中和區民生街22號","121.470081666667","25.0054083333333","6500300","中和區"
"235038","185-VK","2019/07/27 18:29:37","新北市中和區秀朗路三段128巷17弄16號","121.523655","24.9931566666667","6500300","中和區"
"235049","186-VK","2019/07/27 18:29:47","新北市中和區景安路153號","121.505491666667","24.9951066666667","6500300","中和區"
"235067","255-BX","2019/07/27 18:29:37","新北市中和區中山路二段461號","121.483738333333","25.004955","6500300","中和區"
"235044","293-VK","2019/07/27 18:29:46","新北市中和區復興路301巷6號","121.502036666667","24.9896266666667","6500300","中和區"
"235072","301-VK","2019/07/27 18:29:39","新北市中和區連城路18號","121.498765","25.0021916666667","6500300","中和區"
"235043","352-BY","2019/07/27 18:29:38","新北市中和區景平路279-4號","121.507675","24.99309","6500300","中和區"
"235042","KEA-2878","2019/07/27 18:29:45","新北市中和區自立路179號","121.52346","24.9918783333333","6500300","中和區"
"235050","4979-A6","2019/07/27 18:29:34","新北市中和區景新街410巷18弄16號","121.511918333333","24.9897216666667","6500300","中和區"
"235069","4980-A6","2019/07/27 18:29:26","新北市中和區連城路127巷33號","121.497271666667","24.9972933333333","6500300","中和區"
"235041","551-UM","2019/07/27 18:29:35","新北市中和區景安路38號","121.50704","24.9982733333333","6500300","中和區"
"235070","558-UM","2019/07/27 18:29:43","新北市中和區景新街129號","121.505841666667","24.9972866666667","6500300","中和區"
"235045","565-BX","2019/07/27 18:29:50","新北市中和區復興路49巷2號","121.504633333333","24.9898066666667","6500300","中和區"
"235060","KED-0823","2019/07/27 18:29:47","新北市中和區中山路二段576號","121.482828333333","25.0052083333333","6500300","中和區"
"235054","640-BX","2019/07/27 18:29:37","新北市中和區民享街86巷2號","121.474446666667","25.0010233333333","6500300","中和區"
"235047","732-UM","2019/07/27 18:29:32","新北市中和區南山路493號","121.50793","24.9878766666667","6500300","中和區"
"235046","733-UM","2019/07/27 18:29:38","新北市中和區捷運路135號","121.506921666667","24.9908133333333","6500300","中和區"
"235062","800-TS","2019/07/27 18:29:48","新北市中和區中山路二段312巷33弄12號","121.494906666667","25.0039033333333","6500300","中和區"
"235057","801-TS","2019/07/27 18:29:40","新北市中和區員山路327巷21號","121.480455","25.0015933333333","6500300","中和區"
"235052","805-TS","2019/07/27 18:29:49","新北市中和區興南路二段96號","121.505185","24.9842266666667","6500300","中和區"
"235048","896-TW","2019/07/27 18:29:51","新北市中和區中正路71號","121.501061666667","24.99354","6500300","中和區"
"235053","900-TW","2019/07/27 18:29:36","新北市中和區民享街494號","121.46974","24.992205","6500300","中和區"
"235051","157-BY","2019/07/27 18:29:35","新北市中和區興南路二段114巷10弄38號","121.504053333333","24.9851016666667","6500300","中和區"
"235037","AAC-213","2019/07/27 18:29:50","新北市中和區景德街64號","121.517141666667","24.9915683333333","6500300","中和區"
"220069","AAD-861","2019/07/27 18:29:39","新北市板橋區華東街1-10號","121.44832","24.994985","6500100","板橋區"
"226004","312-R5","2019/07/27 18:29:45","新北市平溪區靜安路二段291號","121.734136666667","25.0233516666667","6502400","平溪區"
"228003","097-TW","2019/07/27 18:29:47","新北市貢寮區和美里和美街40-1號","121.912731666667","25.090125","6502600","貢寮區"
"228001","212-TW","2019/07/27 18:29:33","新北市貢寮區仁理村保健街85號","121.92367","25.0522016666667","6502600","貢寮區"
"228002","663-BX","2019/07/27 18:29:46","新北市貢寮區福連里香蘭街26-2號","121.984053333333","25.0214783333333","6502600","貢寮區"
"224010","AGQ-8101","2019/07/27 18:29:40","新北市瑞芳區烏勢巷108號","121.846393333333","25.1087483333333","6501200","瑞芳區"
"224006","676-BX","2019/07/27 18:29:46","新北市瑞芳區明燈路三段34號","121.807825","25.10774","6501200","瑞芳區"
"224007","285-BY","2019/07/27 18:29:48","新北市瑞芳區大埔路國宅新村64號","121.764941666667","25.1003866666667","6501200","瑞芳區"
"224009","275-VK","2019/07/27 18:29:31","新北市瑞芳區五號路144號","121.855081666667","25.1107866666667","6501200","瑞芳區"
"224008","273-VK","2019/07/27 18:29:45","新北市瑞芳區岳王路1巷29號","121.805946666667","25.1105033333333","6501200","瑞芳區"
"224005","271-BY","2019/07/27 18:29:50","新北市瑞芳區台電新村31號","121.812648333333","25.1276566666667","6501200","瑞芳區"
"227001","642-TC","2019/07/27 18:29:36","新北市雙溪區牡丹里牡丹39號","121.852505","25.0584166666667","6502500","雙溪區"
"227002","400-TW","2019/07/27 18:29:37","新北市雙溪區魚行里坤溪21-1號","121.870685","25.02756","6502500","雙溪區"
"253006","032-BX","2019/07/27 18:29:36","新北市石門區公地8號","121.545365","25.2901283333333","6502200","石門區"
"253005","295-VK","2019/07/27 18:29:50","新北市石門區老崩山2號","121.553055","25.2914566666667","6502200","石門區"
"222001","KEA-2212","2019/07/27 18:29:36","新北市深坑區北深路一段185號","121.631865","25.0104433333333","6501800","深坑區"
"208002","KEA-2872","2019/07/27 18:29:33","新北市金山區民生路222-1號","121.639996666667","25.2195616666667","6502700","金山區"
"208003","665-BX","2019/07/27 18:29:36","新北市金山區中山路170號","121.638363333333","25.221045","6502700","金山區"
"251004","009-UM","2019/07/27 18:29:32","新北市淡水區民族路31巷23號","121.462186666667","25.13641","6501000","淡水區"
"251005","010-UM","2019/07/27 18:29:47","新北市淡水區英專路2巷2號","121.446068333333","25.16859","6501000","淡水區"
"251001","011-UM","2019/07/27 18:29:43","新北市淡水區自強路122-3號","121.46476","25.1333516666667","6501000","淡水區"
"251015","KEA-2871","2019/07/27 18:29:25","新北市淡水區興福寮88巷216號","121.485951666667","25.1666733333333","6501000","淡水區"
"251016","179-VK","2019/07/27 18:29:38","新北市淡水區下圭柔山105-5號","121.445238333333","25.2107716666667","6501000","淡水區"
"251008","181-VK","2019/07/27 18:29:35","新北市淡水區水源街二段346巷1弄1號","121.464365","25.1754966666667","6501000","淡水區"
"251013","182-VK","2019/07/27 18:29:35","新北市淡水區椿子林19-5號","121.480955","25.2028133333333","6501000","淡水區"
"251012","441-VK","2019/07/27 18:29:48","新北市淡水區北新路一段49號","121.455383333333","25.1815633333333","6501000","淡水區"
"251006","561-UM","2019/07/27 18:29:45","新北市淡水區大信街26號","121.44203","25.1768783333333","6501000","淡水區"
"251014","577-R6","2019/07/27 18:29:43","新北市淡水區崙頂12號","121.49714","25.21656","6501000","淡水區"
"251011","650-BX","2019/07/27 18:29:50","新北市淡水區坪頂路27號","121.456675","25.1621516666667","6501000","淡水區"
"251002","672-BX","2019/07/27 18:29:36","新北市淡水區竿蓁二街43號","121.453981666667","25.1629633333333","6501000","淡水區"
"251003","673-BX","2019/07/27 18:29:32","新北市淡水區北新路169巷35-1號","121.449575","25.1802716666667","6501000","淡水區"
"251010","766-UM","2019/07/27 18:29:45","新北市淡水區沙崙路181巷1號","121.424105","25.1841966666667","6501000","淡水區"
"207004","681-TV","2019/07/27 18:29:48","新北市萬里區萬里里瑪鋉路55號","121.687978333333","25.17613","6502800","萬里區"
"207003","550-UM","2019/07/27 18:29:51","新北市萬里區野柳里港東路23號","121.687405","25.2036016666667","6502800","萬里區"
"252002","178-VK","2019/07/27 18:29:50","新北市三芝區中山路二段38號","121.502985","25.2551533333333","6502100","三芝區"
"252003","249-BX","2019/07/27 18:29:41","新北市三芝區後厝里北勢子45-32號","121.469466666667","25.2508633333333","6502100","三芝區"
"208001","170-UY","2019/07/27 18:29:41","新北市金山區金包里街178號","121.637493333333","25.2235016666667","6502700","金山區"
"237004","KEA-2597","2019/07/27 18:29:44","新北市三峽區五寮47號","121.364171666667","24.8618583333333","6500900","三峽區"
"237007","153-BY","2019/07/27 18:29:49","新北市三峽區中正路三段140號","121.353451666667","24.903615","6500900","三峽區"
"237009","210-TH","2019/07/27 18:29:31","新北市三峽區民權街147號","121.368763333333","24.93176","6500900","三峽區"
"237013","252-BX","2019/07/27 18:29:43","新北市三峽區大同路48巷17弄8-1號","121.376786666667","24.929055","6500900","三峽區"
"237008","302-VK","2019/07/27 18:29:38","新北市三峽區白雞141號","121.399301666667","24.9052866666667","6500900","三峽區"
"237014","433-BY","2019/07/27 18:29:43","新北市三峽區文化路109號","121.370488333333","24.9361383333333","6500900","三峽區"
"237006","5529-G3","2019/07/27 18:29:49","新北市三峽區溪東路473巷9號","121.414206666667","24.9287233333333","6500900","三峽區"
"237011","KEA-2596","2019/07/27 18:29:39","新北市三峽區溪東路248號","121.408606666667","24.931565","6500900","三峽區"
"237015","649-BX","2019/07/27 18:29:47","新北市三峽區竹崙路116號","121.434021666667","24.9106233333333","6500900","三峽區"
"237010","706-TV","2019/07/27 18:29:30","新北市三峽區文化路209號","121.366261666667","24.9355083333333","6500900","三峽區"
"237012","756-BX","2019/07/27 18:29:36","新北市三峽區三樹路242號","121.37934","24.94309","6500900","三峽區"
"237005","AKY-6261","2019/07/27 18:29:38","新北市三峽區民族街5巷29號","121.369836666667","24.9321766666667","6500900","三峽區"
"236042","KED-0685","2019/07/27 18:29:47","新北市土城區裕民路61巷13號","121.449553333333","24.98833","6501300","土城區"
"236079","166-UM","2019/07/27 18:29:33","新北市土城區中央路四段2-3號","121.426206666667","24.9633083333333","6501300","土城區"
"236030","253-BX","2019/07/27 18:29:35","新北市土城區水源街81巷13號","121.439323333333","24.9755766666667","6501300","土城區"
"236026","269-VK","2019/07/27 18:29:47","新北市土城區南天母路18-4號","121.44857","24.9533666666667","6501300","土城區"
"236014","270-VK","2019/07/27 18:29:40","新北市土城區青雲路39巷7號","121.46035","24.98743","6501300","土城區"
"236038","271-VK","2019/07/27 18:29:42","新北市土城區青山路57號","121.46391","24.97519","6501300","土城區"
"236070","KEA-2877","2019/07/27 18:29:48","新北市土城區永豐路255巷42號","121.475815","24.97282","6501300","土城區"
"252001","KED-0821","2019/07/27 18:29:31","新北市三芝區中興街一段50號","121.498246666667","25.25678","6502100","三芝區"
"236021","401-BY","2019/07/27 18:29:31","新北市土城區永豐路202巷14號","121.46656","24.98345","6501300","土城區"
"236059","912-UM","2019/07/27 18:29:47","新北市土城區中央路四段200號","121.416131666667","24.957585","6501300","土城區"
"236049","913-UM","2019/07/27 18:29:50","新北市土城區青雲路461號","121.458798333333","24.9743333333333","6501300","土城區"
"236063","915-UM","2019/07/27 18:29:36","新北市土城區延壽路77巷6弄4號","121.468543333333","24.9926566666667","6501300","土城區"
"236055","AAC-216","2019/07/27 18:29:33","新北市土城區中華路一段247號","121.440901666667","24.9816883333333","6501300","土城區"
"242061","986-R7","2019/07/27 18:29:42","新北市新莊區民安路188巷2弄1號","121.425191666667","25.0236783333333","6500500","新莊區"
"242058","612-BX","2019/07/27 18:29:33","新北市新莊區中正路897-11號","121.411668333333","25.02149","6500500","新莊區"
"242046","442-UM","2019/07/27 18:29:32","新北市新莊區民安路23號","121.42308","25.0277633333333","6500500","新莊區"
"242056","441-UM","2019/07/27 18:29:48","新北市新莊區瓊林路59-3號","121.444958333333","25.0272633333333","6500500","新莊區"
"242042","415-TV","2019/07/27 18:29:36","新北市新莊區天祥街82巷13號","121.415896666667","25.0299183333333","6500500","新莊區"
"242011","413-TV","2019/07/27 18:29:40","新北市新莊區幸福路852號","121.444023333333","25.0490083333333","6500500","新莊區"
"242025","362-BY","2019/07/27 18:29:42","新北市新莊區中港路750巷1號","121.450658333333","25.05894","6500500","新莊區"
"242053","172-VK","2019/07/27 18:29:45","新北市板橋區大觀路三段50巷103號","121.431005","24.9966483333333","6500500","新莊區"
"238023","601-UM","2019/07/27 18:29:35","新北市樹林區三福街114號","121.406378333333","25.01642","6500700","樹林區"
"238024","5061-A6","2019/07/27 18:29:34","新北市樹林區中山路一段145號","121.422226666667","24.989515","6500700","樹林區"
"238018","KEA-2217","2019/07/27 18:29:37","新北市樹林區樹新路50巷5弄9號","121.42971","24.996995","6500700","樹林區"
"238022","KEA-2213","2019/07/27 18:29:30","新北市樹林區中山路三段214號","121.380413333333","24.966855","6500700","樹林區"
"238025","303-VK","2019/07/27 18:29:40","新北市樹林區中山路二段131號","121.40712","24.9794733333333","6500700","樹林區"
"238017","283-BY","2019/07/27 18:29:49","新北市樹林區光榮街79號","121.412061666667","25.0029616666667","6500700","樹林區"
"238014","282-BY","2019/07/27 18:29:44","新北市樹林區大安路111巷25號","121.423108333333","24.9975683333333","6500700","樹林區"
"238020","268-VK","2019/07/27 18:29:44","新北市樹林區中正路642巷19號","121.411391666667","25.017495","6500700","樹林區"
"238026","172-UY","2019/07/27 18:29:40","新北市樹林區佳園路一段75巷196號","121.39705","24.9706883333333","6500700","樹林區"
"239006","891-R6","2019/07/27 18:29:44","新北市鶯歌區鶯桃路296巷46-3號","121.335833333333","24.961295","6500800","鶯歌區"
"239005","526-UM","2019/07/27 18:29:33","新北市鶯歌區鶯桃路668巷1號","121.328925","24.96969","6500800","鶯歌區"
"239001","417-VK","2019/07/27 18:29:33","新北市鶯歌區國中街178號","121.338208333333","24.93922","6500800","鶯歌區"
"239003","360-BY","2019/07/27 18:29:34","新北市鶯歌區福安街58號","121.335583333333","24.9652116666667","6500800","鶯歌區"
"239002","359-BY","2019/07/27 18:29:34","新北市鶯歌區國慶街48號","121.349735","24.9555116666667","6500800","鶯歌區"
"239004","193-VK","2019/07/27 18:29:37","新北市鶯歌區尖山路卓厝巷7號","121.341668333333","24.9453833333333","6500800","鶯歌區"
"221036","130-UY","2019/07/27 18:29:36","新北市汐止區大同路三段143號","121.66932","25.0777233333333","6501100","汐止區"
"221015","131-UY","2019/07/27 18:29:35","新北市汐止區長江街355號","121.667426666667","25.0824516666667","6501100","汐止區"
"244019","KED-0667","2019/07/27 18:29:53","新北市林口區忠孝路616巷27號","121.377278333333","25.067195","6501700","林口區"
"221012","278-VK","2019/07/27 18:29:45","新北市汐止區保長路35巷12號","121.672946666667","25.0797866666667","6501100","汐止區"
"221023","279-VK","2019/07/27 18:29:37","新北市汐止區康寧街474巷7-2號","121.632285","25.0679316666667","6501100","汐止區"
"221032","280-BY","2019/07/27 18:29:34","新北市汐止區民權街二段111號","121.618931666667","25.0469216666667","6501100","汐止區"
"221027","281-BY","2019/07/27 18:29:36","新北市汐止區和平街69號","121.66147","25.0706766666667","6501100","汐止區"
"221033","297-VK","2019/07/27 18:29:35","新北市汐止區宜興街27號","121.621751666667","25.0418866666667","6501100","汐止區"
"221021","299-VK","2019/07/27 18:29:43","新北市汐止區連興街116號","121.653733333333","25.0627066666667","6501100","汐止區"
"221031","353-TW","2019/07/27 18:29:39","新北市汐止區大同路一段160-7號","121.635928333333","25.05526","6501100","汐止區"
"221035","622-UM","2019/07/27 18:29:47","新北市汐止區大同路二段187巷6弄3號","121.652515","25.065395","6501100","汐止區"
"221025","623-UM","2019/07/27 18:29:44","新北市汐止區仁愛路121巷3號","121.662676666667","25.0638866666667","6501100","汐止區"
"221038","646-BX","2019/07/27 18:29:41","新北市汐止區忠孝東路303號","121.664345","25.0689883333333","6501100","汐止區"
"221002","707-TV","2019/07/27 18:29:43","新北市汐止區福德一路148號","121.636623333333","25.066845","6501100","汐止區"
"221018","753-BX","2019/07/27 18:29:48","新北市汐止區茄苳路120巷2號","121.667725","25.0699883333333","6501100","汐止區"
"220079","145-BY","2019/07/27 18:29:41","新北市板橋區華東街1-10號","121.448335","24.9950766666667","6500100","板橋區"
"220082","610-BX","2019/07/27 18:29:43","新北市板橋區華東街1-10號","121.448235","24.9949833333333","6500100","板橋區"
"224002","257-TC","2019/07/27 18:29:47","新北市瑞芳區正貿新村20號","121.813235","25.105715","6501200","瑞芳區"
"220056","276-BY","2019/07/27 18:29:39","新北市板橋區華東街1-9號","121.448081666667","24.9949683333333","6500100","板橋區"
"220071","283-VK","2019/07/27 18:29:29","新北市板橋區華東街1-9號","121.448063333333","24.9949366666667","6500100","板橋區"
"220094","285-UM","2019/07/27 18:29:49","新北市板橋區民生路二段161巷3號","121.470131666667","25.019795","6500100","板橋區"
"220081","287-VK","2019/07/27 18:29:47","新北市板橋區華東街1-10號","121.44822","24.995015","6500100","板橋區"
"242044","281-VK","2019/07/27 18:29:38","新北市新莊區新北大道七段852號","121.41389","25.0234666666667","6500500","新莊區"
"220035","560-BX","2019/07/27 18:29:43","新北市板橋區南雅西路二段145巷6號","121.451586666667","25.0118783333333","6500100","板橋區"
"220057","686-BX","2019/07/27 18:29:48","新北市板橋區四川路二段130巷23號","121.449495","24.994205","6500100","板橋區"
"220077","687-BX","2019/07/27 18:29:46","新北市板橋區華東街1-10號","121.448335","24.995005","6500100","板橋區"
"220054","741-BX","2019/07/27 18:29:43","新北市板橋區華東街1-9號","121.44816","24.9949433333333","6500100","板橋區"
"220055","827-TW","2019/07/27 18:29:42","新北市板橋區四川路二段142-1號","121.450176666667","24.9933016666667","6500100","板橋區"
"220073","985-R7","2019/07/27 18:29:49","新北市板橋區四川路二段134號","121.450278333333","24.993505","6500100","板橋區"
"220064","AAC-253","2019/07/27 18:29:40","新北市板橋區華東街300號","121.452836666667","25.002875","6500100","板橋區"
"235068","KEA-2873","2019/07/27 18:29:45","新北市中和區中正路271-5號","121.495838333333","24.9932183333333","6500300","中和區"
"235061","KEA-2875","2019/07/27 18:29:49","新北市中和區民享街90巷22號","121.473538333333","25.0000633333333","6500300","中和區"
