"lineid","car","time","location","longitude","latitude","cityid","cityname"
"234046","148-BY","2019/07/27 18:59:49","新北市永和區得和路373巷31弄9號","121.524665","25.0006766666667","6500400","永和區"
"234081","298-R6","2019/07/27 18:59:35","新北市永和區永亨路83號","121.522075","25.0057216666667","6500400","永和區"
"234038","336-UY","2019/07/27 18:59:48","新北市永和區成功路二段207號","121.52661","24.9959666666667","6500400","永和區"
"234064","337-UY","2019/07/27 18:59:46","新北市永和區秀朗路一段186號","121.519261666667","25.00318","6500400","永和區"
"234015","745-BX","2019/07/27 18:59:50","新北市永和區永和路二段290號","121.51609","25.0156633333333","6500400","永和區"
"234030","746-BX","2019/07/27 18:59:44","新北市永和區秀朗路二段281號","121.526198333333","24.9981633333333","6500400","永和區"
"234054","KEA-2590","2019/07/27 18:59:42","新北市永和區竹林路64號","121.518323333333","25.0134533333333","6500400","永和區"
"234007","KED-0605","2019/07/27 18:59:33","新北市永和區中山路一段47號","121.513153333333","25.010545","6500400","永和區"
"234013","KEA-2591","2019/07/27 18:59:46","新北市永和區保福路二段2號","121.511238333333","25.010825","6500400","永和區"
"234061","AAD-866","2019/07/27 18:59:45","新北市永和區福和路307號","121.516301666667","25.0073066666667","6500400","永和區"
"234070","748-BX","2019/07/27 18:59:38","新北市永和區中興街52巷1弄13號","121.517276666667","25.0113766666667","6500400","永和區"
"234050","863-TW","2019/07/27 18:59:43","新北市永和區文化路147號","121.510785","25.016185","6500400","永和區"
"234026","9371-KE","2019/07/27 18:59:34","新北市永和區安樂路461號","121.514331666667","25.0052","6500400","永和區"
"234011","9373-KE","2019/07/27 18:59:47","新北市永和區信義路25巷30弄9號","121.51243","25.0120683333333","6500400","永和區"
"249005","172-UM","2019/07/27 18:59:50","新北市八里區長道坑13-1號","121.394556666667","25.1227016666667","6502300","八里區"
"249001","173-UM","2019/07/27 18:59:46","新北市八里區龍米路二段228-1號","121.432748333333","25.158435","6502300","八里區"
"248016","026-BX","2019/07/27 18:59:37","新北市五股區成泰路三段577巷19號","121.451458333333","25.1026016666667","6501500","五股區"
"248006","077-UY","2019/07/27 18:59:45","新北市五股區四維路183號","121.467968333333","25.0752866666667","6501500","五股區"
"248008","KED-0815","2019/07/27 18:59:46","新北市五股區中興路一段128巷6號","121.465783333333","25.0740616666667","6501500","五股區"
"248020","KED-0813","2019/07/27 18:59:28","新北市五股區凌雲路三段71-6號","121.424371666667","25.1245716666667","6501500","五股區"
"248012","247-BX","2019/07/27 18:59:40","新北市五股區工商路18巷21號","121.440061666667","25.08425","6501500","五股區"
"248014","261-SL","2019/07/27 18:59:36","新北市五股區民義路一段107巷32號","121.432288333333","25.08443","6501500","五股區"
"248010","272-BY","2019/07/27 18:59:37","新北市五股區水碓一路23號","121.430651666667","25.07128","6501500","五股區"
"248004","677-BX","2019/07/27 18:59:39","新北市五股區民義路二段52-25號","121.409815","25.1048866666667","6501500","五股區"
"248002","678-BX","2019/07/27 18:59:40","新北市五股區凌雲路一段161號","121.448968333333","25.10258","6501500","五股區"
"234023","9380-KE","2019/07/27 18:59:41","新北市永和區竹林路75巷33弄3號","121.520553333333","25.0142866666667","6500400","永和區"
"234077","969-R7","2019/07/27 18:59:39","新北市永和區得和路104巷8號","121.51801","24.99975","6500400","永和區"
"234074","AAC-211","2019/07/27 18:59:41","新北市永和區環河東路二段100號","121.524096666667","25.0103083333333","6500400","永和區"
"234067","AAC-212","2019/07/27 18:59:53","新北市永和區自由街62號","121.513676666667","25.005795","6500400","永和區"
"234003","AAC-295","2019/07/27 18:59:18","新北市永和區和平街27號","121.513235","25.009895","6500400","永和區"
"232011","375-UM","2019/07/27 18:59:48","新北市坪林區水聳淒坑25號","121.711505","24.934215","6502000","坪林區"
"244013","KEA-2802","2019/07/27 18:59:31","新北市林口區麗園一街2巷1號","121.375875","25.0720166666667","6501700","林口區"
"244023","483-VK","2019/07/27 18:59:33","新北市林口區文化三路二段160號","121.375776666667","25.08205","6501700","林口區"
"244017","485-VK","2019/07/27 18:59:38","新北市林口區公園路100號","121.369806666667","25.0707666666667","6501700","林口區"
"244009","657-BX","2019/07/27 18:59:40","新北市林口區台電新村126號","121.388695","25.0875166666667","6501700","林口區"
"244011","701-TV","2019/07/27 18:59:40","新北市林口區中正路315號","121.388753333333","25.0776633333333","6501700","林口區"
"244025","837-TS","2019/07/27 18:59:33","新北市林口區南勢街192巷13號","121.361525","25.0750033333333","6501700","林口區"
"243010","297-R6","2019/07/27 18:59:31","新北市泰山區辭修路24號","121.429058333333","25.0581183333333","6501600","泰山區"
"243014","KEA-2801","2019/07/27 18:59:47","新北市泰山區泰林路二段599巷1-1號","121.42132","25.0633183333333","6501600","泰山區"
"243016","421-VK","2019/07/27 18:59:39","新北市泰山區明志路二段137號","121.427631666667","25.0506916666667","6501600","泰山區"
"243012","539-UM","2019/07/27 18:59:33","新北市泰山區福興三街11號","121.434506666667","25.057755","6501600","泰山區"
"243011","KEA-2216","2019/07/27 18:59:45","新北市泰山區明志路二段277號","121.42688","25.04718","6501600","泰山區"
"243015","680-BX","2019/07/27 18:59:46","新北市泰山區美寧街48號","121.430513333333","25.0643866666667","6501600","泰山區"
"222003","436-BY","2019/07/27 18:59:48","新北市深坑區深南路51-1號","121.621376666667","25.0101466666667","6501800","深坑區"
"222002","659-BX","2019/07/27 18:59:40","新北市深坑區文山路一段33號","121.629481666667","25.003905","6501800","深坑區"
"231061","002-UM","2019/07/27 18:59:40","新北市新店區安忠路57巷11弄14號","121.515286666667","24.9579633333333","6500600","新店區"
"231058","0293-UT","2019/07/27 18:59:47","新北市新店區中興路一段280號","121.54558","24.9685116666667","6500600","新店區"
"231044","046-UY","2019/07/27 18:59:51","新北市新店區寶中路72號","121.547851666667","24.9805716666667","6500600","新店區"
"231060","106-UY","2019/07/27 18:59:49","新北市新店區安忠路57巷11弄14號","121.5154","24.9579433333333","6500600","新店區"
"231051","107-UY","2019/07/27 18:59:38","新北市新店區中正路347號","121.53546","24.9757483333333","6500600","新店區"
"231049","108-UY","2019/07/27 18:59:41","新北市新店區中正路454-5號","121.534531666667","24.9790533333333","6500600","新店區"
"231065","110-UY","2019/07/27 18:59:39","新北市新店區安祥路219號","121.476551666667","24.9557416666667","6500600","新店區"
"231062","256-BX","2019/07/27 18:59:34","新北市新店區安豐路37號","121.500525","24.9561966666667","6500600","新店區"
"231054","260-TV","2019/07/27 18:59:46","新北市新店區新店路15號","121.540228333333","24.9528333333333","6500600","新店區"
"231042","268-BY","2019/07/27 18:59:34","新北市新店區中正路12號","121.545396666667","24.9695466666667","6500600","新店區"
"231064","278-BY","2019/07/27 18:59:32","新北市新店區安一路一段1-1號","121.51983","24.9615516666667","6500600","新店區"
"231050","AAD-862","2019/07/27 18:59:37","新北市新店區新烏路一段11巷1弄2號","121.547311666667","24.9513616666667","6500600","新店區"
"231045","355-BY","2019/07/27 18:59:40","新北市新店區安康路一段105號","121.5289","24.961585","6500600","新店區"
"231055","4716-K9","2019/07/27 18:59:14","新北市新店區新生街13巷40號","121.538806666667","24.9668683333333","6500600","新店區"
"231056","4715-K9","2019/07/27 18:59:45","新北市新店區民權路115-1號","121.536245","24.9824633333333","6500600","新店區"
"231067","4772-VM","2019/07/27 18:59:42","新北市新店區安康路一段76巷28-2號","121.528076666667","24.9631433333333","6500600","新店區"
"231052","513-UM","2019/07/27 18:59:40","新北市新店區新烏路二段9號","121.544708333333","24.9290966666667","6500600","新店區"
"231040","617-UM","2019/07/27 18:59:38","新北市新店區中央路39號","121.532905","24.9776916666667","6500600","新店區"
"231041","619-UM","2019/07/27 18:59:51","新北市新店區安康路一段44號","121.530781666667","24.9610216666667","6500600","新店區"
"231063","641-BX","2019/07/27 18:59:33","新北市新店區安華路1-1號","121.519575","24.9605066666667","6500600","新店區"
"231048","KED-0819","2019/07/27 18:59:39","新北市新店區德正街25巷2號","121.544366666667","24.9715483333333","6500600","新店區"
"231046","719-UM","2019/07/27 18:59:39","新北市新店區直潭二街39號","121.535265","24.941295","6500600","新店區"
"231057","720-UM","2019/07/27 18:59:35","新北市新店區百齡一路12號","121.553063333333","24.9324916666667","6500600","新店區"
"231059","897-TW","2019/07/27 18:59:35","新北市新店區安華路28-1號","121.519731666667","24.960695","6500600","新店區"
"231043","899-TW","2019/07/27 18:59:40","新北市新店區北新路二段2號","121.542678333333","24.9709333333333","6500600","新店區"
"231066","AKT-0513","2019/07/27 18:59:40","新北市新店區安豐路30-1號","121.500895","24.9567366666667","6500600","新店區"
"241035","462-BY","2019/07/27 18:59:47","新北市三重區重新路四段121號","121.484291666667","25.0521933333333","6500200","三重區"
"241029","942-UM","2019/07/27 18:59:51","新北市三重區重安街24號","121.490361666667","25.0579933333333","6500200","三重區"
"235066","003-UY","2019/07/27 18:59:47","新北市中和區中山路二段131巷8號","121.50275","25.00238","6500300","中和區"
"235064","005-UY","2019/07/27 18:59:41","新北市中和區中和路26巷17號","121.499336666667","25.0013366666667","6500300","中和區"
"235063","006-UY","2019/07/27 18:59:51","新北市中和區中正路586號","121.485898333333","24.9948016666667","6500300","中和區"
"235056","096-UM","2019/07/27 18:59:51","新北市中和區員山路570號","121.478808333333","25.0112716666667","6500300","中和區"
"235039","097-UM","2019/07/27 18:59:47","新北市中和區自強路64號","121.520091666667","24.9943733333333","6500300","中和區"
"235065","098-UM","2019/07/27 18:59:35","新北市中和區福祥路136號","121.498735","25.006925","6500300","中和區"
"235040","150-BY","2019/07/27 18:59:42","新北市中和區宜安路7號","121.51349","24.9953866666667","6500300","中和區"
"235058","151-BY","2019/07/27 18:59:39","新北市中和區連城路569巷9弄8號","121.479445","24.9940333333333","6500300","中和區"
"235055","183-VK","2019/07/27 18:59:34","新北市中和區民德路25巷11號","121.469963333333","25.003205","6500300","中和區"
"235038","185-VK","2019/07/27 18:59:37","新北市中和區立人街24-5號","121.51895","24.994145","6500300","中和區"
"235049","186-VK","2019/07/27 18:59:47","新北市中和區景安路66號","121.505845","24.9967266666667","6500300","中和區"
"235067","255-BX","2019/07/27 18:59:37","新北市中和區民樂路48號","121.483145","25.0007316666667","6500300","中和區"
"235044","293-VK","2019/07/27 18:59:46","新北市中和區中興街202巷6號","121.4991","24.9904133333333","6500300","中和區"
"235072","301-VK","2019/07/27 18:59:40","新北市中和區福美路305號","121.497041666667","25.0047166666667","6500300","中和區"
"235043","352-BY","2019/07/27 18:59:49","新北市中和區景平路4號","121.524221666667","24.9906116666667","6500300","中和區"
"235042","KEA-2878","2019/07/27 18:59:45","新北市中和區秀朗路三段22巷15號","121.525475","24.9961083333333","6500300","中和區"
"235050","4979-A6","2019/07/27 18:59:34","新北市中和區華新街63號","121.507998333333","24.9841466666667","6500300","中和區"
"235069","4980-A6","2019/07/27 18:59:46","新北市中和區圓通路108號","121.499371666667","24.996615","6500300","中和區"
"235041","551-UM","2019/07/27 18:59:34","新北市中和區景安路16號","121.5077","24.9988866666667","6500300","中和區"
"235070","558-UM","2019/07/27 18:59:43","新北市中和區中和路164號","121.504315","24.999755","6500300","中和區"
"235045","565-BX","2019/07/27 18:59:50","新北市中和區景新街467巷20弄166號","121.514435","24.98776","6500300","中和區"
"235060","KED-0823","2019/07/27 18:59:47","新北市中和區民治街27巷12號","121.475595","25.0013433333333","6500300","中和區"
"235054","640-BX","2019/07/27 18:59:38","新北市中和區國光街108號","121.470016666667","25.0005566666667","6500300","中和區"
"235047","732-UM","2019/07/27 18:59:52","新北市中和區興南路二段54巷2-4號","121.50609","24.9854983333333","6500300","中和區"
"235046","733-UM","2019/07/27 18:59:38","新北市中和區興南路二段33號","121.50789","24.985635","6500300","中和區"
"235057","801-TS","2019/07/27 18:59:40","新北市中和區民利街70號","121.478508333333","24.998545","6500300","中和區"
"235052","805-TS","2019/07/27 18:59:49","新北市中和區興南路二段168號","121.503686666667","24.9826233333333","6500300","中和區"
"235048","896-TW","2019/07/27 18:59:31","新北市中和區華新街111號","121.508515","24.98145","6500300","中和區"
"235053","900-TW","2019/07/27 18:59:36","新北市中和區和平路200巷33-3號","121.465216666667","24.9945416666667","6500300","中和區"
"235051","157-BY","2019/07/27 18:59:35","新北市中和區忠孝街31巷33弄3號","121.509735","24.984485","6500300","中和區"
"235037","AAC-213","2019/07/27 18:59:30","新北市中和區秀朗路三段60巷30號","121.525343333333","24.995015","6500300","中和區"
"235059","AAC-215","2019/07/27 18:59:42","新北市中和區圓通路367巷20弄29號","121.491395","24.9881883333333","6500300","中和區"
"220068","015-TV","2019/07/27 18:59:39","新北市板橋區三民路一段31巷36弄7號","121.481106666667","25.0228583333333","6500100","板橋區"
"220065","072-UY","2019/07/27 18:59:47","新北市板橋區漢生東路324號","121.471801666667","25.0079266666667","6500100","板橋區"
"220086","073-UY","2019/07/27 18:59:45","新北市板橋區大智街53號","121.454106666667","25.015415","6500100","板橋區"
"220106","075-UY","2019/07/27 18:59:44","新北市板橋區雙十路三段10巷16號","121.47232","25.030985","6500100","板橋區"
"220069","AAD-861","2019/07/27 18:59:39","新北市板橋區四川路一段159號","121.459978333333","25.0039183333333","6500100","板橋區"
"226004","312-R5","2019/07/27 18:59:45","新北市平溪區石底里石底街35號","121.739556666667","25.0245833333333","6502400","平溪區"
"228003","097-TW","2019/07/27 18:59:46","新北市貢寮區和美里龍洞街60-1號","121.91445","25.1163766666667","6502600","貢寮區"
"228001","212-TW","2019/07/27 18:59:33","新北市貢寮區仁理村研海街12-1號","121.923786666667","25.0516733333333","6502600","貢寮區"
"228002","663-BX","2019/07/27 18:59:46","新北市貢寮區福隆里東興街104號","121.94599","25.0173616666667","6502600","貢寮區"
"224010","AGQ-8101","2019/07/27 18:59:50","新北市瑞芳區基山街32號","121.844951666667","25.1084833333333","6501200","瑞芳區"
"224006","676-BX","2019/07/27 18:59:46","新北市瑞芳區三爪子坑路118-2號","121.806475","25.1053366666667","6501200","瑞芳區"
"224007","285-BY","2019/07/27 18:59:48","新北市瑞芳區中央路48巷162號","121.759398333333","25.10351","6501200","瑞芳區"
"224009","275-VK","2019/07/27 18:59:51","新北市瑞芳區長仁路40號","121.864451666667","25.1182216666667","6501200","瑞芳區"
"224008","273-VK","2019/07/27 18:59:45","新北市瑞芳區逢甲路340-9號","121.798603333333","25.1167016666667","6501200","瑞芳區"
"224005","271-BY","2019/07/27 18:59:11","新北市瑞芳區瑞濱路185號","121.818256666667","25.1137083333333","6501200","瑞芳區"
"227001","642-TC","2019/07/27 18:59:36","新北市雙溪區牡丹里中正路60號","121.866055","25.04241","6502500","雙溪區"
"227002","400-TW","2019/07/27 18:59:37","新北市雙溪區平林里外平林10-3號","121.859088333333","25.0381533333333","6502500","雙溪區"
"253006","032-BX","2019/07/27 18:59:36","新北市石門區下員坑30-7號","121.520015","25.2823883333333","6502200","石門區"
"253005","295-VK","2019/07/27 18:59:49","新北市石門區中央路42號","121.568085","25.2928","6502200","石門區"
"222001","KEA-2212","2019/07/27 18:59:35","新北市深坑區北深路一段300號","121.62424","25.0057416666667","6501800","深坑區"
"208002","KEA-2872","2019/07/27 18:59:33","新北市金山區仁愛路37-14號","121.635681666667","25.220395","6502700","金山區"
"208003","665-BX","2019/07/27 18:59:36","新北市金山區中正路49號","121.634693333333","25.2220366666667","6502700","金山區"
"251009","008-UM","2019/07/27 18:59:40","新北市淡水區建設街1巷7-2號","121.439336666667","25.17274","6501000","淡水區"
"251001","011-UM","2019/07/27 18:59:43","新北市淡水區自強路243號","121.463206666667","25.1273733333333","6501000","淡水區"
"251015","KEA-2871","2019/07/27 18:59:45","新北市淡水區糞箕湖131巷2號","121.488488333333","25.17296","6501000","淡水區"
"251016","179-VK","2019/07/27 18:59:47","新北市淡水區淡金路三段325號","121.448958333333","25.2060566666667","6501000","淡水區"
"251013","182-VK","2019/07/27 18:59:35","新北市淡水區小坑子頭3-1號","121.489371666667","25.2144983333333","6501000","淡水區"
"243009","549-UM","2019/07/27 18:59:51","新北市泰山區泰林路二段362號","121.428783333333","25.0635833333333","6501600","泰山區"
"251012","441-VK","2019/07/27 18:59:48","新北市淡水區新興街109-3號","121.440746666667","25.1806683333333","6501000","淡水區"
"251007","442-VK","2019/07/27 18:59:40","新北市淡水區民生路113巷1弄41號","121.46288","25.1386133333333","6501000","淡水區"
"251014","577-R6","2019/07/27 18:59:16","新北市淡水區小中寮32-1號","121.491218333333","25.2260683333333","6501000","淡水區"
"251011","650-BX","2019/07/27 18:59:50","新北市淡水區鄧公路30巷2弄34號","121.453935","25.1690783333333","6501000","淡水區"
"251002","672-BX","2019/07/27 18:59:36","新北市淡水區中正東路55-8號","121.44678","25.1677766666667","6501000","淡水區"
"251003","673-BX","2019/07/27 18:59:32","新北市淡水區中山北路一段149巷24號","121.442973333333","25.1779833333333","6501000","淡水區"
"251010","766-UM","2019/07/27 18:59:45","新北市淡水區淡海路69巷8弄6號","121.42277","25.1815666666667","6501000","淡水區"
"207004","681-TV","2019/07/27 18:59:47","新北市萬里區萬里里獅頭路23號","121.693258333333","25.1782583333333","6502800","萬里區"
"207003","550-UM","2019/07/27 18:59:31","新北市萬里區大鵬里頂社24-5號","121.658493333333","25.2086","6502800","萬里區"
"252002","178-VK","2019/07/27 18:59:50","新北市三芝區中正路一段38號","121.50335","25.258325","6502100","三芝區"
"252003","249-BX","2019/07/27 18:59:34","新北市三芝區後厝里北勢子20-3號","121.473635","25.2538383333333","6502100","三芝區"
"208001","170-UY","2019/07/27 18:59:41","新北市金山區環金路19號","121.641096666667","25.2175916666667","6502700","金山區"
"237004","KEA-2597","2019/07/27 18:59:44","新北市三峽區有木115號","121.43614","24.8554933333333","6500900","三峽區"
"237007","153-BY","2019/07/27 18:59:49","新北市三峽區大埔路177號","121.366681666667","24.9051633333333","6500900","三峽區"
"237013","252-BX","2019/07/27 18:59:43","新北市三峽區大同路48巷17弄8-1號","121.376728333333","24.92906","6500900","三峽區"
"237008","302-VK","2019/07/27 18:59:39","新北市三峽區大同路174巷6號","121.372616666667","24.9271383333333","6500900","三峽區"
"237014","433-BY","2019/07/27 18:58:23","新北市三峽區隆恩街168-9號","121.36306","24.9436883333333","6500900","三峽區"
"237006","5529-G3","2019/07/27 18:59:49","新北市三峽區溪東路130號","121.40449","24.9333933333333","6500900","三峽區"
"237011","KEA-2596","2019/07/27 18:59:39","新北市三峽區介壽路三段231-5號","121.406001666667","24.9468566666667","6500900","三峽區"
"237015","649-BX","2019/07/27 18:59:47","新北市三峽區建安80-2號","121.451478333333","24.9231216666667","6500900","三峽區"
"237010","706-TV","2019/07/27 18:59:50","新北市三峽區復興路329號","121.36461","24.93878","6500900","三峽區"
"237012","756-BX","2019/07/27 18:59:36","新北市三峽區三樹路222巷47號","121.382741666667","24.9423233333333","6500900","三峽區"
"237005","AKY-6261","2019/07/27 18:59:38","新北市三峽區中山路459巷135號","121.348621666667","24.9329233333333","6500900","三峽區"
"236042","KED-0685","2019/07/27 18:59:47","新北市土城區學府路一段258號","121.451311666667","24.9844416666667","6501300","土城區"
"220089","KED-0812","2019/07/27 18:59:52","新北市板橋區文化路二段159號","121.470271666667","25.02721","6500100","板橋區"
"236079","166-UM","2019/07/27 18:59:33","新北市土城區中央路四段125巷2弄10號","121.41649","24.95704","6501300","土城區"
"236030","253-BX","2019/07/27 18:59:50","新北市土城區興城路75號","121.440085","24.9707866666667","6501300","土城區"
"236026","269-VK","2019/07/27 18:59:47","新北市土城區中正路1號","121.442128333333","24.9750233333333","6501300","土城區"
"236014","270-VK","2019/07/27 18:59:40","新北市土城區立德路13巷22號","121.46164","24.9887916666667","6501300","土城區"
"236038","271-VK","2019/07/27 18:59:42","新北市土城區仁愛路18號","121.460756666667","24.9803066666667","6501300","土城區"
"236070","KEA-2877","2019/07/27 18:59:48","新北市土城區清水路99巷13號","121.456821666667","24.98233","6501300","土城區"
"252001","KED-0821","2019/07/27 18:59:31","新北市三芝區中興街二段260號","121.501798333333","25.2530316666667","6502100","三芝區"
"236021","401-BY","2019/07/27 18:59:44","新北市土城區明峰街48號","121.467826666667","24.9863616666667","6501300","土城區"
"236059","912-UM","2019/07/27 18:59:47","新北市土城區金城路二段266號","121.458235","24.984075","6501300","土城區"
"236049","913-UM","2019/07/27 18:59:44","新北市土城區青雲路291號","121.459075","24.97983","6501300","土城區"
"236063","915-UM","2019/07/27 18:59:36","新北市土城區延和路41巷6弄18號","121.466755","24.990255","6501300","土城區"
"236055","AAC-216","2019/07/27 18:59:33","新北市土城區學成路147號","121.448746666667","24.9895383333333","6501300","土城區"
"238023","601-UM","2019/07/27 18:59:35","新北市樹林區大慶街47號","121.396446666667","25.01393","6500700","樹林區"
"238019","599-UM","2019/07/27 18:59:45","新北市樹林區東榮街147巷27弄3號","121.41469","24.9808466666667","6500700","樹林區"
"238024","5061-A6","2019/07/27 18:59:34","新北市樹林區八德街640號","121.396768333333","24.96937","6500700","樹林區"
"238022","KEA-2213","2019/07/27 18:59:50","新北市樹林區東興街57巷6號","121.411478333333","24.9772083333333","6500700","樹林區"
"238021","KEA-2539","2019/07/27 18:59:43","新北市樹林區柑園街二段316號","121.373375","24.9517316666667","6500700","樹林區"
"238025","303-VK","2019/07/27 18:59:40","新北市樹林區中山路三段349號","121.389915","24.9705083333333","6500700","樹林區"
"238017","283-BY","2019/07/27 18:59:49","新北市樹林區光興街50號","121.409826666667","25.0027033333333","6500700","樹林區"
"238014","282-BY","2019/07/27 18:59:44","新北市樹林區千歲街61巷38號","121.425686666667","24.9984416666667","6500700","樹林區"
"238020","268-VK","2019/07/27 18:59:45","新北市樹林區俊英街280號","121.423771666667","25.0133033333333","6500700","樹林區"
"238026","172-UY","2019/07/27 18:59:40","新北市樹林區中和街11號","121.391938333333","24.9729083333333","6500700","樹林區"
"238016","169-UY","2019/07/27 18:59:47","新北市樹林區啟智街131號","121.417406666667","24.9886516666667","6500700","樹林區"
"239006","891-R6","2019/07/27 18:59:44","新北市鶯歌區鶯桃路296巷74號","121.33663","24.961655","6500800","鶯歌區"
"239008","527-UM","2019/07/27 18:59:42","新北市鶯歌區晨曦街1號","121.336503333333","24.976085","6500800","鶯歌區"
"239005","526-UM","2019/07/27 18:59:33","新北市鶯歌區鳳吉一街168號","121.328933333333","24.975445","6500800","鶯歌區"
"239001","417-VK","2019/07/27 18:59:33","新北市鶯歌區永明街13號","121.33829","24.95528","6500800","鶯歌區"
"239003","360-BY","2019/07/27 18:59:34","新北市鶯歌區鶯桃路658巷1號","121.329185","24.96936","6500800","鶯歌區"
"239002","359-BY","2019/07/27 18:59:34","新北市鶯歌區中山路258號","121.344505","24.9570183333333","6500800","鶯歌區"
"239007","292-BY","2019/07/27 18:59:35","新北市鶯歌區中正一路434-1號","121.361788333333","24.95704","6500800","鶯歌區"
"239004","193-VK","2019/07/27 18:59:42","新北市鶯歌區中正三路296號","121.328483333333","24.9357083333333","6500800","鶯歌區"
"221008","489-VK","2019/07/27 18:59:37","新北市汐止區康寧街582號","121.635061666667","25.06992","6501100","汐止區"
"221036","130-UY","2019/07/27 18:59:36","新北市汐止區水碓街63號","121.6651","25.068485","6501100","汐止區"
"221015","131-UY","2019/07/27 18:59:35","新北市汐止區鄉長路一段55巷2號","121.66574","25.0760266666667","6501100","汐止區"
"244019","KED-0667","2019/07/27 18:59:37","新北市林口區麗園二街87號","121.382655","25.0668733333333","6501700","林口區"
"221032","280-BY","2019/07/27 18:59:34","新北市汐止區橫科路407巷30弄28-5號","121.627443333333","25.0485033333333","6501100","汐止區"
"221029","298-VK","2019/07/27 18:59:46","新北市汐止區樟樹一路230號","121.64233","25.0667183333333","6501100","汐止區"
"221031","353-TW","2019/07/27 18:59:39","新北市汐止區福德一路300巷35號","121.630456666667","25.064395","6501100","汐止區"
"221035","622-UM","2019/07/27 18:59:47","新北市汐止區大同路二段302號","121.655336666667","25.0666116666667","6501100","汐止區"
"221002","707-TV","2019/07/27 18:59:42","新北市汐止區大同路一段2號","121.621083333333","25.0549733333333","6501100","汐止區"
"220079","145-BY","2019/07/27 18:59:51","新北市板橋區大智街71巷3弄2號","121.453386666667","25.015175","6500100","板橋區"
"220080","200-UY","2019/07/27 18:59:50","新北市板橋區大觀路二段265巷3弄25號","121.443921666667","24.9980233333333","6500100","板橋區"
"220082","610-BX","2019/07/27 18:59:43","新北市板橋區滿平街111號","121.428518333333","24.9885133333333","6500100","板橋區"
"224002","257-TC","2019/07/27 18:59:47","新北市瑞芳區靜安路四段12巷3號","121.797315","25.0871716666667","6501200","瑞芳區"
"220091","267-BY","2019/07/27 18:59:38","新北市板橋區大同街14-4號","121.477551666667","25.0269","6500100","板橋區"
"220056","276-BY","2019/07/27 18:59:39","新北市板橋區信義路161號","121.458525","24.9924733333333","6500100","板橋區"
"220072","277-BY","2019/07/27 18:59:43","新北市板橋區篤行路一段29號","121.43205","24.9946466666667","6500100","板橋區"
"220101","280-UM","2019/07/27 18:59:51","新北市板橋區民生路二段188號","121.470201666667","25.0207116666667","6500100","板橋區"
"220071","283-VK","2019/07/27 18:59:49","新北市板橋區忠孝路176巷48號","121.465441666667","25.0016983333333","6500100","板橋區"
"220094","285-UM","2019/07/27 18:59:49","新北市板橋區光武街153號","121.465428333333","25.0294866666667","6500100","板橋區"
"220053","285-VK","2019/07/27 18:59:48","新北市板橋區懷仁街10巷28號","121.474943333333","25.0194833333333","6500100","板橋區"
"220083","286-VK","2019/07/27 18:59:44","新北市板橋區大觀路一段38巷156弄59號","121.442808333333","25.0067833333333","6500100","板橋區"
"220081","287-VK","2019/07/27 18:59:47","新北市板橋區光華街19巷34號","121.453321666667","25.0120216666667","6500100","板橋區"
"220090","288-VK","2019/07/27 18:59:50","新北市板橋區裕民街48號","121.461673333333","25.0287966666667","6500100","板橋區"
"220061","293-UM","2019/07/27 18:59:43","新北市板橋區懷仁街85巷8號","121.477705","25.01861","6500100","板橋區"
"220075","303-R5","2019/07/27 18:59:44","新北市板橋區茶館街21號","121.456483333333","25.0105583333333","6500100","板橋區"
"220062","305-R5","2019/07/27 18:59:41","新北市板橋區民享街115號","121.477895","25.0163033333333","6500100","板橋區"
"220092","307-R5","2019/07/27 18:59:46","新北市板橋區文化路二段225巷60弄60號","121.469095","25.0297933333333","6500100","板橋區"
"220098","317-R6","2019/07/27 18:59:47","新北市板橋區民生路二段226巷31弄2號","121.471233333333","25.0222383333333","6500100","板橋區"
"220088","491-VK","2019/07/27 18:59:38","新北市板橋區文化路二段260號","121.471568333333","25.0283716666667","6500100","板橋區"
"220035","560-BX","2019/07/27 18:59:43","新北市板橋區中正路262號","121.455358333333","25.0195383333333","6500100","板橋區"
"220103","561-BX","2019/07/27 18:59:34","新北市板橋區介壽街57號","121.469153333333","25.0195883333333","6500100","板橋區"
"220063","609-BX","2019/07/27 18:59:45","新北市板橋區三民路二段89號","121.479296666667","25.016465","6500100","板橋區"
"220057","686-BX","2019/07/27 18:59:28","新北市板橋區重慶路351-1號","121.464275","24.9976566666667","6500100","板橋區"
"220077","687-BX","2019/07/27 18:59:46","新北市板橋區龍興街50號","121.44328","25.0010333333333","6500100","板橋區"
"220093","689-BX","2019/07/27 18:59:52","新北市板橋區民生路三段123號","121.466311666667","25.0258","6500100","板橋區"
"220054","741-BX","2019/07/27 18:59:51","新北市板橋區重慶路127巷15-2號","121.463373333333","25.0049416666667","6500100","板橋區"
"220102","KEA-2699","2019/07/27 18:59:47","新北市板橋區田單街2巷31號","121.482201666667","25.0279683333333","6500100","板橋區"
"220055","827-TW","2019/07/27 18:59:42","新北市板橋區中山路一段160-6號","121.466478333333","25.0121683333333","6500100","板橋區"
"220067","829-TW","2019/07/27 18:59:35","新北市板橋區民享街116巷16號","121.478608333333","25.0153483333333","6500100","板橋區"
"220074","895-R6","2019/07/27 18:59:37","新北市板橋區林園街7-1號","121.454068333333","25.009275","6500100","板橋區"
"220073","985-R7","2019/07/27 18:59:33","新北市板橋區民權路256號","121.45818","25.01489","6500100","板橋區"
"220097","AAC-210","2019/07/27 18:59:48","新北市板橋區幸福路60巷73號","121.459801666667","25.0217016666667","6500100","板橋區"
"220064","AAC-253","2019/07/27 18:59:46","新北市板橋區板新路53號","121.473935","25.013455","6500100","板橋區"
"235068","KEA-2873","2019/07/27 18:59:45","新北市中和區中正路204號","121.497295","24.99426","6500300","中和區"
"235061","KEA-2875","2019/07/27 18:59:49","新北市中和區中山路三段83號","121.47576","25.005925","6500300","中和區"
