"lineid","car","time","location","longitude","latitude","cityid","cityname"
"234046","148-BY","2019/07/27 19:29:49","新北市永和區得和路423號","121.526246666667","24.999185","6500400","永和區"
"234081","298-R6","2019/07/27 19:29:35","新北市永和區環河東路三段60號","121.526855","25.005815","6500400","永和區"
"234038","336-UY","2019/07/27 19:29:48","新北市永和區民樂街42號","121.52748","25.0006183333333","6500400","永和區"
"234064","337-UY","2019/07/27 19:29:46","新北市永和區得和路243巷27號","121.52073","25.0011416666667","6500400","永和區"
"234017","745-BX","2019/07/27 19:29:30","新北市永和區環河西路一段95巷2號","121.512118333333","25.0180016666667","6500400","永和區"
"234030","746-BX","2019/07/27 19:29:44","新北市永和區民生路35號","121.522763333333","24.9981766666667","6500400","永和區"
"234054","KEA-2590","2019/07/27 19:29:42","新北市永和區復興街14號","121.515803333333","25.01288","6500400","永和區"
"234007","KED-0605","2019/07/27 19:29:53","新北市永和區永和路一段140號","121.514156666667","25.008155","6500400","永和區"
"234013","KEA-2591","2019/07/27 19:29:46","新北市永和區信義路16號","121.514286666667","25.0122083333333","6500400","永和區"
"234061","AAD-866","2019/07/27 19:29:45","新北市永和區中正路403號","121.5171","25.0046683333333","6500400","永和區"
"234070","748-BX","2019/07/27 19:29:38","新北市永和區警光街1號","121.519865","25.0095016666667","6500400","永和區"
"234042","862-TW","2019/07/27 19:29:44","新北市永和區水源街39巷30號","121.510793333333","25.003105","6500400","永和區"
"234050","863-TW","2019/07/27 19:29:43","新北市永和區仁愛路150號","121.510836666667","25.012925","6500400","永和區"
"234026","9371-KE","2019/07/27 19:29:50","新北市中和區安樂路249號","121.514063333333","24.9996583333333","6500400","永和區"
"234011","9373-KE","2019/07/27 19:29:47","新北市永和區中山路一段100巷16號","121.511066666667","25.0109616666667","6500400","永和區"
"249003","593-UM","2019/07/27 19:29:56","新北市八里區商港一路22號","121.397091666667","25.1479233333333","6502300","八里區"
"248008","KED-0815","2019/07/27 19:29:46","新北市五股區中興路一段95巷15號","121.466565","25.0722316666667","6501500","五股區"
"248020","KED-0813","2019/07/27 19:29:48","新北市五股區凌雲路三段104號","121.426453333333","25.1227366666667","6501500","五股區"
"248012","247-BX","2019/07/27 19:29:40","新北市五股區成泰路二段97號","121.43793","25.0843066666667","6501500","五股區"
"248014","261-SL","2019/07/27 19:29:36","新北市五股區五福路23巷8號","121.433511666667","25.0888316666667","6501500","五股區"
"248004","677-BX","2019/07/27 19:29:46","新北市五股區五福路35號","121.433641666667","25.0894116666667","6501500","五股區"
"248002","678-BX","2019/07/27 19:29:39","新北市五股區凌雲路一段158巷6號","121.4478","25.102955","6501500","五股區"
"234023","9380-KE","2019/07/27 19:29:41","新北市永和區竹林路91巷43弄2號","121.521305","25.0128583333333","6500400","永和區"
"234077","969-R7","2019/07/27 19:29:39","新北市永和區民權路58巷2弄2號","121.51973","24.9982733333333","6500400","永和區"
"234074","AAC-211","2019/07/27 19:29:41","新北市永和區環河東路一段122號","121.520576666667","25.0156516666667","6500400","永和區"
"234067","AAC-212","2019/07/27 19:29:33","新北市永和區永貞路360巷6號","121.510585","25.006795","6500400","永和區"
"234003","AAC-295","2019/07/27 19:29:38","新北市永和區福和路385號","121.514246666667","25.007625","6500400","永和區"
"244023","483-VK","2019/07/27 19:29:32","新北市林口區文化三路一段617巷185號","121.371323333333","25.077985","6501700","林口區"
"243010","297-R6","2019/07/27 19:29:51","新北市泰山區民生路17巷63號","121.429311666667","25.0508716666667","6501600","泰山區"
"243014","KEA-2801","2019/07/27 19:29:43","新北市泰山區中港西路442號","121.433775","25.053775","6501600","泰山區"
"243016","421-VK","2019/07/27 19:29:40","新北市泰山區明志路三段313號","121.42255","25.0361133333333","6501600","泰山區"
"243012","539-UM","2019/07/27 19:29:33","新北市泰山區仁義路220巷8號","121.432943333333","25.0536683333333","6501600","泰山區"
"243011","KEA-2216","2019/07/27 19:29:45","新北市三重區新北大道六段50-1號","121.429326666667","25.04012","6501600","泰山區"
"243013","646-TV","2019/07/27 19:29:45","新北市泰山區貴子路36巷22號","121.425775","25.040845","6501600","泰山區"
"243015","680-BX","2019/07/27 19:29:46","新北市泰山區明志路二段55號","121.429268333333","25.0525983333333","6501600","泰山區"
"222003","436-BY","2019/07/27 19:29:47","新北市深坑區深南路88巷1號","121.62102","25.0117083333333","6501800","深坑區"
"222002","659-BX","2019/07/27 19:29:40","新北市深坑區北深路一段177號","121.632551666667","25.0108366666667","6501800","深坑區"
"231061","002-UM","2019/07/27 19:29:40","新北市新店區安康路一段226-2號","121.523311666667","24.9636566666667","6500600","新店區"
"231058","0293-UT","2019/07/27 19:29:47","新北市新店區北新路二段228巷15號","121.543471666667","24.97712","6500600","新店區"
"231044","046-UY","2019/07/27 19:29:51","新北市新店區中興路三段193號","121.543873333333","24.9813","6500600","新店區"
"231060","106-UY","2019/07/27 19:29:49","新北市新店區安康路二段51號","121.514286666667","24.9633833333333","6500600","新店區"
"231051","107-UY","2019/07/27 19:29:38","新北市新店區中央路97號","121.531185","24.975115","6500600","新店區"
"231049","108-UY","2019/07/27 19:29:50","新北市新店區北新路三段65巷34弄20號","121.540171666667","24.981585","6500600","新店區"
"231065","110-UY","2019/07/27 19:29:39","新北市新店區安祥路109巷1弄126號","121.478546666667","24.96039","6500600","新店區"
"231062","256-BX","2019/07/27 19:29:34","新北市新店區莒光路99號","121.522056666667","24.9534533333333","6500600","新店區"
"231054","260-TV","2019/07/27 19:29:46","新北市新店區文中路40號","121.539723333333","24.9566033333333","6500600","新店區"
"231042","268-BY","2019/07/27 19:29:34","新北市新店區中興路一段144號","121.542425","24.9637583333333","6500600","新店區"
"231064","278-BY","2019/07/27 19:29:32","新北市新店區安康路二段74號","121.514431666667","24.96354","6500600","新店區"
"231050","AAD-862","2019/07/27 19:29:37","新北市新店區竹林路157-1號","121.556346666667","24.9479116666667","6500600","新店區"
"231045","355-BY","2019/07/27 19:29:40","新北市新店區北宜路二段209號","121.553153333333","24.95327","6500600","新店區"
"231056","4715-K9","2019/07/27 19:29:45","新北市新店區安民街121巷14號","121.515378333333","24.9690516666667","6500600","新店區"
"231067","4772-VM","2019/07/27 19:29:37","新北市新店區安康路二段50號","121.515241666667","24.9639866666667","6500600","新店區"
"231052","513-UM","2019/07/27 19:29:40","新北市新店區新烏路二段212-1號","121.547581666667","24.9162966666667","6500600","新店區"
"231040","617-UM","2019/07/27 19:29:37","新北市新店區中華路147號","121.538113333333","24.97055","6500600","新店區"
"231041","619-UM","2019/07/27 19:29:51","新北市新店區中正路616號","121.534006666667","24.9886533333333","6500600","新店區"
"231063","641-BX","2019/07/27 19:29:33","新北市新店區達觀路40號","121.502973333333","24.9392916666667","6500600","新店區"
"231048","KED-0819","2019/07/27 19:29:46","新北市新店區五峰路129號","121.544975","24.96592","6500600","新店區"
"231046","719-UM","2019/07/27 19:29:39","新北市新店區北新路一段28號","121.540921666667","24.9657816666667","6500600","新店區"
"231057","720-UM","2019/07/27 19:29:43","新北市新店區花園一路四段43號","121.551126666667","24.932475","6500600","新店區"
"231059","897-TW","2019/07/27 19:29:35","新北市新店區安和路三段4號","121.517945","24.9808816666667","6500600","新店區"
"231043","899-TW","2019/07/27 19:29:36","新北市新店區北新路二段228巷1號","121.54296","24.9775916666667","6500600","新店區"
"231066","AKT-0513","2019/07/27 19:29:33","新北市新店區安康路三段359巷12弄12號","121.484293333333","24.9497716666667","6500600","新店區"
"241028","022-UY","2019/07/27 19:29:41","新北市三重區中寮街28號","121.492523333333","25.05907","6500200","三重區"
"241008","059-VK","2019/07/27 19:29:48","新北市三重區永福街135巷30號","121.477523333333","25.0771466666667","6500200","三重區"
"241031","061-VK","2019/07/27 19:29:37","新北市三重區集美街116號","121.488646666667","25.0538283333333","6500200","三重區"
"241017","063-VK","2019/07/27 19:29:44","新北市三重區中正北路25巷25弄4號","121.493338333333","25.0627083333333","6500200","三重區"
"241030","066-VK","2019/07/27 19:29:48","新北市三重區成功路41巷3號","121.490206666667","25.0514316666667","6500200","三重區"
"241009","267-UM","2019/07/27 19:29:39","新北市三重區溪尾街242巷56號","121.486406666667","25.081505","6500200","三重區"
"241032","269-UM","2019/07/27 19:29:31","新北市三重區三陽路110號","121.48329","25.0588416666667","6500200","三重區"
"241013","270-UM","2019/07/27 19:29:39","新北市三重區仁愛街107號","121.495678333333","25.0741266666667","6500200","三重區"
"241025","271-UM","2019/07/27 19:29:31","新北市三重區頂崁街210巷28弄9號","121.475796666667","25.06712","6500200","三重區"
"241007","398-BY","2019/07/27 19:29:35","新北市三重區溪尾街124-2號","121.489361666667","25.0793666666667","6500200","三重區"
"241035","462-BY","2019/07/27 19:29:47","新北市三重區信義西街1巷21號","121.498051666667","25.06528","6500200","三重區"
"241020","478-VK","2019/07/27 19:29:40","新北市三重區三和路四段20巷20號","121.490336666667","25.0737","6500200","三重區"
"241026","480-VK","2019/07/27 19:29:35","新北市三重區文化南路47巷6號","121.499696666667","25.0611933333333","6500200","三重區"
"241023","545-UM","2019/07/27 19:29:47","新北市三重區頂崁街99號","121.477985","25.0638416666667","6500200","三重區"
"241006","AAD-863","2019/07/27 19:29:48","新北市三重區後竹圍街205巷59號","121.484721666667","25.0730283333333","6500200","三重區"
"241022","KED-0820","2019/07/27 19:29:39","新北市三重區三民街165巷17號","121.484136666667","25.0654133333333","6500200","三重區"
"241029","942-UM","2019/07/27 19:29:31","新北市三重區泉州街84巷18號","121.495868333333","25.0543033333333","6500200","三重區"
"235066","003-UY","2019/07/27 19:29:47","新北市中和區景新街38號","121.503385","24.999285","6500300","中和區"
"235064","005-UY","2019/07/27 19:29:41","新北市中和區南華路44號","121.503815","24.9964866666667","6500300","中和區"
"235063","006-UY","2019/07/27 19:29:51","新北市中和區連城路203巷10弄2號","121.495021666667","24.99734","6500300","中和區"
"235056","096-UM","2019/07/27 19:29:51","新北市中和區員山路581巷31弄22號","121.476701666667","25.0103716666667","6500300","中和區"
"235039","097-UM","2019/07/27 19:29:47","新北市中和區秀峰街101號","121.520681666667","24.9903016666667","6500300","中和區"
"235065","098-UM","2019/07/27 19:29:35","新北市中和區中山路二段2巷13弄8號","121.50331","25.0065816666667","6500300","中和區"
"235040","150-BY","2019/07/27 19:29:42","新北市中和區景安路79巷50號","121.507905","24.9956116666667","6500300","中和區"
"235058","151-BY","2019/07/27 19:29:39","新北市中和區連城路521-2號","121.481703333333","24.9952116666667","6500300","中和區"
"235055","183-VK","2019/07/27 19:29:34","新北市中和區民享街86巷31號","121.472761666667","25.0003133333333","6500300","中和區"
"235038","185-VK","2019/07/27 19:29:37","新北市中和區立人街19號","121.52137","24.9940816666667","6500300","中和區"
"235049","186-VK","2019/07/27 19:29:47","新北市中和區安和路39號","121.509683333333","24.9946733333333","6500300","中和區"
"235067","255-BX","2019/07/27 19:29:37","新北市中和區新生街186巷1弄31號","121.48342","24.9986016666667","6500300","中和區"
"235044","293-VK","2019/07/27 19:29:46","新北市中和區捷運路58號","121.507575","24.990615","6500300","中和區"
"235072","301-VK","2019/07/27 19:29:39","新北市中和區連城路265巷10弄1號","121.491666666667","24.9952833333333","6500300","中和區"
"235043","352-BY","2019/07/27 19:29:38","新北市中和區安和路125號","121.507063333333","24.995885","6500300","中和區"
"235042","KEA-2878","2019/07/27 19:29:45","新北市中和區保健路19巷4弄16號","121.509005","24.99823","6500300","中和區"
"235041","551-UM","2019/07/27 19:29:34","新北市中和區中和路400巷14弄2號","121.51161","25.00215","6500300","中和區"
"235070","558-UM","2019/07/27 19:29:43","新北市中和區景平路525號","121.499018333333","24.999025","6500300","中和區"
"235045","565-BX","2019/07/27 19:29:50","新北市中和區景新街421號","121.512833333333","24.9892316666667","6500300","中和區"
"235060","KED-0823","2019/07/27 19:29:47","新北市中和區員山路314巷7弄6號","121.482095","25.0031633333333","6500300","中和區"
"235054","640-BX","2019/07/27 19:29:37","新北市中和區國光街112巷10號","121.469896666667","25.001205","6500300","中和區"
"235047","732-UM","2019/07/27 19:29:51","新北市中和區景平路241巷64弄2號","121.507731666667","24.992435","6500300","中和區"
"235046","733-UM","2019/07/27 19:29:38","新北市中和區忠孝街37巷30號","121.510878333333","24.9842416666667","6500300","中和區"
"235071","783-BX","2019/07/27 19:29:39","新北市中和區連城路469巷21弄2號","121.483886666667","24.9950283333333","6500300","中和區"
"235057","801-TS","2019/07/27 19:29:44","新北市中和區員山路150-26號","121.481378333333","24.9981366666667","6500300","中和區"
"235052","805-TS","2019/07/27 19:29:49","新北市中和區華新街143巷67弄14號","121.507266666667","24.9790433333333","6500300","中和區"
"235048","896-TW","2019/07/27 19:29:51","新北市中和區忠孝街114號","121.512161666667","24.9854916666667","6500300","中和區"
"235053","900-TW","2019/07/27 19:29:36","新北市中和區民德路198號","121.46827","24.998885","6500300","中和區"
"235051","157-BY","2019/07/27 19:29:35","新北市中和區景新街132巷8-3號","121.504931666667","24.99789","6500300","中和區"
"235037","AAC-213","2019/07/27 19:29:50","新北市中和區秀朗路三段105號","121.526493333333","24.9947116666667","6500300","中和區"
"235059","AAC-215","2019/07/27 19:29:42","新北市中和區圓通路252巷6-2號","121.492765","24.9918716666667","6500300","中和區"
"220068","015-TV","2019/07/27 19:29:39","新北市板橋區萬安街103巷3號","121.4834","25.0246333333333","6500100","板橋區"
"220065","072-UY","2019/07/27 19:29:47","新北市板橋區國泰街75巷28弄23號","121.467811666667","25.0047616666667","6500100","板橋區"
"220086","073-UY","2019/07/27 19:29:45","新北市板橋區中正路216巷117號","121.459565","25.0193166666667","6500100","板橋區"
"220106","075-UY","2019/07/27 19:29:49","新北市板橋區文化路二段550號","121.476198333333","25.0340633333333","6500100","板橋區"
"220069","AAD-861","2019/07/27 19:29:39","新北市板橋區貴興路106巷16弄2號","121.4549","25.003395","6500100","板橋區"
"247004","893-R6","2019/07/27 19:29:40","新北市蘆洲區長安街140號","121.46008","25.0821266666667","6501400","蘆洲區"
"226004","312-R5","2019/07/27 19:29:45","新北市平溪區十分里十分街166號","121.778358333333","25.04362","6502400","平溪區"
"228003","097-TW","2019/07/27 19:29:46","新北市貢寮區和美里和美街1號","121.913915","25.082895","6502600","貢寮區"
"228001","212-TW","2019/07/27 19:29:50","新北市貢寮區真理里大澳街31號","121.925065","25.056285","6502600","貢寮區"
"224010","AGQ-8101","2019/07/27 19:29:50","新北市瑞芳區基山街139號","121.843948333333","25.1083616666667","6501200","瑞芳區"
"224008","273-VK","2019/07/27 19:29:45","新北市瑞芳區一坑路283號","121.801136666667","25.1085683333333","6501200","瑞芳區"
"227001","642-TC","2019/07/27 19:29:36","新北市雙溪區新基里新基北街43號","121.868191666667","25.039695","6502500","雙溪區"
"227002","400-TW","2019/07/27 19:29:37","新北市雙溪區雙溪里光復街22號","121.865201666667","25.035455","6502500","雙溪區"
"253006","032-BX","2019/07/27 19:29:35","新北市石門區楓林23-18號","121.538258333333","25.2907933333333","6502200","石門區"
"222001","KEA-2212","2019/07/27 19:29:35","新北市深坑區深坑街10號","121.616018333333","25.002695","6501800","深坑區"
"208002","KEA-2872","2019/07/27 19:29:33","新北市金山區仁愛路87巷1號","121.63464","25.221465","6502700","金山區"
"208003","665-BX","2019/07/27 19:29:36","新北市金山區中山路263巷14號","121.636401666667","25.22157","6502700","金山區"
"251009","008-UM","2019/07/27 19:29:40","新北市淡水區中山路163號","121.44103","25.17348","6501000","淡水區"
"251005","010-UM","2019/07/27 19:29:47","新北市淡水區原德路108巷13號","121.443883333333","25.1734433333333","6501000","淡水區"
"251001","011-UM","2019/07/27 19:29:43","新北市淡水區民權路143號","121.460063333333","25.1363116666667","6501000","淡水區"
"251015","KEA-2871","2019/07/27 19:29:45","新北市淡水區北新路二段152號","121.482556666667","25.1849866666667","6501000","淡水區"
"251016","179-VK","2019/07/27 19:29:38","新北市淡水區淡金路三段350巷18號","121.450763333333","25.2083183333333","6501000","淡水區"
"251008","181-VK","2019/07/27 19:29:35","新北市淡水區中正路382號","121.428783333333","25.175385","6501000","淡水區"
"251013","182-VK","2019/07/27 19:29:35","新北市淡水區安子內18號","121.472075","25.218815","6501000","淡水區"
"243009","549-UM","2019/07/27 19:29:51","新北市泰山區明志路一段17號","121.433705","25.0658233333333","6501600","泰山區"
"251007","442-VK","2019/07/27 19:29:39","新北市淡水區中正東路二段5巷31號","121.460566666667","25.1584816666667","6501000","淡水區"
"251006","561-UM","2019/07/27 19:29:45","新北市淡水區大義街29巷18號","121.441541666667","25.178015","6501000","淡水區"
"251014","577-R6","2019/07/27 19:29:16","新北市淡水區小中寮19-7號","121.48476","25.2295916666667","6501000","淡水區"
"251003","673-BX","2019/07/27 19:29:52","新北市淡水區中山北路三段71號","121.444511666667","25.1917366666667","6501000","淡水區"
"251010","766-UM","2019/07/27 19:29:45","新北市淡水區中正路二段150號","121.422883333333","25.1876883333333","6501000","淡水區"
"207004","681-TV","2019/07/27 19:29:47","新北市萬里區萬里里瑪鋉路77號","121.688341666667","25.17653","6502800","萬里區"
"207003","550-UM","2019/07/27 19:29:31","新北市萬里區大鵬里萬里加投103-1號","121.646161666667","25.213065","6502800","萬里區"
"252002","178-VK","2019/07/27 19:29:30","新北市三芝區淡金路二段18-1號","121.502663333333","25.2595016666667","6502100","三芝區"
"208001","170-UY","2019/07/27 19:29:42","新北市金山區民生路69號","121.64015","25.2196483333333","6502700","金山區"
"237004","KEA-2597","2019/07/27 19:29:44","新北市三峽區有木206號","121.439121666667","24.8514616666667","6500900","三峽區"
"237007","153-BY","2019/07/27 19:29:49","新北市三峽區二鬮路112號","121.35987","24.9087466666667","6500900","三峽區"
"237009","210-TH","2019/07/27 19:29:31","新北市三峽區中山路13巷9號","121.369136666667","24.9338783333333","6500900","三峽區"
"237013","252-BX","2019/07/27 19:29:50","新北市三峽區介壽路一段309號","121.381255","24.9305633333333","6500900","三峽區"
"237008","302-VK","2019/07/27 19:29:37","新北市三峽區永安街142號","121.374111666667","24.928745","6500900","三峽區"
"237014","433-BY","2019/07/27 19:29:43","新北市三峽區中山路63巷8號","121.367016666667","24.9343566666667","6500900","三峽區"
"237006","5529-G3","2019/07/27 19:29:49","新北市三峽區中正路一段336巷15弄2號","121.369968333333","24.9249316666667","6500900","三峽區"
"237011","KEA-2596","2019/07/27 19:29:39","新北市三峽區介壽路一段207-1號","121.37888","24.930445","6500900","三峽區"
"237015","649-BX","2019/07/27 19:29:47","新北市三峽區安坑12-2號","121.442695","24.9264016666667","6500900","三峽區"
"237010","706-TV","2019/07/27 19:29:50","新北市三峽區民生街68號","121.374755","24.93598","6500900","三峽區"
"237012","756-BX","2019/07/27 19:29:36","新北市三峽區三樹路98巷144號","121.385298333333","24.9421866666667","6500900","三峽區"
"237005","AKY-6261","2019/07/27 19:29:38","新北市三峽區中山路175號","121.363763333333","24.936785","6500900","三峽區"
"236042","KED-0685","2019/07/27 19:29:47","新北市土城區學府路一段239號","121.450381666667","24.9833233333333","6501300","土城區"
"220089","KED-0812","2019/07/27 19:29:31","新北市板橋區綠堤街45號","121.455308333333","25.02593","6500100","板橋區"
"236079","166-UM","2019/07/27 19:29:33","新北市土城區中州路3巷42弄2號","121.413791666667","24.95678","6501300","土城區"
"236070","KEA-2877","2019/07/27 19:29:48","新北市土城區學府路一段163號","121.453108333333","24.985785","6501300","土城區"
"252001","KED-0821","2019/07/27 19:29:50","新北市三芝區長勤街63-5號","121.500141666667","25.2560316666667","6502100","三芝區"
"236021","401-BY","2019/07/27 19:29:51","新北市土城區峰廷街18號","121.469016666667","24.98727","6501300","土城區"
"236049","913-UM","2019/07/27 19:29:39","新北市土城區清水路196號","121.460413333333","24.9817966666667","6501300","土城區"
"236055","AAC-216","2019/07/27 19:29:33","新北市土城區學府路一段276號","121.45023","24.9833133333333","6501300","土城區"
"242031","350-TH","2019/07/27 19:29:48","新北市新莊區新泰路225巷6號","121.445813333333","25.03924","6500500","新莊區"
"238015","755-BX","2019/07/27 19:29:42","新北市樹林區中興街20-4號","121.42099","24.9901233333333","6500700","樹林區"
"238023","601-UM","2019/07/27 19:29:35","新北市樹林區三福街46號","121.4076","25.0164483333333","6500700","樹林區"
"238019","599-UM","2019/07/27 19:29:45","新北市樹林區鎮前街413號","121.41503","24.9834616666667","6500700","樹林區"
"238024","5061-A6","2019/07/27 19:29:34","新北市樹林區福德街36-2號","121.400361666667","24.9751766666667","6500700","樹林區"
"238018","KEA-2217","2019/07/27 19:29:37","新北市樹林區中華路173號","121.420833333333","24.9820216666667","6500700","樹林區"
"238022","KEA-2213","2019/07/27 19:29:30","新北市樹林區名園街46號","121.419608333333","24.978565","6500700","樹林區"
"238021","KEA-2539","2019/07/27 19:29:36","新北市樹林區佳園路三段181巷50號","121.388526666667","24.9470283333333","6500700","樹林區"
"238025","303-VK","2019/07/27 19:29:40","新北市樹林區中山路一段184號","121.421728333333","24.988645","6500700","樹林區"
"238017","283-BY","2019/07/27 19:29:49","新北市樹林區光興街310號","121.407575","25.0054766666667","6500700","樹林區"
"238014","282-BY","2019/07/27 19:29:44","新北市樹林區千歲街6巷5號","121.425313333333","24.9954466666667","6500700","樹林區"
"238020","268-VK","2019/07/27 19:29:44","新北市樹林區俊英街111巷1-17號","121.42342","25.0093116666667","6500700","樹林區"
"238026","172-UY","2019/07/27 19:29:40","新北市樹林區佳園路三段87號","121.387628333333","24.95244","6500700","樹林區"
"238016","169-UY","2019/07/27 19:29:48","新北市樹林區復興路464巷50號","121.41261","24.9834016666667","6500700","樹林區"
"239006","891-R6","2019/07/27 19:29:44","新北市鶯歌區建國路512巷14號","121.340316666667","24.9510983333333","6500800","鶯歌區"
"239008","527-UM","2019/07/27 19:29:42","新北市鶯歌區國際二路4巷2號","121.338723333333","24.9728783333333","6500800","鶯歌區"
"239005","526-UM","2019/07/27 19:29:47","新北市鶯歌區中湖街301巷1號","121.348131666667","24.9771383333333","6500800","鶯歌區"
"239001","417-VK","2019/07/27 19:29:33","新北市鶯歌區鶯桃路24號","121.341895","24.952285","6500800","鶯歌區"
"239002","359-BY","2019/07/27 19:29:34","新北市鶯歌區西湖街90號","121.339595","24.959775","6500800","鶯歌區"
"239007","292-BY","2019/07/27 19:29:35","新北市鶯歌區西湖街53巷30號","121.341935","24.9604433333333","6500800","鶯歌區"
"239004","193-VK","2019/07/27 19:29:36","新北市鶯歌區二甲路20-2號","121.339391666667","24.9354","6500800","鶯歌區"
"221008","489-VK","2019/07/27 19:29:37","新北市汐止區康寧街237號","121.624161666667","25.06682","6501100","汐止區"
"221015","131-UY","2019/07/27 19:29:35","新北市汐止區康寧街901號","121.651391666667","25.074975","6501100","汐止區"
"221027","281-BY","2019/07/27 19:29:36","新北市汐止區忠孝東路9號","121.658295","25.0658866666667","6501100","汐止區"
"221031","353-TW","2019/07/27 19:29:39","新北市汐止區康寧街901號","121.65077","25.0752816666667","6501100","汐止區"
"221025","623-UM","2019/07/27 19:29:46","新北市汐止區新台五路二段4號","121.660173333333","25.0649533333333","6501100","汐止區"
"221038","646-BX","2019/07/27 19:29:41","新北市汐止區新台五路二段36號","121.660765","25.065515","6501100","汐止區"
"221002","707-TV","2019/07/27 19:29:42","新北市汐止區大同路一段331號","121.638311666667","25.0592383333333","6501100","汐止區"
"220079","145-BY","2019/07/27 19:29:41","新北市板橋區民權路202巷9弄24號","121.459466666667","25.0157883333333","6500100","板橋區"
"220080","200-UY","2019/07/27 19:29:42","新北市板橋區大觀路二段3巷5號","121.447536666667","25.0038283333333","6500100","板橋區"
"220082","610-BX","2019/07/27 19:29:43","新北市板橋區金門街223號","121.432266666667","24.98966","6500100","板橋區"
"220084","256-TC","2019/07/27 19:29:08","新北市板橋區滿平街136巷3弄6號","121.428461666667","24.9874283333333","6500100","板橋區"
"220091","267-BY","2019/07/27 19:29:38","新北市板橋區文聖街135巷23號","121.478938333333","25.028925","6500100","板橋區"
"220056","276-BY","2019/07/27 19:29:44","新北市板橋區信義路93號","121.457475","24.9938383333333","6500100","板橋區"
"220072","277-BY","2019/07/27 19:29:43","新北市板橋區篤行路二段151巷12號","121.430508333333","24.987415","6500100","板橋區"
"220101","280-UM","2019/07/27 19:29:50","新北市板橋區民生路二段226巷46號","121.471813333333","25.0223483333333","6500100","板橋區"
"220071","283-VK","2019/07/27 19:29:49","新北市板橋區忠孝路48巷9弄28號","121.462098333333","25.0001616666667","6500100","板橋區"
"220094","285-UM","2019/07/27 19:29:49","新北市板橋區銘傳街41-1號","121.468993333333","25.0313783333333","6500100","板橋區"
"220053","285-VK","2019/07/27 19:29:49","新北市板橋區懷仁街77巷22號","121.477603333333","25.0189416666667","6500100","板橋區"
"220083","286-VK","2019/07/27 19:29:53","新北市板橋區龍興街73巷2號","121.444023333333","25.0021783333333","6500100","板橋區"
"220081","287-VK","2019/07/27 19:29:47","新北市板橋區大觀路一段28巷1弄104號","121.451606666667","25.00609","6500100","板橋區"
"220090","288-VK","2019/07/27 19:29:50","新北市板橋區長江路一段16號","121.457986666667","25.0287083333333","6500100","板橋區"
"220061","293-UM","2019/07/27 19:29:43","新北市板橋區中山路一段265巷11號","121.468563333333","25.014695","6500100","板橋區"
"220075","303-R5","2019/07/27 19:29:44","新北市板橋區中正路275巷93號","121.450801666667","25.0181333333333","6500100","板橋區"
"220062","305-R5","2019/07/27 19:29:45","新北市板橋區三民路二段141號","121.479205","25.0151766666667","6500100","板橋區"
"220092","307-R5","2019/07/27 19:29:46","新北市板橋區自由路51巷24弄15號","121.464185","25.023645","6500100","板橋區"
"220098","317-R6","2019/07/27 19:29:44","新北市板橋區民有街88號","121.464953333333","25.0273683333333","6500100","板橋區"
"220088","491-VK","2019/07/27 19:29:38","新北市板橋區文化路二段568號","121.476576666667","25.0345833333333","6500100","板橋區"
"220035","560-BX","2019/07/27 19:29:43","新北市板橋區中正路352號","121.45432","25.0238033333333","6500100","板橋區"
"220103","561-BX","2019/07/27 19:29:34","新北市板橋區陽明街29巷1弄27號","121.464211666667","25.0219133333333","6500100","板橋區"
"220063","609-BX","2019/07/27 19:29:46","新北市板橋區中山路二段531巷17弄14號","121.482366666667","25.0221016666667","6500100","板橋區"
"220057","686-BX","2019/07/27 19:29:47","新北市板橋區和平路安樂巷39-4號","121.46186","24.9932766666667","6500100","板橋區"
"220077","687-BX","2019/07/27 19:29:46","新北市板橋區大觀路一段28巷40號","121.449913333333","25.0098","6500100","板橋區"
"220093","689-BX","2019/07/27 19:29:48","新北市板橋區長江路一段154號","121.46107","25.0302983333333","6500100","板橋區"
"220054","741-BX","2019/07/27 19:29:43","新北市板橋區光明街126號","121.463496666667","25.0030766666667","6500100","板橋區"
"220102","KEA-2699","2019/07/27 19:29:47","新北市板橋區雙十路二段130巷2弄76號","121.475716666667","25.0291916666667","6500100","板橋區"
"220055","827-TW","2019/07/27 19:29:42","新北市板橋區重慶路290巷22弄4號","121.462286666667","24.9990883333333","6500100","板橋區"
"220067","829-TW","2019/07/27 19:29:35","新北市板橋區漢生東路313巷2弄3號","121.472303333333","25.0082133333333","6500100","板橋區"
"220074","895-R6","2019/07/27 19:29:37","新北市板橋區西門街14號","121.455433333333","25.01148","6500100","板橋區"
"220073","985-R7","2019/07/27 19:29:49","新北市板橋區瑞安街26號","121.455178333333","25.0230133333333","6500100","板橋區"
"220097","AAC-210","2019/07/27 19:29:48","新北市板橋區文化路一段285巷26號","121.463798333333","25.01946","6500100","板橋區"
"220064","AAC-253","2019/07/27 19:29:40","新北市板橋區公園街64號","121.461971666667","25.0076433333333","6500100","板橋區"
"235068","KEA-2873","2019/07/27 19:29:45","新北市中和區景平路493巷14號","121.499188333333","24.9970416666667","6500300","中和區"
"235061","KEA-2875","2019/07/27 19:29:49","新北市中和區民利街9巷2弄2號","121.480633333333","24.998755","6500300","中和區"
