"lineid","car","time","location","longitude","latitude","cityid","cityname"
"234046","148-BY","2019/07/27 19:49:49","新北市永和區永利路125號","121.52408","25.00282","6500400","永和區"
"234081","298-R6","2019/07/27 19:49:35","新北市永和區永亨路98號","121.523038333333","25.00485","6500400","永和區"
"234038","336-UY","2019/07/27 19:49:48","新北市永和區四維街32巷3號","121.526331666667","24.9981466666667","6500400","永和區"
"234064","337-UY","2019/07/27 19:49:46","新北市永和區中正路398號","121.517568333333","25.0016716666667","6500400","永和區"
"234017","745-BX","2019/07/27 19:49:50","新北市永和區永和路二段299號","121.516071666667","25.0161566666667","6500400","永和區"
"234030","746-BX","2019/07/27 19:49:44","新北市永和區民生路67巷22號","121.523788333333","24.9971483333333","6500400","永和區"
"234054","KEA-2590","2019/07/27 19:49:42","新北市永和區竹林路75巷25弄7號","121.520086666667","25.0144216666667","6500400","永和區"
"234007","KED-0605","2019/07/27 19:49:33","新北市中和區南工路8號","121.505498333333","25.0003266666667","6500400","永和區"
"234013","KEA-2591","2019/07/27 19:49:46","新北市永和區仁愛路190號","121.50977","25.012495","6500400","永和區"
"234061","AAD-866","2019/07/27 19:49:45","新北市永和區中正路98號","121.514291666667","24.9955316666667","6500400","永和區"
"234070","748-BX","2019/07/27 19:49:38","新北市永和區竹林路105號","121.519916666667","25.011905","6500400","永和區"
"234042","862-TW","2019/07/27 19:49:44","新北市永和區中和路389巷24號","121.508213333333","25.001345","6500400","永和區"
"234050","863-TW","2019/07/27 19:49:43","新北市永和區保安路144號","121.508566666667","25.0148983333333","6500400","永和區"
"234026","9371-KE","2019/07/27 19:49:50","新北市永和區雙和街25巷5號","121.50895","25.0019166666667","6500400","永和區"
"249005","172-UM","2019/07/27 19:49:50","新北市八里區中華路三段186號","121.390556666667","25.1274066666667","6502300","八里區"
"249001","173-UM","2019/07/27 19:49:38","新北市八里區中華路二段203號","121.40531","25.1495183333333","6502300","八里區"
"249004","303-UY","2019/07/27 19:49:48","新北市八里區觀海大道271號","121.414541666667","25.1614716666667","6502300","八里區"
"249002","305-UY","2019/07/27 19:49:47","新北市八里區頂寮五街17號","121.451518333333","25.1259383333333","6502300","八里區"
"249003","593-UM","2019/07/27 19:49:36","新北市八里區華峰三街35號","121.398543333333","25.1453316666667","6502300","八里區"
"248016","026-BX","2019/07/27 19:49:36","新北市五股區成泰路四段22巷2號","121.453836666667","25.10666","6501500","五股區"
"248008","KED-0815","2019/07/27 19:49:46","新北市五股區四維路171巷3號","121.467563333333","25.0751266666667","6501500","五股區"
"248020","KED-0813","2019/07/27 19:49:49","新北市五股區中直路37-3號","121.419773333333","25.1159133333333","6501500","五股區"
"248012","247-BX","2019/07/27 19:49:40","新北市五股區蓬萊路4號","121.435565","25.079415","6501500","五股區"
"248014","261-SL","2019/07/27 19:49:36","新北市五股區五福路14巷6號","121.434706666667","25.0886783333333","6501500","五股區"
"248010","272-BY","2019/07/27 19:49:37","新北市五股區登林路貿商巷3弄15號","121.42971","25.0698633333333","6501500","五股區"
"248004","677-BX","2019/07/27 19:49:39","新北市五股區成泰路一段114號","121.435485","25.0730583333333","6501500","五股區"
"248002","678-BX","2019/07/27 19:49:39","新北市五股區成泰路三段613號","121.452765","25.1035616666667","6501500","五股區"
"234023","9380-KE","2019/07/27 19:49:41","新北市永和區中山路一段277號","121.507073333333","25.0070316666667","6500400","永和區"
"234077","969-R7","2019/07/27 19:49:39","新北市永和區中正路177號","121.516716666667","24.9987366666667","6500400","永和區"
"234074","AAC-211","2019/07/27 19:49:41","新北市永和區豫溪街136巷5號","121.521353333333","25.0099816666667","6500400","永和區"
"234067","AAC-212","2019/07/27 19:49:53","新北市永和區永平路173巷6號","121.510441666667","25.00892","6500400","永和區"
"234003","AAC-295","2019/07/27 19:49:38","新北市永和區自由街2號","121.51494","25.0071983333333","6500400","永和區"
"244023","483-VK","2019/07/27 19:49:32","新北市林口區民權路165-1號","121.374213333333","25.0846666666667","6501700","林口區"
"243016","421-VK","2019/07/27 19:49:40","新北市泰山區貴鳳街2號","121.421125","25.0314366666667","6501600","泰山區"
"243012","539-UM","2019/07/27 19:49:41","新北市泰山區中港西路412號","121.434023333333","25.0541883333333","6501600","泰山區"
"243011","KEA-2216","2019/07/27 19:49:45","新北市泰山區明志路三段196巷21弄26號","121.422505","25.038505","6501600","泰山區"
"243015","680-BX","2019/07/27 19:49:46","新北市泰山區文程路18巷26號","121.428006666667","25.0484333333333","6501600","泰山區"
"222003","436-BY","2019/07/27 19:31:55","新北市深坑區深南路51-1號","121.62131","25.009825","6501800","深坑區"
"222002","659-BX","2019/07/27 19:49:40","新北市深坑區北深路一段361號","121.62231","25.0049283333333","6501800","深坑區"
"231061","002-UM","2019/07/27 19:49:40","新北市新店區安民街139號","121.516458333333","24.9694066666667","6500600","新店區"
"231044","046-UY","2019/07/27 19:49:50","新北市新店區建國路299號","121.537191666667","24.9870216666667","6500600","新店區"
"231060","106-UY","2019/07/27 19:49:49","新北市新店區安康路二段159巷2號","121.51039","24.95922","6500600","新店區"
"231051","107-UY","2019/07/27 19:49:38","新北市新店區中央二街66號","121.52647","24.974725","6500600","新店區"
"231049","108-UY","2019/07/27 19:49:50","新北市新店區民權路113號","121.535693333333","24.98244","6500600","新店區"
"231065","110-UY","2019/07/27 19:49:19","新北市新店區安祥路109巷151弄8號","121.478278333333","24.9589133333333","6500600","新店區"
"231068","187-VK","2019/07/27 19:49:46","新北市新店區安一路一段1-1號","121.519661666667","24.9611083333333","6500600","新店區"
"231062","256-BX","2019/07/27 19:49:34","新北市新店區永業路23號","121.53325","24.9556966666667","6500600","新店區"
"231054","260-TV","2019/07/27 19:49:47","新北市新店區光明街22號","121.53818","24.9586316666667","6500600","新店區"
"231042","268-BY","2019/07/27 19:46:22","新北市新店區中興路一段270號","121.545326666667","24.9679216666667","6500600","新店區"
"231064","278-BY","2019/07/27 19:49:32","新北市新店區光華街3號","121.51791","24.9689216666667","6500600","新店區"
"231050","AAD-862","2019/07/27 19:49:37","新北市新店區郵政路101號","121.554331666667","24.95133","6500600","新店區"
"231045","355-BY","2019/07/27 19:49:40","新北市新店區明山路1巷9弄14號","121.562116666667","24.9539366666667","6500600","新店區"
"231055","4716-K9","2019/07/27 19:49:35","新北市新店區力行路32號","121.539053333333","24.9648483333333","6500600","新店區"
"231056","4715-K9","2019/07/27 19:49:45","新北市新店區民權路72號","121.538106666667","24.983145","6500600","新店區"
"231067","4772-VM","2019/07/27 19:49:37","新北市新店區精忠路10-1號","121.532516666667","24.9590916666667","6500600","新店區"
"231052","513-UM","2019/07/27 19:49:39","新北市新店區新烏路三段300號","121.548265","24.8972683333333","6500600","新店區"
"231040","617-UM","2019/07/27 19:49:37","新北市新店區北新路一段126巷32號","121.543318333333","24.9689433333333","6500600","新店區"
"231041","619-UM","2019/07/27 19:49:31","新北市新店區中央路127巷2號","121.530713333333","24.97389","6500600","新店區"
"231063","641-BX","2019/07/27 19:49:53","新北市新店區車子路11號","121.503063333333","24.951985","6500600","新店區"
"231048","KED-0819","2019/07/27 19:49:39","新北市新店區寶興路65巷2號","121.550761666667","24.9715766666667","6500600","新店區"
"231046","719-UM","2019/07/27 19:48:19","新北市新店區福園街10巷3號","121.532635","24.9728216666667","6500600","新店區"
"231057","720-UM","2019/07/27 19:47:15","新北市新店區梅崗一路9號","121.556116666667","24.9313333333333","6500600","新店區"
"231059","897-TW","2019/07/27 19:49:35","新北市新店區安興路141號","121.516728333333","24.979595","6500600","新店區"
"231043","899-TW","2019/07/27 19:49:36","新北市新店區中正路263-4號","121.538241666667","24.9738233333333","6500600","新店區"
"231066","AKT-0513","2019/07/27 19:49:53","新北市新店區安康路三段165巷2弄8號","121.48928","24.9513533333333","6500600","新店區"
"241011","013-R5","2019/07/27 19:49:46","新北市三重區介壽路39巷14號","121.499133333333","25.07003","6500200","三重區"
"241028","022-UY","2019/07/27 19:49:41","新北市三重區中正南路111號","121.494088333333","25.057705","6500200","三重區"
"241008","059-VK","2019/07/27 19:49:48","新北市三重區永福街96號","121.478836666667","25.0758616666667","6500200","三重區"
"241001","060-VK","2019/07/27 19:49:48","新北市三重區仁愛街325號","121.492383333333","25.0795483333333","6500200","三重區"
"241031","061-VK","2019/07/27 19:49:37","新北市三重區重新路四段214巷10號","121.486501666667","25.0543516666667","6500200","三重區"
"241017","063-VK","2019/07/27 19:49:44","新北市三重區重陽路三段11號","121.489451666667","25.0666616666667","6500200","三重區"
"241030","066-VK","2019/07/27 19:49:42","新北市三重區環河南路254巷40號","121.48973","25.0511816666667","6500200","三重區"
"241003","091-VK","2019/07/27 19:49:46","新北市三重區五華街93巷89號","121.493908333333","25.0850116666667","6500200","三重區"
"241016","266-UM","2019/07/27 19:49:43","新北市三重區正義北路48巷55號","121.495828333333","25.063655","6500200","三重區"
"241009","267-UM","2019/07/27 19:49:39","新北市三重區三和路四段396巷14號","121.48063","25.0789683333333","6500200","三重區"
"241018","268-UM","2019/07/27 19:49:33","新北市三重區雙園街57巷32號","121.49449","25.0683666666667","6500200","三重區"
"241032","269-UM","2019/07/27 19:49:51","新北市三重區捷運路19巷33號","121.484646666667","25.0577766666667","6500200","三重區"
"241013","270-UM","2019/07/27 19:49:39","新北市三重區仁愛街112巷14號","121.49473","25.0739216666667","6500200","三重區"
"241025","271-UM","2019/07/27 19:49:31","新北市三重區頂崁街212號","121.477023333333","25.0676433333333","6500200","三重區"
"241007","398-BY","2019/07/27 19:49:35","新北市三重區慈愛街1號","121.484636666667","25.0783416666667","6500200","三重區"
"241035","462-BY","2019/07/27 19:49:47","新北市三重區大榮街11號","121.498183333333","25.06331","6500200","三重區"
"241004","475-VK","2019/07/27 19:49:36","新北市三重區五華街74號","121.493398333333","25.0820033333333","6500200","三重區"
"241020","478-VK","2019/07/27 19:49:42","新北市三重區三和路四段14巷6號","121.49119","25.07376","6500200","三重區"
"241026","480-VK","2019/07/27 19:49:35","新北市三重區文化南路45號","121.500256666667","25.0613966666667","6500200","三重區"
"241014","543-UM","2019/07/27 19:49:34","新北市三重區長安街75號","121.501606666667","25.0674216666667","6500200","三重區"
"241023","545-UM","2019/07/27 19:49:47","新北市三重區頂崁街168號","121.477603333333","25.065915","6500200","三重區"
"241019","KEA-2593","2019/07/27 19:49:48","新北市三重區自強路二段74巷5號","121.488288333333","25.0701033333333","6500200","三重區"
"241006","AAD-863","2019/07/27 19:49:48","新北市三重區力行路二段82號","121.481578333333","25.07384","6500200","三重區"
"241015","887-TS","2019/07/27 19:49:37","新北市三重區重新路一段1號","121.50383","25.0642716666667","6500200","三重區"
"241029","942-UM","2019/07/27 19:49:51","新北市三重區光明路17號","121.491038333333","25.058635","6500200","三重區"
"241033","AAC-255","2019/07/27 19:49:43","新北市三重區中興南街66號","121.470706666667","25.04405","6500200","三重區"
"235066","003-UY","2019/07/27 19:49:47","新北市中和區中和路267號","121.505415","24.9999416666667","6500300","中和區"
"235056","096-UM","2019/07/27 19:49:51","新北市中和區中山路三段170巷8弄2號","121.472518333333","25.00749","6500300","中和區"
"235039","097-UM","2019/07/27 19:49:47","新北市中和區大勇街27巷31號","121.516155","24.99388","6500300","中和區"
"235065","098-UM","2019/07/27 19:49:35","新北市中和區福祥路87號","121.499065","25.0059016666667","6500300","中和區"
"235040","150-BY","2019/07/27 19:49:42","新北市中和區安和路39號","121.509686666667","24.9949","6500300","中和區"
"235058","151-BY","2019/07/27 19:49:40","新北市中和區員山路150巷2弄2號","121.481625","24.9982816666667","6500300","中和區"
"235055","183-VK","2019/07/27 19:49:34","新北市中和區德光路15巷21號","121.471411666667","25.0033783333333","6500300","中和區"
"235038","185-VK","2019/07/27 19:49:46","新北市中和區自立路14號","121.522281666667","24.9961533333333","6500300","中和區"
"235049","186-VK","2019/07/27 19:49:47","新北市中和區景平路385-2號","121.502975","24.994235","6500300","中和區"
"235044","293-VK","2019/07/27 19:49:46","新北市中和區板南路100號","121.503763333333","24.9924466666667","6500300","中和區"
"235072","301-VK","2019/07/27 19:49:39","新北市中和區景平路999巷2號","121.495043333333","25.0064316666667","6500300","中和區"
"235043","352-BY","2019/07/27 19:49:38","新北市中和區興南路二段159巷12號","121.505233333333","24.9830683333333","6500300","中和區"
"235042","KEA-2878","2019/07/27 19:49:45","新北市中和區景平路278巷16弄2號","121.51383","24.9933183333333","6500300","中和區"
"247014","KEA-2869","2019/07/27 19:49:44","新北市蘆洲區中央路103-1號","121.47204","25.0839733333333","6501400","蘆洲區"
"235050","4979-A6","2019/07/27 19:49:53","新北市中和區景平路241巷84弄54號","121.506101666667","24.9923916666667","6500300","中和區"
"235041","551-UM","2019/07/27 19:49:34","新北市中和區中安街104-1號","121.511768333333","25.0010683333333","6500300","中和區"
"235070","558-UM","2019/07/27 19:49:43","新北市中和區景平路477號","121.500366666667","24.99718","6500300","中和區"
"235045","565-BX","2019/07/27 19:49:50","新北市中和區安樂路1號","121.511668333333","24.991975","6500300","中和區"
"235047","732-UM","2019/07/27 19:49:52","新北市中和區和平街32號","121.509358333333","24.9903466666667","6500300","中和區"
"235046","733-UM","2019/07/27 19:49:38","新北市中和區仁愛街2號","121.510436666667","24.98927","6500300","中和區"
"235071","783-BX","2019/07/27 19:49:38","新北市中和區中板路7-3號","121.484936666667","25.01124","6500300","中和區"
"235052","805-TS","2019/07/27 19:49:49","新北市中和區華新街144巷8號","121.507703333333","24.9829433333333","6500300","中和區"
"235048","896-TW","2019/07/27 19:49:51","新北市中和區興南路一段63-6號","121.51036","24.989615","6500300","中和區"
"235053","900-TW","2019/07/27 19:49:16","新北市中和區國光街140號","121.468446666667","25.0013316666667","6500300","中和區"
"235051","157-BY","2019/07/27 19:49:35","新北市中和區中興街180巷52弄3號","121.498506666667","24.98828","6500300","中和區"
"235037","AAC-213","2019/07/27 19:49:50","新北市中和區自立路16號","121.521928333333","24.9937666666667","6500300","中和區"
"235059","AAC-215","2019/07/27 19:49:42","新北市中和區圓通路305巷18號","121.494981666667","24.9891033333333","6500300","中和區"
"220068","015-TV","2019/07/27 19:49:39","新北市板橋區光復街147號","121.485453333333","25.019925","6500100","板橋區"
"220065","072-UY","2019/07/27 19:49:47","新北市板橋區國泰街39巷4弄8號","121.468323333333","25.0060483333333","6500100","板橋區"
"220086","073-UY","2019/07/27 19:49:45","新北市板橋區中正路236巷78號","121.458148333333","25.019395","6500100","板橋區"
"220106","075-UY","2019/07/27 19:49:44","新北市板橋區民治街52巷11號","121.478863333333","25.0328083333333","6500100","板橋區"
"220069","AAD-861","2019/07/27 19:49:39","新北市板橋區大明街25巷2弄25號","121.457416666667","25.0026183333333","6500100","板橋區"
"247004","893-R6","2019/07/27 19:49:40","新北市蘆洲區中原路73號","121.458488333333","25.0818333333333","6501400","蘆洲區"
"247008","341-TH","2019/07/27 19:49:34","新北市蘆洲區信義路129號","121.478828333333","25.0801483333333","6501400","蘆洲區"
"247024","337-TH","2019/07/27 19:49:50","新北市蘆洲區光復路6號","121.462443333333","25.084235","6501400","蘆洲區"
"247002","336-TH","2019/07/27 19:49:42","新北市蘆洲區永樂街38巷57弄2號","121.458498333333","25.0902933333333","6501400","蘆洲區"
"226004","312-R5","2019/07/27 19:49:45","新北市平溪區十分里十分街311號","121.775241666667","25.0436733333333","6502400","平溪區"
"228003","097-TW","2019/07/27 19:49:46","新北市貢寮區真理里延平街171號","121.925441666667","25.059165","6502600","貢寮區"
"228001","212-TW","2019/07/27 19:49:33","新北市貢寮區真理里新港街118號","121.92695","25.0565266666667","6502600","貢寮區"
"227001","642-TC","2019/07/27 19:49:36","新北市雙溪區新基里中華路46號","121.865888333333","25.0375883333333","6502500","雙溪區"
"227002","400-TW","2019/07/27 19:49:37","新北市雙溪區雙溪里內挖路83號","121.86319","25.0369433333333","6502500","雙溪區"
"222001","KEA-2212","2019/07/27 19:49:35","新北市深坑區北深路三段116號","121.606548333333","25.00162","6501800","深坑區"
"208002","KEA-2872","2019/07/27 19:49:53","新北市金山區中華路366-1號","121.633213333333","25.2245066666667","6502700","金山區"
"208003","665-BX","2019/07/27 19:49:45","新北市金山區海興路190號","121.633313333333","25.2407366666667","6502700","金山區"
"251009","008-UM","2019/07/27 19:49:40","新北市淡水區中正路38-1號","121.44372","25.1692733333333","6501000","淡水區"
"251004","009-UM","2019/07/27 19:49:41","新北市淡水區民權路177巷55號","121.460473333333","25.133755","6501000","淡水區"
"251005","010-UM","2019/07/27 19:49:47","新北市淡水區學府路104號","121.449888333333","25.17179","6501000","淡水區"
"251001","011-UM","2019/07/27 19:49:43","新北市淡水區淡金路一段150號","121.45846","25.1652866666667","6501000","淡水區"
"251015","KEA-2871","2019/07/27 19:49:45","新北市淡水區山子頂24-1號","121.491411666667","25.187195","6501000","淡水區"
"251016","179-VK","2019/07/27 19:49:38","新北市淡水區下圭柔山121-12號","121.454583333333","25.20963","6501000","淡水區"
"251008","181-VK","2019/07/27 19:49:35","新北市淡水區中正路二段24巷2-1號","121.42681","25.1768833333333","6501000","淡水區"
"251013","182-VK","2019/07/27 19:49:35","新北市淡水區頂田寮路109號","121.45781","25.2161166666667","6501000","淡水區"
"251012","441-VK","2019/07/27 19:49:48","新北市淡水區淡金路三段36號","121.448103333333","25.199075","6501000","淡水區"
"251007","442-VK","2019/07/27 19:49:39","新北市淡水區中正東路一段3巷21號","121.451978333333","25.1659683333333","6501000","淡水區"
"251006","561-UM","2019/07/27 19:49:45","新北市淡水區水碓街15號","121.443496666667","25.1769433333333","6501000","淡水區"
"251014","577-R6","2019/07/27 19:49:35","新北市淡水區石頭厝14-6號","121.466953333333","25.237155","6501000","淡水區"
"251011","650-BX","2019/07/27 19:49:30","新北市淡水區八勢一街31巷1弄5號","121.46065","25.1567516666667","6501000","淡水區"
"207004","681-TV","2019/07/27 19:49:53","新北市萬里區萬里里瑪鋉路193號","121.69042","25.178795","6502800","萬里區"
"207003","550-UM","2019/07/27 19:49:51","新北市萬里區大鵬里萬里加投287-2號","121.645958333333","25.21754","6502800","萬里區"
"252002","178-VK","2019/07/27 19:49:50","新北市三芝區三民街24號","121.504696666667","25.2586283333333","6502100","三芝區"
"208001","170-UY","2019/07/27 19:49:49","新北市金山區六股里頂六股7-6號","121.611395","25.2218466666667","6502700","金山區"
"237004","KEA-2597","2019/07/27 19:49:44","新北市三峽區添福269號","121.375593333333","24.8931166666667","6500900","三峽區"
"237007","153-BY","2019/07/27 19:49:49","新北市三峽區二鬮路136巷22弄53號","121.357675","24.9104416666667","6500900","三峽區"
"237009","210-TH","2019/07/27 19:49:51","新北市三峽區清水街426號","121.368756666667","24.9261133333333","6500900","三峽區"
"237013","252-BX","2019/07/27 19:49:43","新北市三峽區介壽路二段153-1號","121.39341","24.9357683333333","6500900","三峽區"
"237008","302-VK","2019/07/27 19:49:37","新北市三峽區大同路201號","121.370898333333","24.9270466666667","6500900","三峽區"
"237014","433-BY","2019/07/27 19:49:43","新北市三峽區添福139號","121.375475","24.90088","6500900","三峽區"
"237006","5529-G3","2019/07/27 19:49:49","新北市三峽區中正路一段336巷15弄2號","121.369965","24.924945","6500900","三峽區"
"237015","649-BX","2019/07/27 19:49:47","新北市三峽區溪東路165號","121.40327","24.93399","6500900","三峽區"
"237010","706-TV","2019/07/27 19:49:50","新北市三峽區復興路36-1號","121.374038333333","24.93635","6500900","三峽區"
"237012","756-BX","2019/07/27 19:49:36","新北市三峽區光明路39-1號","121.374396666667","24.9299433333333","6500900","三峽區"
"237005","AKY-6261","2019/07/27 19:49:38","新北市三峽區長泰街61-1號","121.376768333333","24.9330433333333","6500900","三峽區"
"236042","KED-0685","2019/07/27 19:49:46","新北市土城區金城路二段233號","121.455616666667","24.9823966666667","6501300","土城區"
"220089","KED-0812","2019/07/27 19:49:52","新北市板橋區互助街49-1號","121.460956666667","25.0265283333333","6500100","板橋區"
"236079","166-UM","2019/07/27 19:49:33","新北市土城區溪頭路33號","121.412353333333","24.9552033333333","6501300","土城區"
"236030","253-BX","2019/07/27 19:49:50","新北市土城區中央路一段290號","121.44329","24.9824","6501300","土城區"
"236026","269-VK","2019/07/27 19:49:47","新北市土城區中央路二段61巷42號","121.444026666667","24.9785683333333","6501300","土城區"
"236038","271-VK","2019/07/27 19:49:44","新北市土城區國際路158巷2號","121.468451666667","24.9765016666667","6501300","土城區"
"236070","KEA-2877","2019/07/27 19:49:48","新北市土城區中央路二段207號","121.441635","24.9744783333333","6501300","土城區"
"252001","KED-0821","2019/07/27 19:49:50","新北市三芝區公正街66號","121.499925","25.257435","6502100","三芝區"
"236021","401-BY","2019/07/27 19:49:51","新北市土城區延吉街137巷6號","121.470886666667","24.985735","6501300","土城區"
"236059","912-UM","2019/07/27 19:49:47","新北市土城區中央路一段148號","121.446163333333","24.9873933333333","6501300","土城區"
"236049","913-UM","2019/07/27 19:49:52","新北市土城區青雲路210號","121.459078333333","24.9817633333333","6501300","土城區"
"236063","915-UM","2019/07/27 19:49:36","新北市土城區延和路105巷3弄1號","121.467396666667","24.9908016666667","6501300","土城區"
"236055","AAC-216","2019/07/27 19:49:53","新北市土城區延和路209號","121.469718333333","24.9899566666667","6501300","土城區"
"242039","AAC-296","2019/07/27 19:49:40","新北市新莊區民安路299巷33號","121.429291666667","25.0231933333333","6500500","新莊區"
"242002","751-BX","2019/07/27 19:49:44","新北市新莊區武前街29號","121.45021","25.0325266666667","6500500","新莊區"
"242004","440-UM","2019/07/27 19:49:41","新北市新莊區化成路63巷24弄25號","121.462491666667","25.04601","6500500","新莊區"
"242048","400-BY","2019/07/27 19:49:48","新北市新莊區後港一路28巷1弄1號","121.425445","25.0258566666667","6500500","新莊區"
"242025","362-BY","2019/07/27 19:49:51","新北市新莊區五權一路12巷21弄4號","121.45782","25.0645066666667","6500500","新莊區"
"242023","353-BY","2019/07/27 19:49:45","新北市新莊區化成路218號","121.465611666667","25.0466333333333","6500500","新莊區"
"242013","132-UY","2019/07/27 19:49:32","新北市新莊區中泰街58號","121.450248333333","25.04686","6500500","新莊區"
"242036","135-UY","2019/07/27 19:49:35","新北市新莊區建安街101巷3弄1號","121.426986666667","25.0238483333333","6500500","新莊區"
"242015","173-VK","2019/07/27 19:49:44","新北市新莊區中平路111號","121.444611666667","25.0464116666667","6500500","新莊區"
"242034","348-TH","2019/07/27 19:49:48","新北市新莊區仁愛街73號","121.444113333333","25.0377966666667","6500500","新莊區"
"242007","349-TH","2019/07/27 19:49:45","新北市新莊區中央路118號","121.456615","25.059575","6500500","新莊區"
"242031","350-TH","2019/07/27 19:49:47","新北市新莊區忠孝街11號","121.443895","25.0348733333333","6500500","新莊區"
"238015","755-BX","2019/07/27 19:49:42","新北市樹林區中山路二段235號","121.40227","24.9760666666667","6500700","樹林區"
"238023","601-UM","2019/07/27 19:49:35","新北市樹林區中正路105號","121.42485","25.001245","6500700","樹林區"
"238019","599-UM","2019/07/27 19:49:45","新北市樹林區中山路三段48號","121.394248333333","24.9724683333333","6500700","樹林區"
"238024","5061-A6","2019/07/27 19:49:34","新北市樹林區中山路三段245號","121.392773333333","24.97216","6500700","樹林區"
"238021","KEA-2539","2019/07/27 19:49:36","新北市樹林區田尾街257號","121.396511666667","24.94913","6500700","樹林區"
"238025","303-VK","2019/07/27 19:49:40","新北市樹林區中山路二段110-4號","121.413948333333","24.9832866666667","6500700","樹林區"
"238017","283-BY","2019/07/27 19:49:49","新北市樹林區保安街二段197巷10號","121.413891666667","25.003015","6500700","樹林區"
"238014","282-BY","2019/07/27 19:49:44","新北市樹林區千歲街70巷6弄6號","121.426756666667","24.9969083333333","6500700","樹林區"
"239006","891-R6","2019/07/27 19:49:44","新北市鶯歌區文化路72-4號","121.3549","24.9537016666667","6500800","鶯歌區"
"239002","359-BY","2019/07/27 19:49:54","新北市鶯歌區大湖路340號","121.346","24.9712433333333","6500800","鶯歌區"
"239007","292-BY","2019/07/27 19:49:35","新北市鶯歌區大湖路326巷66號","121.346565","24.9691666666667","6500800","鶯歌區"
"221008","489-VK","2019/07/27 19:49:37","新北市汐止區康寧街83巷11號","121.619993333333","25.0670416666667","6501100","汐止區"
"221015","131-UY","2019/07/27 19:49:35","新北市汐止區大同路二段527號","121.66172","25.0689166666667","6501100","汐止區"
"221010","269-BY","2019/07/27 19:49:35","新北市汐止區汐萬路一段411號","121.649146666667","25.0793683333333","6501100","汐止區"
"221012","278-VK","2019/07/27 19:49:45","新北市汐止區大同路三段350號","121.680178333333","25.07105","6501100","汐止區"
"221023","279-VK","2019/07/27 19:49:35","新北市汐止區中興路282號","121.628513333333","25.0692183333333","6501100","汐止區"
"221029","298-VK","2019/07/27 19:49:46","新北市汐止區康寧街901號","121.651601666667","25.0748983333333","6501100","汐止區"
"221021","299-VK","2019/07/27 19:49:49","新北市汐止區莊敬街27號","121.656911666667","25.0613316666667","6501100","汐止區"
"221031","353-TW","2019/07/27 19:49:39","新北市汐止區汐萬路一段333巷23號","121.648011666667","25.0761633333333","6501100","汐止區"
"221025","623-UM","2019/07/27 19:49:44","新北市汐止區秀峰路81巷15弄4-1號","121.660805","25.0645916666667","6501100","汐止區"
"221038","646-BX","2019/07/27 19:49:41","新北市汐止區忠孝東路424-4號","121.666078333333","25.071825","6501100","汐止區"
"221002","707-TV","2019/07/27 19:49:42","新北市汐止區康寧街901號","121.651388333333","25.075015","6501100","汐止區"
"220079","145-BY","2019/07/27 19:49:41","新北市板橋區民權路202巷13弄47號","121.458416666667","25.0163033333333","6500100","板橋區"
"220080","200-UY","2019/07/27 19:49:50","新北市板橋區大觀路二段37巷294號","121.450201666667","25.0017783333333","6500100","板橋區"
"220082","610-BX","2019/07/27 19:49:43","新北市板橋區溪北路102號","121.428536666667","24.98933","6500100","板橋區"
"220084","256-TC","2019/07/27 19:49:48","新北市板橋區溪崑二街124巷16號","121.425563333333","24.988395","6500100","板橋區"
"224002","257-TC","2019/07/27 19:49:47","新北市瑞芳區三爪子坑路13巷211號","121.815891666667","25.1059933333333","6501200","瑞芳區"
"220091","267-BY","2019/07/27 19:49:38","新北市板橋區懷德街127巷23弄29號","121.480146666667","25.0320916666667","6500100","板橋區"
"220056","276-BY","2019/07/27 19:49:39","新北市板橋區四川路二段47巷2弄1號","121.45407","24.994935","6500100","板橋區"
"220072","277-BY","2019/07/27 19:49:43","新北市板橋區金門街151巷25號","121.43396","24.9902433333333","6500100","板橋區"
"220101","280-UM","2019/07/27 19:49:30","新北市板橋區縣民大道三段101號","121.476251666667","25.0224416666667","6500100","板橋區"
"220071","283-VK","2019/07/27 19:49:49","新北市板橋區和平路174巷20號","121.464373333333","24.9947533333333","6500100","板橋區"
"220094","285-UM","2019/07/27 19:49:49","新北市板橋區雨農路7-1號","121.462486666667","25.0247033333333","6500100","板橋區"
"220053","285-VK","2019/07/27 19:49:49","新北市板橋區永豐街24號","121.474695","25.017105","6500100","板橋區"
"220083","286-VK","2019/07/27 19:49:37","新北市板橋區大觀路二段174巷137號","121.441281666667","25.0021866666667","6500100","板橋區"
"220081","287-VK","2019/07/27 19:49:47","新北市板橋區大觀路一段29巷91號","121.450523333333","25.0063233333333","6500100","板橋區"
"220090","288-VK","2019/07/27 19:49:50","新北市板橋區雨農路27巷4號","121.4613","25.0239566666667","6500100","板橋區"
"220061","293-UM","2019/07/27 19:49:48","新北市板橋區縣民大道二段200巷24號","121.470033333333","25.017295","6500100","板橋區"
"220075","303-R5","2019/07/27 19:49:44","新北市板橋區大勇街61號","121.4535","25.0167633333333","6500100","板橋區"
"220062","305-R5","2019/07/27 19:49:54","新北市板橋區光復街33巷13弄6號","121.482113333333","25.0192933333333","6500100","板橋區"
"220092","307-R5","2019/07/27 19:49:46","新北市板橋區幸福路32巷31號","121.460758333333","25.0214433333333","6500100","板橋區"
"220098","317-R6","2019/07/27 19:49:44","新北市板橋區四維路269巷45號","121.461341666667","25.0274483333333","6500100","板橋區"
"220088","491-VK","2019/07/27 19:49:38","新北市板橋區懷德街174巷4號","121.479273333333","25.0299466666667","6500100","板橋區"
"220035","560-BX","2019/07/27 19:49:43","新北市板橋區金華街85巷42號","121.459175","25.02132","6500100","板橋區"
"220103","561-BX","2019/07/27 19:49:34","新北市板橋區陽明街277號","121.46214","25.0260966666667","6500100","板橋區"
"220063","609-BX","2019/07/27 19:49:45","新北市板橋區三民路一段22號","121.478946666667","25.023285","6500100","板橋區"
"220057","686-BX","2019/07/27 19:49:47","新北市板橋區四川路二段99巷24弄43號","121.453368333333","24.9935066666667","6500100","板橋區"
"220077","687-BX","2019/07/27 19:49:46","新北市板橋區僑中二街116巷2號","121.445685","25.0065716666667","6500100","板橋區"
"220093","689-BX","2019/07/27 19:49:33","新北市板橋區長江路三段151-2號","121.476935","25.035305","6500100","板橋區"
"220054","741-BX","2019/07/27 19:49:42","新北市板橋區忠孝路192號","121.465243333333","25.0026433333333","6500100","板橋區"
"220102","KEA-2699","2019/07/27 19:49:47","新北市板橋區雙十路二段138-1號","121.473775","25.0292166666667","6500100","板橋區"
"220055","827-TW","2019/07/27 19:49:42","新北市板橋區國慶路132號","121.46111","24.995935","6500100","板橋區"
"220067","829-TW","2019/07/27 19:49:35","新北市板橋區民生路一段19號","121.47499","25.0114166666667","6500100","板橋區"
"220074","895-R6","2019/07/27 19:49:37","新北市板橋區大東街45號","121.456605","25.0085433333333","6500100","板橋區"
"220073","985-R7","2019/07/27 19:49:49","新北市板橋區國光路51號","121.458103333333","25.01801","6500100","板橋區"
"220097","AAC-210","2019/07/27 19:49:48","新北市板橋區光正街45巷5號","121.461828333333","25.0168833333333","6500100","板橋區"
"220064","AAC-253","2019/07/27 19:49:40","新北市板橋區民族路83-1號","121.465853333333","25.0084733333333","6500100","板橋區"
"235068","KEA-2873","2019/07/27 19:49:44","新北市中和區莊敬路10號","121.499628333333","25.00428","6500300","中和區"
