"lineid","car","time","location","longitude","latitude","cityid","cityname"
"251004","009-UM","2019/07/27 21:49:47","新北市淡水區民權路92巷35-1號","121.462148333333","25.126745","6501000","淡水區"
"251005","010-UM","2019/07/27 21:49:47","新北市淡水區鄧公路29巷30號","121.452615","25.16992","6501000","淡水區"
"251001","011-UM","2019/07/27 21:49:43","新北市淡水區新市二路三段152號","121.435485","25.1949316666667","6501000","淡水區"
"251008","181-VK","2019/07/27 21:49:35","新北市淡水區學府路88號","121.449205","25.17087","6501000","淡水區"
"251012","441-VK","2019/07/27 21:49:48","新北市淡水區淡金路三段329號","121.448906666667","25.2062966666667","6501000","淡水區"
"251007","442-VK","2019/07/27 21:49:39","新北市淡水區水源街二段177巷51號","121.452098333333","25.1771333333333","6501000","淡水區"
"251006","561-UM","2019/07/27 21:46:28","新北市淡水區中正路11巷3號","121.4378","25.1707783333333","6501000","淡水區"
"251011","650-BX","2019/07/27 21:49:50","新北市淡水區新民街322巷11弄1號","121.435888333333","25.183725","6501000","淡水區"
"251002","672-BX","2019/07/27 21:49:56","新北市淡水區大忠街123號","121.447493333333","25.1768116666667","6501000","淡水區"
"251003","673-BX","2019/07/27 21:49:52","新北市淡水區新春街81號","121.438773333333","25.1824283333333","6501000","淡水區"
"251010","766-UM","2019/07/27 21:49:45","新北市淡水區新民街一段132號","121.427628333333","25.1887733333333","6501000","淡水區"
