"lineid","car","time","location","longitude","latitude","cityid","cityname"
"251004","009-UM","2019/07/27 22:09:47","新北市淡水區民族路33號","121.462305","25.13582","6501000","淡水區"
"251005","010-UM","2019/07/27 22:09:47","新北市淡水區鄧公路19號","121.451431666667","25.1699766666667","6501000","淡水區"
"251008","181-VK","2019/07/27 22:09:55","新北市淡水區學府路104號","121.449881666667","25.171795","6501000","淡水區"
"251007","442-VK","2019/07/27 22:09:39","新北市淡水區北新路180號","121.449465","25.1786933333333","6501000","淡水區"
"251006","561-UM","2019/07/27 22:09:50","新北市淡水區中正路11巷11號","121.437585","25.170935","6501000","淡水區"
"251011","650-BX","2019/07/27 22:09:50","新北市淡水區水碓街7號","121.443155","25.1771083333333","6501000","淡水區"
"251010","766-UM","2019/07/27 22:09:45","新北市淡水區沙崙路185號","121.424583333333","25.1839083333333","6501000","淡水區"
