"lineid","car","time","location","longitude","latitude","cityid","cityname"
"251004","009-UM","2019/07/27 22:19:47","新北市淡水區民族路33號","121.462288333333","25.1358216666667","6501000","淡水區"
"251005","010-UM","2019/07/27 22:19:47","新北市淡水區淡金路一段565號","121.453155","25.180575","6501000","淡水區"
"251008","181-VK","2019/07/27 22:19:35","新北市淡水區學府路104號","121.449888333333","25.1717733333333","6501000","淡水區"
"251007","442-VK","2019/07/27 22:19:39","新北市淡水區北新路180號","121.449445","25.1787016666667","6501000","淡水區"
"251011","650-BX","2019/07/27 22:19:50","新北市淡水區水碓街7號","121.443168333333","25.177135","6501000","淡水區"
"251010","766-UM","2019/07/27 22:19:44","新北市淡水區沙崙路185號","121.424583333333","25.183895","6501000","淡水區"
