"lineid","car","time","location","longitude","latitude","cityid","cityname"
"251004","009-UM","2019/07/27 22:29:47","新北市淡水區民族路33號","121.462285","25.13581","6501000","淡水區"
"251005","010-UM","2019/07/27 22:29:47","新北市淡水區崁頂116號","121.432506666667","25.20478","6501000","淡水區"
"251008","181-VK","2019/07/27 22:29:55","新北市淡水區學府路104號","121.44987","25.1717816666667","6501000","淡水區"
"251007","442-VK","2019/07/27 22:29:39","新北市淡水區北新路180號","121.449468333333","25.1786866666667","6501000","淡水區"
"251011","650-BX","2019/07/27 22:29:50","新北市淡水區水碓街7號","121.4432","25.177145","6501000","淡水區"
"251010","766-UM","2019/07/27 22:29:45","新北市淡水區沙崙路236號","121.42558","25.1846883333333","6501000","淡水區"
