"lineid","car","time","location","longitude","latitude","cityid","cityname"
"234078","298-R6","2019/11/26 14:29:09","新北市永和區永利路6號","121.517465","25.0059883333333","6500400","永和區"
"234036","336-UY","2019/11/26 14:29:18","新北市永和區環河東路四段30號","121.52885","24.9991633333333","6500400","永和區"
"234062","337-UY","2019/11/26 14:29:18","新北市永和區中正路433號","121.51711","25.005075","6500400","永和區"
"234084","338-UY","2019/11/26 14:29:19","新北市永和區光復街21號","121.516433333333","25.01738","6500400","永和區"
"234068","552-UM","2019/11/26 14:29:22","新北市永和區永亨路6-1號","121.519331666667","25.005525","6500400","永和區"
"234028","746-BX","2019/11/26 14:29:24","新北市永和區民有街1號","121.515711666667","24.997325","6500400","永和區"
"234052","KEA-2590","2019/11/26 14:29:12","新北市永和區環河東路一段42號","121.518761666667","25.0169583333333","6500400","永和區"
"234012","KEA-2591","2019/11/26 14:29:13","新北市中和區環河西路三段83號","121.49266","25.0081566666667","6500400","永和區"
"234040","862-TW","2019/11/26 14:29:11","新北市永和區安樂路336號","121.514438333333","25.005965","6500400","永和區"
"234048","863-TW","2019/11/26 14:29:11","新北市永和區環河西路二段107號","121.506328333333","25.0147683333333","6500400","永和區"
"234025","9371-KE","2019/11/26 14:29:10","新北市中和區中和路400巷31號","121.512028333333","25.002105","6500400","永和區"
"248017","KED-0813","2019/11/26 14:29:22","新北市五股區外寮路1-8號","121.425108333333","25.07627","6501500","五股區"
"234072","AAC-211","2019/11/26 14:29:19","新北市永和區環河東路一段124號","121.520675","25.0154016666667","6500400","永和區"
"234066","AAC-212","2019/11/26 14:29:10","新北市中和區中山路二段2巷45弄44號","121.501875","25.0063316666667","6500400","永和區"
"234001","AAC-295","2019/11/26 14:29:24","新北市永和區大新街64號","121.516371666667","25.00829","6500400","永和區"
"244002","248-BX","2019/11/26 14:29:13","新北市林口區南勢里33-3號","121.352265","25.0701633333333","6501700","林口區"
"231030","002-UM","2019/11/26 14:29:25","新北市新店區安民街69號","121.51647","24.967005","6500600","新店區"
"231005","046-UY","2019/11/26 14:29:20","新北市新店區順安街21號","121.540815","24.9856033333333","6500600","新店區"
"231029","106-UY","2019/11/26 14:29:15","新北市新店區安康路二段382號","121.500476666667","24.9570533333333","6500600","新店區"
"231018","107-UY","2019/11/26 14:29:17","新北市新店區中央二街57號","121.526886666667","24.974505","6500600","新店區"
"231013","108-UY","2019/11/26 14:29:11","新北市新店區民權路108-2號","121.536146666667","24.9834716666667","6500600","新店區"
"231036","110-UY","2019/11/26 14:29:11","新北市新店區安祥路104-10號","121.479063333333","24.9620633333333","6500600","新店區"
"231032","256-BX","2019/11/26 14:29:21","新北市新店區碧潭路64號","121.534735","24.9571383333333","6500600","新店區"
"231023","260-TV","2019/11/26 14:29:23","新北市新店區光明街179-1號","121.53985","24.9628816666667","6500600","新店區"
"231003","268-BY","2019/11/26 14:27:35","新北市新店區中興路一段266-5號","121.544981666667","24.9676233333333","6500600","新店區"
"231035","278-BY","2019/11/26 14:29:21","新北市新店區安光路10-1號","121.513848333333","24.96421","6500600","新店區"
"231015","AAD-862","2019/11/26 14:29:14","新北市新店區北宜路三段51號","121.57235","24.9505716666667","6500600","新店區"
"231006","355-BY","2019/11/26 14:29:24","新北市新店區北宜路二段346號","121.562903333333","24.95376","6500600","新店區"
"231038","3712-VJ","2019/11/26 14:29:16","新北市新店區溪洲路200號","121.528795","24.96642","6500600","新店區"
"231027","3713-VJ","2019/11/26 14:29:15","新北市新店區中正路75巷71號","121.543148333333","24.96895","6500600","新店區"
"231001","617-UM","2019/11/26 14:29:19","新北市新店區中正路75巷71號","121.543283333333","24.9688233333333","6500600","新店區"
"231002","619-UM","2019/11/26 14:29:22","新北市新店區中央路15號","121.533286666667","24.9783733333333","6500600","新店區"
"231034","641-BX","2019/11/26 14:29:20","新北市新店區車子路11號","121.50299","24.951995","6500600","新店區"
"231012","KED-0819","2019/11/26 14:29:06","新北市新店區寶宏路6-2號","121.549085","24.9766116666667","6500600","新店區"
"231020","718-UY","2019/11/26 14:29:21","新北市新店區桂山路38號","121.557888333333","24.9030083333333","6500600","新店區"
"231028","897-TW","2019/11/26 14:29:23","新北市新店區安和路一段15號","121.5169","24.963995","6500600","新店區"
"231004","899-TW","2019/11/26 14:29:16","新北市新店區中正路263-2號","121.538488333333","24.9738016666667","6500600","新店區"
"231037","AKT-0513","2019/11/26 14:29:15","新北市新店區薏仁坑路自強巷6號","121.496465","24.9582583333333","6500600","新店區"
"235030","003-UY","2019/11/26 14:29:09","新北市中和區景新街32號","121.50337","24.99933","6500300","中和區"
"235027","006-UY","2019/11/26 14:29:20","新北市中和區連城路168-3號","121.493631666667","24.9974266666667","6500300","中和區"
"235020","096-UM","2019/11/26 14:29:27","新北市中和區員山路514巷4號","121.479351666667","25.0096816666667","6500300","中和區"
"235003","097-UM","2019/11/26 14:29:24","新北市永和區中正路46-1號","121.512993333333","24.994425","6500300","中和區"
"235029","098-UM","2019/11/26 14:29:13","新北市中和區福祥路90巷5號","121.499686666667","25.0056533333333","6500300","中和區"
"235004","150-BY","2019/11/26 14:29:06","新北市中和區安樂路101-1號","121.513166666667","24.9951133333333","6500300","中和區"
"235022","151-BY","2019/11/26 14:29:24","新北市中和區員山路142巷1號","121.481468333333","24.9966533333333","6500300","中和區"
"235019","183-VK","2019/11/26 14:29:25","新北市中和區民生街35巷2弄4號","121.470245","25.00506","6500300","中和區"
"235002","185-VK","2019/11/26 14:29:11","新北市中和區自立路99巷1號","121.521968333333","24.9951416666667","6500300","中和區"
"235031","255-BX","2019/11/26 14:29:19","新北市中和區連城路340巷10弄8號","121.482926666667","24.99656","6500300","中和區"
"235008","293-VK","2019/11/26 14:29:10","新北市中和區捷運路157號","121.506376666667","24.9911833333333","6500300","中和區"
"235036","301-VK","2019/11/26 14:29:10","新北市中和區中和路74號","121.500838333333","25.0002066666667","6500300","中和區"
"235007","352-BY","2019/11/26 14:29:24","新北市中和區景新街250號","121.509135","24.99333","6500300","中和區"
"235006","KEA-2878","2019/11/26 14:29:12","新北市中和區中和路350巷8弄38號","121.50985","24.999815","6500300","中和區"
"247015","KEA-2869","2019/11/26 14:29:24","新北市蘆洲區中正路185巷78弄21號","121.465535","25.0849933333333","6501400","蘆洲區"
"247009","KED-0682","2019/11/26 14:29:15","新北市蘆洲區信義路154號","121.47942","25.0833983333333","6501400","蘆洲區"
"235033","4980-A6","2019/11/26 14:29:23","新北市中和區連城路134巷6號","121.495631666667","24.9993516666667","6500300","中和區"
"235032","551-UM","2019/11/26 14:29:16","新北市中和區福美路230號","121.499181666667","25.0053033333333","6500300","中和區"
"235034","558-UM","2019/11/26 14:29:19","新北市中和區景平路535號","121.49877","24.9991466666667","6500300","中和區"
"235009","565-BX","2019/11/26 14:29:17","新北市中和區景平路177號","121.511841666667","24.9926616666667","6500300","中和區"
"235024","KED-0823","2019/11/26 14:29:27","新北市中和區中山路二段523巷10弄2號","121.481598333333","25.0046583333333","6500300","中和區"
"235018","640-BX","2019/11/26 14:29:20","新北市中和區莒光路211號","121.469531666667","24.9952366666667","6500300","中和區"
"235035","647-TV","2019/11/26 14:29:20","新北市中和區連城路467-6號","121.483533333333","24.99596","6500300","中和區"
"235011","732-UM","2019/11/26 14:29:11","新北市中和區景平路259巷18號","121.507786666667","24.99267","6500300","中和區"
"235010","733-UM","2019/11/26 14:29:23","新北市中和區忠孝街37巷52號","121.51111","24.9849383333333","6500300","中和區"
"235026","800-TS","2019/11/26 14:29:12","新北市中和區中山路二段389號","121.486838333333","25.0048433333333","6500300","中和區"
"235021","801-TS","2019/11/26 14:29:11","新北市中和區員山路150-22號","121.481395","24.997975","6500300","中和區"
"235005","802-TS","2019/11/26 14:29:13","新北市中和區景安路50號","121.506535","24.998265","6500300","中和區"
"235016","805-TS","2019/11/26 14:29:11","新北市中和區華新街143巷51號","121.506276666667","24.980175","6500300","中和區"
"235012","896-TW","2019/11/26 14:29:12","新北市中和區忠孝街60巷7號","121.511668333333","24.983815","6500300","中和區"
"235017","900-TW","2019/11/26 14:29:11","新北市中和區民德路197號","121.468871666667","24.9984783333333","6500300","中和區"
"235015","157-BY","2019/11/26 14:29:26","新北市中和區中興街180巷33號","121.498345","24.9891116666667","6500300","中和區"
"235001","AAC-213","2019/11/26 14:29:22","新北市中和區秀朗路三段50巷4弄9號","121.525621666667","24.995745","6500300","中和區"
"235023","AAC-215","2019/11/26 14:29:20","新北市中和區錦和路350號","121.490758333333","24.992075","6500300","中和區"
"220002","015-TV","2019/11/26 14:29:15","新北市板橋區光明街54號","121.460865","25.002615","6500100","板橋區"
"220034","073-UY","2019/11/26 14:29:20","新北市板橋區中正路236巷67號","121.458703333333","25.0196033333333","6500100","板橋區"
"220017","AAD-861","2019/11/26 14:29:13","新北市板橋區南雅南路二段18號","121.454415","25.0035","6500100","板橋區"
"247005","893-R6","2019/11/26 14:29:06","新北市蘆洲區中華街85號","121.461655","25.080075","6501400","蘆洲區"
"247019","546-UM","2019/11/26 14:29:23","新北市蘆洲區水湳街257號","121.46946","25.0924533333333","6501400","蘆洲區"
"247021","341-TH","2019/11/26 14:29:08","新北市蘆洲區中正路462號","121.462426666667","25.0950966666667","6501400","蘆洲區"
"247011","337-TH","2019/11/26 14:29:21","新北市蘆洲區中興街132號","121.482153333333","25.0894066666667","6501400","蘆洲區"
"247003","336-TH","2019/11/26 14:29:21","新北市蘆洲區長安街218號","121.458373333333","25.084395","6501400","蘆洲區"
"247023","057-VK","2019/11/26 14:29:16","新北市蘆洲區中正路263巷2號","121.467321666667","25.087415","6501400","蘆洲區"
"247013","056-VK","2019/11/26 14:29:21","新北市蘆洲區中山二路235號","121.470201666667","25.0801566666667","6501400","蘆洲區"
"247017","053-VK","2019/11/26 14:29:18","新北市蘆洲區民族路213號","121.478036666667","25.0894966666667","6501400","蘆洲區"
"247007","002-UY","2019/11/26 14:29:24","新北市蘆洲區信義路74號","121.476406666667","25.0793533333333","6501400","蘆洲區"
"247001","001-UY","2019/11/26 14:29:12","新北市蘆洲區永樂街38巷33弄25號","121.457063333333","25.0897216666667","6501400","蘆洲區"
"235013","251-BX","2019/11/26 14:29:15","新北市中和區安平路17號","121.509156666667","24.99417","6500300","中和區"
"228004","212-TW","2019/11/26 14:29:18","新北市貢寮區雙玉里田寮洋街33-1號","121.932138333333","25.0136483333333","6502600","貢寮區"
"228005","828-UM","2019/11/26 14:29:20","新北市貢寮區美豐里巫里岸9-1號","121.901958333333","25.0701","6502600","貢寮區"
"207002","749-BX","2019/11/26 14:29:12","新北市萬里區崁腳里崁腳路73號","121.647611666667","25.159595","6502800","萬里區"
"207001","662-BX","2019/11/26 14:29:22","新北市萬里區磺潭里清水9號","121.640416666667","25.1999283333333","6502800","萬里區"
"252005","AAC-283","2019/11/26 14:29:27","新北市三芝區橫山里橫山33號","121.543836666667","25.25849","6502100","三芝區"
"236040","KED-0685","2019/11/26 14:29:22","新北市土城區學成路78巷4號","121.451063333333","24.988605","6501300","土城區"
"220110","KED-0812","2019/11/26 14:29:29","新北市板橋區龍泉街137號","121.457696666667","25.02402","6500100","板橋區"
"236074","166-UM","2019/11/26 14:29:09","新北市土城區大暖路18號","121.423625","24.960135","6501300","土城區"
"236029","253-BX","2019/11/26 14:29:13","新北市土城區水源街37號","121.440826666667","24.9756016666667","6501300","土城區"
"236024","269-VK","2019/11/26 14:29:25","新北市土城區承天路18號","121.439326666667","24.9636566666667","6501300","土城區"
"236013","270-VK","2019/11/26 14:29:16","新北市土城區青雲路39巷7號","121.460305","24.9874866666667","6501300","土城區"
"236032","271-VK","2019/11/26 14:29:22","新北市土城區明德路一段319號","121.459245","24.9771033333333","6501300","土城區"
"236065","KEA-2877","2019/11/26 14:29:16","新北市土城區永豐路205-5號","121.474718333333","24.97803","6501300","土城區"
"236017","401-BY","2019/11/26 14:29:24","新北市土城區永豐路202巷14號","121.466438333333","24.9834","6501300","土城區"
"236045","752-BX","2019/11/26 14:26:19","新北市土城區青雲路577號","121.459185","24.97184","6501300","土城區"
"236057","912-UM","2019/11/26 14:29:25","新北市土城區中央路四段76-3號","121.419061666667","24.959465","6501300","土城區"
"236060","915-UM","2019/11/26 14:29:12","新北市中和區莒光路213號","121.469021666667","24.9946083333333","6501300","土城區"
"236054","AAC-216","2019/11/26 14:29:08","新北市土城區中華路一段245號","121.440991666667","24.9818033333333","6501300","土城區"
"220028","200-UY","2019/11/26 14:29:19","新北市板橋區大觀路二段37巷150號","121.44915","25.0012883333333","6500100","板橋區"
"220030","610-BX","2019/11/26 14:29:29","新北市板橋區金門街348號","121.427885","24.984425","6500100","板橋區"
"220050","245-BX","2019/11/26 14:29:20","新北市板橋區莊敬路209號","121.472061666667","25.0221583333333","6500100","板橋區"
"220004","276-BY","2019/11/26 14:29:20","新北市板橋區信義路127號","121.45774","24.9932883333333","6500100","板橋區"
"220020","277-BY","2019/11/26 14:29:08","新北市板橋區篤行路二段159號","121.429455","24.9878416666667","6500100","板橋區"
"220111","280-UM","2019/11/26 14:29:21","新北市板橋區長江路一段23號","121.458408333333","25.0290483333333","6500100","板橋區"
"220043","283-UM","2019/11/26 14:29:27","新北市板橋區銘傳街56號","121.468765","25.030805","6500100","板橋區"
"220019","283-VK","2019/11/26 14:29:15","新北市板橋區忠孝路24巷29號","121.460358333333","25.0007516666667","6500100","板橋區"
"220001","285-VK","2019/11/26 14:29:16","新北市板橋區永豐街104號","121.475995","25.02059","6500100","板橋區"
"220107","286-VK","2019/11/26 14:29:26","新北市板橋區龍興街71巷25號","121.44269","25.0022683333333","6500100","板橋區"
"220029","287-VK","2019/11/26 14:29:25","新北市板橋區大觀路一段75巷39號","121.448955","25.004125","6500100","板橋區"
"220039","288-VK","2019/11/26 14:29:15","新北市板橋區新海路431巷20號","121.457741666667","25.026915","6500100","板橋區"
"220009","293-UM","2019/11/26 14:29:14","新北市板橋區板新路185號","121.469141666667","25.01592","6500100","板橋區"
"220032","296-UM","2019/11/26 14:29:22","新北市板橋區滿平街84巷120弄18號","121.426488333333","24.9858133333333","6500100","板橋區"
"220023","303-R5","2019/11/26 14:29:24","新北市板橋區南雅西路一段122號","121.452436666667","25.0064483333333","6500100","板橋區"
"220010","305-R5","2019/11/26 14:29:24","新北市板橋區三民路二段109巷26號","121.480591666667","25.015855","6500100","板橋區"
"220041","307-R5","2019/11/26 14:29:13","新北市板橋區四維路137巷1弄14號","121.464945","25.0246483333333","6500100","板橋區"
"220047","317-R6","2019/11/26 14:29:08","新北市板橋區四維路266巷2弄20號","121.463966666667","25.0281316666667","6500100","板橋區"
"220013","461-BY","2019/11/26 14:29:23","新北市板橋區實踐路93巷101號","121.467291666667","25.00591","6500100","板橋區"
"220037","491-VK","2019/11/26 14:29:20","新北市板橋區文化路二段182巷3弄79號","121.472341666667","25.0295816666667","6500100","板橋區"
"220104","560-BX","2019/11/26 14:29:22","新北市板橋區中正路399巷26號","121.453275","25.0225983333333","6500100","板橋區"
"220052","561-BX","2019/11/26 14:29:17","新北市板橋區陽明街29巷8號","121.46487","25.021945","6500100","板橋區"
"220027","568-UM","2019/11/26 14:29:12","新北市板橋區光正街23巷48號","121.461453333333","25.0155966666667","6500100","板橋區"
"220109","609-BX","2019/11/26 14:29:25","新北市板橋區三民路一段31巷19號","121.480211666667","25.0232983333333","6500100","板橋區"
"220040","637-BX","2019/11/26 14:29:13","新北市板橋區文聖街149巷25號","121.479453333333","25.02854","6500100","板橋區"
"220005","686-BX","2019/11/26 14:29:12","新北市板橋區廣和街68號","121.462171666667","24.9939866666667","6500100","板橋區"
"220025","687-BX","2019/11/26 14:29:16","新北市板橋區大觀路一段65號","121.447196666667","25.00498","6500100","板橋區"
"220051","KEA-2699","2019/11/26 14:29:24","新北市板橋區雙十路二段130巷2弄76號","121.475686666667","25.0292","6500100","板橋區"
"220003","827-TW","2019/11/26 14:29:11","新北市板橋區重慶路278巷20-3號","121.462743333333","24.999685","6500100","板橋區"
"220014","829-TW","2019/11/26 14:29:23","新北市板橋區漢生東路313巷2弄1號","121.472278333333","25.00822","6500100","板橋區"
"220016","830-TW","2019/11/26 14:29:25","新北市板橋區萬安街3號","121.48473","25.0224366666667","6500100","板橋區"
"220105","831-TW","2019/11/26 14:29:26","新北市板橋區文化路二段446號","121.474458333333","25.0323333333333","6500100","板橋區"
"220022","895-R6","2019/11/26 14:29:17","新北市板橋區北門街54號","121.4567","25.0112766666667","6500100","板橋區"
"220108","985-R7","2019/11/26 14:29:27","新北市板橋區新生街89巷28號","121.457116666667","25.0226783333333","6500100","板橋區"
"220046","AAC-210","2019/11/26 14:29:26","新北市板橋區文化路一段285巷1弄2號","121.46429","25.0187266666667","6500100","板橋區"
"220012","AAC-253","2019/11/26 14:29:13","新北市板橋區民權路3號","121.463025","25.01001","6500100","板橋區"
"235025","KEA-2875","2019/11/26 14:29:17","新北市中和區民安街42巷26號","121.479415","25.0009833333333","6500300","中和區"
