"lineid","car","time","location","longitude","latitude","cityid","cityname"
"234081","298-R6","2019/11/26 15:46:48","新北市永和區福和路1號","121.526473333333","25.0099233333333","6500400","永和區"
"231018","107-UY","2019/11/26 16:13:57","新北市新店區中正路700巷82號","121.536201666667","24.9932816666667","6500600","新店區"
"231035","278-BY","2019/11/26 16:10:50","","121.501815","24.95743","6500600","新店區"
"231020","718-UY","2019/11/26 16:13:41","新北市新店區北宜路一段172號","121.540775","24.9530266666667","6500600","新店區"
"231046","719-UM","2019/11/26 16:13:41","新北市新店區灣潭路2-4號","121.536543333333","24.950225","6500600","新店區"
"231026","720-UM","2019/11/26 16:13:58","新北市新店區安康路一段24巷2號","121.532778333333","24.9604316666667","6500600","新店區"
"241011","013-R5","2019/11/26 16:13:47","新北市三重區三和路三段37號","121.495686666667","25.0711483333333","6500200","三重區"
"241028","022-UY","2019/11/26 16:13:44","新北市三重區大同南路172巷8號","121.497435","25.05741","6500200","三重區"
"241008","059-VK","2019/11/26 16:13:55","新北市三重區永福街211巷41號","121.478263333333","25.0739583333333","6500200","三重區"
"241031","061-VK","2019/11/26 16:13:57","新北市三重區重新路四段121號","121.485236666667","25.052295","6500200","三重區"
"241015","062-VK","2019/11/26 16:13:58","新北市三重區福德北路83號","121.501941666667","25.065925","6500200","三重區"
"241017","063-VK","2019/11/26 16:13:52","新北市三重區重陽路三段5巷1號","121.490693333333","25.065485","6500200","三重區"
"241024","065-VK","2019/11/26 16:13:55","新北市三重區中正北路145巷9弄8號","121.485445","25.06781","6500200","三重區"
"241007","066-VK","2019/11/26 16:13:49","新北市三重區慈愛街10號","121.484556666667","25.07843","6500200","三重區"
"241002","090-VK","2019/11/26 16:13:47","新北市三重區龍門路239號","121.502018333333","25.07396","6500200","三重區"
"241006","262-UM","2019/11/26 16:13:42","新北市三重區永福街46巷41弄55號","121.480971666667","25.0772516666667","6500200","三重區"
"241016","266-UM","2019/11/26 16:13:51","新北市三重區大仁街37號","121.49295","25.0654016666667","6500200","三重區"
"241018","268-UM","2019/11/26 16:13:45","新北市三重區大仁街36巷73號","121.489775","25.063865","6500200","三重區"
"241032","269-UM","2019/11/26 16:13:53","新北市三重區三陽路116巷4號","121.483076666667","25.0581166666667","6500200","三重區"
"241013","270-UM","2019/11/26 16:13:45","新北市三重區三和路三段79號","121.494553333333","25.0719933333333","6500200","三重區"
"241020","478-VK","2019/11/26 16:13:51","新北市三重區力行路一段183號","121.483616666667","25.069705","6500200","三重區"
"241026","480-VK","2019/11/26 16:13:42","新北市三重區正義南路43-1號","121.498196666667","25.0607966666667","6500200","三重區"
"241014","543-UM","2019/11/26 16:13:41","新北市三重區河邊北街100巷1號","121.504165","25.0704866666667","6500200","三重區"
"241023","545-UM","2019/11/26 16:13:48","新北市三重區忠孝路二段124巷8弄2號","121.483453333333","25.0683883333333","6500200","三重區"
"241001","547-UM","2019/11/26 16:13:45","新北市三重區自強路四段77號","121.490706666667","25.0788916666667","6500200","三重區"
"241019","KEA-2593","2019/11/26 16:13:48","新北市三重區自強路二段74巷5號","121.488295","25.0701016666667","6500200","三重區"
"241005","AAD-863","2019/11/26 16:13:58","新北市三重區溪尾街305號","121.487563333333","25.0836783333333","6500200","三重區"
"241012","743-BX","2019/11/26 16:13:57","新北市三重區龍門路175-1號","121.49918","25.0731","6500200","三重區"
"241025","KED-0670","2019/11/26 16:13:47","新北市三重區忠孝路三段99巷13號","121.47989","25.06465","6500200","三重區"
"241029","942-UM","2019/11/26 16:13:42","新北市三重區中正南路269號","121.493013333333","25.0524666666667","6500200","三重區"
"241033","AAC-255","2019/11/26 16:13:53","新北市三重區中興南街80巷19號","121.472146666667","25.0438666666667","6500200","三重區"
"235026","800-TS","2019/11/26 16:13:52","新北市中和區建八路142號","121.48968","24.9985816666667","6500300","中和區"
"220034","073-UY","2019/11/26 16:06:16","","121.448266666667","24.99506","6500100","板橋區"
"224007","285-BY","2019/11/26 16:13:42","新北市瑞芳區粗坑口路34號","121.761596666667","25.0993333333333","6501200","瑞芳區"
"224005","271-BY","2019/11/26 16:13:46","新北市瑞芳區中山路195號","121.801645","25.10661","6501200","瑞芳區"
"227001","642-TC","2019/11/26 16:13:56","新北市雙溪區三港里雙澳路6號","121.868686666667","25.045075","6502500","雙溪區"
"227002","400-TW","2019/11/26 16:13:53","新北市雙溪區上林里內平林80號","121.828263333333","25.02792","6502500","雙溪區"
"251008","181-VK","2019/11/26 16:13:45","新北市淡水區中正東路一段3巷2號","121.450656666667","25.1644566666667","6501000","淡水區"
"251013","182-VK","2019/11/26 16:13:40","新北市淡水區北新路157號","121.44995","25.1790833333333","6501000","淡水區"
"251014","577-R6","2019/11/26 16:13:55","新北市淡水區中正路二段31號","121.419536666667","25.1815666666667","6501000","淡水區"
