"lineid","car","time","location","longitude","latitude","cityid","cityname"
"249004","303-UY","2019/11/26 16:43:12","新北市八里區博物館路73號","121.411196666667","25.16095","6502300","八里區"
"249003","759-BX","2019/11/26 16:43:15","新北市八里區中山路二段289號","121.401575","25.1486283333333","6502300","八里區"
"244007","080-UY","2019/11/26 16:43:06","新北市林口區粉寮路37-1號","121.40116","25.0849366666667","6501700","林口區"
"231046","719-UM","2019/11/26 16:43:21","新北市新店區灣潭路5-2號","121.537681666667","24.949885","6500600","新店區"
"241011","013-R5","2019/11/26 16:43:08","新北市三重區仁愛街34號","121.496453333333","25.07194","6500200","三重區"
"241028","022-UY","2019/11/26 16:43:24","新北市三重區重新路二段73號","121.496433333333","25.0618233333333","6500200","三重區"
"241008","059-VK","2019/11/26 16:43:15","新北市三重區永安北路一段21巷7號","121.476666666667","25.075285","6500200","三重區"
"241031","061-VK","2019/11/26 16:41:17","新北市三重區重新路四段102號","121.487715","25.056915","6500200","三重區"
"241015","062-VK","2019/11/26 16:43:20","新北市三重區文化北路43巷14號","121.499315","25.065645","6500200","三重區"
"241017","063-VK","2019/11/26 16:43:12","新北市三重區國隆路1-1號","121.493736666667","25.063515","6500200","三重區"
"241024","065-VK","2019/11/26 16:43:15","新北市三重區中正北路315巷6弄58號","121.475668333333","25.0725083333333","6500200","三重區"
"241007","066-VK","2019/11/26 16:43:09","新北市三重區三和路四段171號","121.48299","25.0787933333333","6500200","三重區"
"241002","090-VK","2019/11/26 16:43:27","新北市三重區仁義街241巷41號","121.497328333333","25.0831916666667","6500200","三重區"
"241003","091-VK","2019/11/26 16:43:21","新北市三重區五華街73號","121.492521666667","25.0828033333333","6500200","三重區"
"241006","262-UM","2019/11/26 16:43:22","新北市三重區力行路二段182-3號","121.483428333333","25.0774483333333","6500200","三重區"
"241016","266-UM","2019/11/26 16:43:11","新北市三重區大同北路70號","121.494171666667","25.0641483333333","6500200","三重區"
"241009","267-UM","2019/11/26 16:43:21","新北市三重區三和路四段203巷124號","121.48551","25.0804066666667","6500200","三重區"
"241018","268-UM","2019/11/26 16:43:19","新北市三重區六張街63號","121.49374","25.0701766666667","6500200","三重區"
"241032","269-UM","2019/11/26 16:43:13","新北市三重區新北大道一段19號","121.486488333333","25.0613666666667","6500200","三重區"
"241013","270-UM","2019/11/26 16:43:25","新北市三重區仁壽街70號","121.498085","25.0737933333333","6500200","三重區"
"241030","KED-0822","2019/11/26 16:43:28","新北市三重區新興路2巷26號","121.492471666667","25.05222","6500200","三重區"
"241004","475-VK","2019/11/26 16:43:14","新北市三重區仁愛街376號","121.491216666667","25.0807083333333","6500200","三重區"
"241020","478-VK","2019/11/26 16:43:10","新北市三重區忠孝路二段34號","121.485756666667","25.0709683333333","6500200","三重區"
"241026","480-VK","2019/11/26 16:43:22","新北市三重區和平街2-1號","121.500246666667","25.0625483333333","6500200","三重區"
"241014","543-UM","2019/11/26 16:43:22","新北市三重區長壽街120巷19弄5號","121.502313333333","25.0691816666667","6500200","三重區"
"241023","545-UM","2019/11/26 16:43:08","新北市三重區洛陽街55巷2號","121.48134","25.0631383333333","6500200","三重區"
"241001","547-UM","2019/11/26 16:43:24","新北市三重區仁政街57號","121.49287","25.0773033333333","6500200","三重區"
"241019","KEA-2593","2019/11/26 16:43:08","新北市三重區力行路一段163號","121.484705","25.0692666666667","6500200","三重區"
"241005","AAD-863","2019/11/26 16:43:18","新北市三重區仁華街118巷26弄23號","121.485218333333","25.0832383333333","6500200","三重區"
"241012","743-BX","2019/11/26 16:43:19","新北市三重區仁興街11巷14號","121.50022","25.07421","6500200","三重區"
"241022","KED-0820","2019/11/26 16:43:18","新北市三重區中華路88號","121.483446666667","25.0628566666667","6500200","三重區"
"241025","KED-0670","2019/11/26 16:43:27","新北市三重區中正北路371-2號","121.471705","25.0719383333333","6500200","三重區"
"241029","942-UM","2019/11/26 16:43:22","新北市三重區集美街257號","121.492401666667","25.055575","6500200","三重區"
"241033","AAC-255","2019/11/26 16:43:13","新北市三重區光華路20號","121.46916","25.05978","6500200","三重區"
"247012","337-TH","2019/11/26 16:43:20","新北市五股區中興路三段163號","121.448963333333","25.0810333333333","6501400","蘆洲區"
"247018","053-VK","2019/11/26 16:43:20","新北市蘆洲區永樂街81號","121.452785","25.08928","6501400","蘆洲區"
"228002","663-BX","2019/11/26 16:43:18","新北市貢寮區貢寮里朝陽街67號","121.910068333333","25.0217633333333","6502600","貢寮區"
"228003","828-UM","2019/11/26 16:43:16","新北市貢寮區貢寮里朝陽街1-2號","121.912351666667","25.0212433333333","6502600","貢寮區"
"224007","285-BY","2019/11/26 16:43:22","新北市瑞芳區中央路48巷吉祥園8號","121.759526666667","25.1036683333333","6501200","瑞芳區"
"224005","271-BY","2019/11/26 16:43:06","新北市瑞芳區洞頂路81號","121.861973333333","25.1188766666667","6501200","瑞芳區"
"227001","642-TC","2019/11/26 16:43:16","新北市雙溪區牡丹里聖南19號","121.857611666667","25.0527383333333","6502500","雙溪區"
"227002","400-TW","2019/11/26 16:43:18","新北市雙溪區長源里柑腳21號","121.80464","25.01438","6502500","雙溪區"
"251015","KEA-2871","2019/11/26 16:43:08","新北市淡水區忠愛街4號","121.459531666667","25.171325","6501000","淡水區"
"251016","180-VK","2019/11/26 16:43:10","新北市淡水區濱海路一段308號","121.441036666667","25.1892066666667","6501000","淡水區"
"251008","181-VK","2019/11/26 16:43:25","新北市淡水區樹梅坑9號","121.4728","25.142685","6501000","淡水區"
"251013","182-VK","2019/11/26 16:43:20","","121.495341666667","25.1908033333333","6501000","淡水區"
"251014","577-R6","2019/11/26 16:43:15","新北市淡水區淡金路四段476號","121.452421666667","25.2239033333333","6501000","淡水區"
"251011","650-BX","2019/11/26 16:43:10","新北市淡水區中正路二段31號","121.419388333333","25.18165","6501000","淡水區"
"252001","292-VK","2019/11/26 16:43:28","新北市三芝區埔坪里埔頭坑51號","121.507578333333","25.2656666666667","6502100","三芝區"
"252002","KED-0821","2019/11/26 16:43:20","新北市三芝區茂長里陳厝坑11號","121.514996666667","25.255365","6502100","三芝區"
"242021","KED-0687","2019/11/26 16:43:09","新北市新莊區三和路12-21號","121.442273333333","25.0380933333333","6500500","新莊區"
"239007","AAC-297","2019/11/26 16:43:11","新北市鶯歌區二甲路13-16號","121.345021666667","24.9352116666667","6500800","鶯歌區"
"233001","KEA-2870","2019/11/26 16:43:09","新北市烏來區啦卡路70-1號","121.56524","24.8559416666667","6502900","烏來區"
"242011","280-VK","2019/11/26 16:43:13","新北市新莊區三和路12-21號","121.4421","25.03826","6500500","新莊區"
