"lineid","car","time","location","longitude","latitude","cityid","cityname"
"234081","298-R6","2019/11/26 20:29:11","新北市永和區永貞路82號","121.520113333333","25.0050883333333","6500400","永和區"
"234064","337-UY","2019/11/26 20:29:26","新北市永和區中正路433號","121.517096666667","25.0050533333333","6500400","永和區"
"234086","338-UY","2019/11/26 20:29:28","新北市永和區永和路二段181號","121.515363333333","25.013385","6500400","永和區"
"234070","552-UM","2019/11/26 20:29:14","新北市永和區永亨路7號","121.519373333333","25.005685","6500400","永和區"
"234030","746-BX","2019/11/26 20:29:22","新北市新店區安興路141號","121.51686","24.9795116666667","6500400","永和區"
"234054","KEA-2590","2019/11/26 20:29:22","新北市永和區環河東路一段76號","121.519576666667","25.0165383333333","6500400","永和區"
"234013","KEA-2591","2019/11/26 20:29:15","新北市永和區仁愛路296號","121.50374","25.0081833333333","6500400","永和區"
"234061","AAD-866","2019/11/26 20:29:27","新北市永和區安樂路194巷14號","121.516311666667","25.0009233333333","6500400","永和區"
"234042","862-TW","2019/11/26 20:29:19","新北市永和區安樂路248-2號","121.51472","25.0034483333333","6500400","永和區"
"234050","863-TW","2019/11/26 20:29:18","新北市永和區保福路三段17號","121.50819","25.0157233333333","6500400","永和區"
"249001","173-UM","2019/11/26 20:29:28","新北市八里區下罟子1-16號","121.389776666667","25.1422183333333","6502300","八里區"
"249004","303-UY","2019/11/26 20:29:23","新北市八里區中山路一段129巷33號","121.41406","25.158485","6502300","八里區"
"249002","305-UY","2019/11/26 20:29:20","新北市八里區龍米路二段32巷15號","121.448996666667","25.140595","6502300","八里區"
"249003","759-BX","2019/11/26 20:29:15","新北市八里區舊城路21號","121.399868333333","25.1470533333333","6502300","八里區"
"248002","678-BX","2019/11/26 20:29:14","新北市五股區新五路二段333號","121.443731666667","25.087345","6501500","五股區"
"234023","9380-KE","2019/11/26 20:29:22","新北市永和區竹林路39巷1號","121.51808","25.01433","6500400","永和區"
"234074","AAC-211","2019/11/26 20:29:21","新北市永和區福和路1號","121.525151666667","25.0090533333333","6500400","永和區"
"234067","AAC-212","2019/11/26 20:29:22","新北市永和區保平路292巷46弄2號","121.50749","25.0053816666667","6500400","永和區"
"234003","AAC-295","2019/11/26 20:29:13","新北市永和區中正路614-2號","121.51701","25.0076216666667","6500400","永和區"
"243012","AAD-798","2019/11/26 20:29:11","新北市泰山區和平街27巷1號","121.434821666667","25.0645483333333","6501600","泰山區"
"243010","297-R6","2019/11/26 20:19:02","新北市泰山區明志路二段254巷14號","121.426086666667","25.047795","6501600","泰山區"
"243014","KEA-2801","2019/11/26 20:29:13","新北市泰山區泰林路二段519號","121.423941666667","25.0637883333333","6501600","泰山區"
"243016","421-VK","2019/11/26 20:29:17","新北市泰山區明志路二段202-1號","121.42743","25.0491583333333","6501600","泰山區"
"243009","KEA-2215","2019/11/26 20:29:09","新北市泰山區泰林路二段306巷1號","121.430821666667","25.0631616666667","6501600","泰山區"
"243011","KEA-2216","2019/11/26 20:29:13","新北市泰山區明志路三段159號","121.424731666667","25.039625","6501600","泰山區"
"243013","646-TV","2019/11/26 20:29:27","新北市泰山區民國街30號","121.425728333333","25.04282","6501600","泰山區"
"243015","680-BX","2019/11/26 20:29:23","新北市泰山區仁德路82號","121.433066666667","25.0564066666667","6501600","泰山區"
"222003","436-BY","2019/11/26 20:29:22","新北市深坑區深坑街71號","121.61486","25.0016216666667","6501800","深坑區"
"222002","659-BX","2019/11/26 20:29:25","新北市深坑區萬福路69-1號","121.60108","25.00795","6501800","深坑區"
"231061","002-UM","2019/11/26 20:29:25","新北市新店區安興路33-1號","121.515808333333","24.97045","6500600","新店區"
"231055","0291-UT","2019/11/26 20:29:12","新北市新店區北新路一段123號","121.539408333333","24.9625866666667","6500600","新店區"
"231044","046-UY","2019/11/26 20:29:12","新北市新店區建國路217-1號","121.537603333333","24.98072","6500600","新店區"
"231060","106-UY","2019/11/26 20:29:23","新北市新店區錦秀路11巷92弄2號","121.480291666667","24.942875","6500600","新店區"
"231051","107-UY","2019/11/26 20:29:10","新北市新店區中央七街74號","121.527403333333","24.97659","6500600","新店區"
"231049","108-UY","2019/11/26 20:29:16","新北市新店區永業路81巷60號","121.5294","24.948045","6500600","新店區"
"231065","110-UY","2019/11/26 20:29:18","新北市新店區安祥路102巷46弄29號","121.485598333333","24.9637066666667","6500600","新店區"
"231068","187-VK","2019/11/26 20:29:13","新北市新店區寶安街16巷2號","121.542125","24.9816333333333","6500600","新店區"
"231062","256-BX","2019/11/26 20:29:10","新北市新店區安泰路7巷16號","121.485681666667","24.95095","6500600","新店區"
"231054","260-TV","2019/11/26 20:29:15","新北市新店區檳榔路109號","121.544461666667","24.9615766666667","6500600","新店區"
"231042","268-BY","2019/11/26 20:29:19","新北市新店區寶橋路230號","121.551511666667","24.9788433333333","6500600","新店區"
"231064","278-BY","2019/11/26 20:29:26","新北市新店區永安街56巷6-2號","121.518586666667","24.9862116666667","6500600","新店區"
"231050","AAD-862","2019/11/26 20:29:17","新北市新店區建興街9巷11號","121.539911666667","24.9762516666667","6500600","新店區"
"231045","355-BY","2019/11/26 20:29:11","新北市新店區新坡一街20號","121.54895","24.961875","6500600","新店區"
"231058","3713-VJ","2019/11/26 20:29:15","新北市新店區中央路11號","121.533516666667","24.9784533333333","6500600","新店區"
"231056","4715-K9","2019/11/26 20:29:09","新北市新店區中央七街61巷12號","121.528735","24.9762633333333","6500600","新店區"
"231067","4772-VM","2019/11/26 20:29:24","新北市新店區安華路28-1號","121.51964","24.9609916666667","6500600","新店區"
"231040","617-UM","2019/11/26 20:29:14","新北市新店區三民路66號","121.535005","24.9722633333333","6500600","新店區"
"231041","619-UM","2019/11/26 20:29:26","新北市新店區中正路512-1號","121.533773333333","24.9833083333333","6500600","新店區"
"231063","641-BX","2019/11/26 20:29:27","新北市新店區薏仁坑路23號","121.498205","24.9589616666667","6500600","新店區"
"231048","KED-0819","2019/11/26 20:29:18","新北市新店區中興路三段328號","121.542113333333","24.986375","6500600","新店區"
"231053","718-UY","2019/11/26 20:29:16","新北市新店區松林路30-9號","121.545451666667","24.9111616666667","6500600","新店區"
"231057","720-UM","2019/11/26 20:29:23","新北市新店區花園十路二段2號","121.555646666667","24.93337","6500600","新店區"
"231059","897-TW","2019/11/26 20:29:19","新北市新店區安德街167號","121.508498333333","24.959215","6500600","新店區"
"231043","899-TW","2019/11/26 20:29:09","新北市新店區建國路88號","121.540423333333","24.9771766666667","6500600","新店區"
"231066","AKT-0513","2019/11/26 20:29:27","新北市新店區安民街365巷14號","121.515755","24.9753416666667","6500600","新店區"
"241011","013-R5","2019/11/26 20:29:10","新北市三重區龍門路28號","121.495518333333","25.0720833333333","6500200","三重區"
"241028","022-UY","2019/11/26 20:29:09","新北市三重區光興街89號","121.497423333333","25.05995","6500200","三重區"
"241008","059-VK","2019/11/26 20:29:28","新北市三重區下竹圍街91號","121.481138333333","25.07491","6500200","三重區"
"241015","062-VK","2019/11/26 20:29:18","新北市三重區長元街2-2號","121.498813333333","25.0659066666667","6500200","三重區"
"241017","063-VK","2019/11/26 20:29:12","新北市三重區自強路一段199號","121.491645","25.0683316666667","6500200","三重區"
"241024","065-VK","2019/11/26 20:29:15","新北市三重區中正北路276巷11號","121.480336666667","25.0677033333333","6500200","三重區"
"241007","066-VK","2019/11/26 20:29:12","新北市三重區溪尾街60巷19號","121.489408333333","25.0775233333333","6500200","三重區"
"241002","090-VK","2019/11/26 20:29:11","新北市三重區仁義街211巷15號","121.497491666667","25.0821416666667","6500200","三重區"
"241003","091-VK","2019/11/26 20:29:15","新北市三重區富華街194號","121.49309","25.08495","6500200","三重區"
"241006","262-UM","2019/11/26 20:29:22","新北市三重區車路頭街139巷12號","121.48424","25.07624","6500200","三重區"
"241016","266-UM","2019/11/26 20:29:10","新北市三重區正義北路147號","121.496605","25.0668516666667","6500200","三重區"
"241009","267-UM","2019/11/26 20:29:21","新北市三重區碧華街55號","121.484713333333","25.0813","6500200","三重區"
"241018","268-UM","2019/11/26 20:29:17","新北市三重區正義北路216巷5號","121.495881666667","25.0675916666667","6500200","三重區"
"241032","269-UM","2019/11/26 20:29:17","新北市三重區重陽路一段120巷35號","121.485111666667","25.0601633333333","6500200","三重區"
"241013","270-UM","2019/11/26 20:29:13","新北市三重區三和路四段1號","121.491615","25.0742083333333","6500200","三重區"
"241030","KED-0822","2019/11/26 20:29:27","新北市三重區成功路68-2號","121.488396666667","25.05057","6500200","三重區"
"241035","462-BY","2019/11/26 20:29:26","新北市三重區正義北路188號","121.496376666667","25.06697","6500200","三重區"
"241004","475-VK","2019/11/26 20:29:14","新北市三重區慈愛街159號","121.489923333333","25.080195","6500200","三重區"
"241020","478-VK","2019/11/26 20:29:30","新北市三重區忠孝路一段21號","121.492011666667","25.0719383333333","6500200","三重區"
"241026","480-VK","2019/11/26 20:29:26","新北市三重區文化南路8號","121.500241666667","25.06249","6500200","三重區"
"241014","543-UM","2019/11/26 20:28:53","新北市三重區長壽街120巷10-1號","121.502078333333","25.0692583333333","6500200","三重區"
"241023","545-UM","2019/11/26 20:29:08","新北市三重區自由街17巷1號","121.479865","25.0665916666667","6500200","三重區"
"241001","547-UM","2019/11/26 20:29:22","新北市三重區車路頭街109巷7號","121.48497","25.0746666666667","6500200","三重區"
"241019","KEA-2593","2019/11/26 20:29:16","新北市三重區重陽路四段77號","121.49246","25.0709316666667","6500200","三重區"
"241005","AAD-863","2019/11/26 20:29:18","新北市三重區碧華街448號","121.493221666667","25.0859366666667","6500200","三重區"
"241012","743-BX","2019/11/26 20:29:22","新北市三重區龍濱路285號","121.500863333333","25.0734833333333","6500200","三重區"
"241022","KED-0820","2019/11/26 20:29:17","新北市三重區重陽路二段19巷12號","121.488115","25.0624933333333","6500200","三重區"
"241025","KED-0670","2019/11/26 20:29:14","新北市三重區頂崁街210巷36號","121.47579","25.06792","6500200","三重區"
"241029","942-UM","2019/11/26 20:29:25","新北市三重區集美街116號","121.488795","25.053955","6500200","三重區"
"241033","AAC-255","2019/11/26 20:29:15","新北市三重區五谷王北街80巷1號","121.475923333333","25.05322","6500200","三重區"
"235055","183-VK","2019/11/26 20:29:14","新北市林口區太平里180號","121.366913333333","25.1337383333333","6500300","中和區"
"247016","KEA-2869","2019/11/26 20:29:24","新北市蘆洲區光華路111號","121.466978333333","25.08243","6501400","蘆洲區"
"247010","KED-0682","2019/11/26 20:29:15","新北市蘆洲區民族路150號","121.479483333333","25.0861","6501400","蘆洲區"
"235050","4979-A6","2019/11/26 20:29:27","新北市中和區景新街162號","121.505765","24.9972216666667","6500300","中和區"
"235069","4980-A6","2019/11/26 20:29:16","新北市中和區中正路440號","121.491026666667","24.9942933333333","6500300","中和區"
"235059","AAC-215","2019/11/26 20:29:25","新北市中和區員山路37-8號","121.482071666667","24.9898833333333","6500300","中和區"
"247006","893-R6","2019/11/26 20:29:26","新北市蘆洲區九芎街136號","121.4651","25.0790516666667","6501400","蘆洲區"
"247020","546-UM","2019/11/26 20:29:20","新北市蘆洲區仁愛街132號","121.469158333333","25.0944916666667","6501400","蘆洲區"
"247004","500-BY","2019/11/26 20:29:10","新北市蘆洲區長安街297號","121.458086666667","25.0848916666667","6501400","蘆洲區"
"247022","341-TH","2019/11/26 20:29:27","新北市蘆洲區中正路325號","121.466035","25.0888733333333","6501400","蘆洲區"
"247012","337-TH","2019/11/26 20:29:20","新北市蘆洲區復興路294號","121.48098","25.089905","6501400","蘆洲區"
"247024","057-VK","2019/11/26 20:29:21","新北市蘆洲區長興路50巷41號","121.464918333333","25.084865","6501400","蘆洲區"
"247014","056-VK","2019/11/26 20:29:24","新北市蘆洲區中山二路62號","121.473571666667","25.0820533333333","6501400","蘆洲區"
"247018","053-VK","2019/11/26 20:29:28","新北市蘆洲區民族路336巷11號","121.477026666667","25.09082","6501400","蘆洲區"
"247008","002-UY","2019/11/26 20:29:28","新北市蘆洲區永安北路二段76巷11號","121.482863333333","25.0851583333333","6501400","蘆洲區"
"247002","001-UY","2019/11/26 20:29:16","新北市蘆洲區長安街361巷12號","121.45653","25.08752","6501400","蘆洲區"
"222001","KEA-2212","2019/11/26 20:29:25","新北市深坑區北深路三段327號","121.597393333333","25.00507","6501800","深坑區"
"251001","011-UM","2019/11/26 20:29:26","新北市淡水區中山北路一段382號","121.444643333333","25.1828183333333","6501000","淡水區"
"251002","012-UM","2019/11/26 20:29:22","新北市淡水區中正路27號","121.442525","25.16961","6501000","淡水區"
"251015","KEA-2871","2019/11/26 20:29:12","新北市淡水區埤島3-20號","121.447068333333","25.1912266666667","6501000","淡水區"
"251016","180-VK","2019/11/26 20:29:10","新北市淡水區新埔子11-7號","121.447461666667","25.2284916666667","6501000","淡水區"
"251008","181-VK","2019/11/26 20:29:25","新北市淡水區淡海路210巷13號","121.421751666667","25.1862116666667","6501000","淡水區"
"251013","182-VK","2019/11/26 20:29:20","新北市淡水區後坑子7號","121.463931666667","25.2057","6501000","淡水區"
"251010","413-VK","2019/11/26 20:29:14","新北市淡水區沙崙路200號","121.424781666667","25.1840416666667","6501000","淡水區"
"251012","441-VK","2019/11/26 20:29:18","新北市淡水區頂田寮路5號","121.453798333333","25.2166916666667","6501000","淡水區"
"251006","561-UM","2019/11/26 20:29:27","新北市淡水區北新路一段695號","121.473721666667","25.18481","6501000","淡水區"
"251009","575-R6","2019/11/26 20:29:17","新北市淡水區中正路28號","121.444376666667","25.1690933333333","6501000","淡水區"
"251014","577-R6","2019/11/26 20:29:14","新北市淡水區石頭厝2-7號","121.460186666667","25.2363166666667","6501000","淡水區"
"251003","673-BX","2019/11/26 20:29:28","新北市淡水區新生街29號","121.439466666667","25.1750583333333","6501000","淡水區"
"207004","291-VK","2019/11/26 20:29:14","新北市萬里區北基里忠三街18號","121.684776666667","25.1756866666667","6502800","萬里區"
"252001","292-VK","2019/11/26 20:29:08","新北市三芝區中山路一段14號","121.500695","25.2581016666667","6502100","三芝區"
"237006","5529-G3","2019/11/26 20:29:24","新北市三峽區中山路311號","121.36115","24.93774","6500900","三峽區"
"236014","270-VK","2019/11/26 20:29:12","新北市土城區廣明街61號","121.455023333333","24.9936733333333","6501300","土城區"
"252002","KED-0821","2019/11/26 20:29:20","新北市三芝區淡金路二段76號","121.50369","25.260905","6502100","三芝區"
"242061","986-R7","2019/11/26 20:29:21","新北市新莊區新樹路234巷15號","121.431806666667","25.02001","6500500","新莊區"
"242029","615-BX","2019/11/26 20:29:13","新北市新莊區中華路二段141號","121.452866666667","25.0508883333333","6500500","新莊區"
"242027","613-BX","2019/11/26 20:29:26","新北市新莊區幸福路606號","121.45195","25.0492483333333","6500500","新莊區"
"242058","612-BX","2019/11/26 20:29:12","新北市新莊區四維路201號","121.421985","25.0205566666667","6500500","新莊區"
"242048","566-BX","2019/11/26 20:29:21","新北市新莊區成功街196號","121.422101666667","25.0173683333333","6500500","新莊區"
"242054","497-BY","2019/11/26 20:29:16","新北市新莊區民安西路229巷11號","121.426775","25.0142416666667","6500500","新莊區"
"242042","442-UM","2019/11/26 20:29:26","新北市新莊區天祥街54巷2弄1號","121.416643333333","25.02921","6500500","新莊區"
"242002","441-UM","2019/11/26 20:29:17","新北市新莊區化成路7-3號","121.464913333333","25.0430266666667","6500500","新莊區"
"242013","413-TV","2019/11/26 20:29:21","新北市新莊區中平路270巷7弄2號","121.44555","25.05028","6500500","新莊區"
"242051","400-BY","2019/11/26 20:29:16","新北市新莊區民安西路211號","121.426","25.0146216666667","6500500","新莊區"
"242025","362-BY","2019/11/26 20:29:25","新北市新莊區五工二路57號","121.46049","25.06548","6500500","新莊區"
"242023","353-BY","2019/11/26 20:29:30","新北市新莊區化成路547號","121.465036666667","25.0647983333333","6500500","新莊區"
"242015","132-UY","2019/11/26 20:29:24","新北市新莊區中平路46巷29號","121.44608","25.0438716666667","6500500","新莊區"
"242039","135-UY","2019/11/26 20:29:24","新北市新莊區民安路234號","121.42614","25.0221883333333","6500500","新莊區"
"242056","172-VK","2019/11/26 20:29:16","新北市新莊區新莊路713巷2號","121.443681666667","25.032575","6500500","新莊區"
"242017","173-VK","2019/11/26 20:29:11","新北市新莊區中港二街123號","121.44866","25.04565","6500500","新莊區"
"242032","175-VK","2019/11/26 20:29:08","新北市新莊區三和路17-9號","121.439565","25.0373983333333","6500500","新莊區"
"242044","176-VK","2019/11/26 20:29:28","新北市新莊區中正路新建巷30號","121.414375","25.02179","6500500","新莊區"
"242021","KED-0687","2019/11/26 20:29:25","新北市新莊區和興街15號","121.447498333333","25.0393383333333","6500500","新莊區"
"242007","346-TH","2019/11/26 20:29:12","新北市新莊區福壽街124巷30號","121.458891666667","25.051285","6500500","新莊區"
"242005","347-TH","2019/11/26 20:29:22","新北市新莊區頭前路15巷9號","121.46792","25.051675","6500500","新莊區"
"242037","348-TH","2019/11/26 20:29:28","新北市新莊區後港一路46巷6號","121.426203333333","25.0258866666667","6500500","新莊區"
"242009","349-TH","2019/11/26 20:29:19","新北市新莊區昌隆街76號","121.455543333333","25.0507266666667","6500500","新莊區"
"242034","350-TH","2019/11/26 20:29:27","新北市新莊區建中街90巷12號","121.446825","25.0375883333333","6500500","新莊區"
"242019","351-TH","2019/11/26 20:29:10","新北市新莊區復興路二段196巷1號","121.459438333333","25.0440366666667","6500500","新莊區"
"238016","169-UY","2019/11/26 20:16:02","新北市樹林區中山路三段204號","121.386883333333","24.9682833333333","6500700","樹林區"
"221008","489-VK","2019/11/26 20:29:28","新北市汐止區康寧街308號","121.626538333333","25.067165","6501100","汐止區"
"221036","130-UY","2019/11/26 20:29:27","新北市汐止區福安街37巷1號","121.663001666667","25.064965","6501100","汐止區"
"221015","131-UY","2019/11/26 20:29:19","新北市汐止區建成路142巷19弄11號","121.661965","25.0738766666667","6501100","汐止區"
"221010","269-BY","2019/11/26 20:29:18","新北市汐止區八連路一段528號","121.63838","25.0934383333333","6501100","汐止區"
"221012","278-VK","2019/11/26 20:29:21","新北市汐止區汐平路二段66號","121.698608333333","25.060915","6501100","汐止區"
"221023","279-VK","2019/11/26 20:29:09","新北市汐止區明峰街72號","121.631578333333","25.0712766666667","6501100","汐止區"
"221032","280-BY","2019/11/26 20:29:13","新北市汐止區弘道街53巷12號","121.618703333333","25.048925","6501100","汐止區"
"221029","298-VK","2019/11/26 20:29:11","新北市汐止區樟樹一路129巷32號","121.640525","25.065125","6501100","汐止區"
"221021","299-VK","2019/11/26 20:29:25","新北市汐止區水源路一段284號","121.65427","25.0582916666667","6501100","汐止區"
"221031","353-TW","2019/11/26 20:29:12","新北市汐止區原興路51號","121.632828333333","25.0650616666667","6501100","汐止區"
"221035","622-UM","2019/11/26 20:29:12","新北市汐止區長江街97號","121.658186666667","25.0727983333333","6501100","汐止區"
"221025","623-UM","2019/11/26 20:29:23","新北市汐止區水源路二段90號","121.65647","25.0560566666667","6501100","汐止區"
"221038","646-BX","2019/11/26 20:29:07","新北市汐止區水源路一段72號","121.656951666667","25.0652766666667","6501100","汐止區"
"221033","647-BX","2019/11/26 20:29:21","新北市汐止區林森街72號","121.623093333333","25.0407433333333","6501100","汐止區"
"221002","707-TV","2019/11/26 20:29:25","新北市汐止區原興路72號","121.632418333333","25.0659983333333","6501100","汐止區"
"221018","753-BX","2019/11/26 20:29:23","新北市汐止區茄苳路225巷11弄33號","121.670543333333","25.07004","6501100","汐止區"
"220083","286-VK","2019/11/26 20:29:13","新北市板橋區僑中二街102巷8號","121.445741666667","25.008385","6500100","板橋區"
"220081","287-VK","2019/11/26 20:29:23","新北市板橋區大觀路二段145號","121.44565","25.0010616666667","6500100","板橋區"
"242046","281-VK","2019/11/26 20:29:21","新北市新莊區裕民街90巷1號","121.418131666667","25.0237366666667","6500500","新莊區"
"242011","280-VK","2019/11/26 20:29:13","新北市新莊區中義街16號","121.450966666667","25.0512016666667","6500500","新莊區"
"220079","568-UM","2019/11/26 20:29:22","新北市板橋區西門街59號","121.454361666667","25.0091866666667","6500100","板橋區"
