"lineid","car","time","location","longitude","latitude","cityid","cityname"
"231064","278-BY","2019/11/26 21:29:26","新北市新店區安華路3號","121.519218333333","24.9595566666667","6500600","新店區"
"231063","641-BX","2019/11/26 21:29:27","新北市新店區如意街30號","121.49366","24.9483816666667","6500600","新店區"
"241024","065-VK","2019/11/26 21:29:15","新北市三重區中正北路145巷3弄12號","121.483861666667","25.0674383333333","6500200","三重區"
"241007","066-VK","2019/11/26 21:29:12","新北市三重區新北大道一段1號","121.491695","25.0613966666667","6500200","三重區"
"241003","091-VK","2019/11/26 21:29:25","新北市三重區仁義街238號","121.494373333333","25.0855083333333","6500200","三重區"
"241009","267-UM","2019/11/26 21:29:21","新北市八里區下罟子23號","121.376405","25.13992","6500200","三重區"
"241005","AAD-863","2019/11/26 21:29:18","新北市三重區三和路四段416號","121.480835","25.0799716666667","6500200","三重區"
"247022","341-TH","2019/11/26 21:29:27","新北市五股區中興路三段5號","121.450771666667","25.0801166666667","6501400","蘆洲區"
"247014","056-VK","2019/11/26 21:29:22","新北市八里區荖阡坑路41-3號","121.400158333333","25.1319883333333","6501400","蘆洲區"
"247008","002-UY","2019/11/26 21:29:22","新北市五股區新城八路18號","121.447998333333","25.0893883333333","6501400","蘆洲區"
"251004","009-UM","2019/11/26 21:29:19","新北市淡水區民族路19號","121.460485","25.136905","6501000","淡水區"
"251005","010-UM","2019/11/26 21:29:22","新北市淡水區長興街65號","121.444336666667","25.1722266666667","6501000","淡水區"
"251001","011-UM","2019/11/26 21:29:26","新北市淡水區濱海路三段148巷50弄76號","121.431413333333","25.1905916666667","6501000","淡水區"
"251002","012-UM","2019/11/26 21:29:21","新北市淡水區學府路172巷21號","121.448283333333","25.1748383333333","6501000","淡水區"
"251015","KEA-2871","2019/11/26 21:29:07","新北市淡水區淡金路三段70巷1號","121.448153333333","25.20057","6501000","淡水區"
"251016","180-VK","2019/11/26 21:29:10","新北市淡水區前洲子28號","121.441046666667","25.219235","6501000","淡水區"
"251008","181-VK","2019/11/26 21:29:25","新北市淡水區水源街二段194號","121.456955","25.17606","6501000","淡水區"
"251013","182-VK","2019/11/26 21:29:20","新北市淡水區埤島61-5號","121.459776666667","25.1953466666667","6501000","淡水區"
"251010","413-VK","2019/11/26 21:29:14","新北市淡水區中正路二段32巷30號","121.420606666667","25.1827116666667","6501000","淡水區"
"251012","441-VK","2019/11/26 21:29:18","新北市淡水區淡金路五段35巷46號","121.452491666667","25.2347483333333","6501000","淡水區"
"251006","561-UM","2019/11/26 21:29:25","新北市淡水區公明街65號","121.443756666667","25.1685966666667","6501000","淡水區"
"251009","575-R6","2019/11/26 21:29:17","新北市淡水區民族路31巷82號","121.463283333333","25.13689","6501000","淡水區"
"251014","577-R6","2019/11/26 21:29:14","新北市淡水區六塊厝2-1號","121.450106666667","25.2404666666667","6501000","淡水區"
"251011","650-BX","2019/11/26 21:29:17","新北市淡水區新民街164號","121.43707","25.1782883333333","6501000","淡水區"
"251003","673-BX","2019/11/26 21:29:14","新北市淡水區新春街59號","121.438093333333","25.18227","6501000","淡水區"
