"lineid","car","time","location","longitude","latitude","cityid","cityname"
"241009","267-UM","2019/11/26 22:13:20","新北市五股區四維路1巷2弄2號","121.466588333333","25.0701133333333","6500200","三重區"
"251004","009-UM","2019/11/26 22:13:19","新北市淡水區民族路33號","121.462206666667","25.13588","6501000","淡水區"
"251008","181-VK","2019/11/26 22:13:24","新北市淡水區學府路104號","121.449901666667","25.1717633333333","6501000","淡水區"
"251010","413-VK","2019/11/26 22:13:14","新北市淡水區沙崙路200號","121.424628333333","25.183945","6501000","淡水區"
"251007","442-VK","2019/11/26 22:13:16","新北市淡水區北新路180號","121.449411666667","25.17869","6501000","淡水區"
"251011","650-BX","2019/11/26 22:13:17","新北市淡水區水碓街7號","121.443155","25.17716","6501000","淡水區"
