"lineid","car","time","location","longitude","latitude","cityid","cityname"
"234044","148-BY","2019/11/05 13:29:21","新北市永和區成功路二段2號","121.52664","25.0012216666667","6500400","永和區"
"234078","298-R6","2019/11/05 13:29:34","新北市永和區福和路5號","121.525063333333","25.0087033333333","6500400","永和區"
"234036","336-UY","2019/11/05 13:29:35","新北市永和區民樂街33巷1號","121.527618333333","25.0012566666667","6500400","永和區"
"234062","337-UY","2019/11/05 13:29:29","新北市永和區中正路368巷1弄86號","121.520403333333","25.0007316666667","6500400","永和區"
"234084","338-UY","2019/11/05 13:29:26","新北市永和區成功路一段18巷15號","121.526248333333","25.00499","6500400","永和區"
"234015","745-BX","2019/11/05 13:29:29","新北市永和區環河西路一段1號","121.515273333333","25.0180516666667","6500400","永和區"
"234028","746-BX","2019/11/05 13:29:03","新北市永和區民權路47號","121.520145","24.9972466666667","6500400","永和區"
"234052","KEA-2590","2019/11/05 13:29:32","新北市永和區復興街7號","121.515853333333","25.0129116666667","6500400","永和區"
"234005","KED-0605","2019/11/05 13:29:17","新北市永和區中山路一段230號","121.508","25.0080566666667","6500400","永和區"
"234012","KEA-2591","2019/11/05 13:29:28","新北市永和區永平路203巷5弄1號","121.509141666667","25.0096616666667","6500400","永和區"
"234060","AAD-866","2019/11/05 13:29:31","新北市永和區永貞路176號","121.51662","25.0042733333333","6500400","永和區"
"234068","748-BX","2019/11/05 13:29:29","新北市永和區警光街1-1號","121.520026666667","25.0095233333333","6500400","永和區"
"234040","862-TW","2019/11/05 13:29:27","新北市永和區中和路573號","121.511676666667","25.003415","6500400","永和區"
"234048","863-TW","2019/11/05 13:29:18","新北市永和區信義路86號","121.51247","25.0135116666667","6500400","永和區"
"234025","9371-KE","2019/11/05 13:29:18","新北市永和區和平街19號","121.513603333333","25.0099183333333","6500400","永和區"
"234010","9373-KE","2019/11/05 13:29:18","新北市永和區仁愛路141巷30弄5號","121.511935","25.0115533333333","6500400","永和區"
"248017","KED-0813","2019/11/05 13:29:30","新北市五股區御史路300號","121.41711","25.1088683333333","6501500","五股區"
"234022","9380-KE","2019/11/05 13:29:38","新北市永和區環河東路一段200號","121.521933333333","25.0137366666667","6500400","永和區"
"234076","969-R7","2019/11/05 13:29:03","新北市永和區智光街37號","121.51787","24.9987383333333","6500400","永和區"
"234072","AAC-211","2019/11/05 13:29:26","新北市永和區永和路二段243號","121.515781666667","25.0148283333333","6500400","永和區"
"234066","AAC-212","2019/11/05 13:29:17","新北市永和區保平路174巷2號","121.510923333333","25.0068416666667","6500400","永和區"
"234001","AAC-295","2019/11/05 13:29:21","新北市永和區永和路一段115-1號","121.513948333333","25.0080683333333","6500400","永和區"
"244002","248-BX","2019/11/05 13:29:21","新北市林口區頂福23-2號","121.351556666667","25.0843183333333","6501700","林口區"
"231030","002-UM","2019/11/05 13:29:18","新北市新店區安華路28-1號","121.519808333333","24.96093","6500600","新店區"
"231027","0293-UT","2019/11/05 13:29:27","新北市新店區環河路21號","121.537441666667","24.9613366666667","6500600","新店區"
"231005","046-UY","2019/11/05 13:29:38","新北市新店區安康路一段35號","121.531763333333","24.9607833333333","6500600","新店區"
"231028","047-UY","2019/11/05 13:29:23","新北市新店區安華路28-1號","121.519021666667","24.9608716666667","6500600","新店區"
"231029","106-UY","2019/11/05 13:29:31","新北市新店區安華路30巷3號","121.51894","24.9588933333333","6500600","新店區"
"231018","107-UY","2019/11/05 13:29:28","新北市新店區中央四街5-1號","121.530173333333","24.973825","6500600","新店區"
"231013","108-UY","2019/11/05 13:29:18","新北市新店區環河路116號","121.537158333333","24.967015","6500600","新店區"
"231036","110-UY","2019/11/05 13:29:29","新北市新店區安祥路195號","121.47501","24.9544383333333","6500600","新店區"
"231032","256-BX","2019/11/05 13:29:22","新北市新店區安豐路22巷7號","121.501293333333","24.9541616666667","6500600","新店區"
"231023","260-TV","2019/11/05 13:29:33","新北市新店區新店路9號","121.540405","24.9528883333333","6500600","新店區"
"231003","268-BY","2019/11/05 13:29:28","新北市新店區中興路二段203號","121.548221666667","24.9741466666667","6500600","新店區"
"231035","278-BY","2019/11/05 13:29:26","新北市新店區安一路一段1-1號","121.519776666667","24.9616233333333","6500600","新店區"
"231015","AAD-862","2019/11/05 13:29:29","新北市新店區新烏路一段9-1號","121.547251666667","24.9515733333333","6500600","新店區"
"231006","355-BY","2019/11/05 13:29:20","新北市新店區安華路3號","121.518936666667","24.9604416666667","6500600","新店區"
"231038","3712-VJ","2019/11/05 13:29:33","新北市新店區安華路3號","121.519066666667","24.9604066666667","6500600","新店區"
"231024","4716-K9","2019/11/05 13:29:27","新北市新店區中正路122號","121.542236666667","24.9711733333333","6500600","新店區"
"231025","4715-K9","2019/11/05 13:29:33","新北市新店區中央五街51號","121.527868333333","24.9753983333333","6500600","新店區"
"231020","513-UM","2019/11/05 13:29:24","新北市新店區安康路一段221號","121.525796666667","24.963025","6500600","新店區"
"231001","617-UM","2019/11/05 13:29:31","新北市新店區安康路一段355號","121.520051666667","24.9636783333333","6500600","新店區"
"231002","618-UM","2019/11/05 13:29:29","新北市新店區安康路一段222-2號","121.523138333333","24.963655","6500600","新店區"
"231034","641-BX","2019/11/05 13:29:15","新北市新店區安華路28-1號","121.519661666667","24.96053","6500600","新店區"
"231012","KED-0819","2019/11/05 13:29:31","新北市新店區安康路一段46巷4號","121.53061","24.9610083333333","6500600","新店區"
"231010","719-UM","2019/11/05 13:29:17","新北市新店區自由街11號","121.535478333333","24.974985","6500600","新店區"
"231004","899-TW","2019/11/05 13:28:19","新北市新店區安華路28-1號","121.519638333333","24.9608133333333","6500600","新店區"
"231037","AKT-0513","2019/11/05 13:29:18","新北市新店區薏仁坑路47-1號","121.494288333333","24.9632016666667","6500600","新店區"
"235030","003-UY","2019/11/05 13:29:29","新北市中和區中山路二段120號","121.502855","25.0038433333333","6500300","中和區"
"235028","005-UY","2019/11/05 13:29:26","新北市中和區連城路109巷41號","121.496986666667","24.9984033333333","6500300","中和區"
"235027","006-UY","2019/11/05 13:29:22","新北市中和區連城路347巷1弄1號","121.488295","24.9958366666667","6500300","中和區"
"235020","096-UM","2019/11/05 13:29:26","新北市中和區中正路828號","121.484951666667","25.0035966666667","6500300","中和區"
"235003","097-UM","2019/11/05 13:29:22","新北市中和區大勇街23號","121.517091666667","24.992845","6500300","中和區"
"235029","098-UM","2019/11/05 13:29:23","新北市中和區中山路二段64巷14弄2號","121.503456666667","25.00552","6500300","中和區"
"235004","150-BY","2019/11/05 13:29:22","新北市中和區安平路59號","121.509495","24.9951233333333","6500300","中和區"
"235022","151-BY","2019/11/05 13:29:30","新北市中和區圓通路369巷68號","121.490371666667","24.9823816666667","6500300","中和區"
"235019","183-VK","2019/11/05 13:29:37","新北市中和區莒光路120巷19弄1-4號","121.471718333333","25.0007916666667","6500300","中和區"
"235002","185-VK","2019/11/05 13:29:15","新北市中和區立人街59號","121.520223333333","24.9942066666667","6500300","中和區"
"235031","255-BX","2019/11/05 13:29:19","新北市中和區連城路340巷14弄17號","121.482936666667","24.9971583333333","6500300","中和區"
"235006","KEA-2878","2019/11/05 13:29:18","新北市中和區自立路56巷12號","121.522865","24.991715","6500300","中和區"
"235014","4979-A6","2019/11/05 13:29:13","新北市中和區興南路一段48號","121.511056666667","24.9907133333333","6500300","中和區"
"235033","4980-A6","2019/11/05 13:29:24","新北市中和區連城路127巷5-1號","121.496363333333","24.9989566666667","6500300","中和區"
"235007","551-UM","2019/11/05 13:29:29","新北市中和區景平路239號","121.509568333333","24.9927866666667","6500300","中和區"
"235034","558-UM","2019/11/05 13:29:19","新北市中和區安和路163號","121.506151666667","24.99748","6500300","中和區"
"235009","565-BX","2019/11/05 13:29:22","新北市中和區南山路236-2號","121.506271666667","24.9892666666667","6500300","中和區"
"235024","KED-0823","2019/11/05 13:29:21","新北市中和區中山路二段579號","121.480366666667","25.0057283333333","6500300","中和區"
"235018","640-BX","2019/11/05 13:29:21","新北市中和區民享街55號","121.474061666667","25.0025716666667","6500300","中和區"
"235035","647-TV","2019/11/05 13:29:30","新北市中和區中板路20號","121.483846666667","25.0120583333333","6500300","中和區"
"235011","732-UM","2019/11/05 13:29:36","新北市中和區復興路333號","121.500541666667","24.9902583333333","6500300","中和區"
"235010","733-UM","2019/11/05 13:29:31","新北市中和區板南路123-1號","121.502146666667","24.9925183333333","6500300","中和區"
"235026","800-TS","2019/11/05 13:29:20","新北市中和區中山路二段312巷1弄2號","121.495598333333","25.0027916666667","6500300","中和區"
"235021","801-TS","2019/11/05 13:29:32","新北市中和區民安街42巷36號","121.478986666667","25.001215","6500300","中和區"
"235005","802-TS","2019/11/05 13:29:24","新北市中和區中和路318號","121.509493333333","25.0005683333333","6500300","中和區"
"235016","805-TS","2019/11/05 13:29:23","新北市中和區興南路二段133號","121.505211666667","24.9841633333333","6500300","中和區"
"235012","896-TW","2019/11/05 13:29:29","新北市中和區中正路273-2號","121.49563","24.9935383333333","6500300","中和區"
"235017","900-TW","2019/11/05 13:29:29","新北市中和區連城路607號","121.478108333333","24.9932316666667","6500300","中和區"
"235036","911-UM","2019/11/05 13:29:24","新北市中和區連城路164號","121.493863333333","24.9975466666667","6500300","中和區"
"235015","157-BY","2019/11/05 13:29:22","新北市中和區興南路二段142巷25弄34號","121.502568333333","24.9843116666667","6500300","中和區"
"235001","AAC-213","2019/11/05 13:29:24","新北市中和區景德街75號","121.516631666667","24.991405","6500300","中和區"
"220104","015-TV","2019/11/05 13:29:27","新北市板橋區南雅南路二段146號","121.451571666667","24.99617","6500100","板橋區"
"220017","AAD-861","2019/11/05 13:29:24","新北市板橋區華東街1-10號","121.448561666667","24.99499","6500100","板橋區"
"247011","337-TH","2019/11/05 13:29:09","新北市五股區中興路三段163號","121.449048333333","25.0804166666667","6501400","蘆洲區"
"247013","056-VK","2019/11/05 13:29:19","新北市五股區中興路三段2巷10號","121.449393333333","25.0812083333333","6501400","蘆洲區"
"235013","251-BX","2019/11/05 13:29:22","新北市中和區景安路84號","121.505668333333","24.996105","6500300","中和區"
"223001","592-UM","2019/11/05 13:29:33","基隆市七堵區俊賢路3號","121.707381666667","25.09486","6501900","石碇區"
"228004","212-TW","2019/11/05 13:29:25","新北市貢寮區龍崗里石壁坑街17號","121.910381666667","24.989545","6502600","貢寮區"
"228005","828-UM","2019/11/05 13:29:34","新北市貢寮區美豐里文秀坑8號","121.902556666667","25.0503933333333","6502600","貢寮區"
"207002","749-BX","2019/11/05 13:29:20","新北市萬里區崁腳里崁腳路166號","121.645045","25.1558066666667","6502800","萬里區"
"207001","662-BX","2019/11/05 13:29:27","新北市萬里區大鵬里頂社2-1號","121.662466666667","25.2063033333333","6502800","萬里區"
"252005","AAC-283","2019/11/05 13:29:28","新北市三芝區圓山里木屐寮38-2號","121.53128","25.2280983333333","6502100","三芝區"
"220038","KED-0812","2019/11/05 13:29:33","新北市板橋區民生路二段161巷1號","121.470133333333","25.02003","6500100","板橋區"
"220028","200-UY","2019/11/05 13:29:14","新北市板橋區華東街1-9號","121.448243333333","24.9949166666667","6500100","板橋區"
"220030","610-BX","2019/11/05 13:29:34","新北市板橋區華東街1-10號","121.448243333333","24.9949883333333","6500100","板橋區"
"220004","276-BY","2019/11/05 13:29:31","新北市板橋區華東街1-9號","121.448133333333","24.994975","6500100","板橋區"
"220050","280-UM","2019/11/05 13:04:29","新北市板橋區民生路二段172號","121.471428333333","25.020555","6500100","板橋區"
"220043","283-UM","2019/11/05 13:29:21","新北市板橋區民生路二段161巷1號","121.470185","25.0200466666667","6500100","板橋區"
"220107","286-VK","2019/11/05 13:29:31","新北市板橋區信義路1巷26弄26號","121.458055","24.99639","6500100","板橋區"
"220029","287-VK","2019/11/05 13:29:20","新北市板橋區華東街1-10號","121.448288333333","24.99501","6500100","板橋區"
"220011","487-VK","2019/11/05 13:29:36","新北市板橋區民生路二段188號","121.470216666667","25.0202766666667","6500100","板橋區"
"220025","687-BX","2019/11/05 13:29:25","新北市板橋區大觀路二段265巷7-7號","121.444033333333","24.9946616666667","6500100","板橋區"
"220002","741-BX","2019/11/05 13:29:18","新北市板橋區華東街1-9號","121.448136666667","24.9948933333333","6500100","板橋區"
"220022","895-R6","2019/11/05 13:29:17","新北市板橋區南雅南路二段144巷20號","121.450771666667","24.9956183333333","6500100","板橋區"
"220021","985-R7","2019/11/05 13:29:32","新北市板橋區四川路二段140巷12號","121.449533333333","24.9932566666667","6500100","板橋區"
"220046","AAC-210","2019/11/05 13:29:31","新北市板橋區民生路二段120號","121.470708333333","25.0195766666667","6500100","板橋區"
"220012","AAC-253","2019/11/05 13:29:22","新北市板橋區南雅南路二段120-12號","121.452081666667","24.9994483333333","6500100","板橋區"
"235032","KEA-2873","2019/11/05 13:29:14","新北市中和區圓通路222號","121.495521666667","24.993175","6500300","中和區"
"235025","KEA-2875","2019/11/05 13:29:15","新北市中和區民享街90巷1號","121.474765","25.0002733333333","6500300","中和區"
