"lineid","car","time","location","longitude","latitude","cityid","cityname"
"234044","148-BY","2019/11/05 13:59:21","新北市永和區成功路一段108號","121.52686","25.0027766666667","6500400","永和區"
"234078","298-R6","2019/11/05 13:59:34","新北市永和區永利路77號","121.521291666667","25.0037183333333","6500400","永和區"
"234036","336-UY","2019/11/05 13:59:32","新北市永和區成功路二段118號","121.526531666667","24.9978266666667","6500400","永和區"
"234062","337-UY","2019/11/05 13:59:29","新北市永和區中正路412巷20弄32號","121.519145","25.0012233333333","6500400","永和區"
"234084","338-UY","2019/11/05 13:59:26","新北市永和區福和路130號","121.521883333333","25.0079233333333","6500400","永和區"
"234015","745-BX","2019/11/05 13:59:29","新北市永和區文化路14號","121.515338333333","25.0150466666667","6500400","永和區"
"234028","746-BX","2019/11/05 13:59:23","新北市永和區民權路82號","121.519885","24.9971866666667","6500400","永和區"
"234052","KEA-2590","2019/11/05 13:59:24","新北市永和區竹林路39巷46號","121.520231666667","25.0152133333333","6500400","永和區"
"234005","KED-0605","2019/11/05 13:59:17","新北市中和區中和路388號","121.510855","25.00232","6500400","永和區"
"234012","KEA-2591","2019/11/05 13:59:28","新北市永和區保生路55號","121.504706666667","25.0106516666667","6500400","永和區"
"234060","AAD-866","2019/11/05 13:59:21","新北市永和區中正路151巷14號","121.515628333333","24.9988083333333","6500400","永和區"
"234068","748-BX","2019/11/05 13:59:33","新北市永和區國光路57號","121.518815","25.0082233333333","6500400","永和區"
"234040","862-TW","2019/11/05 13:59:27","新北市永和區中和路335巷8號","121.507515","25.0000766666667","6500400","永和區"
"234048","863-TW","2019/11/05 13:59:18","新北市永和區保安路260號","121.506","25.0123416666667","6500400","永和區"
"234025","9371-KE","2019/11/05 13:59:18","新北市永和區自由街58號","121.51388","25.0059966666667","6500400","永和區"
"234010","9373-KE","2019/11/05 13:59:18","新北市永和區仁愛路352巷114號","121.500438333333","25.00827","6500400","永和區"
"248017","KED-0813","2019/11/05 13:59:30","新北市五股區民義路一段220巷8-30號","121.428741666667","25.09159","6501500","五股區"
"234022","9380-KE","2019/11/05 13:59:23","新北市永和區復興街39號","121.516521666667","25.0133","6500400","永和區"
"234076","969-R7","2019/11/05 13:59:23","新北市永和區民族街43巷8號","121.518951666667","24.9984","6500400","永和區"
"234072","AAC-211","2019/11/05 13:59:26","新北市永和區豫溪街185號","121.522508333333","25.0103716666667","6500400","永和區"
"234066","AAC-212","2019/11/05 13:59:37","新北市永和區永貞路358號","121.51017","25.0065416666667","6500400","永和區"
"234001","AAC-295","2019/11/05 13:59:24","新北市永和區福和路316-1號","121.516018333333","25.0073683333333","6500400","永和區"
"244002","248-BX","2019/11/05 13:59:21","新北市林口區南勢里34-8號","121.352363333333","25.0703716666667","6501700","林口區"
"231030","002-UM","2019/11/05 13:59:18","新北市新店區安康路一段273號","121.524078333333","24.963435","6500600","新店區"
"231027","0293-UT","2019/11/05 13:59:27","新北市新店區中興路一段34號","121.538846666667","24.95867","6500600","新店區"
"231005","046-UY","2019/11/05 13:59:18","新北市新店區中興路三段182號","121.544105","24.9813716666667","6500600","新店區"
"231028","047-UY","2019/11/05 13:59:23","新北市新店區安和路三段4號","121.51792","24.9809333333333","6500600","新店區"
"231029","106-UY","2019/11/05 13:59:31","新北市新店區安康路二段3-1號","121.516088333333","24.9636733333333","6500600","新店區"
"231018","107-UY","2019/11/05 13:59:28","新北市新店區中央路111號","121.530961666667","24.9745783333333","6500600","新店區"
"231013","108-UY","2019/11/05 13:59:18","新北市新店區北新路三段19號","121.5418","24.9795616666667","6500600","新店區"
"231036","110-UY","2019/11/05 13:59:29","新北市新店區安祥路109巷3弄64號","121.477675","24.96116","6500600","新店區"
"231032","256-BX","2019/11/05 13:59:22","新北市新店區華城路36巷1-5號","121.527733333333","24.9553866666667","6500600","新店區"
"231023","260-TV","2019/11/05 13:59:23","新北市新店區文中路40號","121.539763333333","24.9565433333333","6500600","新店區"
"231003","268-BY","2019/11/05 13:59:27","新北市新店區光明街22號","121.538206666667","24.9587416666667","6500600","新店區"
"231035","278-BY","2019/11/05 13:59:26","新北市新店區安和路二段66號","121.518141666667","24.9678016666667","6500600","新店區"
"231015","AAD-862","2019/11/05 13:59:29","新北市新店區北宜路二段108-1號","121.555825","24.9539183333333","6500600","新店區"
"231006","355-BY","2019/11/05 13:59:20","新北市新店區北宜路二段85號","121.550188333333","24.9521916666667","6500600","新店區"
"231038","3712-VJ","2019/11/05 13:59:33","新北市新店區安一路一段1-1號","121.520235","24.9616433333333","6500600","新店區"
"231024","4716-K9","2019/11/05 13:59:27","新北市新店區新生街11號","121.539978333333","24.9661466666667","6500600","新店區"
"231025","4715-K9","2019/11/05 13:59:33","新北市新店區建安街33巷8號","121.538511666667","24.9756","6500600","新店區"
"231020","513-UM","2019/11/05 13:59:24","新北市新店區屈尺路75號","121.545605","24.9227","6500600","新店區"
"231001","617-UM","2019/11/05 13:59:31","新北市新店區三民路43號","121.537136666667","24.97085","6500600","新店區"
"231002","618-UM","2019/11/05 13:59:29","新北市新店區復興路106-1號","121.531733333333","24.9891983333333","6500600","新店區"
"231034","641-BX","2019/11/05 13:59:15","新北市新店區達觀路40號","121.503026666667","24.9386816666667","6500600","新店區"
"231012","KED-0819","2019/11/05 13:59:31","新北市新店區中興路二段67巷16號","121.545968333333","24.97133","6500600","新店區"
"231010","719-UM","2019/11/05 13:59:17","新北市新店區安康路一段351-1號","121.519753333333","24.963915","6500600","新店區"
"231026","720-UM","2019/11/05 13:59:29","新北市新店區三民路159巷19弄46號","121.532253333333","24.973225","6500600","新店區"
"231004","899-TW","2019/11/05 13:59:26","新北市新店區北新路二段125號","121.542926666667","24.975225","6500600","新店區"
"231037","AKT-0513","2019/11/05 13:59:18","新北市新店區安康路三段165巷2弄29號","121.487958333333","24.9513483333333","6500600","新店區"
"235030","003-UY","2019/11/05 13:59:29","新北市中和區水源路102號","121.506133333333","25.00334","6500300","中和區"
"235028","005-UY","2019/11/05 13:59:25","新北市中和區中和路38號","121.499998333333","25.001505","6500300","中和區"
"235027","006-UY","2019/11/05 13:59:22","新北市中和區連城路399號","121.486255","24.9961616666667","6500300","中和區"
"235020","096-UM","2019/11/05 13:59:26","新北市中和區中正路1230號","121.479125","25.011035","6500300","中和區"
"235003","097-UM","2019/11/05 13:59:22","新北市中和區秀朗路三段177號","121.524373333333","24.9910833333333","6500300","中和區"
"235029","098-UM","2019/11/05 13:59:35","新北市中和區莊敬路33號","121.500906666667","25.004825","6500300","中和區"
"235004","150-BY","2019/11/05 13:59:22","新北市中和區宜安路116號","121.510288333333","24.998005","6500300","中和區"
"235022","151-BY","2019/11/05 13:59:30","新北市中和區連城路569巷9弄9號","121.47966","24.99426","6500300","中和區"
"235019","183-VK","2019/11/05 13:59:17","新北市中和區德光路49號","121.470098333333","25.0040766666667","6500300","中和區"
"235002","185-VK","2019/11/05 13:59:35","新北市中和區立人街22號","121.518995","24.994185","6500300","中和區"
"235031","255-BX","2019/11/05 13:59:19","新北市中和區中正路681號","121.485176666667","24.99764","6500300","中和區"
"235008","293-VK","2019/11/05 13:59:28","新北市中和區復興路280巷33弄3號","121.501428333333","24.9914433333333","6500300","中和區"
"235006","KEA-2878","2019/11/05 13:59:37","新北市中和區秀朗路三段10巷37弄15號","121.5241","24.9956283333333","6500300","中和區"
"247015","KEA-2869","2019/11/05 13:59:17","新北市蘆洲區光華路44號","121.468826666667","25.0831166666667","6501400","蘆洲區"
"247009","KED-0682","2019/11/05 13:59:25","新北市蘆洲區集賢路226-1號","121.482321666667","25.086425","6501400","蘆洲區"
"235014","4979-A6","2019/11/05 13:59:33","新北市中和區忠孝街2-7號","121.509178333333","24.9829583333333","6500300","中和區"
"235033","4980-A6","2019/11/05 13:59:24","新北市中和區中和路143號","121.502245","24.9998066666667","6500300","中和區"
"235007","551-UM","2019/11/05 13:59:29","新北市中和區景平路2-1號","121.525313333333","24.9905516666667","6500300","中和區"
"235034","558-UM","2019/11/05 13:59:19","新北市中和區中和路102號","121.502746666667","24.999675","6500300","中和區"
"235009","565-BX","2019/11/05 13:59:22","新北市中和區景新街467巷33號","121.514758333333","24.9888116666667","6500300","中和區"
"235024","KED-0823","2019/11/05 13:59:19","新北市中和區民享街75號","121.474198333333","25.0019516666667","6500300","中和區"
"235018","640-BX","2019/11/05 13:59:21","新北市中和區國光街109巷32號","121.469326666667","24.999445","6500300","中和區"
"235035","647-TV","2019/11/05 13:59:30","新北市中和區立德街98巷83號","121.488268333333","25.0086366666667","6500300","中和區"
"235011","732-UM","2019/11/05 13:59:16","新北市中和區興南路二段92號","121.505273333333","24.9844383333333","6500300","中和區"
"235010","733-UM","2019/11/05 13:59:31","新北市中和區忠孝街1巷72號","121.50823","24.9848216666667","6500300","中和區"
"235026","800-TS","2019/11/05 13:59:20","新北市中和區中山路二段380巷18號","121.490818333333","25.0051","6500300","中和區"
"235021","801-TS","2019/11/05 13:59:32","新北市中和區民利街28號","121.479976666667","24.9991683333333","6500300","中和區"
"235005","802-TS","2019/11/05 13:59:24","新北市中和區中安街26號","121.513328333333","25.0029916666667","6500300","中和區"
"235016","805-TS","2019/11/05 13:59:23","新北市中和區興南路二段131-10號","121.504048333333","24.9808183333333","6500300","中和區"
"235012","896-TW","2019/11/05 13:59:38","新北市中和區華新街109巷2號","121.508411666667","24.9826733333333","6500300","中和區"
"235017","900-TW","2019/11/05 13:59:29","新北市板橋區和平路185巷1號","121.464083333333","24.9964566666667","6500300","中和區"
"235036","911-UM","2019/11/05 13:59:24","新北市中和區中山路二段121號","121.502723333333","25.0035666666667","6500300","中和區"
"235015","157-BY","2019/11/05 13:59:22","新北市中和區忠孝街31巷33弄2號","121.509676666667","24.9846166666667","6500300","中和區"
"235001","AAC-213","2019/11/05 13:59:24","新北市中和區秀朗路三段60巷42號","121.524918333333","24.9950033333333","6500300","中和區"
"235023","AAC-215","2019/11/05 13:59:32","新北市中和區圓通路417-39號","121.489171666667","24.9881266666667","6500300","中和區"
"220104","015-TV","2019/11/05 13:59:27","新北市板橋區中正路341巷8號","121.454533333333","25.020415","6500100","板橋區"
"220013","072-UY","2019/11/05 13:59:22","新北市板橋區漢生東路315號","121.471851666667","25.0080116666667","6500100","板橋區"
"220105","075-UY","2019/11/05 13:59:29","新北市板橋區雙十路三段10巷17號","121.472338333333","25.0310816666667","6500100","板橋區"
"220017","AAD-861","2019/11/05 13:59:24","新北市板橋區華興街43號","121.457916666667","25.0047316666667","6500100","板橋區"
"247019","546-UM","2019/11/05 13:59:20","新北市蘆洲區民族路422巷82弄2號","121.473613333333","25.09372","6501400","蘆洲區"
"247005","500-BY","2019/11/05 13:59:23","新北市蘆洲區永安南路二段14號","121.467395","25.07705","6501400","蘆洲區"
"247003","341-TH","2019/11/05 13:59:36","新北市蘆洲區長安街97號","121.46177","25.0807566666667","6501400","蘆洲區"
"247011","337-TH","2019/11/05 13:59:20","新北市蘆洲區民族路150號","121.479545","25.086035","6501400","蘆洲區"
"247023","057-VK","2019/11/05 13:59:31","新北市蘆洲區光榮路120巷9號","121.465173333333","25.0888366666667","6501400","蘆洲區"
"247013","056-VK","2019/11/05 13:59:19","新北市蘆洲區保和街69巷2弄1號","121.469485","25.0857683333333","6501400","蘆洲區"
"247017","053-VK","2019/11/05 13:59:32","新北市蘆洲區民族路344號","121.47661","25.0905733333333","6501400","蘆洲區"
"247021","007-UY","2019/11/05 13:59:31","新北市蘆洲區中正路261號","121.467438333333","25.0873166666667","6501400","蘆洲區"
"247007","002-UY","2019/11/05 13:59:24","新北市蘆洲區重陽一街3號","121.48171","25.0814816666667","6501400","蘆洲區"
"247001","001-UY","2019/11/05 13:59:15","新北市蘆洲區三民路607號","121.460583333333","25.0938483333333","6501400","蘆洲區"
"235013","251-BX","2019/11/05 13:59:22","新北市中和區安和路111號","121.506766666667","24.9956216666667","6500300","中和區"
"223001","592-UM","2019/11/05 13:58:02","台北市南港區舊莊街一段290巷18號","121.622666666667","25.035355","6501900","石碇區"
"228004","212-TW","2019/11/05 13:59:25","新北市貢寮區龍崗里嵩陽街35-5號","121.90713","25.01756","6502600","貢寮區"
"228005","828-UM","2019/11/05 13:52:34","新北市貢寮區美豐里土地公嶺24號","121.890868333333","25.0647133333333","6502600","貢寮區"
"207002","749-BX","2019/11/05 13:59:20","新北市萬里區溪底里溪底路9-1號","121.61898","25.1489216666667","6502800","萬里區"
"207001","662-BX","2019/11/05 13:59:27","新北市萬里區磺潭里公館崙47-2號","121.6292","25.2050966666667","6502800","萬里區"
"252005","AAC-283","2019/11/05 13:59:28","新北市三芝區橫山里橫山57-2號","121.534106666667","25.2540183333333","6502100","三芝區"
"236040","KED-0685","2019/11/05 13:59:35","新北市土城區城林路6巷80號","121.438468333333","24.979755","6501300","土城區"
"220038","KED-0812","2019/11/05 13:59:32","新北市板橋區文化路二段331號","121.472531666667","25.0304116666667","6500100","板橋區"
"236074","166-UM","2019/11/05 13:59:26","新北市土城區永寧路32巷10弄23號","121.428846666667","24.9610533333333","6501300","土城區"
"236029","253-BX","2019/11/05 13:59:34","新北市土城區城林路6巷80號","121.438518333333","24.9797866666667","6501300","土城區"
"236024","269-VK","2019/11/05 13:59:30","新北市土城區承天路31號","121.43673","24.96532","6501300","土城區"
"236013","270-VK","2019/11/05 13:59:21","新北市土城區中華路二段2號","121.43901","24.979815","6501300","土城區"
"236032","271-VK","2019/11/05 13:59:23","新北市土城區城林路6巷80號","121.438603333333","24.9797916666667","6501300","土城區"
"236065","KEA-2877","2019/11/05 13:59:34","新北市土城區和平路54號","121.445208333333","24.9689533333333","6501300","土城區"
"236017","401-BY","2019/11/05 13:59:30","新北市土城區城林路6巷80號","121.438606666667","24.9798","6501300","土城區"
"236057","912-UM","2019/11/05 13:59:23","新北市土城區永寧路1號","121.430385","24.9647633333333","6501300","土城區"
"236045","913-UM","2019/11/05 13:59:17","新北市土城區城林路6巷80號","121.438551666667","24.979715","6501300","土城區"
"236060","915-UM","2019/11/05 13:59:16","新北市土城區城林路6巷80號","121.438493333333","24.9797866666667","6501300","土城區"
"236054","AAC-216","2019/11/05 13:59:31","新北市土城區城林路6巷80號","121.438645","24.9797883333333","6501300","土城區"
"220027","145-BY","2019/11/05 13:59:26","新北市板橋區大仁街95號","121.453115","25.0158083333333","6500100","板橋區"
"220028","200-UY","2019/11/05 13:59:20","新北市板橋區大觀路二段265巷1弄28-2號","121.444156666667","24.9982583333333","6500100","板橋區"
"220030","610-BX","2019/11/05 13:59:14","新北市板橋區篤行路三段8號","121.429353333333","24.9878066666667","6500100","板橋區"
"220004","276-BY","2019/11/05 13:59:31","新北市板橋區信義路98號","121.45807","24.9928733333333","6500100","板橋區"
"220020","277-BY","2019/11/05 13:59:25","新北市樹林區中正路7-1號","121.430441666667","24.99736","6500100","板橋區"
"220050","280-UM","2019/11/05 13:59:30","新北市板橋區莊敬路221號","121.471841666667","25.021895","6500100","板橋區"
"220043","283-UM","2019/11/05 13:59:22","新北市板橋區光武街161號","121.46542","25.0297733333333","6500100","板橋區"
"220019","283-VK","2019/11/05 13:59:26","新北市板橋區忠孝路154巷49號","121.464431666667","25.000955","6500100","板橋區"
"220001","285-VK","2019/11/05 13:59:29","新北市板橋區永豐街115號","121.474345","25.01961","6500100","板橋區"
"220107","286-VK","2019/11/05 13:59:31","新北市板橋區大觀路一段38巷156弄47-3號","121.44077","25.0067416666667","6500100","板橋區"
"220029","287-VK","2019/11/05 13:59:20","新北市板橋區光華街19巷8號","121.453675","25.0121383333333","6500100","板橋區"
"220039","288-VK","2019/11/05 13:59:33","新北市板橋區四維路310號","121.462463333333","25.0297966666667","6500100","板橋區"
"220009","293-UM","2019/11/05 13:59:31","新北市板橋區懷仁街89號","121.477546666667","25.01827","6500100","板橋區"
"220023","303-R5","2019/11/05 13:59:15","新北市板橋區南雅東路89號","121.453226666667","25.0085466666667","6500100","板橋區"
"220010","305-R5","2019/11/05 13:59:32","新北市中和區中板路45號","121.482223333333","25.0122416666667","6500100","板橋區"
"220041","307-R5","2019/11/05 13:59:34","新北市板橋區文化路二段225巷72弄54號","121.468708333333","25.0295966666667","6500100","板橋區"
"220034","461-BY","2019/11/05 13:59:23","新北市板橋區南雅西路二段175巷2號","121.451678333333","25.0125966666667","6500100","板橋區"
"220011","487-VK","2019/11/05 13:59:36","新北市板橋區中山路二段240號","121.478536666667","25.01808","6500100","板橋區"
"220037","491-VK","2019/11/05 13:59:27","新北市板橋區莊敬路56號","121.472708333333","25.026975","6500100","板橋區"
"220052","561-BX","2019/11/05 13:59:32","新北市板橋區介壽街81號","121.469416666667","25.0192583333333","6500100","板橋區"
"220032","568-UM","2019/11/05 13:59:15","新北市板橋區大觀路二段174巷116弄51號","121.442483333333","25.0013316666667","6500100","板橋區"
"220040","637-BX","2019/11/05 13:59:31","新北市板橋區大同街23號","121.477426666667","25.0270566666667","6500100","板橋區"
"220025","687-BX","2019/11/05 13:59:25","新北市板橋區大觀路二段174巷137號","121.441165","25.0020833333333","6500100","板橋區"
"220042","689-BX","2019/11/05 13:59:32","新北市板橋區民生路三段119號","121.466195","25.025665","6500100","板橋區"
"220002","741-BX","2019/11/05 13:59:18","新北市板橋區重慶路139巷21號","121.463686666667","25.0047383333333","6500100","板橋區"
"220051","KEA-2699","2019/11/05 13:59:34","新北市板橋區田單街2巷29號","121.482161666667","25.028055","6500100","板橋區"
"220003","827-TW","2019/11/05 13:59:28","新北市板橋區中山路一段158巷20號","121.466433333333","25.011145","6500100","板橋區"
"220014","831-TW","2019/11/05 13:59:26","新北市板橋區三民路二段154巷9-3號","121.478843333333","25.0150783333333","6500100","板橋區"
"220005","833-TW","2019/11/05 13:59:34","新北市板橋區重慶路265號","121.463306666667","25.0001883333333","6500100","板橋區"
"220022","895-R6","2019/11/05 13:59:17","新北市板橋區林園街2號","121.454336666667","25.0093183333333","6500100","板橋區"
"220021","985-R7","2019/11/05 13:59:32","新北市板橋區中正路1巷18-1號","121.45519","25.01141","6500100","板橋區"
"220046","AAC-210","2019/11/05 13:59:31","新北市板橋區幸福路70巷32號","121.460185","25.02101","6500100","板橋區"
"220012","AAC-253","2019/11/05 13:59:22","新北市板橋區民生路一段33號","121.476056666667","25.01188","6500100","板橋區"
"235032","KEA-2873","2019/11/05 13:59:32","新北市中和區景平路545巷1弄15號","121.498876666667","24.9988533333333","6500300","中和區"
"235025","KEA-2875","2019/11/05 13:59:15","新北市中和區員山路150-27號","121.481305","24.9981483333333","6500300","中和區"
