"lineid","car","time","location","longitude","latitude","cityid","cityname"
"234062","337-UY","2019/11/05 14:43:29","新北市中和區立業路107號","121.490798333333","25.00901","6500400","永和區"
"234040","862-TW","2019/11/05 14:43:27","新北市永和區自由街33號","121.514365","25.0063516666667","6500400","永和區"
"234025","9371-KE","2019/11/05 14:43:18","新北市永和區雙和街7巷7-1號","121.509503333333","25.0014366666667","6500400","永和區"
"248017","KED-0813","2019/11/05 14:30:14","新北市五股區外寮路13-1號","121.424878333333","25.08123","6501500","五股區"
"244002","248-BX","2019/11/05 14:43:21","新北市林口區南勢里33-3號","121.3521","25.0702","6501700","林口區"
"231030","002-UM","2019/11/05 14:43:18","新北市新店區安民街172號","121.51683","24.9707916666667","6500600","新店區"
"231027","0293-UT","2019/11/05 14:43:27","新北市新店區中正路102巷8弄4號","121.543455","24.97109","6500600","新店區"
"231005","046-UY","2019/11/05 14:43:17","新北市新店區復興路90-1號","121.533273333333","24.9883616666667","6500600","新店區"
"231028","047-UY","2019/11/05 14:43:23","新北市新店區安德街78號","121.510175","24.9615666666667","6500600","新店區"
"231029","106-UY","2019/11/05 14:43:32","新北市新店區安康路三段450號","121.484586666667","24.9512983333333","6500600","新店區"
"231018","107-UY","2019/11/05 14:43:28","新北市新店區中央路218號","121.529805","24.9730366666667","6500600","新店區"
"231013","108-UY","2019/11/05 14:43:18","新北市新店區北新路二段139巷12弄2號","121.542191666667","24.976025","6500600","新店區"
"231036","110-UY","2019/11/05 14:43:29","新北市新店區安祥路104-3號","121.480235","24.9623383333333","6500600","新店區"
"231039","187-VK","2019/11/05 14:43:30","新北市新店區安一路一段1-1號","121.519658333333","24.961145","6500600","新店區"
"231032","256-BX","2019/11/05 14:43:22","新北市新店區薏仁坑路6-1號","121.499815","24.958565","6500600","新店區"
"231023","260-TV","2019/11/05 14:43:23","新北市新店區檳榔路105號","121.544673333333","24.9616683333333","6500600","新店區"
"231003","268-BY","2019/11/05 14:43:27","新北市新店區中興路一段292號","121.545881666667","24.9691983333333","6500600","新店區"
"231035","278-BY","2019/11/05 14:43:26","新北市新店區吉安街2號","121.517386666667","24.9656","6500600","新店區"
"231015","AAD-862","2019/11/05 14:43:28","新北市新店區北宜路三段221號","121.592391666667","24.9531783333333","6500600","新店區"
"231006","355-BY","2019/11/05 14:43:20","新北市新店區北宜路二段133號","121.55116","24.9530966666667","6500600","新店區"
"231038","3712-VJ","2019/11/05 14:43:33","新北市新店區安華路28-1號","121.51934","24.960655","6500600","新店區"
"231024","4716-K9","2019/11/05 14:43:27","新北市新店區中華路83巷47號","121.53859","24.967635","6500600","新店區"
"231020","513-UM","2019/11/05 14:43:24","新北市新店區桂山路38號","121.558171666667","24.90293","6500600","新店區"
"231001","617-UM","2019/11/05 14:43:31","新北市新店區中正路82號","121.543776666667","24.97035","6500600","新店區"
"231002","618-UM","2019/11/05 14:43:29","新北市新店區中正路460號","121.53402","24.9793383333333","6500600","新店區"
"231034","641-BX","2019/11/05 14:43:15","新北市新店區車子路12號","121.504771666667","24.9543616666667","6500600","新店區"
"231012","KED-0819","2019/11/05 14:43:31","新北市新店區寶橋路75號","121.545646666667","24.9752666666667","6500600","新店區"
"231004","899-TW","2019/11/05 14:43:20","新北市新店區民族路168號","121.537246666667","24.976515","6500600","新店區"
"231037","AKT-0513","2019/11/05 14:43:18","新北市新店區柴埕路60巷12號","121.508366666667","24.9652916666667","6500600","新店區"
"235030","003-UY","2019/11/05 14:43:29","新北市中和區中和路196巷9弄8號","121.505583333333","24.9991333333333","6500300","中和區"
"235027","006-UY","2019/11/05 14:43:22","新北市中和區連城路263巷1號","121.491971666667","24.99647","6500300","中和區"
"235020","096-UM","2019/11/05 14:43:26","新北市中和區民富街16號","121.47694","25.0063816666667","6500300","中和區"
"235003","097-UM","2019/11/05 14:43:22","新北市永和區中正路99號","121.514993333333","24.9976933333333","6500300","中和區"
"235029","098-UM","2019/11/05 14:43:23","新北市中和區福美路252號","121.498396666667","25.0052366666667","6500300","中和區"
"235004","150-BY","2019/11/05 14:43:21","新北市中和區安和路39號","121.50966","24.9949033333333","6500300","中和區"
"235022","151-BY","2019/11/05 14:43:30","新北市中和區員山路126號","121.481166666667","24.9959733333333","6500300","中和區"
"235002","185-VK","2019/11/05 14:43:35","新北市中和區立人街67號","121.519858333333","24.9941566666667","6500300","中和區"
"235008","293-VK","2019/11/05 14:43:28","新北市中和區南山路421巷1弄3號","121.507401666667","24.9896116666667","6500300","中和區"
"235006","KEA-2878","2019/11/05 14:43:37","新北市中和區保健路2巷8號","121.507605","24.9980966666667","6500300","中和區"
"247015","KEA-2869","2019/11/05 14:43:17","新北市蘆洲區光華路119巷9號","121.467315","25.081835","6501400","蘆洲區"
"235007","551-UM","2019/11/05 14:43:29","新北市中和區安和路91號","121.507436666667","24.9955966666667","6500300","中和區"
"235034","558-UM","2019/11/05 14:43:19","新北市中和區圓通路111號","121.49938","24.99654","6500300","中和區"
"235024","KED-0823","2019/11/05 14:43:19","新北市中和區員山路364號","121.480878333333","25.00383","6500300","中和區"
"235018","640-BX","2019/11/05 14:43:21","新北市中和區民享街35巷8弄15號","121.474658333333","25.00358","6500300","中和區"
"235035","647-TV","2019/11/05 14:43:30","新北市中和區建一路90號","121.487776666667","25.0022183333333","6500300","中和區"
"235011","732-UM","2019/11/05 14:43:36","新北市中和區和平街118號","121.50694","24.9914966666667","6500300","中和區"
"235010","733-UM","2019/11/05 14:43:31","新北市中和區四維街37巷2號","121.51232","24.9868566666667","6500300","中和區"
"235005","802-TS","2019/11/05 14:43:24","新北市中和區永貞路221號","121.51372","25.003525","6500300","中和區"
"235016","805-TS","2019/11/05 14:43:34","新北市中和區興南路二段79巷1號","121.506741666667","24.9848416666667","6500300","中和區"
"235012","896-TW","2019/11/05 14:43:29","新北市中和區忠孝街128號","121.512078333333","24.9865483333333","6500300","中和區"
"235017","900-TW","2019/11/05 14:43:35","新北市中和區國光街189巷12弄2號","121.467481666667","25.00141","6500300","中和區"
"235036","911-UM","2019/11/05 14:43:24","新北市中和區中山路二段3巷22弄38號","121.505801666667","25.0040616666667","6500300","中和區"
"235015","157-BY","2019/11/05 14:43:22","新北市中和區復興路301巷16號","121.50143","24.9895683333333","6500300","中和區"
"235001","AAC-213","2019/11/05 14:43:24","新北市中和區自立路66號","121.523946666667","24.991285","6500300","中和區"
"235023","AAC-215","2019/11/05 14:43:32","新北市中和區圓通路305巷5弄53號","121.495058333333","24.990095","6500300","中和區"
"220104","015-TV","2019/11/05 14:43:27","新北市板橋區金華街85巷42號","121.459191666667","25.0214066666667","6500100","板橋區"
"220013","072-UY","2019/11/05 14:43:28","新北市板橋區國泰街38巷4弄42號","121.468066666667","25.0066583333333","6500100","板橋區"
"220105","075-UY","2019/11/05 14:43:23","新北市板橋區文化路二段608巷56號","121.479706666667","25.0344566666667","6500100","板橋區"
"220017","AAD-861","2019/11/05 14:43:24","新北市板橋區大明街24-2號","121.45851","25.0025216666667","6500100","板橋區"
"247005","500-BY","2019/11/05 14:43:31","新北市蘆洲區中華街3號","121.463943333333","25.0818033333333","6501400","蘆洲區"
"247011","337-TH","2019/11/05 14:43:20","新北市蘆洲區集賢路224巷46弄60-1號","121.480793333333","25.087915","6501400","蘆洲區"
"247023","057-VK","2019/11/05 14:43:31","新北市蘆洲區中山二路222巷19號","121.469081666667","25.08025","6501400","蘆洲區"
"247013","056-VK","2019/11/05 14:43:19","新北市蘆洲區成功路115號","121.47252","25.082065","6501400","蘆洲區"
"247007","002-UY","2019/11/05 14:43:24","新北市蘆洲區信義路33號","121.474333333333","25.079435","6501400","蘆洲區"
"247001","001-UY","2019/11/05 14:43:15","新北市蘆洲區長安街248號","121.457588333333","25.0861666666667","6501400","蘆洲區"
"235013","251-BX","2019/11/05 14:43:18","新北市中和區景平路385巷57號","121.501458333333","24.9943183333333","6500300","中和區"
"228004","212-TW","2019/11/05 14:43:25","新北市貢寮區福隆里虎子山街9-6號","121.944896666667","25.015215","6502600","貢寮區"
"228005","828-UM","2019/11/05 14:43:33","新北市貢寮區美豐里雞母嶺街6-6號","121.90208","25.06424","6502600","貢寮區"
"207002","749-BX","2019/11/05 14:43:20","新北市萬里區崁腳里崁腳路73號","121.64763","25.1595883333333","6502800","萬里區"
"207001","662-BX","2019/11/05 14:43:27","新北市萬里區雙興里豐稟路26號","121.641361666667","25.1876983333333","6502800","萬里區"
"252005","AAC-283","2019/11/05 14:43:28","新北市三芝區埔坪里埔頭坑150號","121.510688333333","25.2494266666667","6502100","三芝區"
"236040","KED-0685","2019/11/05 14:43:35","新北市土城區裕民路114巷33號","121.450195","24.9854883333333","6501300","土城區"
"220038","KED-0812","2019/11/05 14:43:33","新北市板橋區龍泉街128號","121.456956666667","25.0239933333333","6500100","板橋區"
"236074","166-UM","2019/11/05 14:43:26","新北市土城區中央路四段185巷32弄1號","121.415843333333","24.9558116666667","6501300","土城區"
"236029","253-BX","2019/11/05 14:43:34","新北市土城區忠義路36巷24號","121.439651666667","24.9695233333333","6501300","土城區"
"236024","269-VK","2019/11/05 14:43:30","新北市土城區農豐街14-1號","121.442625","24.9739316666667","6501300","土城區"
"236013","270-VK","2019/11/05 14:43:30","新北市土城區清水路278巷13號","121.462623333333","24.9828666666667","6501300","土城區"
"236032","271-VK","2019/11/05 14:43:23","新北市土城區明德路一段166號","121.462873333333","24.9783783333333","6501300","土城區"
"236065","KEA-2877","2019/11/05 14:43:34","新北市土城區永豐路236號","121.46736","24.9810033333333","6501300","土城區"
"236017","401-BY","2019/11/05 14:43:30","新北市土城區延吉街253巷27號","121.468063333333","24.9837016666667","6501300","土城區"
"236057","912-UM","2019/11/05 14:43:23","新北市土城區中央路三段93號","121.437603333333","24.967725","6501300","土城區"
"236045","913-UM","2019/11/05 14:43:17","新北市土城區青雲路44號","121.459866666667","24.9881183333333","6501300","土城區"
"236060","915-UM","2019/11/05 14:43:16","新北市土城區延和路177巷13號","121.469985","24.9908316666667","6501300","土城區"
"236054","AAC-216","2019/11/05 14:43:31","新北市土城區裕民路157號","121.452246666667","24.985835","6501300","土城區"
"220027","145-BY","2019/11/05 14:43:26","新北市板橋區民權路302巷16號","121.457895","25.0163766666667","6500100","板橋區"
"220028","200-UY","2019/11/05 14:43:14","新北市板橋區大觀路二段153巷46弄4號","121.448885","24.999525","6500100","板橋區"
"220030","610-BX","2019/11/05 14:43:14","新北市板橋區大觀路三段231號","121.43058","24.992225","6500100","板橋區"
"220004","276-BY","2019/11/05 14:43:31","新北市板橋區國慶路49巷19弄12號","121.458935","24.99625","6500100","板橋區"
"220020","277-BY","2019/11/05 14:43:25","新北市板橋區金門街215巷83弄1號","121.434103333333","24.98928","6500100","板橋區"
"220050","280-UM","2019/11/05 14:43:30","新北市板橋區縣民大道三段105號","121.476365","25.022415","6500100","板橋區"
"220043","283-UM","2019/11/05 14:43:22","新北市板橋區陽明街285號","121.461975","25.0264133333333","6500100","板橋區"
"220019","283-VK","2019/11/05 14:43:18","新北市板橋區五權街1-8號","121.463896666667","24.99511","6500100","板橋區"
"220001","285-VK","2019/11/05 14:43:30","新北市板橋區民享街73號","121.476558333333","25.0155133333333","6500100","板橋區"
"220107","286-VK","2019/11/05 14:43:31","新北市板橋區僑中二街8巷1號","121.447156666667","25.0110316666667","6500100","板橋區"
"220029","287-VK","2019/11/05 14:43:33","新北市板橋區大觀路一段35巷7弄18號","121.450305","25.0072516666667","6500100","板橋區"
"220039","288-VK","2019/11/05 14:41:13","新北市板橋區綠堤街47號","121.455281666667","25.0259033333333","6500100","板橋區"
"220009","293-UM","2019/11/05 14:43:32","新北市板橋區觀光街16號","121.471608333333","25.0161166666667","6500100","板橋區"
"220047","299-UM","2019/11/05 14:43:35","新北市板橋區四維路259巷22號","121.462238333333","25.0277116666667","6500100","板橋區"
"220023","303-R5","2019/11/05 14:43:29","新北市板橋區中正路289巷29號","121.45461","25.0188133333333","6500100","板橋區"
"220010","305-R5","2019/11/05 14:43:11","新北市板橋區三民路二段29巷31弄3號","121.481488333333","25.0177266666667","6500100","板橋區"
"220041","307-R5","2019/11/05 14:43:25","新北市板橋區裕民街126號","121.459065","25.0274483333333","6500100","板橋區"
"220034","461-BY","2019/11/05 14:43:23","新北市板橋區中正路216巷142號","121.460321666667","25.0194383333333","6500100","板橋區"
"220011","487-VK","2019/11/05 14:43:16","新北市板橋區中山路二段531巷17弄20號","121.48218","25.02208","6500100","板橋區"
"220037","491-VK","2019/11/05 14:43:27","新北市板橋區仁化街164號","121.478166666667","25.0336466666667","6500100","板橋區"
"220052","561-BX","2019/11/05 14:43:24","新北市板橋區文化路一段435巷31弄11號","121.466773333333","25.02291","6500100","板橋區"
"220032","568-UM","2019/11/05 14:43:35","新北市板橋區滿平街37-1號","121.42692","24.9897416666667","6500100","板橋區"
"220040","637-BX","2019/11/05 14:43:31","新北市板橋區懷德街133號","121.479221666667","25.03046","6500100","板橋區"
"220025","687-BX","2019/11/05 14:43:25","新北市板橋區僑中二街88巷1號","121.446483333333","25.0092733333333","6500100","板橋區"
"220042","689-BX","2019/11/05 14:43:18","新北市板橋區長江路二段59號","121.464615","25.031515","6500100","板橋區"
"220002","741-BX","2019/11/05 14:43:18","新北市板橋區實踐路65巷43號","121.465126666667","25.0062866666667","6500100","板橋區"
"220051","KEA-2699","2019/11/05 14:43:35","新北市板橋區仁化街42巷7號","121.475488333333","25.0313716666667","6500100","板橋區"
"220003","827-TW","2019/11/05 14:43:28","新北市板橋區國慶路149巷1弄2號","121.461281666667","24.9965783333333","6500100","板橋區"
"220014","831-TW","2019/11/05 14:43:26","新北市板橋區民生路一段17號","121.475106666667","25.0115116666667","6500100","板橋區"
"220005","833-TW","2019/11/05 14:43:34","新北市板橋區廣和街81號","121.462788333333","24.9920416666667","6500100","板橋區"
"220022","895-R6","2019/11/05 14:43:17","新北市板橋區府中路34號","121.457783333333","25.0095433333333","6500100","板橋區"
"220021","985-R7","2019/11/05 14:43:32","新北市板橋區中正路296號","121.455048333333","25.0204666666667","6500100","板橋區"
"220046","AAC-210","2019/11/05 14:43:31","新北市板橋區光正街11-2號","121.462696666667","25.01713","6500100","板橋區"
"220012","AAC-253","2019/11/05 14:43:22","新北市板橋區實踐路39號","121.463686666667","25.0069933333333","6500100","板橋區"
"235032","KEA-2873","2019/11/05 14:43:14","新北市中和區中山路二段258號","121.497525","25.0025016666667","6500300","中和區"
