"lineid","car","time","location","longitude","latitude","cityid","cityname"
"248017","KED-0813","2019/11/05 15:13:27","新北市五股區自強路90巷72號","121.430833333333","25.0713983333333","6501500","五股區"
"244002","248-BX","2019/11/05 15:13:21","新北市林口區文化北路一段398號","121.363646666667","25.0755","6501700","林口區"
"231030","002-UM","2019/11/05 15:13:18","新北市新店區安民街339號","121.51699","24.9748983333333","6500600","新店區"
"231005","046-UY","2019/11/05 15:13:35","新北市新店區北新路三段41號","121.541945","24.9802783333333","6500600","新店區"
"231028","047-UY","2019/11/05 15:13:23","新北市新店區僑愛七路1號","121.500426666667","24.94408","6500600","新店區"
"231029","106-UY","2019/11/05 15:13:31","新北市新店區安康路三段738號","121.473783333333","24.94204","6500600","新店區"
"231018","107-UY","2019/11/05 15:13:28","新北市新店區中央七街85號","121.526931666667","24.9770116666667","6500600","新店區"
"231036","110-UY","2019/11/05 15:13:29","新北市新店區安祥路69巷15號","121.48194","24.961435","6500600","新店區"
"231039","187-VK","2019/11/05 15:13:30","新北市新店區寶元路一段65號","121.542255","24.9857666666667","6500600","新店區"
"231032","256-BX","2019/11/05 15:13:02","新北市新店區安泰路177號","121.490913333333","24.9321183333333","6500600","新店區"
"231023","260-TV","2019/11/05 15:13:23","新北市新店區北新路一段4號","121.540841666667","24.96524","6500600","新店區"
"231003","268-BY","2019/11/05 15:13:27","新北市新店區寶橋路210號","121.550875","24.9785066666667","6500600","新店區"
"231035","278-BY","2019/11/05 15:13:26","新北市新店區永平街16巷35號","121.517198333333","24.9843716666667","6500600","新店區"
"231015","AAD-862","2019/11/05 15:13:28","新北市新店區北宜路二段589號","121.566825","24.9544683333333","6500600","新店區"
"231006","355-BY","2019/11/05 15:13:20","新北市新店區新坡一街18巷7弄3號","121.55048","24.9614616666667","6500600","新店區"
"231038","3712-VJ","2019/11/05 15:13:33","新北市新店區安華路28-1號","121.519336666667","24.960855","6500600","新店區"
"231024","4716-K9","2019/11/05 15:13:27","新北市新店區中華路54巷26號","121.540703333333","24.969215","6500600","新店區"
"231025","4715-K9","2019/11/05 15:13:20","新北市新店區環河路103-6號","121.531273333333","24.9709383333333","6500600","新店區"
"231020","513-UM","2019/11/05 15:13:24","新北市新店區永福路51號","121.559826666667","24.9281366666667","6500600","新店區"
"231001","617-UM","2019/11/05 15:13:33","新北市新店區中正路190號","121.54062","24.9724766666667","6500600","新店區"
"231002","618-UM","2019/11/05 15:13:34","新北市新店區中正路675號","121.533818333333","24.9901166666667","6500600","新店區"
"231034","641-BX","2019/11/05 15:13:35","新北市新店區玫瑰路4-1號","121.493586666667","24.951425","6500600","新店區"
"231012","KED-0819","2019/11/05 15:13:31","新北市新店區寶元路一段65號","121.54226","24.9858616666667","6500600","新店區"
"231026","720-UM","2019/11/05 15:13:34","新北市新店區中正路265號","121.538073333333","24.9738783333333","6500600","新店區"
"231004","899-TW","2019/11/05 15:13:20","新北市新店區建國路27號","121.54015","24.9740583333333","6500600","新店區"
"231037","AKT-0513","2019/11/05 15:13:18","新北市新店區安興路81號","121.515691666667","24.9753683333333","6500600","新店區"
"235030","003-UY","2019/11/05 15:13:29","新北市中和區保平路312號","121.507375","25.0043466666667","6500300","中和區"
"235004","150-BY","2019/11/05 15:13:26","新北市中和區保健路27-2號","121.508491666667","24.9978716666667","6500300","中和區"
"235014","4979-A6","2019/11/05 15:13:33","新北市中和區景平路221巷15號","121.510126666667","24.9922","6500300","中和區"
"235033","4980-A6","2019/11/05 15:13:24","新北市中和區中正路488-5號","121.488916666667","24.99433","6500300","中和區"
"235007","551-UM","2019/11/05 15:13:29","新北市中和區四維街7號","121.513333333333","24.98725","6500300","中和區"
"235026","800-TS","2019/11/05 15:13:20","新北市中和區中正路737號","121.484866666667","24.9993466666667","6500300","中和區"
"235012","896-TW","2019/11/05 15:13:28","新北市中和區興南路一段50號","121.51093","24.99057","6500300","中和區"
"235036","911-UM","2019/11/05 15:13:24","新北市中和區板南路335號","121.494108333333","24.997945","6500300","中和區"
"235023","AAC-215","2019/11/05 15:13:32","新北市中和區圓通路320號","121.4869","24.988115","6500300","中和區"
"220013","072-UY","2019/11/05 15:13:28","新北市板橋區四川路二段14號","121.456048333333","24.9962666666667","6500100","板橋區"
"207002","749-BX","2019/11/05 15:13:36","新北市萬里區崁腳里內中福路91號","121.654408333333","25.1648166666667","6502800","萬里區"
"207001","662-BX","2019/11/05 15:13:27","新北市萬里區磺潭里員潭路35號","121.644575","25.1945883333333","6502800","萬里區"
"236040","KED-0685","2019/11/05 15:13:35","新北市土城區學府路一段143巷18號","121.454083333333","24.9855366666667","6501300","土城區"
"220038","KED-0812","2019/11/05 15:13:33","新北市板橋區四維路357號","121.46216","25.030115","6500100","板橋區"
"236074","166-UM","2019/11/05 15:13:26","新北市土城區中州路63號","121.412536666667","24.957855","6501300","土城區"
"236029","253-BX","2019/11/05 15:13:34","新北市土城區中央路一段290號","121.443221666667","24.9824466666667","6501300","土城區"
"236024","269-VK","2019/11/05 15:13:30","新北市土城區員林街76號","121.44435","24.97674","6501300","土城區"
"236013","270-VK","2019/11/05 15:13:21","新北市土城區學府路一段23巷25弄2號","121.457811666667","24.9866883333333","6501300","土城區"
"236065","KEA-2877","2019/11/05 15:13:34","新北市土城區學成路74-2號","121.451283333333","24.9882283333333","6501300","土城區"
"236017","401-BY","2019/11/05 15:13:30","新北市土城區峰廷街8號","121.468715","24.987765","6501300","土城區"
"236057","912-UM","2019/11/05 15:13:29","新北市土城區金城路一段17號","121.4396","24.9690716666667","6501300","土城區"
"236045","913-UM","2019/11/05 15:13:17","新北市土城區金城路三段8號","121.464623333333","24.9861033333333","6501300","土城區"
"236060","915-UM","2019/11/05 15:13:37","新北市土城區延平街57號","121.467825","24.992555","6501300","土城區"
"236054","AAC-216","2019/11/05 15:13:31","新北市土城區學府路一段52號","121.457461666667","24.988505","6501300","土城區"
"220027","145-BY","2019/11/05 15:13:26","新北市板橋區建國街54巷40號","121.46001","25.0170383333333","6500100","板橋區"
"220028","200-UY","2019/11/05 15:13:14","新北市板橋區大觀路二段153巷44弄53號","121.445966666667","24.99905","6500100","板橋區"
"220107","286-VK","2019/11/05 15:13:31","新北市板橋區僑中二街102巷11號","121.445558333333","25.0081783333333","6500100","板橋區"
"220029","287-VK","2019/11/05 15:13:20","新北市板橋區僑中一街80巷1弄18號","121.446826666667","25.0120583333333","6500100","板橋區"
"220023","303-R5","2019/11/05 15:13:35","新北市板橋區金華街10巷47號","121.457316666667","25.020305","6500100","板橋區"
"220034","461-BY","2019/11/05 15:13:23","新北市板橋區僑中二街108巷1號","121.445858333333","25.0072183333333","6500100","板橋區"
"220052","561-BX","2019/11/05 15:13:24","新北市板橋區漢生東路23巷56弄9號","121.46635","25.0181816666667","6500100","板橋區"
"220025","687-BX","2019/11/05 15:13:25","新北市板橋區僑中一街124巷62-9號","121.446743333333","25.0171883333333","6500100","板橋區"
"220003","827-TW","2019/11/05 15:13:28","新北市板橋區國慶路167巷33-4號","121.461688333333","24.9980333333333","6500100","板橋區"
"220022","895-R6","2019/11/05 15:13:23","新北市板橋區府後街1巷1號","121.459086666667","25.0107016666667","6500100","板橋區"
"220012","AAC-253","2019/11/05 15:13:21","新北市板橋區長安街331巷57號","121.472891666667","25.0131683333333","6500100","板橋區"
