"lineid","car","time","location","longitude","latitude","cityid","cityname"
"231018","107-UY","2019/11/05 16:13:28","新北市新店區中正路700巷73號","121.535918333333","24.9933216666667","6500600","新店區"
"231046","719-UM","2019/11/05 16:09:06","新北市新店區永業路81巷20號","121.530638333333","24.9479633333333","6500600","新店區"
"231026","720-UM","2019/11/05 16:13:34","新北市新店區環河路29巷1號","121.536518333333","24.9613466666667","6500600","新店區"
"241011","013-R5","2019/11/05 16:13:32","新北市三重區龍濱路285號","121.501125","25.0733816666667","6500200","三重區"
"241028","022-UY","2019/11/05 16:13:18","新北市三重區大同南路172巷28號","121.498031666667","25.0575683333333","6500200","三重區"
"241008","059-VK","2019/11/05 16:13:17","新北市三重區力行路二段78號","121.48157","25.0737616666667","6500200","三重區"
"241023","060-VK","2019/11/05 16:13:16","新北市三重區中正北路145巷4弄11號","121.483238333333","25.06791","6500200","三重區"
"241015","062-VK","2019/11/05 16:13:34","新北市三重區福德北路89號","121.501976666667","25.06607","6500200","三重區"
"241017","063-VK","2019/11/05 16:13:19","新北市三重區重陽路三段5巷34號","121.491526666667","25.0651983333333","6500200","三重區"
"241024","065-VK","2019/11/05 16:13:14","新北市三重區力行路一段131號","121.485966666667","25.0684933333333","6500200","三重區"
"241007","066-VK","2019/11/05 16:13:24","新北市三重區慈愛街10號","121.48454","25.0784466666667","6500200","三重區"
"241016","266-UM","2019/11/05 16:13:32","新北市三重區大仁街86號","121.49285","25.065445","6500200","三重區"
"241018","268-UM","2019/11/05 16:13:29","新北市三重區大同北路148巷76號","121.490143333333","25.0645433333333","6500200","三重區"
"241032","269-UM","2019/11/05 16:13:22","新北市三重區三陽路100巷3弄13號","121.483033333333","25.05817","6500200","三重區"
"241013","270-UM","2019/11/05 16:13:24","新北市三重區三和路三段83巷9號","121.495123333333","25.07228","6500200","三重區"
"241025","271-UM","2019/11/05 16:13:18","新北市三重區大有街1-41號","121.476145","25.0657066666667","6500200","三重區"
"241014","462-BY","2019/11/05 16:13:34","新北市三重區河邊北街100巷2-1號","121.50411","25.0704483333333","6500200","三重區"
"241020","478-VK","2019/11/05 16:13:34","新北市三重區車路頭街4巷23號","121.483316666667","25.0701133333333","6500200","三重區"
"241026","480-VK","2019/11/05 16:13:27","新北市三重區正義南路60-6號","121.498495","25.0599266666667","6500200","三重區"
"241001","547-UM","2019/11/05 16:13:32","新北市三重區自強路四段77號","121.490693333333","25.078905","6500200","三重區"
"241019","KEA-2593","2019/11/05 16:13:20","新北市三重區重陽路三段182號","121.490136666667","25.0680966666667","6500200","三重區"
"241005","AAD-863","2019/11/05 16:13:29","新北市三重區溪尾街326號","121.487973333333","25.0847816666667","6500200","三重區"
"241012","743-BX","2019/11/05 16:13:33","新北市三重區三和路二段228號","121.497443333333","25.0696316666667","6500200","三重區"
"241029","942-UM","2019/11/05 16:13:34","新北市三重區中正南路269號","121.492941666667","25.05239","6500200","三重區"
"241033","AAC-255","2019/11/05 16:13:24","新北市三重區五谷王南街32-2號","121.474176666667","25.0458116666667","6500200","三重區"
"224007","285-BY","2019/11/05 16:13:19","新北市瑞芳區粗坑口路86巷14號","121.76117","25.0992216666667","6501200","瑞芳區"
"227001","642-TC","2019/11/05 16:13:27","新北市雙溪區三港里雙澳路6號","121.869316666667","25.0462433333333","6502500","雙溪區"
"227002","400-TW","2019/11/05 16:13:32","新北市雙溪區上林里內平林80號","121.828263333333","25.0279466666667","6502500","雙溪區"
"251008","181-VK","2019/11/05 16:13:35","新北市淡水區中正東路一段25號","121.451848333333","25.163325","6501000","淡水區"
"251013","182-VK","2019/11/05 16:13:21","新北市淡水區北新路46號","121.445636666667","25.178025","6501000","淡水區"
"251014","577-R6","2019/11/05 16:13:33","新北市淡水區中正路二段31號","121.419533333333","25.1816","6501000","淡水區"
