"lineid","car","time","location","longitude","latitude","cityid","cityname"
"234046","148-BY","2019/11/05 18:43:27","新北市永和區永元路40巷49號","121.523966666667","25.0005933333333","6500400","永和區"
"234081","298-R6","2019/11/05 18:43:37","新北市永和區林森路81號","121.523935","25.0038333333333","6500400","永和區"
"234038","336-UY","2019/11/05 18:43:22","新北市永和區福和路1號","121.526646666667","25.010155","6500400","永和區"
"234086","338-UY","2019/11/05 18:43:30","新北市永和區中正路6號","121.512505","24.9936966666667","6500400","永和區"
"234030","746-BX","2019/11/05 18:43:22","新北市永和區得和路321號","121.52336","24.9996433333333","6500400","永和區"
"234007","KED-0605","2019/11/05 18:43:33","新北市永和區文化路164號","121.512125","25.0153566666667","6500400","永和區"
"234013","KEA-2591","2019/11/05 18:43:19","新北市永和區保福路二段163巷2號","121.509246666667","25.01486","6500400","永和區"
"234061","AAD-866","2019/11/05 18:43:22","新北市永和區福和路47-1號","121.52332","25.008","6500400","永和區"
"234042","862-TW","2019/11/05 18:43:29","新北市永和區中和路625號","121.513026666667","25.0050416666667","6500400","永和區"
"234050","863-TW","2019/11/05 18:43:24","新北市永和區福和路1號","121.52556","25.0094866666667","6500400","永和區"
"234026","9371-KE","2019/11/05 18:43:18","新北市永和區永和路一段70號","121.513116666667","25.0062083333333","6500400","永和區"
"234011","9373-KE","2019/11/05 18:43:34","新北市永和區仁愛路31巷2弄5號","121.513828333333","25.0129133333333","6500400","永和區"
"249005","172-UM","2019/11/05 18:43:27","新北市八里區長道坑15號","121.394481666667","25.1183766666667","6502300","八里區"
"249001","173-UM","2019/11/05 18:43:24","新北市八里區龍米路一段446號","121.45063","25.13451","6502300","八里區"
"249004","303-UY","2019/11/05 18:43:19","新北市八里區中山路一段33-2號","121.42013","25.159675","6502300","八里區"
"249003","593-UM","2019/11/05 18:22:01","新北市八里區博物館路10-1號","121.415086666667","25.1639466666667","6502300","八里區"
"248014","025-BX","2019/11/05 18:43:18","新北市五股區民義路一段87-3號","121.433365","25.0858233333333","6501500","五股區"
"248016","026-BX","2019/11/05 18:43:37","新北市五股區凌雲路一段149巷13-1號","121.448586666667","25.1008633333333","6501500","五股區"
"248008","KED-0815","2019/11/05 18:43:22","新北市五股區中興路一段151巷13號","121.465238333333","25.0726633333333","6501500","五股區"
"248020","KED-0813","2019/11/05 18:43:04","新北市五股區凌雲路三段田埔巷35號","121.438746666667","25.1236466666667","6501500","五股區"
"248012","247-BX","2019/11/05 18:43:32","新北市五股區成泰路二段147巷23-15號","121.438023333333","25.087135","6501500","五股區"
"248010","272-BY","2019/11/05 18:43:29","新北市五股區水碓七路103號","121.430525","25.0729416666667","6501500","五股區"
"248004","677-BX","2019/11/05 18:42:59","新北市五股區民義路一段312-22號","121.422468333333","25.0954283333333","6501500","五股區"
"248002","678-BX","2019/11/05 18:43:19","新北市五股區西雲路240號","121.448843333333","25.0968583333333","6501500","五股區"
"234023","9380-KE","2019/11/05 18:43:37","新北市永和區豫溪街191巷7弄15號","121.523251666667","25.01076","6500400","永和區"
"234077","969-R7","2019/11/05 18:43:20","新北市永和區中正路70號","121.513533333333","24.99498","6500400","永和區"
"234067","AAC-212","2019/11/05 18:43:34","新北市中和區永貞路229號","121.513345","25.0037466666667","6500400","永和區"
"234003","AAC-295","2019/11/05 18:43:19","新北市永和區豫溪街74巷7弄9號","121.517778333333","25.00992","6500400","永和區"
"232011","375-UM","2019/11/05 18:43:28","新北市坪林區坪雙路一段41號","121.711651666667","24.9424283333333","6502000","坪林區"
"244007","080-UY","2019/11/05 18:43:35","新北市林口區太平嶺5-10號","121.379185","25.1140416666667","6501700","林口區"
"244019","402-UM","2019/11/05 18:43:18","新北市林口區麗園二街76-5號","121.381725","25.0677383333333","6501700","林口區"
"244013","KEA-2802","2019/11/05 18:43:27","新北市林口區麗園一街6巷1-3號","121.376808333333","25.0698516666667","6501700","林口區"
"244023","483-VK","2019/11/05 18:43:23","新北市林口區民享路70號","121.380758333333","25.0809383333333","6501700","林口區"
"244017","485-VK","2019/11/05 18:43:25","新北市林口區文化二路一段20巷9號","121.365265","25.0671883333333","6501700","林口區"
"244009","656-BX","2019/11/05 18:43:26","新北市林口區竹林路362巷2號","121.391743333333","25.0845833333333","6501700","林口區"
"244011","701-TV","2019/11/05 18:43:23","新北市林口區中正路41巷3號","121.395861666667","25.0769033333333","6501700","林口區"
"244025","837-TS","2019/11/05 18:43:36","新北市林口區過崙街88號","121.356031666667","25.0742466666667","6501700","林口區"
"244021","838-TS","2019/11/05 18:43:36","新北市林口區工六路86號","121.400796666667","25.0770533333333","6501700","林口區"
"243012","AAD-798","2019/11/05 18:43:35","新北市泰山區福興三街13號","121.434456666667","25.0577966666667","6501600","泰山區"
"243010","297-R6","2019/11/05 18:43:23","新北市泰山區辭修路48號","121.428581666667","25.0571016666667","6501600","泰山區"
"243016","421-VK","2019/11/05 18:43:31","新北市泰山區泰林路二段368號","121.428491666667","25.0637966666667","6501600","泰山區"
"243015","680-BX","2019/11/05 18:43:26","新北市泰山區美寧街50號","121.430548333333","25.0644083333333","6501600","泰山區"
"222003","436-BY","2019/11/05 18:43:34","新北市深坑區翠谷街17巷42弄2號","121.625335","25.0101383333333","6501800","深坑區"
"222002","659-BX","2019/11/05 18:43:27","新北市深坑區文山路一段69號","121.627025","25.0018683333333","6501800","深坑區"
"231061","002-UM","2019/11/05 18:43:36","新北市新店區安華路28-1號","121.519936666667","24.96089","6500600","新店區"
"231058","0293-UT","2019/11/05 18:43:19","新北市新店區北宜路一段168號","121.540375","24.9529366666667","6500600","新店區"
"231044","046-UY","2019/11/05 18:43:29","新北市新店區北新路一段91號","121.538891666667","24.9617833333333","6500600","新店區"
"231059","047-UY","2019/11/05 18:43:27","新北市新店區安華路28-1號","121.519135","24.96095","6500600","新店區"
"231060","106-UY","2019/11/05 18:43:29","新北市新店區安華路28-1號","121.519676666667","24.9609733333333","6500600","新店區"
"231051","107-UY","2019/11/05 18:43:22","新北市新店區安康路一段50-1號","121.52974","24.9613016666667","6500600","新店區"
"231049","108-UY","2019/11/05 18:43:21","新北市新店區安康路一段76號","121.528276666667","24.9618316666667","6500600","新店區"
"231065","110-UY","2019/11/05 18:43:36","新北市新店區車子路10-3號","121.504478333333","24.9545533333333","6500600","新店區"
"231062","256-BX","2019/11/05 18:43:38","新北市新店區安一路一段1-1號","121.519726666667","24.9611433333333","6500600","新店區"
"231054","260-TV","2019/11/05 18:43:34","新北市新店區安一路一段1-1號","121.519013333333","24.9612783333333","6500600","新店區"
"231042","268-BY","2019/11/05 18:43:29","新北市新店區安康路一段355號","121.5199","24.9637833333333","6500600","新店區"
"231064","278-BY","2019/11/05 18:43:33","新北市新店區安一路一段1-1號","121.519896666667","24.9610833333333","6500600","新店區"
"231050","AAD-862","2019/11/05 18:43:30","新北市新店區安華路28-1號","121.520066666667","24.96101","6500600","新店區"
"231045","355-BY","2019/11/05 18:43:33","新北市新店區安康路一段359-27號","121.518735","24.9609","6500600","新店區"
"231055","4716-K9","2019/11/05 18:43:19","新北市新店區華興街32號","121.537235","24.968945","6500600","新店區"
"231056","4715-K9","2019/11/05 18:43:32","新北市新店區建國路198巷13號","121.538138333333","24.98043","6500600","新店區"
"231067","4772-VM","2019/11/05 18:43:21","新北市新店區安華路3號","121.518481666667","24.9604466666667","6500600","新店區"
"231053","513-UM","2019/11/05 18:43:23","新北市新店區永興路34號","121.543606666667","24.9388","6500600","新店區"
"231040","617-UM","2019/11/05 18:43:36","新北市新店區安華路28-1號","121.519038333333","24.9609533333333","6500600","新店區"
"231063","641-BX","2019/11/05 18:43:18","新北市新店區安華路28-1號","121.519726666667","24.9606366666667","6500600","新店區"
"231048","KED-0819","2019/11/05 18:43:25","新北市新店區安華路28-1號","121.519873333333","24.961","6500600","新店區"
"231046","719-UM","2019/11/05 18:43:26","新北市新店區直潭二街1號","121.535418333333","24.94314","6500600","新店區"
"231057","720-UM","2019/11/05 18:43:32","新北市新店區北宜路一段154號","121.540313333333","24.9537316666667","6500600","新店區"
"231043","899-TW","2019/11/05 18:43:30","新北市新店區安華路28-1號","121.519016666667","24.9608516666667","6500600","新店區"
"231066","AKT-0513","2019/11/05 18:43:16","新北市新店區安華路28-1號","121.519358333333","24.9606266666667","6500600","新店區"
"235066","003-UY","2019/11/05 18:43:24","新北市中和區水源路34巷21弄2號","121.504661666667","25.00268","6500300","中和區"
"235064","005-UY","2019/11/05 18:43:27","新北市中和區泰和街46巷4號","121.498598333333","25.0001616666667","6500300","中和區"
"235063","006-UY","2019/11/05 18:43:26","新北市中和區錦和路113號","121.49029","24.9950216666667","6500300","中和區"
"235056","096-UM","2019/11/05 18:43:21","新北市中和區員山路506巷2號","121.479281666667","25.0084966666667","6500300","中和區"
"235039","097-UM","2019/11/05 18:43:23","新北市中和區安樂路143巷33號","121.513343333333","24.996815","6500300","中和區"
"235065","098-UM","2019/11/05 18:43:29","新北市中和區中山路二段2巷45弄2號","121.50219","25.0071633333333","6500300","中和區"
"235040","150-BY","2019/11/05 18:43:35","新北市中和區保健路106巷6弄20號","121.51132","24.9959633333333","6500300","中和區"
"235058","151-BY","2019/11/05 18:43:22","新北市中和區連城路428巷3-3號","121.480021666667","24.9951883333333","6500300","中和區"
"235055","183-VK","2019/11/05 18:43:35","新北市中和區民生街85巷2弄3號","121.46885","25.0044266666667","6500300","中和區"
"235038","185-VK","2019/11/05 18:43:37","新北市中和區自強路62巷2號","121.519701666667","24.9945233333333","6500300","中和區"
"235067","255-BX","2019/11/05 18:43:15","新北市中和區新生街13巷9號","121.483691666667","25.0043216666667","6500300","中和區"
"235044","293-VK","2019/11/05 18:43:35","新北市中和區復興路280巷28號","121.50178","24.991725","6500300","中和區"
"235042","KEA-2878","2019/11/05 18:43:26","新北市中和區成功路70號","121.525988333333","24.99189","6500300","中和區"
"235050","4979-A6","2019/11/05 18:43:27","新北市中和區景新街496巷30弄5號","121.513208333333","24.985495","6500300","中和區"
"235069","4980-A6","2019/11/05 18:43:20","新北市中和區南山路14號","121.502041666667","24.9985316666667","6500300","中和區"
"235043","551-UM","2019/11/05 18:43:35","新北市中和區景平路73-3號","121.518566666667","24.9917266666667","6500300","中和區"
"235070","558-UM","2019/11/05 18:43:20","新北市中和區中正路464號","121.490103333333","24.993895","6500300","中和區"
"235045","565-BX","2019/11/05 18:43:26","新北市中和區捷運路3號","121.509713333333","24.9893783333333","6500300","中和區"
"235060","KED-0823","2019/11/05 18:43:23","新北市中和區中山路三段148號","121.473573333333","25.0063383333333","6500300","中和區"
"235054","640-BX","2019/11/05 18:43:20","新北市中和區民享街29-1號","121.473938333333","25.004295","6500300","中和區"
"235047","732-UM","2019/11/05 18:43:34","新北市中和區興南路二段34巷75號","121.505126666667","24.9849433333333","6500300","中和區"
"235046","733-UM","2019/11/05 18:43:34","新北市中和區仁愛街36巷24號","121.510953333333","24.9871616666667","6500300","中和區"
"235062","800-TS","2019/11/05 18:43:39","新北市中和區中山路二段346號","121.493258333333","25.0023866666667","6500300","中和區"
"235057","801-TS","2019/11/05 18:43:33","新北市中和區民利街30號","121.479863333333","24.999105","6500300","中和區"
"235041","802-TS","2019/11/05 18:43:25","新北市中和區安平路161號","121.512346666667","24.998585","6500300","中和區"
"235052","805-TS","2019/11/05 18:43:31","新北市中和區興南路三段90號","121.4901","24.973515","6500300","中和區"
"235048","896-TW","2019/11/05 18:43:26","新北市中和區南山路523-1號","121.50792","24.9871983333333","6500300","中和區"
"235053","900-TW","2019/11/05 18:43:35","新北市中和區華福街6號","121.465458333333","24.9967583333333","6500300","中和區"
"235072","911-UM","2019/11/05 18:43:30","新北市中和區中山路二段132號","121.502443333333","25.00341","6500300","中和區"
"235051","157-BY","2019/11/05 18:43:31","新北市中和區華新街109巷11弄2-4號","121.508743333333","24.979585","6500300","中和區"
"235037","AAC-213","2019/11/05 18:43:30","新北市中和區自立路141巷29號","121.523978333333","24.9938783333333","6500300","中和區"
"235059","AAC-215","2019/11/05 18:43:25","新北市中和區錦和路408號","121.491128333333","24.989725","6500300","中和區"
"220065","072-UY","2019/11/05 18:43:19","新北市板橋區成都街43號","121.46138","25.004845","6500100","板橋區"
"220106","075-UY","2019/11/05 18:43:25","新北市板橋區民生路二段234巷9號","121.46851","25.0228483333333","6500100","板橋區"
"220069","AAD-861","2019/11/05 18:43:20","新北市板橋區大華街70號","121.459043333333","25.00578","6500100","板橋區"
"226004","312-R5","2019/11/05 18:43:14","新北市平溪區平溪里三坑路50號","121.73372","25.03045","6502400","平溪區"
"235049","251-BX","2019/11/05 18:43:29","新北市中和區景安路132巷11號","121.504581666667","24.9942516666667","6500300","中和區"
"228001","212-TW","2019/11/05 18:43:21","新北市貢寮區仁理村研海街12-1號","121.92375","25.0516433333333","6502600","貢寮區"
"228002","663-BX","2019/11/05 18:43:33","新北市貢寮區福隆里東興街6-11號","121.950746666667","25.02106","6502600","貢寮區"
"228003","828-UM","2019/11/05 18:43:32","新北市貢寮區和美里龍洞街1-5號","121.919236666667","25.112395","6502600","貢寮區"
"224010","AGQ-8101","2019/11/05 18:43:30","新北市瑞芳區基山街43號","121.845475","25.1089633333333","6501200","瑞芳區"
"224006","676-BX","2019/11/05 18:43:25","新北市瑞芳區中正路44號","121.80677","25.1073733333333","6501200","瑞芳區"
"224007","285-BY","2019/11/05 18:43:19","新北市瑞芳區大埔路192-1號","121.761515","25.1011216666667","6501200","瑞芳區"
"224009","275-VK","2019/11/05 18:43:28","新北市瑞芳區祈堂路53-1號","121.859588333333","25.1104466666667","6501200","瑞芳區"
"224008","273-VK","2019/11/05 18:43:32","新北市瑞芳區逢甲路284號","121.803583333333","25.1114866666667","6501200","瑞芳區"
"224005","271-BY","2019/11/05 18:43:34","新北市瑞芳區瑞濱路14號","121.826175","25.121365","6501200","瑞芳區"
"227001","642-TC","2019/11/05 18:43:19","新北市雙溪區牡丹里下坑11號","121.851025","25.05618","6502500","雙溪區"
"227002","400-TW","2019/11/05 18:43:32","新北市雙溪區魚行里坤溪3-5號","121.876195","25.0208266666667","6502500","雙溪區"
"253005","032-BX","2019/11/05 18:43:33","新北市石門區中山路28-3號","121.565845","25.28988","6502200","石門區"
"253006","295-VK","2019/11/05 18:43:20","新北市石門區八甲1-3號","121.520941666667","25.2836166666667","6502200","石門區"
"222001","KEA-2212","2019/11/05 18:43:26","新北市深坑區松柏街43巷2號","121.638641666667","25.0119866666667","6501800","深坑區"
"208002","KEA-2872","2019/11/05 18:43:17","新北市金山區仁愛路35-1號","121.636215","25.2192466666667","6502700","金山區"
"208003","665-BX","2019/11/05 18:43:33","新北市金山區中山路346號","121.633386666667","25.2253166666667","6502700","金山區"
"251001","011-UM","2019/11/05 18:43:33","新北市淡水區自強路166號","121.46568","25.1341216666667","6501000","淡水區"
"251002","012-UM","2019/11/05 18:43:28","新北市淡水區中正東路71號","121.447346666667","25.1675366666667","6501000","淡水區"
"251015","KEA-2871","2019/11/05 18:43:17","新北市淡水區興福寮66巷115號","121.487363333333","25.1615033333333","6501000","淡水區"
"251016","180-VK","2019/11/05 18:43:24","新北市淡水區下圭柔山72號","121.445646666667","25.2048483333333","6501000","淡水區"
"251008","181-VK","2019/11/05 18:43:35","新北市淡水區北投子69-1號","121.4541","25.1817133333333","6501000","淡水區"
"251013","182-VK","2019/11/05 18:43:22","新北市淡水區雲廣坑5號","121.47468","25.213105","6501000","淡水區"
"251010","413-VK","2019/11/05 18:43:29","新北市淡水區沙崙路141-1號","121.42327","25.1829466666667","6501000","淡水區"
"251012","441-VK","2019/11/05 18:43:33","新北市淡水區北新路121號","121.448943333333","25.1786433333333","6501000","淡水區"
"251006","561-UM","2019/11/05 18:43:33","新北市淡水區崁頂57-7號","121.442288333333","25.1973633333333","6501000","淡水區"
"251014","577-R6","2019/11/05 18:43:33","新北市淡水區崙頂12-8號","121.495538333333","25.2172033333333","6501000","淡水區"
"251011","650-BX","2019/11/05 18:43:24","新北市淡水區平遠街3號","121.448018333333","25.1676916666667","6501000","淡水區"
"251003","673-BX","2019/11/05 18:43:24","新北市淡水區北新路69巷26號","121.446691666667","25.1801533333333","6501000","淡水區"
"207003","681-TV","2019/11/05 18:43:19","新北市萬里區野柳里港東路153號","121.689503333333","25.2051216666667","6502800","萬里區"
"207004","291-VK","2019/11/05 18:43:22","新北市萬里區萬里里獅頭路23號","121.693373333333","25.178165","6502800","萬里區"
"252002","178-VK","2019/11/05 18:43:31","新北市三芝區民生街14號","121.503715","25.25696","6502100","三芝區"
"252003","249-BX","2019/11/05 18:43:19","新北市三芝區後厝里大片頭83-19號","121.458748333333","25.2439516666667","6502100","三芝區"
"208001","170-UY","2019/11/05 18:43:23","新北市金山區文化三路66巷1號","121.634185","25.2256266666667","6502700","金山區"
"237007","153-BY","2019/11/05 18:43:17","新北市三峽區柑樹路6巷23號","121.361653333333","24.90415","6500900","三峽區"
"237013","252-BX","2019/11/05 18:43:29","新北市三峽區光明路69巷24號","121.376565","24.9290533333333","6500900","三峽區"
"237012","275-BY","2019/11/05 18:43:37","新北市三峽區三樹路340號","121.383965","24.9433333333333","6500900","三峽區"
"237008","302-VK","2019/11/05 18:43:26","新北市三峽區白雞33-51號","121.370411666667","24.9127583333333","6500900","三峽區"
"237014","433-BY","2019/11/05 18:43:30","新北市三峽區復興路480巷41號","121.359923333333","24.9401616666667","6500900","三峽區"
"237009","280-TH","2019/11/05 18:43:31","新北市三峽區民權街203號","121.367768333333","24.92849","6500900","三峽區"
"237006","5529-G3","2019/11/05 18:43:34","新北市三峽區溪東路315巷26號","121.411058333333","24.931075","6500900","三峽區"
"237011","KEA-2596","2019/11/05 18:43:32","新北市三峽區溪東路413號","121.412451666667","24.9286616666667","6500900","三峽區"
"237015","649-BX","2019/11/05 18:43:33","新北市三峽區安坑1-6號","121.436598333333","24.925075","6500900","三峽區"
"237010","706-TV","2019/11/05 18:43:32","新北市三峽區復興路489號","121.361256666667","24.9384933333333","6500900","三峽區"
"237004","756-BX","2019/11/05 18:43:26","新北市三峽區插角134號","121.410573333333","24.8706433333333","6500900","三峽區"
"237005","AKY-6261","2019/11/05 18:43:35","新北市三峽區文化路242號","121.367446666667","24.93576","6500900","三峽區"
"236042","KED-0685","2019/11/05 18:43:33","新北市土城區裕民路85號","121.450168333333","24.9871916666667","6501300","土城區"
"220089","KED-0812","2019/11/05 18:43:19","新北市板橋區民生路二段89-6號","121.470778333333","25.0191583333333","6500100","板橋區"
"236079","166-UM","2019/11/05 18:43:34","新北市土城區中央路四段185巷23號","121.415626666667","24.9558166666667","6501300","土城區"
"236030","253-BX","2019/11/05 18:43:35","新北市土城區慶樂街25號","121.438975","24.9728933333333","6501300","土城區"
"236026","269-VK","2019/11/05 18:43:31","新北市土城區農豐街14號","121.442566666667","24.9738833333333","6501300","土城區"
"236014","270-VK","2019/11/05 18:43:38","新北市土城區清水路278巷28弄16號","121.462598333333","24.9823533333333","6501300","土城區"
"236038","271-VK","2019/11/05 18:43:31","新北市土城區明德路一段235巷38號","121.4632","24.9774116666667","6501300","土城區"
"236070","KEA-2877","2019/11/05 18:43:27","新北市土城區永豐路222-2號","121.467061666667","24.9821083333333","6501300","土城區"
"252001","KED-0821","2019/11/05 18:43:28","新北市三芝區中正路三段7號","121.502815","25.2540816666667","6502100","三芝區"
"236021","401-BY","2019/11/05 18:43:20","新北市土城區延吉街253巷19號","121.46788","24.9840383333333","6501300","土城區"
"236059","912-UM","2019/11/05 18:43:28","新北市土城區中央路三段119-1號","121.434248333333","24.9655633333333","6501300","土城區"
"236049","913-UM","2019/11/05 18:43:25","新北市土城區青雲路107-1號","121.45904","24.9852616666667","6501300","土城區"
"236063","915-UM","2019/11/05 18:43:16","新北市土城區延壽路13巷34號","121.470091666667","24.9913083333333","6501300","土城區"
"236055","AAC-216","2019/11/05 18:43:21","新北市土城區裕民路41號","121.448511666667","24.9882916666667","6501300","土城區"
"242061","986-R7","2019/11/05 18:43:33","新北市新莊區富國路176巷1號","121.424188333333","25.0243416666667","6500500","新莊區"
"242058","612-BX","2019/11/05 18:43:32","新北市新莊區中正路887-35號","121.41564","25.0238816666667","6500500","新莊區"
"238023","601-UM","2019/11/05 18:43:27","新北市樹林區三福街114號","121.406456666667","25.0163516666667","6500700","樹林區"
"238024","5061-A6","2019/11/05 18:43:37","新北市樹林區太順街49巷20弄22號","121.41762","24.9782633333333","6500700","樹林區"
"238018","KEA-2217","2019/11/05 18:43:23","新北市樹林區鎮前街165號","121.422286666667","24.987345","6500700","樹林區"
"238022","KEA-2213","2019/11/05 18:43:23","新北市樹林區中華路393號","121.41139","24.9804533333333","6500700","樹林區"
"238017","283-BY","2019/11/05 18:43:18","新北市樹林區光興街50號","121.409803333333","25.0027133333333","6500700","樹林區"
"238014","282-BY","2019/11/05 18:43:34","新北市樹林區大安路111巷41號","121.423315","24.9975966666667","6500700","樹林區"
"238020","268-VK","2019/11/05 18:43:17","新北市樹林區俊安街26號","121.41967","25.0139666666667","6500700","樹林區"
"238026","172-UY","2019/11/05 18:43:32","新北市樹林區育德街78-1號","121.388176666667","24.9680333333333","6500700","樹林區"
"238016","169-UY","2019/11/05 18:43:37","新北市樹林區中山路一段412號","121.417415","24.98514","6500700","樹林區"
"239007","AAC-297","2019/11/05 18:43:23","新北市鶯歌區中正一路建德巷38號","121.364508333333","24.9577966666667","6500800","鶯歌區"
"239006","891-R6","2019/11/05 18:43:22","新北市鶯歌區鶯桃路296巷61號","121.336225","24.9612766666667","6500800","鶯歌區"
"239008","527-UM","2019/11/05 18:43:31","新北市鶯歌區朝陽街1號","121.336291666667","24.9765583333333","6500800","鶯歌區"
"239005","526-UM","2019/11/05 18:43:31","新北市鶯歌區鳳吉三街26巷2號","121.326626666667","24.9733","6500800","鶯歌區"
"239001","417-VK","2019/11/05 18:43:35","新北市鶯歌區國中街199號","121.338206666667","24.9390783333333","6500800","鶯歌區"
"239003","360-BY","2019/11/05 18:43:27","新北市鶯歌區福安街58號","121.33554","24.965205","6500800","鶯歌區"
"239002","359-BY","2019/11/05 18:43:18","新北市鶯歌區中正一路43號","121.352398333333","24.9535966666667","6500800","鶯歌區"
"239004","193-VK","2019/11/05 18:43:37","新北市鶯歌區尖山路235號","121.340108333333","24.9435116666667","6500800","鶯歌區"
"221036","130-UY","2019/11/05 18:43:21","新北市汐止區長興街一段50號","121.670545","25.0792683333333","6501100","汐止區"
"221015","131-UY","2019/11/05 18:43:31","新北市汐止區鄉友街46號","121.669078333333","25.0816183333333","6501100","汐止區"
"221010","269-BY","2019/11/05 18:43:23","新北市汐止區汐萬路三段276號","121.6412","25.108585","6501100","汐止區"
"221012","278-VK","2019/11/05 18:43:20","新北市汐止區保長路149號","121.677058333333","25.0764733333333","6501100","汐止區"
"221032","280-BY","2019/11/05 18:43:17","新北市汐止區民權街二段129號","121.618118333333","25.045625","6501100","汐止區"
"221029","298-VK","2019/11/05 18:43:35","新北市汐止區樟樹一路101號","121.64207","25.0635766666667","6501100","汐止區"
"221021","299-VK","2019/11/05 18:43:29","新北市汐止區復興路71號","121.657281666667","25.0619866666667","6501100","汐止區"
"221031","353-TW","2019/11/05 18:43:24","新北市汐止區光復街8巷17號","121.638371666667","25.0576083333333","6501100","汐止區"
"221035","622-UM","2019/11/05 18:43:28","新北市汐止區大同路二段167-1號","121.651273333333","25.0640816666667","6501100","汐止區"
"221025","623-UM","2019/11/05 18:43:19","新北市汐止區仁愛路121巷1號","121.662906666667","25.0640016666667","6501100","汐止區"
"221002","707-TV","2019/11/05 18:43:20","新北市汐止區大同路一段277號","121.636425","25.058465","6501100","汐止區"
"221018","753-BX","2019/11/05 18:43:25","新北市汐止區茄苳路250巷21號","121.67185","25.0676733333333","6501100","汐止區"
"220079","145-BY","2019/11/05 18:43:26","新北市板橋區館前西路162號","121.452875","25.0085683333333","6500100","板橋區"
"220080","200-UY","2019/11/05 18:43:32","新北市板橋區大觀路二段265巷76弄31號","121.441341666667","24.9967166666667","6500100","板橋區"
"220082","610-BX","2019/11/05 18:43:26","新北市板橋區篤行路二段99號","121.431595","24.9914633333333","6500100","板橋區"
"220056","276-BY","2019/11/05 18:43:33","新北市板橋區四川路一段107-5號","121.459883333333","25.0050466666667","6500100","板橋區"
"220072","277-BY","2019/11/05 18:43:26","新北市板橋區大觀路三段50巷49號","121.432351666667","24.9957366666667","6500100","板橋區"
"220101","280-UM","2019/11/05 18:43:17","新北市板橋區文化路一段435巷10號","121.467553333333","25.023265","6500100","板橋區"
"220094","283-UM","2019/11/05 18:43:27","新北市板橋區民生路二段120號","121.47061","25.019625","6500100","板橋區"
"220071","283-VK","2019/11/05 18:43:35","新北市板橋區四川路一段469號","121.457315","24.997505","6500100","板橋區"
"220083","286-VK","2019/11/05 18:43:34","新北市板橋區大觀路二段5號","121.44701","25.0038933333333","6500100","板橋區"
"220081","287-VK","2019/11/05 18:43:35","新北市板橋區南雅東路89號","121.453086666667","25.0086033333333","6500100","板橋區"
"220090","288-VK","2019/11/05 18:43:36","新北市板橋區民生路三段105號","121.466573333333","25.0250966666667","6500100","板橋區"
"220061","293-UM","2019/11/05 18:43:17","新北市板橋區民生路二段89-4號","121.471253333333","25.018395","6500100","板橋區"
"220075","303-R5","2019/11/05 18:43:33","新北市板橋區南雅南路二段118號","121.452473333333","25.0002783333333","6500100","板橋區"
"220062","305-R5","2019/11/05 18:43:21","新北市板橋區民生路二段161巷9號","121.470321666667","25.0195683333333","6500100","板橋區"
"220092","307-R5","2019/11/05 18:43:29","新北市板橋區漢生東路21號","121.46502","25.0172716666667","6500100","板橋區"
"220086","461-BY","2019/11/05 18:43:29","新北市板橋區南雅南路二段120-12號","121.45217","24.9994383333333","6500100","板橋區"
"220089","487-VK","2019/11/05 18:43:28","新北市板橋區中山路二段50-2號","121.47338","25.015365","6500100","板橋區"
"220088","491-VK","2019/11/05 18:43:30","新北市板橋區民生路二段89-6號","121.470766666667","25.019215","6500100","板橋區"
"220103","561-BX","2019/11/05 18:43:37","新北市板橋區民生路二段89-4號","121.471228333333","25.0181883333333","6500100","板橋區"
"220084","568-UM","2019/11/05 18:43:25","新北市板橋區合宜一路121-3號","121.442671666667","24.9975333333333","6500100","板橋區"
"220091","637-BX","2019/11/05 18:43:21","新北市板橋區民生路二段161巷1號","121.469981666667","25.01982","6500100","板橋區"
"220077","687-BX","2019/11/05 18:43:19","新北市板橋區大觀路二段146-4號","121.441938333333","24.9988183333333","6500100","板橋區"
"220054","741-BX","2019/11/05 18:43:26","新北市板橋區縣民大道一段114號","121.457461666667","25.0060983333333","6500100","板橋區"
"220102","KEA-2699","2019/11/05 18:43:35","新北市板橋區民生路二段120號","121.470511666667","25.0199766666667","6500100","板橋區"
"220055","827-TW","2019/11/05 18:43:36","新北市板橋區忠孝路101號","121.462433333333","25.0023","6500100","板橋區"
"220067","831-TW","2019/11/05 18:43:23","新北市板橋區民生路二段15-1號","121.472791666667","25.0161433333333","6500100","板橋區"
"220057","833-TW","2019/11/05 18:43:37","新北市板橋區館前東路66號","121.46122","25.0073433333333","6500100","板橋區"
"220074","895-R6","2019/11/05 18:43:27","新北市板橋區南雅東路1號","121.455535","25.0054983333333","6500100","板橋區"
"220073","985-R7","2019/11/05 18:43:33","新北市板橋區華興街49號","121.457795","25.0046116666667","6500100","板橋區"
"220097","AAC-210","2019/11/05 18:43:23","新北市板橋區民生路三段66-3號","121.466756666667","25.0256583333333","6500100","板橋區"
"220064","AAC-253","2019/11/05 18:43:24","新北市板橋區中山路二段35號","121.4729","25.0153566666667","6500100","板橋區"
"235068","KEA-2873","2019/11/05 18:43:17","新北市中和區中正路211巷22號","121.497021666667","24.993085","6500300","中和區"
"235061","KEA-2875","2019/11/05 18:43:17","新北市中和區民治街134巷10號","121.474896666667","25.0021583333333","6500300","中和區"
