"lineid","car","time","location","longitude","latitude","cityid","cityname"
"234046","148-BY","2019/11/05 20:13:47","新北市永和區永元路120號","121.522768333333","25.0027133333333","6500400","永和區"
"234081","298-R6","2019/11/05 20:13:45","新北市永和區國中路102號","121.524295","25.0064883333333","6500400","永和區"
"234038","336-UY","2019/11/05 20:13:42","新北市永和區環河東路三段96號","121.528161666667","25.0041183333333","6500400","永和區"
"234064","337-UY","2019/11/05 20:13:39","新北市永和區得和路259號","121.521373333333","24.9999333333333","6500400","永和區"
"234086","338-UY","2019/11/05 20:13:49","新北市永和區中正路660-1號","121.51681","25.0087333333333","6500400","永和區"
"234017","745-BX","2019/11/05 20:13:35","新北市永和區文化路7號","121.51541","25.0150283333333","6500400","永和區"
"234030","746-BX","2019/11/05 20:13:42","新北市永和區民有街67巷8號","121.518281666667","24.99632","6500400","永和區"
"234054","KEA-2590","2019/11/05 20:13:49","新北市永和區永和路二段336號","121.516373333333","25.0166633333333","6500400","永和區"
"234013","KEA-2591","2019/11/05 20:13:39","新北市永和區保生路5巷1號","121.506091666667","25.0071016666667","6500400","永和區"
"234061","AAD-866","2019/11/05 20:13:42","新北市永和區安樂路100巷11號","121.514473333333","24.99918","6500400","永和區"
"234070","748-BX","2019/11/05 20:13:36","新北市永和區永亨路31號","121.519741666667","25.0061833333333","6500400","永和區"
"234042","862-TW","2019/11/05 20:13:43","新北市永和區雙和街12號","121.50958","25.00193","6500400","永和區"
"234050","863-TW","2019/11/05 20:13:44","新北市永和區環河西路二段37號","121.507333333333","25.0156616666667","6500400","永和區"
"249005","172-UM","2019/11/05 20:13:47","新北市八里區下罟子8-1號","121.385523333333","25.139775","6502300","八里區"
"249001","173-UM","2019/11/05 20:13:37","新北市八里區中華路二段305-6號","121.402923333333","25.1473833333333","6502300","八里區"
"249004","303-UY","2019/11/05 20:13:45","新北市八里區中山路一段418-7號","121.410751666667","25.1583766666667","6502300","八里區"
"249002","305-UY","2019/11/05 20:13:46","新北市八里區龍米路一段2-1號","121.458136666667","25.1148533333333","6502300","八里區"
"249003","593-UM","2019/11/05 20:13:36","新北市八里區中山路二段447巷7號","121.396986666667","25.14544","6502300","八里區"
"248016","026-BX","2019/11/05 20:13:37","新北市五股區凌雲路一段158巷50弄21號","121.447831666667","25.1043766666667","6501500","五股區"
"248012","247-BX","2019/11/05 20:13:32","新北市五股區六合街94號","121.431155","25.0910283333333","6501500","五股區"
"248010","272-BY","2019/11/05 20:13:29","新北市五股區成泰路一段51號","121.434173333333","25.0673983333333","6501500","五股區"
"248002","678-BX","2019/11/05 20:13:39","新北市五股區成泰路三段191號","121.445631666667","25.092365","6501500","五股區"
"234023","9380-KE","2019/11/05 20:13:43","新北市永和區復興街2巷4號","121.515766666667","25.0126633333333","6500400","永和區"
"234077","969-R7","2019/11/05 20:13:20","新北市永和區民享街21號","121.515601666667","24.99494","6500400","永和區"
"234074","AAC-211","2019/11/05 20:13:39","新北市永和區竹林路191巷3號","121.520885","25.009495","6500400","永和區"
"234067","AAC-212","2019/11/05 20:13:34","新北市永和區保平路214巷3弄10號","121.508871666667","25.0060116666667","6500400","永和區"
"234003","AAC-295","2019/11/05 20:13:45","新北市永和區自強街22號","121.51528","25.0080166666667","6500400","永和區"
"243012","AAD-798","2019/11/05 20:13:35","新北市泰山區楓江路48號","121.435185","25.0623566666667","6501600","泰山區"
"243014","KEA-2801","2019/11/05 20:13:41","新北市泰山區明志路一段33號","121.433653333333","25.0654766666667","6501600","泰山區"
"243016","421-VK","2019/11/05 20:13:31","新北市泰山區明志路三段221號","121.423888333333","25.03806","6501600","泰山區"
"243009","KEA-2215","2019/11/05 20:13:43","新北市泰山區泰林路二段118號","121.434685","25.0593916666667","6501600","泰山區"
"243011","KEA-2216","2019/11/05 20:13:39","新北市泰山區壽山路78號","121.419465","25.0295533333333","6501600","泰山區"
"243013","646-TV","2019/11/05 20:13:45","新北市泰山區明志路三段74巷21號","121.424121666667","25.0416816666667","6501600","泰山區"
"243015","680-BX","2019/11/05 20:13:46","新北市泰山區明志路一段475號","121.430723333333","25.0556633333333","6501600","泰山區"
"222003","436-BY","2019/11/05 20:13:34","新北市深坑區埔新街99號","121.619243333333","25.0022333333333","6501800","深坑區"
"222002","659-BX","2019/11/05 20:13:47","新北市深坑區北深路三段158巷1號","121.601276666667","25.004945","6501800","深坑區"
"231061","002-UM","2019/11/05 20:13:36","新北市新店區安興路65巷6號","121.51593","24.97284","6500600","新店區"
"231058","0293-UT","2019/11/05 20:13:39","新北市新店區薏仁坑路自強巷6號","121.496506666667","24.95845","6500600","新店區"
"231044","046-UY","2019/11/05 20:13:29","新北市新店區寶慶街66號","121.541913333333","24.9866433333333","6500600","新店區"
"231059","047-UY","2019/11/05 20:13:47","新北市新店區安德街53號","121.511011666667","24.9621233333333","6500600","新店區"
"231060","106-UY","2019/11/05 20:13:29","新北市新店區安康路三段454號","121.484325","24.951225","6500600","新店區"
"231051","107-UY","2019/11/05 20:13:42","新北市新店區中央路192號","121.530868333333","24.974835","6500600","新店區"
"231049","108-UY","2019/11/05 20:13:41","新北市新店區北新路二段37號","121.542561666667","24.9726916666667","6500600","新店區"
"231065","110-UY","2019/11/05 20:13:36","新北市新店區安祥路106巷26號","121.477758333333","24.9622116666667","6500600","新店區"
"231068","187-VK","2019/11/05 20:13:35","新北市新店區中興路三段226號","121.54336","24.9829433333333","6500600","新店區"
"231062","256-BX","2019/11/05 20:13:31","新北市新店區安康路二段149-1號","121.510918333333","24.9597766666667","6500600","新店區"
"231054","260-TV","2019/11/05 20:13:51","新北市新店區檳榔路109號","121.544283333333","24.9617933333333","6500600","新店區"
"231042","268-BY","2019/11/05 20:13:49","新北市新店區中興路二段100巷1號","121.547545","24.9715616666667","6500600","新店區"
"231064","278-BY","2019/11/05 20:13:33","新北市新店區安和路一段53號","121.51756","24.9660566666667","6500600","新店區"
"231050","AAD-862","2019/11/05 20:13:30","新北市新店區北新路一段90號","121.541836666667","24.9683516666667","6500600","新店區"
"231045","355-BY","2019/11/05 20:13:33","新北市新店區北宜路一段121-2號","121.540436666667","24.953795","6500600","新店區"
"231056","4715-K9","2019/11/05 20:13:32","新北市新店區中正路328巷29號","121.53758","24.975845","6500600","新店區"
"231067","4772-VM","2019/11/05 20:13:41","新北市新店區溪洲路8巷4號","121.533546666667","24.961625","6500600","新店區"
"231053","513-UM","2019/11/05 20:13:43","新北市新店區新烏路二段440號","121.551678333333","24.9083483333333","6500600","新店區"
"231040","617-UM","2019/11/05 20:13:36","新北市新店區中正路110號","121.543008333333","24.9706983333333","6500600","新店區"
"231041","618-UM","2019/11/05 20:13:38","新北市新店區民權路178號","121.534836666667","24.9827916666667","6500600","新店區"
"231063","641-BX","2019/11/05 20:13:38","新北市新店區車子路11號","121.502795","24.9510616666667","6500600","新店區"
"231048","KED-0819","2019/11/05 20:13:45","新北市新店區永華街47號","121.544241666667","24.9759133333333","6500600","新店區"
"231057","720-UM","2019/11/05 20:13:44","新北市新店區梅花一路2號","121.551938333333","24.9330916666667","6500600","新店區"
"231043","899-TW","2019/11/05 20:13:30","新北市新店區建國路133號","121.539288333333","24.9781583333333","6500600","新店區"
"231066","AKT-0513","2019/11/05 20:13:35","新北市新店區吉安街39號","121.515403333333","24.9662866666667","6500600","新店區"
"241011","013-R5","2019/11/05 20:13:42","新北市三重區龍門路162號","121.498805","25.0731183333333","6500200","三重區"
"241028","022-UY","2019/11/05 20:13:43","新北市三重區大同南路137號","121.496561666667","25.0576083333333","6500200","三重區"
"241008","059-VK","2019/11/05 20:13:45","新北市三重區永福街211巷1號","121.479776666667","25.074185","6500200","三重區"
"241023","060-VK","2019/11/05 20:13:42","新北市三重區頂崁街195號","121.477543333333","25.066655","6500200","三重區"
"241015","062-VK","2019/11/05 20:13:30","新北市三重區重新路一段41號","121.502733333333","25.0642433333333","6500200","三重區"
"241017","063-VK","2019/11/05 20:13:38","新北市三重區長壽西街201號","121.491971666667","25.0663633333333","6500200","三重區"
"241024","065-VK","2019/11/05 20:13:40","新北市三重區中正北路314號","121.479313333333","25.0690316666667","6500200","三重區"
"241007","066-VK","2019/11/05 20:13:38","新北市三重區三和路四段117巷23號","121.486361666667","25.0778866666667","6500200","三重區"
"241002","090-VK","2019/11/05 20:13:35","新北市三重區仁忠街11號","121.497205","25.0828316666667","6500200","三重區"
"241003","091-VK","2019/11/05 20:13:40","新北市三重區富華街18號","121.489611666667","25.0824683333333","6500200","三重區"
"241006","262-UM","2019/11/05 20:13:47","新北市三重區車路頭街139巷12號","121.48424","25.07621","6500200","三重區"
"241016","266-UM","2019/11/05 20:13:32","新北市三重區大同北路54巷1號","121.49424","25.0636033333333","6500200","三重區"
"241009","267-UM","2019/11/05 20:13:30","新北市三重區三和路四段382巷65號","121.480916666667","25.07846","6500200","三重區"
"241032","269-UM","2019/11/05 20:13:39","新北市三重區捷運路19巷2弄3號","121.485076666667","25.0562933333333","6500200","三重區"
"241013","270-UM","2019/11/05 20:13:34","新北市三重區三和路三段151巷7號","121.492313333333","25.0738633333333","6500200","三重區"
"241025","271-UM","2019/11/05 20:13:35","新北市三重區中正北路201號","121.476998333333","25.0696916666667","6500200","三重區"
"241035","KEA-2210","2019/11/05 20:13:42","新北市三重區大榮街53號","121.499226666667","25.06358","6500200","三重區"
"241030","KED-0822","2019/11/05 20:13:30","新北市三重區集美街118號","121.488753333333","25.0537133333333","6500200","三重區"
"241014","462-BY","2019/11/05 20:13:34","新北市三重區長樂街135巷2號","121.503475","25.069895","6500200","三重區"
"241020","478-VK","2019/11/05 20:13:33","新北市三重區三和路三段186-2號","121.491948333333","25.0734733333333","6500200","三重區"
"241026","480-VK","2019/11/05 20:13:45","新北市三重區中央南路85號","121.501418333333","25.0608233333333","6500200","三重區"
"241001","547-UM","2019/11/05 20:13:41","新北市三重區自強路四段3巷32號","121.489853333333","25.07659","6500200","三重區"
"241019","KEA-2593","2019/11/05 20:13:39","新北市三重區自強路二段67巷47號","121.490023333333","25.0700066666667","6500200","三重區"
"241005","AAD-863","2019/11/05 20:13:49","新北市三重區碧華街313號","121.490875","25.0842166666667","6500200","三重區"
"241012","743-BX","2019/11/05 20:13:33","新北市三重區河邊北街379-1號","121.501681666667","25.0764933333333","6500200","三重區"
"241022","KED-0820","2019/11/05 20:13:49","新北市三重區中正北路28號","121.488181666667","25.0635766666667","6500200","三重區"
"241029","942-UM","2019/11/05 20:13:47","新北市三重區中正南路115號","121.494055","25.0574483333333","6500200","三重區"
"241033","AAC-255","2019/11/05 20:13:49","新北市三重區五谷王北街42巷10號","121.475378333333","25.0492816666667","6500200","三重區"
"235066","003-UY","2019/11/05 20:13:44","新北市中和區水源路128號","121.507658333333","25.0031083333333","6500300","中和區"
"235039","097-UM","2019/11/05 20:13:42","新北市永和區民有街69號","121.517858333333","24.995745","6500300","中和區"
"235065","098-UM","2019/11/05 20:13:45","新北市中和區永和路128巷47號","121.497743333333","25.006875","6500300","中和區"
"235040","150-BY","2019/11/05 20:13:49","新北市中和區保健路61巷5弄2號","121.509703333333","24.99758","6500300","中和區"
"235055","183-VK","2019/11/05 20:13:35","新北市五股區成泰路三段544-1號","121.454346666667","25.10257","6500300","中和區"
"247016","KEA-2869","2019/11/05 20:13:37","新北市蘆洲區光華路150巷30號","121.46522","25.0831983333333","6501400","蘆洲區"
"247010","KED-0682","2019/11/05 20:13:37","新北市蘆洲區信義路188巷6號","121.47995","25.0844683333333","6501400","蘆洲區"
"235050","4979-A6","2019/11/05 20:13:47","新北市中和區景新街323號","121.511288333333","24.99221","6500300","中和區"
"235069","4980-A6","2019/11/05 20:13:40","新北市中和區南山路127巷27弄28號","121.503391666667","24.9980016666667","6500300","中和區"
"235051","157-BY","2019/11/05 20:13:31","新北市中和區捷運路52號","121.507933333333","24.9904166666667","6500300","中和區"
"235059","AAC-215","2019/11/05 20:13:45","新北市中和區圓通路367巷13弄81號","121.493618333333","24.9877266666667","6500300","中和區"
"220065","072-UY","2019/11/05 20:13:35","新北市板橋區民生路二段89-4號","121.471433333333","25.01864","6500100","板橋區"
"247006","500-BY","2019/11/05 20:13:46","新北市蘆洲區永安南路二段16巷17弄18號","121.46755","25.077945","6501400","蘆洲區"
"247004","341-TH","2019/11/05 20:13:41","新北市蘆洲區長安街285巷10號","121.457656666667","25.0842666666667","6501400","蘆洲區"
"247012","337-TH","2019/11/05 20:13:38","新北市蘆洲區中興街15巷20號","121.480251666667","25.0877716666667","6501400","蘆洲區"
"247024","057-VK","2019/11/05 20:13:40","新北市蘆洲區光明路102號","121.463328333333","25.0880516666667","6501400","蘆洲區"
"247014","056-VK","2019/11/05 20:13:36","新北市蘆洲區中山二路179號","121.47094","25.0809483333333","6501400","蘆洲區"
"247018","053-VK","2019/11/05 20:13:47","新北市蘆洲區民族路406號","121.474618333333","25.09161","6501400","蘆洲區"
"247022","007-UY","2019/11/05 20:13:43","新北市蘆洲區中正路198號","121.466768333333","25.08835","6501400","蘆洲區"
"247002","001-UY","2019/11/05 20:13:40","新北市蘆洲區長安街240號","121.457671666667","25.0859383333333","6501400","蘆洲區"
"222001","KEA-2212","2019/11/05 20:13:47","新北市深坑區北深路三段213號","121.600363333333","25.0040383333333","6501800","深坑區"
"251004","009-UM","2019/11/05 20:13:42","新北市淡水區民族路29巷24-1號","121.461691666667","25.136645","6501000","淡水區"
"251005","010-UM","2019/11/05 20:13:45","新北市淡水區淡金路一段557號","121.453256666667","25.1806383333333","6501000","淡水區"
"251001","011-UM","2019/11/05 20:13:33","新北市淡水區淡金路二段15號","121.44639","25.1892566666667","6501000","淡水區"
"251002","012-UM","2019/11/05 20:13:48","新北市淡水區中正路288號","121.437705","25.1719416666667","6501000","淡水區"
"251015","KEA-2871","2019/11/05 20:13:37","新北市淡水區商工路335號","121.466205","25.18559","6501000","淡水區"
"251016","180-VK","2019/11/05 20:13:42","新北市淡水區番子田20-4號","121.4577","25.2283416666667","6501000","淡水區"
"251008","181-VK","2019/11/05 20:13:35","新北市淡水區沙崙路126號","121.423393333333","25.1829316666667","6501000","淡水區"
"251013","182-VK","2019/11/05 20:13:40","新北市淡水區奎柔山路752巷101號","121.474545","25.2037016666667","6501000","淡水區"
"251010","413-VK","2019/11/05 20:13:29","新北市淡水區中正路二段397號","121.425618333333","25.1911566666667","6501000","淡水區"
"251012","441-VK","2019/11/05 20:13:33","新北市淡水區淡金路三段306號","121.449071666667","25.2079116666667","6501000","淡水區"
"251006","561-UM","2019/11/05 20:13:33","新北市淡水區北新路141巷2弄1號","121.449271666667","25.17926","6501000","淡水區"
"251009","575-R6","2019/11/05 20:13:46","新北市淡水區清水街9-2號","121.44489","25.1703216666667","6501000","淡水區"
"251014","577-R6","2019/11/05 20:13:33","新北市淡水區石頭厝2-1號","121.458166666667","25.2357416666667","6501000","淡水區"
"251011","650-BX","2019/11/05 20:13:38","新北市淡水區崁頂101號","121.434178333333","25.2038","6501000","淡水區"
"251003","673-BX","2019/11/05 20:13:43","新北市淡水區中山北路一段261號","121.444716666667","25.1808166666667","6501000","淡水區"
"207003","681-TV","2019/11/05 20:13:39","新北市萬里區大鵬里萬里加投21-3號","121.648238333333","25.21093","6502800","萬里區"
"207004","291-VK","2019/11/05 20:13:42","新北市萬里區北基里仁四街30號","121.681678333333","25.17628","6502800","萬里區"
"252002","178-VK","2019/11/05 20:13:31","新北市三芝區中正路一段36巷7號","121.503645","25.2585983333333","6502100","三芝區"
"237006","5529-G3","2019/11/05 20:13:34","新北市三峽區嘉添227-24號","121.369956666667","24.9115066666667","6500900","三峽區"
"237015","649-BX","2019/11/05 20:13:33","新北市三峽區介壽路二段138巷45-2號","121.395256666667","24.9331066666667","6500900","三峽區"
"236042","KED-0685","2019/11/05 20:13:33","新北市土城區學享街10號","121.451083333333","24.9874116666667","6501300","土城區"
"236030","253-BX","2019/11/05 20:13:37","新北市土城區裕民路32巷2號","121.447766666667","24.98826","6501300","土城區"
"236026","269-VK","2019/11/05 20:13:31","新北市土城區裕生路67巷6弄2號","121.447606666667","24.9845166666667","6501300","土城區"
"236014","270-VK","2019/11/05 20:13:33","新北市土城區廣明街41巷30號","121.454248333333","24.99281","6501300","土城區"
"236038","271-VK","2019/11/05 20:13:34","新北市土城區延吉街371號","121.463918333333","24.9839533333333","6501300","土城區"
"236070","KEA-2877","2019/11/05 20:13:47","新北市土城區大安路24號","121.432715","24.9663466666667","6501300","土城區"
"252001","KED-0821","2019/11/05 20:13:28","新北市三芝區中山路一段11號","121.500376666667","25.25847","6502100","三芝區"
"236021","401-BY","2019/11/05 20:13:40","新北市土城區金城路三段208號","121.47179","24.9896133333333","6501300","土城區"
"236059","912-UM","2019/11/05 20:13:48","新北市土城區中央路三段38號","121.438156666667","24.9684716666667","6501300","土城區"
"242042","AAC-296","2019/11/05 20:13:43","新北市新莊區青山路一段63號","121.407278333333","25.02787","6500500","新莊區"
"242061","986-R7","2019/11/05 20:13:36","新北市新莊區瓊林路100巷1號","121.443498333333","25.02641","6500500","新莊區"
"242027","705-TV","2019/11/05 20:13:30","新北市新莊區立信三街12巷12號","121.44411","25.0510083333333","6500500","新莊區"
"242029","615-BX","2019/11/05 20:13:47","新北市新莊區中原路305號","121.447188333333","25.0544983333333","6500500","新莊區"
"242058","612-BX","2019/11/05 20:13:45","新北市新莊區龍安路333號","121.422423333333","25.01926","6500500","新莊區"
"242048","566-BX","2019/11/05 20:13:46","新北市新莊區四維路186巷1號","121.422015","25.0210066666667","6500500","新莊區"
"242054","497-BY","2019/11/05 20:13:41","新北市新莊區民安西路291號","121.42653","25.011945","6500500","新莊區"
"242002","441-UM","2019/11/05 20:13:41","新北市新莊區中正路33號","121.463961666667","25.0409533333333","6500500","新莊區"
"242007","440-UM","2019/11/05 20:13:36","新北市新莊區思源路421號","121.459395","25.0525266666667","6500500","新莊區"
"242044","415-TV","2019/11/05 20:13:48","桃園市龜山區萬壽路一段19號","121.410125","25.0206983333333","6500500","新莊區"
"242013","413-TV","2019/11/05 20:13:48","新北市新莊區幸福路710巷5弄8號","121.449568333333","25.0497433333333","6500500","新莊區"
"242025","362-BY","2019/11/05 20:13:38","新北市新莊區五工路68巷2號","121.459031666667","25.06424","6500500","新莊區"
"242023","353-BY","2019/11/05 20:13:41","新北市新莊區化成路570號","121.466235","25.0544383333333","6500500","新莊區"
"242015","132-UY","2019/11/05 20:13:47","新北市新莊區中和街28號","121.448291666667","25.043755","6500500","新莊區"
"242039","135-UY","2019/11/05 20:13:50","新北市新莊區龍安路481號","121.425481666667","25.018225","6500500","新莊區"
"242056","172-VK","2019/11/05 20:13:48","新北市新莊區豐年街28巷1弄11號","121.446068333333","25.031855","6500500","新莊區"
"242017","173-VK","2019/11/05 20:13:49","新北市新莊區中港路397號","121.451898333333","25.0468933333333","6500500","新莊區"
"242032","175-VK","2019/11/05 20:13:44","新北市新莊區義豐街23號","121.441106666667","25.035045","6500500","新莊區"
"242021","346-TH","2019/11/05 20:13:44","新北市新莊區新泰路110號","121.448395","25.0363016666667","6500500","新莊區"
"242051","347-TH","2019/11/05 20:13:35","新北市新莊區民安西路196巷4弄2號","121.425543333333","25.015435","6500500","新莊區"
"242037","348-TH","2019/11/05 20:13:41","新北市新莊區建安街7號","121.428888333333","25.0265733333333","6500500","新莊區"
"242009","349-TH","2019/11/05 20:13:44","新北市新莊區昌平街16號","121.454823333333","25.0527433333333","6500500","新莊區"
"242034","350-TH","2019/11/05 20:13:43","新北市新莊區建中街112號","121.445978333333","25.036505","6500500","新莊區"
"242019","351-TH","2019/11/05 20:13:44","新北市新莊區博愛路6巷2號","121.456371666667","25.0432316666667","6500500","新莊區"
"221008","489-VK","2019/11/05 20:13:18","台北市內湖區康樂街200號","121.621058333333","25.0761033333333","6501100","汐止區"
"221036","130-UY","2019/11/05 20:13:41","新北市汐止區新台五路二段13號","121.66234","25.066115","6501100","汐止區"
"221015","131-UY","2019/11/05 20:13:33","新北市汐止區建成路37巷1號","121.663696666667","25.072815","6501100","汐止區"
"221010","269-BY","2019/11/05 20:13:43","新北市汐止區連峰街225巷27號","121.643808333333","25.0809483333333","6501100","汐止區"
"221012","278-VK","2019/11/05 20:13:40","新北市汐止區大同路三段439號","121.678311666667","25.071305","6501100","汐止區"
"221023","279-VK","2019/11/05 20:13:46","新北市汐止區明峰街295號","121.625616666667","25.0679666666667","6501100","汐止區"
"221032","280-BY","2019/11/05 20:13:37","新北市汐止區弘道街11號","121.617081666667","25.04874","6501100","汐止區"
"221029","298-VK","2019/11/05 20:13:35","新北市汐止區樟樹一路119巷8-6號","121.641283333333","25.0643433333333","6501100","汐止區"
"221021","299-VK","2019/11/05 20:13:29","新北市汐止區水源路一段275號","121.654125","25.058915","6501100","汐止區"
"221031","353-TW","2019/11/05 20:13:44","新北市汐止區中興路214巷12號","121.631501666667","25.06661","6501100","汐止區"
"221035","622-UM","2019/11/05 20:13:48","新北市汐止區長江街43號","121.655723333333","25.0712966666667","6501100","汐止區"
"221025","623-UM","2019/11/05 20:13:39","新北市汐止區連興街121號","121.653816666667","25.0622383333333","6501100","汐止區"
"221038","646-BX","2019/11/05 20:13:35","新北市汐止區忠孝東路478號","121.666283333333","25.0737116666667","6501100","汐止區"
"221033","647-BX","2019/11/05 20:13:36","新北市汐止區東勢街201巷104號","121.633561666667","25.0428933333333","6501100","汐止區"
"221002","707-TV","2019/11/05 20:13:40","新北市汐止區福德一路3號","121.63917","25.0701333333333","6501100","汐止區"
"221018","753-BX","2019/11/05 20:13:45","新北市汐止區茄興街20巷1弄1號","121.673528333333","25.0671216666667","6501100","汐止區"
"220079","145-BY","2019/11/05 20:13:46","新北市板橋區民權路302巷14號","121.45782","25.0164183333333","6500100","板橋區"
"220080","200-UY","2019/11/05 20:13:29","新北市板橋區大觀路二段153巷44弄25號","121.446038333333","24.9991566666667","6500100","板橋區"
"220072","277-BY","2019/11/05 20:13:46","新北市板橋區篤行路三段玉平巷68弄5號","121.427696666667","24.9859583333333","6500100","板橋區"
"220083","286-VK","2019/11/05 20:13:33","新北市板橋區僑中二街90巷19號","121.445345","25.009235","6500100","板橋區"
"220081","287-VK","2019/11/05 20:13:35","新北市板橋區僑中一街102巷7弄12號","121.446403333333","25.0129233333333","6500100","板橋區"
"220061","293-UM","2019/11/05 20:13:37","新北市板橋區四川路一段331號","121.458515","25.00029","6500100","板橋區"
"242046","281-VK","2019/11/05 20:13:37","新北市新莊區裕民街120號","121.41816","25.0227466666667","6500500","新莊區"
"220086","461-BY","2019/11/05 20:13:48","新北市板橋區大觀路二段19巷113-7號","121.452068333333","25.0024416666667","6500100","板橋區"
"242011","280-VK","2019/11/05 20:13:39","新北市新莊區中信街37巷4弄9號","121.449743333333","25.05011","6500500","新莊區"
"220035","560-BX","2019/11/05 20:13:31","新北市板橋區新生街53巷3弄2號","121.45757","25.0216233333333","6500100","板橋區"
"220103","561-BX","2019/11/05 20:13:37","新北市板橋區漢生東路33巷42號","121.466096666667","25.017725","6500100","板橋區"
"220084","568-UM","2019/11/05 20:13:45","新北市板橋區滿平街2巷10號","121.425248333333","24.9893933333333","6500100","板橋區"
"220054","741-BX","2019/11/05 20:13:47","新北市板橋區忠孝路201巷51號","121.46482","25.0038533333333","6500100","板橋區"
"220055","827-TW","2019/11/05 20:13:36","新北市板橋區仁愛路86巷20號","121.461081666667","24.9987466666667","6500100","板橋區"
"220074","895-R6","2019/11/05 20:13:27","新北市板橋區館前西路66號","121.457743333333","25.0070266666667","6500100","板橋區"
"235068","KEA-2873","2019/11/05 20:13:46","新北市中和區勝利路35巷1弄4號","121.49914","25.0074566666667","6500300","中和區"
