"lineid","car","time","location","longitude","latitude","cityid","cityname"
"231061","002-UM","2019/11/05 21:13:36","新北市新店區安和路三段60-1號","121.518116666667","24.9827133333333","6500600","新店區"
"231059","047-UY","2019/11/05 21:13:27","新北市新店區僑義路19號","121.500386666667","24.951315","6500600","新店區"
"231060","106-UY","2019/11/05 21:13:29","新北市新店區安康路二段391號","121.494496666667","24.9542516666667","6500600","新店區"
"231051","107-UY","2019/11/05 21:13:42","新北市新店區中正路700巷79號","121.535948333333","24.9934166666667","6500600","新店區"
"231065","110-UY","2019/11/05 21:13:36","新北市新店區薏仁坑路6號","121.500308333333","24.95797","6500600","新店區"
"231068","187-VK","2019/11/05 21:13:35","新北市新店區安光路16號","121.513723333333","24.9647116666667","6500600","新店區"
"231062","256-BX","2019/11/05 21:13:31","新北市新店區薏仁坑路8-3號","121.499495","24.95883","6500600","新店區"
"231042","268-BY","2019/11/05 21:13:49","新北市新店區安康路二段320巷6號","121.505563333333","24.9602183333333","6500600","新店區"
"231050","AAD-862","2019/11/05 21:11:30","新北市新店區華興街13巷2號","121.538125","24.9692716666667","6500600","新店區"
"231040","617-UM","2019/11/05 21:13:36","新北市新店區北新路一段103號","121.539168333333","24.96212","6500600","新店區"
"231063","641-BX","2019/11/05 21:13:38","新北市新店區玫瑰路57巷47號","121.497458333333","24.94647","6500600","新店區"
"241011","013-R5","2019/11/05 21:13:42","新北市三重區河邊北街110巷66號","121.502253333333","25.0701966666667","6500200","三重區"
"241028","022-UY","2019/11/05 21:13:43","新北市三重區同安街101號","121.494613333333","25.056435","6500200","三重區"
"241008","059-VK","2019/11/05 21:13:45","新北市三重區自強路一段64號","121.497258333333","25.06652","6500200","三重區"
"241023","060-VK","2019/11/05 21:13:42","新北市三重區中正北路176巷27號","121.482641666667","25.0659683333333","6500200","三重區"
"241015","062-VK","2019/11/05 21:13:50","新北市三重區河邊北街23號","121.504245","25.0653383333333","6500200","三重區"
"241017","063-VK","2019/11/05 21:13:38","新北市三重區大仁街62號","121.492231666667","25.0651066666667","6500200","三重區"
"241024","065-VK","2019/11/05 21:13:34","新北市三重區力行路二段2號","121.481875","25.0718383333333","6500200","三重區"
"241007","066-VK","2019/11/05 21:13:38","新北市三重區車路頭街135-1號","121.484255","25.0759533333333","6500200","三重區"
"241002","090-VK","2019/11/05 21:13:35","新北市三重區五華街19號","121.49499","25.080425","6500200","三重區"
"241003","091-VK","2019/11/05 21:13:40","新北市三重區仁義街224號","121.494971666667","25.084725","6500200","三重區"
"241006","262-UM","2019/11/05 21:13:47","新北市三重區重陽路二段67號","121.487846666667","25.06372","6500200","三重區"
"241016","266-UM","2019/11/05 21:13:32","新北市三重區大智街12號","121.495323333333","25.0644233333333","6500200","三重區"
"241009","267-UM","2019/11/05 21:13:29","新北市三重區忠孝路三段24號","121.48144","25.0669916666667","6500200","三重區"
"241018","268-UM","2019/11/05 21:13:40","新北市三重區忠孝路一段87號","121.489818333333","25.0721683333333","6500200","三重區"
"241032","269-UM","2019/11/05 21:13:38","新北市三重區新北大道一段252號","121.479611666667","25.0616233333333","6500200","三重區"
"241013","270-UM","2019/11/05 21:13:34","新北市三重區仁愛街83號","121.495821666667","25.0732916666667","6500200","三重區"
"241025","271-UM","2019/11/05 21:13:35","新北市三重區忠孝路三段40巷16弄10號","121.482273333333","25.0668983333333","6500200","三重區"
"241030","KED-0822","2019/11/05 21:13:50","新北市三重區五谷王北街42巷6號","121.475501666667","25.0485","6500200","三重區"
"241014","462-BY","2019/11/05 21:13:34","新北市三重區長安街82號","121.501496666667","25.0675933333333","6500200","三重區"
"241026","480-VK","2019/11/05 21:13:45","新北市三重區中正南路184-1號","121.494173333333","25.0563316666667","6500200","三重區"
"241001","547-UM","2019/11/05 21:13:41","新北市三重區福隆路50號","121.492431666667","25.0785033333333","6500200","三重區"
"241019","KEA-2593","2019/11/05 21:13:39","新北市三重區重陽路三段89號","121.490025","25.0676716666667","6500200","三重區"
"241005","AAD-863","2019/11/05 21:13:49","新北市三重區仁華街118巷6號","121.48567","25.0830433333333","6500200","三重區"
"241012","743-BX","2019/11/05 21:13:32","新北市三重區龍濱路285號","121.501096666667","25.0733116666667","6500200","三重區"
"241022","KED-0820","2019/11/05 21:13:29","新北市三重區中正北路64巷24號","121.486123333333","25.063665","6500200","三重區"
"241029","942-UM","2019/11/05 21:13:46","新北市三重區正義南路111號","121.498215","25.0585566666667","6500200","三重區"
"241033","AAC-255","2019/11/05 21:13:29","新北市三重區光復路二段170號","121.472051666667","25.0612833333333","6500200","三重區"
"247016","KEA-2869","2019/11/05 21:13:37","新北市蘆洲區中正路185巷44號","121.467328333333","25.0848766666667","6501400","蘆洲區"
"247010","KED-0682","2019/11/05 21:13:37","新北市蘆洲區鷺江街23號","121.478925","25.08246","6501400","蘆洲區"
"247020","546-UM","2019/11/05 21:13:42","新北市蘆洲區民族路426巷19號","121.472906666667","25.0929666666667","6501400","蘆洲區"
"247006","500-BY","2019/11/05 21:13:45","新北市蘆洲區長安街25號","121.463905","25.079205","6501400","蘆洲區"
"247004","341-TH","2019/11/05 21:13:40","新北市蘆洲區永安南路二段312號","121.45696","25.0826283333333","6501400","蘆洲區"
"247012","337-TH","2019/11/05 21:13:38","新北市蘆洲區中興街15巷41號","121.479613333333","25.08846","6501400","蘆洲區"
"247024","057-VK","2019/11/05 21:13:40","新北市蘆洲區長興路50巷1號","121.463811666667","25.0837966666667","6501400","蘆洲區"
"247014","056-VK","2019/11/05 21:13:36","新北市蘆洲區忠孝路39-1號","121.471261666667","25.0860133333333","6501400","蘆洲區"
"247018","053-VK","2019/11/05 21:13:43","新北市蘆洲區復興路111-6號","121.4765","25.0883416666667","6501400","蘆洲區"
"247022","007-UY","2019/11/05 21:13:41","新北市蘆洲區三民路202號","121.469171666667","25.088955","6501400","蘆洲區"
"247008","002-UY","2019/11/05 21:13:31","新北市蘆洲區民生街43號","121.475098333333","25.078905","6501400","蘆洲區"
"247002","001-UY","2019/11/05 21:13:40","新北市蘆洲區永樂街38巷40號","121.458638333333","25.0900616666667","6501400","蘆洲區"
"251004","009-UM","2019/11/05 21:13:43","新北市淡水區民族路33號","121.4623","25.13583","6501000","淡水區"
"251005","010-UM","2019/11/05 21:13:45","新北市淡水區博愛街6號","121.445991666667","25.17017","6501000","淡水區"
"251001","011-UM","2019/11/05 21:13:33","新北市淡水區中山北路二段381巷123號","121.443278333333","25.1856916666667","6501000","淡水區"
"251002","012-UM","2019/11/05 21:13:48","新北市淡水區水源街一段83巷149-15號","121.448421666667","25.1734583333333","6501000","淡水區"
"251015","KEA-2871","2019/11/05 21:13:37","新北市淡水區淡金路四段542巷66號","121.455201666667","25.2264516666667","6501000","淡水區"
"251016","180-VK","2019/11/05 21:13:42","新北市淡水區前洲子28號","121.441055","25.21924","6501000","淡水區"
"251008","181-VK","2019/11/05 21:13:35","新北市淡水區淡金路一段571號","121.452831666667","25.18066","6501000","淡水區"
"251013","182-VK","2019/11/05 21:13:40","新北市淡水區行忠路330號","121.46068","25.1998966666667","6501000","淡水區"
"251010","413-VK","2019/11/05 21:13:49","新北市淡水區中正路一段61號","121.423843333333","25.1776433333333","6501000","淡水區"
"251012","441-VK","2019/11/05 21:13:32","新北市淡水區淡金路五段35巷18號","121.453465","25.2336366666667","6501000","淡水區"
"251009","575-R6","2019/11/05 21:13:46","新北市淡水區民族路112巷66號","121.462001666667","25.1343316666667","6501000","淡水區"
"251014","577-R6","2019/11/05 21:13:33","新北市淡水區六塊厝2-1號","121.450145","25.2404633333333","6501000","淡水區"
"251011","650-BX","2019/11/05 21:13:38","新北市淡水區新民街120巷45弄2號","121.438403333333","25.1797866666667","6501000","淡水區"
"251003","673-BX","2019/11/05 21:13:43","新北市淡水區新春街96號","121.439091666667","25.1825066666667","6501000","淡水區"
