"lineid","car","time","location","longitude","latitude","cityid","cityname"
"251004","009-UM","2019/11/05 21:59:43","新北市淡水區民權路233號","121.460985","25.1289616666667","6501000","淡水區"
"251005","010-UM","2019/11/05 21:59:45","新北市淡水區鄧公路30巷1弄67號","121.454466666667","25.1695983333333","6501000","淡水區"
"251008","181-VK","2019/11/05 21:59:35","新北市淡水區學府路104號","121.449831666667","25.1717933333333","6501000","淡水區"
"251010","413-VK","2019/11/05 21:59:29","新北市淡水區中正路二段206號","121.426223333333","25.18908","6501000","淡水區"
"251007","442-VK","2019/11/05 21:59:49","新北市淡水區北新路184巷19號","121.450286666667","25.1780683333333","6501000","淡水區"
"251006","561-UM","2019/11/05 21:42:03","新北市淡水區中正路11巷3號","121.437865","25.1707483333333","6501000","淡水區"
"251011","650-BX","2019/11/05 21:59:38","新北市淡水區水碓街3號","121.443058333333","25.176995","6501000","淡水區"
"251003","673-BX","2019/11/05 21:59:43","新北市淡水區新春街81號","121.438756666667","25.1824216666667","6501000","淡水區"
