"lineid","car","time","location","longitude","latitude","cityid","cityname"
"244005","248-BX","2019/06/29 07:59:16","新北市林口區下福里139-3號","121.300835","25.11746","6501700","林口區"
"222004","289-BY","2019/06/29 07:59:29","新北市深坑區平埔街22巷19號","121.614716666667","25.001055","6501800","深坑區"
"231008","512-UM","2019/06/29 07:59:18","新北市新店區秀山路20號","121.532475","24.9603633333333","6500600","新店區"
"247012","402-BY","2019/06/29 07:59:32","新北市蘆洲區永安南路二段154號","121.461781666667","25.0787933333333","6501400","蘆洲區"
"226007","7418-A5","2019/06/29 07:59:22","新北市平溪區靜安路三段375號","121.781253333333","25.0468316666667","6502400","平溪區"
"226003","AGD-0702","2019/06/29 07:59:26","新北市平溪區新寮里頂寮子3-10號","121.773683333333","25.051945","6502400","平溪區"
"223003","205-TH","2019/06/29 07:52:57","新北市石碇區樟空子10-2號","121.666905","24.9622366666667","6501900","石碇區"
"223008","406-TH","2019/06/29 07:37:10","新北市石碇區靜安路一段337號","121.698771666667","25.0145933333333","6501900","石碇區"
"223001","592-UM","2019/06/29 07:54:19","新北市石碇區樟空子1號","121.666665","24.9596166666667","6501900","石碇區"
"223004","660-BX","2019/06/29 07:59:18","新北市石碇區楓子林30號","121.642306666667","25.0095483333333","6501900","石碇區"
"223007","661-BX","2019/06/29 07:43:50","新北市石碇區靜安路一段337號","121.698896666667","25.01442","6501900","石碇區"
"227004","282-VK","2019/06/29 07:59:31","新北市雙溪區牡丹里中正路68號","121.863473333333","25.0428916666667","6502500","雙溪區"
"252004","249-BX","2019/06/29 07:59:14","新北市三芝區興華里車埕16-2號","121.505548333333","25.199405","6502100","三芝區"
"252007","AAC-283","2019/06/29 07:59:20","新北市三芝區後厝里土地公坑63-1號","121.4653","25.2460833333333","6502100","三芝區"
"237014","760-BX","2019/06/29 07:59:32","新北市三峽區有木2-2號","121.418361666667","24.8658016666667","6500900","三峽區"
"226005","ANY-2373","2019/06/29 07:59:24","新北市平溪區石底里公園街18-3號","121.733541666667","25.0256116666667","6502400","平溪區"
