"lineid","car","time","location","longitude","latitude","cityid","cityname"
"244005","248-BX","2019/06/29 08:19:16","新北市林口區下福里135-2號","121.295446666667","25.1198566666667","6501700","林口區"
"244001","658-BX","2019/06/29 08:19:36","新北市林口區仁愛路二段239號","121.375008333333","25.0762816666667","6501700","林口區"
"222004","289-BY","2019/06/29 08:16:49","新北市深坑區昇高坑路72號","121.629698333333","24.9912933333333","6501800","深坑區"
"231007","189-VK","2019/06/29 08:19:28","新北市新店區新潭路一段32號","121.523333333333","24.9423333333333","6500600","新店區"
"231008","512-UM","2019/06/29 08:19:18","新北市新店區新烏路一段171號","121.54524","24.9342466666667","6500600","新店區"
"247012","402-BY","2019/06/29 08:19:32","新北市蘆洲區光華路175巷1號","121.465005","25.0815533333333","6501400","蘆洲區"
"226007","7418-A5","2019/06/29 08:19:24","新北市平溪區東勢里芊蓁林2號","121.752068333333","25.0203933333333","6502400","平溪區"
"226003","AGD-0702","2019/06/29 08:19:26","新北市平溪區十分里十分街54號","121.775188333333","25.04144","6502400","平溪區"
"223003","205-TH","2019/06/29 08:19:17","新北市石碇區北宜路六段塗潭巷15號","121.649901666667","24.9319383333333","6501900","石碇區"
"223008","406-TH","2019/06/29 08:19:29","新北市石碇區石碇子埔97-4號","121.66865","25.0054616666667","6501900","石碇區"
"223001","592-UM","2019/06/29 08:19:19","新北市石碇區北宜路六段塗潭巷15號","121.65009","24.9318383333333","6501900","石碇區"
"223004","660-BX","2019/06/29 08:19:18","新北市石碇區外按16-1號","121.650633333333","24.9975883333333","6501900","石碇區"
"223007","661-BX","2019/06/29 08:19:18","新北市石碇區靜安路一段180號","121.670053333333","25.0053466666667","6501900","石碇區"
"223005","677-TV","2019/06/29 08:19:29","新北市石碇區外按16-1號","121.650655","24.99758","6501900","石碇區"
"227004","282-VK","2019/06/29 08:19:31","新北市雙溪區平林里竹寮坑10號","121.84362","25.04639","6502500","雙溪區"
"252004","249-BX","2019/06/29 08:19:34","新北市三芝區興華里車埕60號","121.498655","25.196935","6502100","三芝區"
"252007","AAC-283","2019/06/29 08:19:20","新北市三芝區後厝里大片頭102號","121.45963","25.2397883333333","6502100","三芝區"
"237014","760-BX","2019/06/29 08:19:32","新北市三峽區有木196號","121.443906666667","24.8497433333333","6500900","三峽區"
"226005","ANY-2373","2019/06/29 08:19:24","新北市平溪區南山里南山坪125號","121.784636666667","25.045595","6502400","平溪區"
"233003","KEA-2870","2019/06/29 08:19:18","新北市烏來區屯鹿4號","121.514706666667","24.81563","6502900","烏來區"
