"lineid","car","time","location","longitude","latitude","cityid","cityname"
"248006","653-BX","2019/06/29 10:54:08","新北市五股區中興路二段83巷26-6號","121.459998333333","25.07495","6501500","五股區"
"231007","189-VK","2019/06/29 11:09:30","新北市新店區新潭路三段9號","121.508465","24.9154533333333","6500600","新店區"
"231008","512-UM","2019/06/29 11:09:38","新北市新店區屈尺路6號","121.549503333333","24.923085","6500600","新店區"
"247012","402-BY","2019/06/29 11:09:32","新北市蘆洲區永樂街50號","121.457605","25.0884116666667","6501400","蘆洲區"
"227004","282-VK","2019/06/29 11:09:31","新北市雙溪區魚行里坤溪8號","121.866306666667","25.0212816666667","6502500","雙溪區"
