"lineid","car","time","location","longitude","latitude","cityid","cityname"
"234044","148-BY","2019/06/29 13:19:29","新北市永和區得和路373巷17號","121.524876666667","25.0000133333333","6500400","永和區"
"234078","298-R6","2019/06/29 13:19:27","新北市永和區福和路27號","121.523908333333","25.0082966666667","6500400","永和區"
"234036","336-UY","2019/06/29 13:19:38","新北市永和區民樂街55巷2號","121.527478333333","24.99835","6500400","永和區"
"234062","337-UY","2019/06/29 13:19:22","新北市永和區永元路17巷6弄1號","121.521381666667","25.0007433333333","6500400","永和區"
"234084","338-UY","2019/06/29 13:19:35","新北市永和區永利路11號","121.517675","25.0060483333333","6500400","永和區"
"234068","552-UM","2019/06/29 13:19:30","新北市永和區豫溪街86號","121.518383333333","25.0099083333333","6500400","永和區"
"234015","745-BX","2019/06/29 13:19:39","新北市永和區環河西路一段95巷19弄21號","121.511978333333","25.0170683333333","6500400","永和區"
"234028","746-BX","2019/06/29 13:19:31","新北市永和區厚德街89號","121.523961666667","24.998795","6500400","永和區"
"234052","KEA-2590","2019/06/29 13:19:26","新北市永和區中興街27號","121.516071666667","25.0118883333333","6500400","永和區"
"234005","KED-0605","2019/06/29 13:19:35","新北市永和區中山路一段339號","121.505878333333","25.0060833333333","6500400","永和區"
"234012","KEA-2591","2019/06/29 13:19:29","新北市永和區信義路62號","121.51294","25.0127966666667","6500400","永和區"
"234060","AAD-866","2019/06/29 13:19:23","新北市永和區秀朗路一段175號","121.517063333333","25.00362","6500400","永和區"
"234040","862-TW","2019/06/29 13:19:32","新北市永和區保平路151巷6弄2號","121.510203333333","25.00544","6500400","永和區"
"234048","863-TW","2019/06/29 13:19:39","新北市永和區仁愛路104巷6號","121.512076666667","25.013465","6500400","永和區"
"234025","9371-KE","2019/06/29 13:19:21","新北市永和區豫溪街28巷3號","121.515305","25.0096583333333","6500400","永和區"
"234010","9373-KE","2019/06/29 13:19:34","新北市永和區永和路二段425巷60號","121.513768333333","25.01745","6500400","永和區"
"248017","KED-0813","2019/06/29 13:19:31","新北市五股區御史路130-1號","121.434318333333","25.098805","6501500","五股區"
"234022","9380-KE","2019/06/29 13:19:35","新北市永和區竹林路101號","121.519778333333","25.01193","6500400","永和區"
"234076","969-R7","2019/06/29 13:19:22","新北市永和區民有街25巷2號","121.517175","24.99605","6500400","永和區"
"234072","AAC-211","2019/06/29 13:19:35","新北市永和區竹林路44號","121.517595","25.01436","6500400","永和區"
"234066","AAC-212","2019/06/29 13:19:24","新北市永和區保平路50巷4號","121.511291666667","25.00727","6500400","永和區"
"234001","AAC-295","2019/06/29 13:19:34","新北市永和區保福路一段96號","121.512041666667","25.01055","6500400","永和區"
"244005","248-BX","2019/06/29 13:19:30","新北市林口區南勢里7鄰90號","121.346101666667","25.0781966666667","6501700","林口區"
"231030","002-UM","2019/06/29 13:19:36","新北市新店區安華路28-1號","121.519658333333","24.960875","6500600","新店區"
"231027","0293-UT","2019/06/29 13:19:38","新北市新店區安康路一段3-1號","121.534013333333","24.96059","6500600","新店區"
"231028","046-UY","2019/06/29 13:19:23","新北市新店區安華路28-1號","121.519676666667","24.9608716666667","6500600","新店區"
"231029","106-UY","2019/06/29 13:19:34","新北市新店區安華路28-1號","121.519688333333","24.9608916666667","6500600","新店區"
"231018","107-UY","2019/06/29 13:19:24","新北市新店區安一路一段1-1號","121.519575","24.961475","6500600","新店區"
"231036","110-UY","2019/06/29 13:19:26","新北市新店區安康路三段237-1號","121.48746","24.951785","6500600","新店區"
"231023","260-TV","2019/06/29 13:19:39","新北市新店區安一路一段1-1號","121.519298333333","24.96128","6500600","新店區"
"231003","268-BY","2019/06/29 13:19:38","新北市新店區北新路一段126巷21號","121.542973333333","24.9697083333333","6500600","新店區"
"231017","AAD-862","2019/06/29 13:19:24","新北市新店區安一路一段1-1號","121.519613333333","24.96112","6500600","新店區"
"231006","355-BY","2019/06/29 13:19:36","新北市新店區安華路28-1號","121.519203333333","24.9608533333333","6500600","新店區"
"231038","3713-VJ","2019/06/29 13:19:41","新北市新店區安華路28-1號","121.519221666667","24.9606183333333","6500600","新店區"
"231024","4716-K9","2019/06/29 13:19:23","新北市新店區安康路一段206號","121.524163333333","24.9634866666667","6500600","新店區"
"231025","4715-K9","2019/06/29 13:19:32","新北市新店區中央七街61巷4號","121.528445","24.97651","6500600","新店區"
"231035","512-UM","2019/06/29 13:19:32","新北市新店區安一路一段1-1號","121.519258333333","24.96117","6500600","新店區"
"231020","513-UM","2019/06/29 13:19:37","新北市新店區安康路一段243號","121.524918333333","24.9632516666667","6500600","新店區"
"231002","619-UM","2019/06/29 13:19:39","新北市新店區安華路28-1號","121.5196","24.9607866666667","6500600","新店區"
"231034","641-BX","2019/06/29 13:19:25","新北市新店區安華路28-1號","121.519541666667","24.9605316666667","6500600","新店區"
"231012","KED-0819","2019/06/29 13:19:38","新北市新店區安一路一段1-1號","121.519855","24.96121","6500600","新店區"
"231033","718-UY","2019/06/29 13:19:24","新北市新店區安一路一段1-1號","121.519783333333","24.96108","6500600","新店區"
"231010","719-UM","2019/06/29 13:19:20","新北市新店區安康路一段279號","121.52366","24.96354","6500600","新店區"
"231026","720-UM","2019/06/29 13:19:23","新北市新店區安一路一段1-1號","121.519385","24.96118","6500600","新店區"
"231005","897-TW","2019/06/29 13:19:40","新北市新店區安華路28-1號","121.5195","24.9607466666667","6500600","新店區"
"231001","898-TW","2019/06/29 13:19:22","新北市新店區安華路28-1號","121.519435","24.96091","6500600","新店區"
"231004","899-TW","2019/06/29 13:19:25","新北市新店區安華路28-1號","121.519311666667","24.9608416666667","6500600","新店區"
"231037","AKT-0513","2019/06/29 13:19:29","新北市新店區安華路28-1號","121.519365","24.960545","6500600","新店區"
"235030","003-UY","2019/06/29 13:19:30","新北市中和區中山路二段120號","121.502736666667","25.0037466666667","6500300","中和區"
"235027","006-UY","2019/06/29 13:19:34","新北市中和區中正路589巷15號","121.485796666667","24.9936383333333","6500300","中和區"
"235020","096-UM","2019/06/29 13:19:36","新北市中和區員山路36巷16-3號","121.484826666667","24.9911683333333","6500300","中和區"
"235003","097-UM","2019/06/29 13:19:29","新北市中和區安平路59號","121.509796666667","24.99513","6500300","中和區"
"235029","098-UM","2019/06/29 13:19:36","新北市中和區莊敬路49巷20弄24號","121.502811666667","25.0058333333333","6500300","中和區"
"235022","151-BY","2019/06/29 13:19:25","新北市中和區圓通路367巷15-1號","121.492248333333","24.987865","6500300","中和區"
"235019","183-VK","2019/06/29 13:19:22","新北市土城區金城路三段269號","121.472603333333","24.9902083333333","6500300","中和區"
"235002","185-VK","2019/06/29 13:19:33","新北市中和區大智街40號","121.521898333333","24.992205","6500300","中和區"
"235013","186-VK","2019/06/29 13:19:25","新北市中和區錦和路350-1號","121.490436666667","24.9935933333333","6500300","中和區"
"235008","293-VK","2019/06/29 13:19:26","新北市中和區中興街116號","121.499936666667","24.99309","6500300","中和區"
"235036","301-VK","2019/06/29 13:19:39","新北市中和區連城路265巷6弄9號","121.491071666667","24.99577","6500300","中和區"
"235007","352-BY","2019/06/29 13:19:29","新北市中和區景平路381號","121.503865","24.9934116666667","6500300","中和區"
"235006","KEA-2878","2019/06/29 13:19:33","新北市中和區景平路159巷29弄3號","121.51296","24.9913533333333","6500300","中和區"
"235033","4980-A6","2019/06/29 13:19:34","新北市中和區圓通路295-3號","121.494516666667","24.9917016666667","6500300","中和區"
"235034","558-UM","2019/06/29 13:19:24","新北市中和區景平路586號","121.501165","24.9958","6500300","中和區"
"235009","565-BX","2019/06/29 13:19:37","新北市中和區景安路202號","121.504071666667","24.991315","6500300","中和區"
"235024","KED-0823","2019/06/29 13:19:26","新北市中和區員山路327巷2號","121.481165","25.0013116666667","6500300","中和區"
"235011","732-UM","2019/06/29 13:19:23","新北市中和區和城路一段271巷1號","121.485625","24.9921983333333","6500300","中和區"
"235010","733-UM","2019/06/29 13:19:20","新北市中和區員山路36巷13號","121.484118333333","24.99078","6500300","中和區"
"235035","783-BX","2019/06/29 13:19:28","新北市中和區中板路18巷3弄12號","121.483543333333","25.01319","6500300","中和區"
"235026","800-TS","2019/06/29 13:19:32","新北市中和區中山路二段312巷33弄20號","121.494976666667","25.0042066666667","6500300","中和區"
"235021","801-TS","2019/06/29 13:19:32","新北市中和區民享街97巷11號","121.475325","24.99953","6500300","中和區"
"235005","802-TS","2019/06/29 13:19:33","新北市中和區景安路34號","121.507163333333","24.9983766666667","6500300","中和區"
"235016","805-TS","2019/06/29 13:19:36","新北市中和區興南路二段21號","121.507928333333","24.985975","6500300","中和區"
"235012","896-TW","2019/06/29 13:19:22","新北市中和區員山路36巷16-2號","121.485253333333","24.9915633333333","6500300","中和區"
"235017","900-TW","2019/06/29 13:19:28","新北市中和區員山路36巷16-2號","121.485266666667","24.9914683333333","6500300","中和區"
"235015","157-BY","2019/06/29 13:19:39","新北市中和區忠孝街2號","121.508836666667","24.982795","6500300","中和區"
"247011","056-VK","2019/06/29 13:19:31","新北市五股區中興路三段2巷10號","121.449256666667","25.08122","6501400","蘆洲區"
"228005","097-TW","2019/06/29 13:19:40","新北市貢寮區美豐里丹裡街16-1號","121.913508333333","25.0570783333333","6502600","貢寮區"
"228004","212-TW","2019/06/29 13:18:05","新北市貢寮區吉林里內寮街35-2號","121.900323333333","24.9818633333333","6502600","貢寮區"
"253003","6232-TK","2019/06/29 13:19:33","新北市石門區石崩山20-2號","121.567171666667","25.2732016666667","6502200","石門區"
"253004","6251-TK","2019/06/29 13:19:34","新北市石門區竹子湖1號","121.613","25.2677833333333","6502200","石門區"
"253002","637-UY","2019/06/29 13:19:23","新北市石門區大溪墘9-7號","121.552636666667","25.2750166666667","6502200","石門區"
"253001","KEC-0718","2019/06/29 13:19:24","新北市石門區崁子腳18-2號","121.534725","25.2906033333333","6502200","石門區"
"207002","749-BX","2019/06/29 13:19:31","新北市萬里區崁腳里內崁路4號","121.642278333333","25.1595466666667","6502800","萬里區"
"252005","073-UM","2019/06/29 13:19:27","新北市三芝區八賢里八連溪78號","121.519543333333","25.229635","6502100","三芝區"
"207001","662-BX","2019/06/29 13:19:21","新北市萬里區龜吼里玉田路29號","121.681053333333","25.195505","6502800","萬里區"
"247009","KED-0683","2019/06/29 13:19:34","新北市五股區中興路三段2巷10號","121.449321666667","25.0812683333333","6501400","蘆洲區"
"221032","280-BY","2019/06/29 13:19:21","新北市汐止區龍安路44號","121.654136666667","25.0635283333333","6501100","汐止區"
"221029","298-VK","2019/06/29 13:19:29","新北市汐止區南陽街112號","121.623545","25.0621316666667","6501100","汐止區"
"235032","KEA-2873","2019/06/29 13:19:37","新北市中和區中正路637巷52弄1號","121.485545","24.99347","6500300","中和區"
"235025","KEA-2875","2019/06/29 13:19:18","新北市中和區民治街27巷2號","121.47546","25.0010383333333","6500300","中和區"
"235028","KEA-2876","2019/06/29 13:19:14","新北市中和區圓通路167巷6號","121.498013333333","24.9950933333333","6500300","中和區"
