"lineid","car","time","location","longitude","latitude","cityid","cityname"
"234044","148-BY","2019/06/29 13:39:29","新北市永和區秀朗路二段84號","121.523266666667","25.001625","6500400","永和區"
"234078","298-R6","2019/06/29 13:39:27","新北市永和區國中路104巷10號","121.524743333333","25.0069866666667","6500400","永和區"
"234036","336-UY","2019/06/29 13:39:38","新北市永和區民樂街31巷6弄2號","121.52803","25.0012333333333","6500400","永和區"
"234062","337-UY","2019/06/29 13:39:22","新北市永和區秀朗路二段24巷41號","121.52007","25.0019066666667","6500400","永和區"
"234084","338-UY","2019/06/29 13:39:35","新北市永和區永亨路165巷1-4號","121.526171666667","25.0041816666667","6500400","永和區"
"234068","552-UM","2019/06/29 13:39:30","新北市永和區永和路二段233號","121.515518333333","25.01427","6500400","永和區"
"234015","745-BX","2019/06/29 13:39:32","新北市永和區環河西路一段9號","121.514801666667","25.0179466666667","6500400","永和區"
"234028","746-BX","2019/06/29 13:39:31","新北市永和區民權路1巷10號","121.520833333333","24.9983366666667","6500400","永和區"
"234052","KEA-2590","2019/06/29 13:39:37","新北市永和區竹林路39巷24弄3號","121.519098333333","25.0144983333333","6500400","永和區"
"234005","KED-0605","2019/06/29 13:39:35","新北市永和區永和路一段202號","121.514268333333","25.009175","6500400","永和區"
"234012","KEA-2591","2019/06/29 13:39:26","新北市永和區永平路238巷12號","121.509468333333","25.0115216666667","6500400","永和區"
"234060","AAD-866","2019/06/29 13:39:23","新北市永和區中正路446號","121.517385","25.0026216666667","6500400","永和區"
"234040","862-TW","2019/06/29 13:39:32","新北市永和區中和路305巷16弄2號","121.507375","25.00128","6500400","永和區"
"234048","863-TW","2019/06/29 13:39:23","新北市永和區保安路37號","121.509766666667","25.01613","6500400","永和區"
"234025","9371-KE","2019/06/29 13:39:41","新北市永和區和平街86號","121.511388333333","25.0099466666667","6500400","永和區"
"234010","9373-KE","2019/06/29 13:39:34","新北市永和區保福路二段15巷11號","121.510503333333","25.01094","6500400","永和區"
"248017","KED-0813","2019/06/29 13:39:30","新北市五股區民義路二段84號","121.40599","25.108915","6501500","五股區"
"234022","9380-KE","2019/06/29 13:39:35","新北市永和區中正路702巷19號","121.51642","25.0106066666667","6500400","永和區"
"234076","969-R7","2019/06/29 13:39:42","新北市永和區得和路229-1號","121.519916666667","25.0002083333333","6500400","永和區"
"234072","AAC-211","2019/06/29 13:39:35","新北市永和區竹林路213巷36號","121.52276","25.0089216666667","6500400","永和區"
"234066","AAC-212","2019/06/29 13:39:40","新北市永和區中山路一段191巷7弄3號","121.509498333333","25.008415","6500400","永和區"
"234001","AAC-295","2019/06/29 13:39:40","新北市永和區秀朗路一段10號","121.513865","25.0069833333333","6500400","永和區"
"244005","248-BX","2019/06/29 13:39:30","新北市林口區工四路45號","121.400568333333","25.0834816666667","6501700","林口區"
"231030","002-UM","2019/06/29 13:39:36","新北市新店區安康路一段323-1號","121.521626666667","24.9638066666667","6500600","新店區"
"231027","0293-UT","2019/06/29 13:39:18","新北市新店區國校路70號","121.538501666667","24.9531783333333","6500600","新店區"
"231028","046-UY","2019/06/29 13:39:43","新北市新店區安康路一段351-1號","121.519393333333","24.9640933333333","6500600","新店區"
"231029","106-UY","2019/06/29 13:39:34","新北市新店區安康路二段310號","121.505721666667","24.9581016666667","6500600","新店區"
"231018","107-UY","2019/06/29 13:39:24","新北市新店區中央路11號","121.53336","24.9785233333333","6500600","新店區"
"231013","108-UY","2019/06/29 13:39:25","新北市新店區中正路454-5號","121.534456666667","24.9790383333333","6500600","新店區"
"231036","110-UY","2019/06/29 13:39:26","新北市新店區安祥路145巷1號","121.474665","24.9556266666667","6500600","新店區"
"231023","260-TV","2019/06/29 13:39:39","新北市新店區新店路179號","121.537133333333","24.9558833333333","6500600","新店區"
"231003","268-BY","2019/06/29 13:39:38","新北市新店區中正路8號","121.545668333333","24.969515","6500600","新店區"
"231017","AAD-862","2019/06/29 13:39:24","新北市新店區竹林路2巷29弄7號","121.55039","24.9502933333333","6500600","新店區"
"231006","355-BY","2019/06/29 13:39:36","新北市新店區北新路一段23號","121.537968333333","24.9590816666667","6500600","新店區"
"231038","3713-VJ","2019/06/29 13:39:21","新北市新店區安華路28-1號","121.51918","24.96058","6500600","新店區"
"231024","4716-K9","2019/06/29 13:39:23","新北市新店區華興街36號","121.537151666667","24.9691283333333","6500600","新店區"
"231025","4715-K9","2019/06/29 13:39:32","新北市新店區中央五街37號","121.528611666667","24.9751266666667","6500600","新店區"
"231035","512-UM","2019/06/29 13:39:32","新北市新店區安忠路56巷6號","121.512983333333","24.959355","6500600","新店區"
"231020","513-UM","2019/06/29 13:39:37","新北市新店區永興路88-1號","121.544023333333","24.9336833333333","6500600","新店區"
"231002","619-UM","2019/06/29 13:39:39","新北市新店區中央三街127號","121.524083333333","24.976815","6500600","新店區"
"231034","641-BX","2019/06/29 13:39:28","新北市新店區車子路117號","121.505376666667","24.9517716666667","6500600","新店區"
"231012","KED-0819","2019/06/29 13:39:38","新北市新店區德正街19巷2號","121.543671666667","24.9724116666667","6500600","新店區"
"231033","718-UY","2019/06/29 13:39:34","新北市新店區莒光路61巷1號","121.52361","24.9582116666667","6500600","新店區"
"231010","719-UM","2019/06/29 13:39:40","新北市新店區中正路307巷20號","121.536291666667","24.9742933333333","6500600","新店區"
"231026","720-UM","2019/06/29 13:39:23","新北市新店區光明街1-1號","121.538113333333","24.9591866666667","6500600","新店區"
"231005","897-TW","2019/06/29 13:39:40","新北市新店區中興路二段192號","121.548366666667","24.9734166666667","6500600","新店區"
"231001","898-TW","2019/06/29 13:39:22","新北市新店區中央路57號","121.53267","24.9774116666667","6500600","新店區"
"231004","899-TW","2019/06/29 13:39:25","新北市新店區北新路二段1號","121.542606666667","24.9711766666667","6500600","新店區"
"231037","AKT-0513","2019/06/29 13:39:29","新北市新店區薏仁坑路59號","121.490403333333","24.9648933333333","6500600","新店區"
"235030","003-UY","2019/06/29 13:39:30","新北市中和區水源路36巷2號","121.505096666667","25.0035116666667","6500300","中和區"
"235027","006-UY","2019/06/29 13:39:34","新北市中和區連城路403號","121.486138333333","24.996035","6500300","中和區"
"235020","096-UM","2019/06/29 13:39:36","新北市中和區中山路二段568巷32號","121.482411666667","25.0065466666667","6500300","中和區"
"235003","097-UM","2019/06/29 13:39:29","新北市中和區景平路278巷16弄28號","121.514506666667","24.993895","6500300","中和區"
"235029","098-UM","2019/06/29 13:39:36","新北市中和區莊敬路33巷48號","121.500556666667","25.0070733333333","6500300","中和區"
"235004","150-BY","2019/06/29 13:39:27","新北市中和區安平路59號","121.509533333333","24.9950616666667","6500300","中和區"
"235022","151-BY","2019/06/29 13:39:25","新北市中和區圓通路369巷36弄12號","121.49014","24.9847166666667","6500300","中和區"
"235019","183-VK","2019/06/29 13:39:22","新北市中和區民德路25巷8號","121.469373333333","25.0027033333333","6500300","中和區"
"235002","185-VK","2019/06/29 13:39:33","新北市中和區大勇街60巷30號","121.519268333333","24.99464","6500300","中和區"
"235013","186-VK","2019/06/29 13:39:25","新北市中和區明義街11巷12弄2號","121.503731666667","24.9946583333333","6500300","中和區"
"235008","293-VK","2019/06/29 13:39:26","新北市中和區復興路280巷18弄6號","121.502233333333","24.9916683333333","6500300","中和區"
"235036","301-VK","2019/06/29 13:39:39","新北市中和區中山路二段191號","121.500035","25.0027","6500300","中和區"
"235007","352-BY","2019/06/29 13:39:29","新北市中和區景平路155巷2弄2號","121.513161666667","24.9922133333333","6500300","中和區"
"235006","KEA-2878","2019/06/29 13:39:33","新北市中和區成功路127巷11號","121.526418333333","24.990915","6500300","中和區"
"247013","KEA-2869","2019/06/29 13:39:29","新北市五股區新五路三段260號","121.448345","25.090925","6501400","蘆洲區"
"235014","4979-A6","2019/06/29 13:39:41","新北市中和區忠孝街136號","121.51218","24.9867066666667","6500300","中和區"
"235033","4980-A6","2019/06/29 13:39:34","新北市中和區連城路89巷1號","121.496646666667","25.0000183333333","6500300","中和區"
"235034","558-UM","2019/06/29 13:39:23","新北市中和區圓通路50號","121.500691666667","24.9976233333333","6500300","中和區"
"235009","565-BX","2019/06/29 13:39:37","新北市中和區南山路236巷32號","121.505335","24.988365","6500300","中和區"
"235024","KED-0823","2019/06/29 13:39:25","新北市中和區中山路三段41號","121.477283333333","25.0053416666667","6500300","中和區"
"235011","732-UM","2019/06/29 13:39:23","新北市中和區南山路320巷10弄11號","121.506858333333","24.9866833333333","6500300","中和區"
"235010","733-UM","2019/06/29 13:39:40","新北市中和區仁愛街95號","121.511958333333","24.98669","6500300","中和區"
"235035","783-BX","2019/06/29 13:39:28","新北市中和區立德街98巷42號","121.487711666667","25.0089133333333","6500300","中和區"
"235026","800-TS","2019/06/29 13:39:32","新北市中和區中山路二段312巷23號","121.495728333333","25.0034216666667","6500300","中和區"
"235021","801-TS","2019/06/29 13:39:32","新北市中和區民安街21號","121.480446666667","25.0006333333333","6500300","中和區"
"235005","802-TS","2019/06/29 13:39:33","新北市中和區中和路400巷13號","121.511515","25.0024433333333","6500300","中和區"
"235016","805-TS","2019/06/29 13:39:36","新北市中和區興南路三段57號","121.49373","24.9754333333333","6500300","中和區"
"235012","896-TW","2019/06/29 13:39:22","新北市中和區中正路83號","121.500671666667","24.9934466666667","6500300","中和區"
"235017","900-TW","2019/06/29 13:39:28","新北市中和區華福街32號","121.466118333333","24.9966833333333","6500300","中和區"
"235015","157-BY","2019/06/29 13:39:39","新北市中和區華新街143巷106弄32號","121.506243333333","24.9787116666667","6500300","中和區"
"235023","AAC-215","2019/06/29 13:39:33","新北市中和區中正路589巷15號","121.485723333333","24.9936683333333","6500300","中和區"
"220013","072-UY","2019/06/29 13:39:38","新北市板橋區南雅南路二段100號","121.453495","25.0011533333333","6500100","板橋區"
"220105","075-UY","2019/06/29 13:39:34","新北市板橋區民生路二段161巷3號","121.470086666667","25.0197633333333","6500100","板橋區"
"220017","AAD-861","2019/06/29 13:39:31","新北市板橋區華東街328號","121.452806666667","25.00339","6500100","板橋區"
"247023","337-TH","2019/06/29 13:39:26","新北市五股區成泰路三段544-1號","121.456281666667","25.09955","6501400","蘆洲區"
"247011","056-VK","2019/06/29 13:39:31","新北市五股區中興路三段2巷10號","121.449171666667","25.0810066666667","6501400","蘆洲區"
"228005","097-TW","2019/06/29 13:39:40","新北市貢寮區美豐里文秀坑5-3號","121.90333","25.0517033333333","6502600","貢寮區"
"228004","212-TW","2019/06/29 13:39:25","新北市貢寮區龍崗里嵩陽街17號","121.90737","25.010435","6502600","貢寮區"
"253003","6232-TK","2019/06/29 13:39:33","新北市石門區內石門18-2號","121.572493333333","25.2745816666667","6502200","石門區"
"253004","6251-TK","2019/06/29 13:37:35","新北市石門區五爪崙8-2號","121.60659","25.2621833333333","6502200","石門區"
"253002","637-UY","2019/06/29 13:39:23","新北市石門區內石門80號","121.566288333333","25.26031","6502200","石門區"
"253001","KEC-0718","2019/06/29 13:39:24","新北市石門區白沙灣別墅31號","121.5108","25.2778166666667","6502200","石門區"
"207002","749-BX","2019/06/29 13:39:31","新北市萬里區崁腳里崁腳路166號","121.645035","25.15588","6502800","萬里區"
"252005","073-UM","2019/06/29 13:39:27","新北市三芝區圓山里木屐寮38號","121.530863333333","25.22621","6502100","三芝區"
"207001","662-BX","2019/06/29 13:39:41","新北市萬里區大鵬里萬里加投46-1號","121.641903333333","25.21115","6502800","萬里區"
"236040","KED-0685","2019/06/29 13:39:33","新北市土城區城林路6巷80號","121.438513333333","24.979725","6501300","土城區"
"247009","KED-0683","2019/06/29 13:39:34","新北市五股區中興路三段163號","121.449333333333","25.080625","6501400","蘆洲區"
"236068","KEA-2877","2019/06/29 13:39:27","新北市土城區城林路6巷80號","121.438748333333","24.9797166666667","6501300","土城區"
"236017","401-BY","2019/06/29 13:39:31","新北市土城區城林路6巷80號","121.438565","24.9797683333333","6501300","土城區"
"221032","280-BY","2019/06/29 13:39:41","新北市汐止區水源路一段56號","121.657528333333","25.0654233333333","6501100","汐止區"
"221029","298-VK","2019/06/29 13:39:29","新北市汐止區福德二路73-3號","121.633933333333","25.06619","6501100","汐止區"
"220027","145-BY","2019/06/29 13:39:35","新北市板橋區板城路271號","121.449963333333","24.998175","6500100","板橋區"
"220028","200-UY","2019/06/29 13:39:37","新北市板橋區華東街1-9號","121.448125","24.9948833333333","6500100","板橋區"
"220030","610-BX","2019/06/29 13:39:32","新北市板橋區大觀路三段59巷17弄6-1號","121.437878333333","24.9953","6500100","板橋區"
"220050","245-BX","2019/06/29 13:39:27","新北市板橋區民生路二段161巷1號","121.47009","25.0198933333333","6500100","板橋區"
"220004","276-BY","2019/06/29 13:39:23","新北市板橋區縣民大道一段112號","121.457118333333","25.0058766666667","6500100","板橋區"
"220020","277-BY","2019/06/29 13:39:20","新北市板橋區板城路421號","121.448036666667","24.9963666666667","6500100","板橋區"
"220019","283-VK","2019/06/29 13:39:28","新北市板橋區四川路二段140巷20號","121.449083333333","24.9934483333333","6500100","板橋區"
"220043","285-UM","2019/06/29 13:39:30","新北市板橋區民生路二段161巷1號","121.470218333333","25.0198633333333","6500100","板橋區"
"220001","285-VK","2019/06/29 13:39:23","新北市板橋區民生路二段120號","121.470573333333","25.0197116666667","6500100","板橋區"
"220031","286-VK","2019/06/29 13:39:37","新北市板橋區板城路271號","121.450108333333","24.9979766666667","6500100","板橋區"
"220029","287-VK","2019/06/29 13:39:23","新北市板橋區板城路421號","121.448245","24.99583","6500100","板橋區"
"220039","288-VK","2019/06/29 13:39:21","新北市板橋區民生路二段120號","121.47042","25.0196083333333","6500100","板橋區"
"220009","295-UM","2019/06/29 13:39:41","新北市板橋區民生路二段161巷5號","121.47026","25.019765","6500100","板橋區"
"220032","296-UM","2019/06/29 13:39:26","新北市板橋區大觀路二段153巷44弄23號","121.446133333333","24.9991283333333","6500100","板橋區"
"220010","305-R5","2019/06/29 13:39:29","新北市板橋區民生路二段161巷1號","121.470201666667","25.0199","6500100","板橋區"
"220041","307-R5","2019/06/29 13:39:32","新北市板橋區民生路二段120號","121.470388333333","25.0197","6500100","板橋區"
"220047","317-R6","2019/06/29 13:39:41","新北市板橋區民生路二段120號","121.470698333333","25.0196766666667","6500100","板橋區"
"220038","487-VK","2019/06/29 13:39:26","新北市板橋區民生路二段175號","121.469891666667","25.0202516666667","6500100","板橋區"
"220052","561-BX","2019/06/29 13:39:24","新北市板橋區民生路二段89-6號","121.47071","25.01931","6500100","板橋區"
"220011","609-BX","2019/06/29 13:39:24","新北市板橋區民生路二段188號","121.470135","25.0202266666667","6500100","板橋區"
"220005","686-BX","2019/06/29 13:39:41","新北市板橋區館前西路47號","121.458018333333","25.0068183333333","6500100","板橋區"
"220025","687-BX","2019/06/29 13:39:32","新北市板橋區大觀路三段212巷70號","121.42972","24.993535","6500100","板橋區"
"220042","689-BX","2019/06/29 13:39:35","新北市板橋區民生路二段161巷1號","121.47015","25.020025","6500100","板橋區"
"220051","KEA-2699","2019/06/29 13:39:38","新北市板橋區民生路二段161巷1號","121.4702","25.019955","6500100","板橋區"
"220003","827-TW","2019/06/29 13:39:43","新北市板橋區四川路二段247號","121.450025","24.9930966666667","6500100","板橋區"
"220014","829-TW","2019/06/29 13:39:32","新北市板橋區民生路二段120號","121.470415","25.0195533333333","6500100","板橋區"
"220022","895-R6","2019/06/29 13:39:33","新北市板橋區南雅南路一段35號","121.456133333333","25.0064066666667","6500100","板橋區"
"220021","985-R7","2019/06/29 13:39:27","新北市板橋區南雅南路二段17號","121.453965","24.9989766666667","6500100","板橋區"
"220046","AAC-210","2019/06/29 13:39:24","新北市板橋區民生路二段161巷5號","121.470273333333","25.0197633333333","6500100","板橋區"
"220012","AAC-253","2019/06/29 13:39:39","新北市板橋區縣民大道二段92號","121.46651","25.0150816666667","6500100","板橋區"
"235032","KEA-2873","2019/06/29 13:39:37","新北市中和區圓通路265巷38號","121.496121666667","24.9924866666667","6500300","中和區"
"235025","KEA-2875","2019/06/29 13:39:26","新北市中和區民治街21巷1號","121.475301666667","25.00243","6500300","中和區"
"235028","KEA-2876","2019/06/29 13:39:14","新北市中和區連城路107號","121.496433333333","24.999465","6500300","中和區"
