"lineid","car","time","location","longitude","latitude","cityid","cityname"
"234028","746-BX","2019/06/29 14:59:31","新北市板橋區民生路三段196號","121.46503","25.0292133333333","6500400","永和區"
"234005","KED-0605","2019/06/29 14:57:55","新北市五股區中直路17-4號","121.422583333333","25.1113866666667","6500400","永和區"
"234025","9371-KE","2019/06/29 14:59:21","新北市永和區水源街21巷6號","121.511465","25.0042716666667","6500400","永和區"
"248017","KED-0813","2019/06/29 14:59:30","新北市五股區登林路114-3號","121.425995","25.0703983333333","6501500","五股區"
"231030","002-UM","2019/06/29 14:59:36","新北市新店區安民街389號","121.515743333333","24.9768","6500600","新店區"
"231027","0293-UT","2019/06/29 14:59:18","新北市新店區中正路328巷1號","121.536923333333","24.9753166666667","6500600","新店區"
"231028","046-UY","2019/06/29 14:59:23","新北市新店區安德街173號","121.508683333333","24.958965","6500600","新店區"
"231029","106-UY","2019/06/29 14:59:34","新北市新店區錦秀路11巷92弄2號","121.480286666667","24.9428066666667","6500600","新店區"
"231018","107-UY","2019/06/29 14:59:24","新北市新店區中央六街12號","121.529996666667","24.9745583333333","6500600","新店區"
"231013","108-UY","2019/06/29 14:59:25","新北市新店區北新路一段303號","121.54143","24.9674883333333","6500600","新店區"
"231036","110-UY","2019/06/29 14:59:26","新北市新店區安祥路102巷42弄67號","121.486225","24.9632766666667","6500600","新店區"
"231039","187-VK","2019/06/29 14:59:30","新北市新店區中興路二段99巷1號","121.547385","24.971865","6500600","新店區"
"231023","260-TV","2019/06/29 14:59:39","新北市新店區檳榔路150號","121.544343333333","24.961445","6500600","新店區"
"231003","268-BY","2019/06/29 14:59:37","新北市新店區五峰路57-1號","121.54726","24.9711066666667","6500600","新店區"
"231017","AAD-862","2019/06/29 14:59:24","新北市新店區北宜路三段171號","121.585958333333","24.9513333333333","6500600","新店區"
"231006","355-BY","2019/06/29 14:59:36","新北市新店區北宜路一段30號","121.538196666667","24.95682","6500600","新店區"
"231038","3713-VJ","2019/06/29 14:59:21","新北市新店區安華路28-1號","121.519591666667","24.9608016666667","6500600","新店區"
"231024","4716-K9","2019/06/29 14:59:22","新北市新店區力行路36號","121.538938333333","24.964995","6500600","新店區"
"231025","4715-K9","2019/06/29 14:59:32","新北市新店區建國路212號","121.53807","24.9810516666667","6500600","新店區"
"231035","512-UM","2019/06/29 14:59:32","新北市新店區安和路二段240號","121.516588333333","24.9783183333333","6500600","新店區"
"231020","513-UM","2019/06/29 14:59:25","新北市新店區桂山路35號","121.559376666667","24.9030016666667","6500600","新店區"
"231002","619-UM","2019/06/29 14:59:19","新北市新店區民權路129號","121.535388333333","24.9825916666667","6500600","新店區"
"231034","641-BX","2019/06/29 14:59:25","新北市新店區玫瑰路4-1號","121.49357","24.9513816666667","6500600","新店區"
"231012","KED-0819","2019/06/29 14:59:38","新北市新店區寶橋路132號","121.547283333333","24.9761133333333","6500600","新店區"
"231033","718-UY","2019/06/29 14:59:24","新北市新店區安泰路20號","121.485475","24.9486583333333","6500600","新店區"
"231026","720-UM","2019/06/29 14:59:27","新北市新店區力行路11巷57號","121.538525","24.9617216666667","6500600","新店區"
"231005","897-TW","2019/06/29 14:59:39","新北市新店區復興路51-8號","121.536748333333","24.987025","6500600","新店區"
"231001","898-TW","2019/06/29 14:59:22","新北市新店區中正路257號","121.538851666667","24.97357","6500600","新店區"
"231004","899-TW","2019/06/29 14:59:34","新北市新店區民族路14-1號","121.541453333333","24.97883","6500600","新店區"
"231037","AKT-0513","2019/06/29 14:59:29","新北市新店區安興路85-2號","121.515238333333","24.9750283333333","6500600","新店區"
"235030","003-UY","2019/06/29 14:59:30","新北市永和區保平路290號","121.50811","25.0045033333333","6500300","中和區"
"235020","096-UM","2019/06/29 14:59:36","新北市中和區中山路三段170巷8弄7號","121.472841666667","25.00763","6500300","中和區"
"235003","097-UM","2019/06/29 14:59:29","新北市中和區安樂路143巷19號","121.5136","24.9970416666667","6500300","中和區"
"235029","098-UM","2019/06/29 14:59:36","新北市中和區永和路128巷9號","121.497546666667","25.0070183333333","6500300","中和區"
"235004","150-BY","2019/06/29 14:59:27","新北市中和區景安路77號","121.50656","24.9973216666667","6500300","中和區"
"235019","183-VK","2019/06/29 14:59:22","新北市板橋區三民路二段228號","121.478628333333","25.0111416666667","6500300","中和區"
"235008","293-VK","2019/06/29 14:59:26","新北市中和區中正路436號","121.491195","24.9942933333333","6500300","中和區"
"235036","301-VK","2019/06/29 14:59:39","新北市中和區中山路二段3巷22弄5號","121.506283333333","25.0051583333333","6500300","中和區"
"235007","352-BY","2019/06/29 14:59:31","新北市中和區興南路一段20-1號","121.511323333333","24.99109","6500300","中和區"
"235006","KEA-2878","2019/06/29 14:59:33","新北市土城區大安路126號","121.433915","24.9698933333333","6500300","中和區"
"235014","4979-A6","2019/06/29 14:59:21","新北市中和區景平路239巷55號","121.508813333333","24.99224","6500300","中和區"
"235033","4980-A6","2019/06/29 14:57:54","新北市中和區景平路624號","121.500376666667","24.99746","6500300","中和區"
"235034","558-UM","2019/06/29 14:59:33","新北市中和區中正路250號","121.495745","24.9939883333333","6500300","中和區"
"235009","565-BX","2019/06/29 14:59:37","新北市中和區圓通路211巷2-1號","121.497001666667","24.9940766666667","6500300","中和區"
"235010","733-UM","2019/06/29 14:59:20","新北市中和區忠孝街31巷45號","121.509698333333","24.9852816666667","6500300","中和區"
"235026","800-TS","2019/06/29 14:59:32","新北市中和區建八路126號","121.48865","24.9985133333333","6500300","中和區"
"235012","896-TW","2019/06/29 14:59:22","新北市中和區忠孝街1巷2-1號","121.509111666667","24.9830416666667","6500300","中和區"
"235015","157-BY","2019/06/29 14:59:20","新北市中和區板南路187號","121.499866666667","24.992665","6500300","中和區"
"235023","AAC-215","2019/06/29 14:59:33","新北市中和區圓通路337號","121.491633333333","24.9905","6500300","中和區"
"220013","072-UY","2019/06/29 14:59:38","新北市板橋區國泰街39巷7弄2號","121.468663333333","25.0056366666667","6500100","板橋區"
"220034","073-UY","2019/06/29 14:59:32","新北市板橋區中正路42號","121.456408333333","25.01398","6500100","板橋區"
"220105","075-UY","2019/06/29 14:59:34","新北市板橋區懷德街78巷21號","121.477863333333","25.0311466666667","6500100","板橋區"
"220017","AAD-861","2019/06/29 14:59:31","新北市板橋區貴興路69號","121.45707","25.003055","6500100","板橋區"
"228004","212-TW","2019/06/29 14:59:25","新北市貢寮區雙玉里田寮洋街25-1號","121.929868333333","25.0177083333333","6502600","貢寮區"
"253004","6251-TK","2019/06/29 14:59:34","新北市石門區茂林社區78號","121.592241666667","25.2697883333333","6502200","石門區"
"253002","637-UY","2019/06/29 14:59:23","新北市石門區崁子腳28-2號","121.539993333333","25.288905","6502200","石門區"
"207002","749-BX","2019/06/29 14:59:31","新北市萬里區崁腳里崁腳路75-1號","121.6472","25.16199","6502800","萬里區"
"252005","073-UM","2019/06/29 14:59:38","新北市三芝區埔坪里埔頭坑85號","121.507676666667","25.25436","6502100","三芝區"
"207001","662-BX","2019/06/29 14:59:26","新北市萬里區雙興里麗水路2號","121.653708333333","25.179735","6502800","萬里區"
"236040","KED-0685","2019/06/29 14:59:33","新北市土城區學府路一段189巷10號","121.452496666667","24.9845483333333","6501300","土城區"
"236074","166-UM","2019/06/29 14:59:22","新北市土城區中央路四段125巷2弄10號","121.4165","24.957045","6501300","土城區"
"236029","253-BX","2019/06/29 14:59:35","新北市土城區慶利街16號","121.439668333333","24.9736316666667","6501300","土城區"
"236024","269-VK","2019/06/29 14:59:33","新北市土城區中正路72號","121.444531666667","24.97549","6501300","土城區"
"236013","270-VK","2019/06/29 14:59:33","新北市土城區永豐路13巷1-1號","121.461595","24.9888533333333","6501300","土城區"
"236032","271-VK","2019/06/29 14:59:28","新北市土城區清水路146號","121.45917","24.9815066666667","6501300","土城區"
"247010","KED-0683","2019/06/29 14:54:47","新北市五股區中興路三段2巷10號","121.449248333333","25.0810266666667","6501400","蘆洲區"
"236068","KEA-2877","2019/06/29 14:59:27","新北市土城區裕生路84巷11號","121.44667","24.9855816666667","6501300","土城區"
"236017","401-BY","2019/06/29 14:59:31","新北市土城區德峰街41巷3號","121.467751666667","24.985915","6501300","土城區"
"236057","912-UM","2019/06/29 14:59:37","新北市土城區金城路二段240號","121.456728333333","24.9831083333333","6501300","土城區"
"236045","913-UM","2019/06/29 14:59:33","新北市土城區青雲路322巷2弄4號","121.457993333333","24.977345","6501300","土城區"
"236060","915-UM","2019/06/29 14:59:34","新北市土城區延和路90號","121.466468333333","24.98943","6501300","土城區"
"236054","AAC-216","2019/06/29 14:59:34","新北市土城區學成路63號","121.451766666667","24.9878783333333","6501300","土城區"
"221032","280-BY","2019/06/29 14:59:20","新北市五股區凌雲路三段38號","121.431005","25.108095","6501100","汐止區"
"221029","298-VK","2019/06/29 14:59:29","新北市五股區成泰路三段544-1號","121.453738333333","25.1014566666667","6501100","汐止區"
"220027","145-BY","2019/06/29 14:59:35","新北市板橋區復興街106號","121.460125","25.017715","6500100","板橋區"
"220028","200-UY","2019/06/29 14:59:37","新北市板橋區大觀路二段153巷39弄1號","121.446963333333","25.0005033333333","6500100","板橋區"
"220030","610-BX","2019/06/29 14:59:32","新北市板橋區大觀路三段263號","121.429178333333","24.9921866666667","6500100","板橋區"
"220050","245-BX","2019/06/29 14:59:27","新北市板橋區莒光路171巷1弄18-4號","121.474511666667","25.0246483333333","6500100","板橋區"
"220040","267-BY","2019/06/29 14:59:39","新北市板橋區懷德街174巷22號","121.478495","25.0294116666667","6500100","板橋區"
"220004","276-BY","2019/06/29 14:59:23","新北市板橋區德興街37巷14號","121.453923333333","24.993855","6500100","板橋區"
"220020","277-BY","2019/06/29 14:59:40","新北市板橋區金門街121巷7號","121.433538333333","24.9915933333333","6500100","板橋區"
"220019","283-VK","2019/06/29 14:59:28","新北市板橋區五權街30巷2號","121.464638333333","24.9934416666667","6500100","板橋區"
"220043","285-UM","2019/06/29 14:59:30","新北市板橋區陽明街10號","121.466678333333","25.0217716666667","6500100","板橋區"
"220001","285-VK","2019/06/29 14:59:36","新北市板橋區懷仁街1-3號","121.475963333333","25.020295","6500100","板橋區"
"220031","286-VK","2019/06/29 14:59:39","新北市板橋區僑中二街20號","121.446071666667","25.0106533333333","6500100","板橋區"
"220029","287-VK","2019/06/29 14:59:23","新北市板橋區僑中一街80巷6弄1號","121.44769","25.012075","6500100","板橋區"
"220039","288-VK","2019/06/29 14:59:21","新北市板橋區新海路72巷5弄9號","121.46183","25.02238","6500100","板橋區"
"220009","295-UM","2019/06/29 14:59:21","新北市板橋區中山路一段156號","121.465175","25.0118666666667","6500100","板橋區"
"220032","296-UM","2019/06/29 14:59:28","新北市板橋區板林路180號","121.42446","24.9881","6500100","板橋區"
"220023","303-R5","2019/06/29 14:59:37","新北市板橋區大勇街4巷1號","121.45482","25.0173766666667","6500100","板橋區"
"220010","305-R5","2019/06/29 14:59:29","新北市板橋區中山路二段337號","121.479496666667","25.01886","6500100","板橋區"
"220041","307-R5","2019/06/29 14:59:32","新北市板橋區光正街45巷6弄13號","121.461171666667","25.017015","6500100","板橋區"
"220047","317-R6","2019/06/29 14:59:21","新北市板橋區新海路385巷24號","121.458001666667","25.02551","6500100","板橋區"
"220038","487-VK","2019/06/29 14:59:38","新北市板橋區互助街46號","121.461738333333","25.0269666666667","6500100","板橋區"
"220037","491-VK","2019/06/29 14:59:37","新北市板橋區懷德街162號","121.478933333333","25.0305783333333","6500100","板橋區"
"220104","560-BX","2019/06/29 14:59:38","新北市板橋區金華街10巷15號","121.456331666667","25.0203116666667","6500100","板橋區"
"220052","561-BX","2019/06/29 14:59:24","新北市板橋區漢生東路23巷56弄1號","121.466205","25.0183183333333","6500100","板橋區"
"220011","609-BX","2019/06/29 14:59:38","新北市板橋區三民路一段44號","121.479278333333","25.0227733333333","6500100","板橋區"
"220005","686-BX","2019/06/29 14:59:20","新北市板橋區四川路二段245巷93號","121.452975","24.99326","6500100","板橋區"
"220025","687-BX","2019/06/29 14:59:32","新北市板橋區僑中二街12巷2號","121.44684","25.0106383333333","6500100","板橋區"
"220042","689-BX","2019/06/29 14:59:37","新北市板橋區長江路三段27號","121.472483333333","25.0337383333333","6500100","板橋區"
"220002","741-BX","2019/06/29 14:59:23","新北市板橋區忠孝路201巷58號","121.464956666667","25.004055","6500100","板橋區"
"220051","KEA-2699","2019/06/29 14:59:38","新北市板橋區莒光路66號","121.471256666667","25.0241933333333","6500100","板橋區"
"220003","827-TW","2019/06/29 14:59:35","新北市板橋區仁愛路49巷2-3號","121.460098333333","24.999525","6500100","板橋區"
"220014","829-TW","2019/06/29 14:59:34","新北市板橋區中山路一段184-1號","121.469278333333","25.0127583333333","6500100","板橋區"
"220016","831-TW","2019/06/29 14:59:28","新北市板橋區中山路二段503號","121.482705","25.0210033333333","6500100","板橋區"
"220022","895-R6","2019/06/29 14:59:33","新北市板橋區文化路一段46巷23號","121.460378333333","25.01147","6500100","板橋區"
"220021","985-R7","2019/06/29 14:59:27","新北市板橋區南雅西路二段189號","121.451865","25.0130133333333","6500100","板橋區"
"220046","AAC-210","2019/06/29 14:59:24","新北市板橋區光正街45巷2弄18號","121.461046666667","25.017335","6500100","板橋區"
"220012","AAC-253","2019/06/29 14:59:39","新北市板橋區民族路290號","121.470361666667","25.00686","6500100","板橋區"
