"lineid","car","time","location","longitude","latitude","cityid","cityname"
"249005","172-UM","2019/06/29 16:39:31","新北市八里區博物館路23號","121.41454","25.1631483333333","6502300","八里區"
"249002","305-UY","2019/06/29 16:39:35","新北市八里區牛寮埔33號","121.429876666667","25.1456916666667","6502300","八里區"
"249003","593-UM","2019/06/29 16:39:39","新北市八里區中山路二段356巷56號","121.400608333333","25.15041","6502300","八里區"
"231046","719-UM","2019/06/29 16:15:49","新北市新店區華潭街1巷19號","121.52926","24.9491566666667","6500600","新店區"
"241011","013-R5","2019/06/29 16:39:22","新北市三重區秀江街215號","121.49738","25.0718283333333","6500200","三重區"
"241028","022-UY","2019/06/29 16:39:21","新北市三重區重新路三段86號","121.493285","25.0605966666667","6500200","三重區"
"241008","059-VK","2019/06/29 16:39:35","新北市三重區永安北路一段27巷27號","121.477295","25.07547","6500200","三重區"
"241016","060-VK","2019/06/29 16:39:27","新北市三重區大智街22號","121.494763333333","25.0646733333333","6500200","三重區"
"241031","061-VK","2019/06/29 16:39:36","新北市三重區重新路四段41巷16號","121.487485","25.058095","6500200","三重區"
"241015","062-VK","2019/06/29 16:39:43","新北市三重區文化北路41號","121.499058333333","25.06521","6500200","三重區"
"241017","063-VK","2019/06/29 16:39:41","新北市三重區中正北路25巷13號","121.49285","25.06246","6500200","三重區"
"241024","065-VK","2019/06/29 16:39:28","新北市三重區中正北路315巷6弄60號","121.475898333333","25.0723916666667","6500200","三重區"
"241001","066-VK","2019/06/29 16:39:24","新北市三重區仁愛街210號","121.493673333333","25.07773","6500200","三重區"
"241002","090-VK","2019/06/29 16:39:39","新北市三重區自強路五段121號","121.496235","25.082525","6500200","三重區"
"241003","091-VK","2019/06/29 16:39:31","新北市三重區五華街71巷105號","121.494765","25.0841233333333","6500200","三重區"
"241005","262-UM","2019/06/29 16:39:34","新北市三重區碧華街113號","121.485733333333","25.0819416666667","6500200","三重區"
"241009","267-UM","2019/06/29 16:39:33","新北市三重區三和路四段203巷125號","121.484833333333","25.0801883333333","6500200","三重區"
"241018","268-UM","2019/06/29 16:39:38","新北市三重區六張街71號","121.493613333333","25.07019","6500200","三重區"
"241032","269-UM","2019/06/29 16:39:33","新北市三重區新北大道一段101號","121.4843","25.0614333333333","6500200","三重區"
"241013","270-UM","2019/06/29 16:39:22","新北市三重區三和路三段101巷41號","121.495521666667","25.0728583333333","6500200","三重區"
"241025","271-UM","2019/06/29 16:39:33","新北市三重區中正北路295號","121.474566666667","25.0713066666667","6500200","三重區"
"241007","398-BY","2019/06/29 16:39:43","新北市三重區三和路四段167巷43號","121.4851","25.0792983333333","6500200","三重區"
"241004","475-VK","2019/06/29 16:39:24","新北市三重區五福街6號","121.49312","25.08158","6500200","三重區"
"241020","478-VK","2019/06/29 16:39:22","新北市三重區忠孝路二段34號","121.48577","25.0710183333333","6500200","三重區"
"241026","480-VK","2019/06/29 16:39:32","新北市三重區和平街22號","121.500995","25.0625433333333","6500200","三重區"
"241014","543-UM","2019/06/29 16:39:37","新北市三重區龍濱路32號","121.502878333333","25.0681083333333","6500200","三重區"
"241023","545-UM","2019/06/29 16:39:30","新北市三重區中華路109號","121.483663333333","25.06349","6500200","三重區"
"241006","AAD-863","2019/06/29 16:39:32","新北市三重區力行路二段184號","121.483288333333","25.0773916666667","6500200","三重區"
"241019","743-BX","2019/06/29 16:39:26","新北市三重區重陽路三段43號","121.489523333333","25.06706","6500200","三重區"
"241022","KED-0820","2019/06/29 16:39:29","新北市三重區貴陽街25號","121.484338333333","25.062075","6500200","三重區"
"241012","941-UM","2019/06/29 16:39:25","新北市三重區仁興街13號","121.499791666667","25.0740716666667","6500200","三重區"
"241029","942-UM","2019/06/29 16:39:33","新北市三重區集美街112巷51號","121.490915","25.0544516666667","6500200","三重區"
"241033","AAC-255","2019/06/29 16:39:24","新北市三重區光復路二段131號","121.472105","25.0588633333333","6500200","三重區"
"235028","005-UY","2019/06/29 16:39:08","新北市中和區員山路36巷16-3號","121.485045","24.991315","6500300","中和區"
"235046","733-UM","2019/06/29 16:16:02","新北市中和區員山路36巷13號","121.484245","24.99085","6500300","中和區"
"235054","911-UM","2019/06/29 16:39:35","新北市中和區員山路36巷16-2號","121.485291666667","24.9918133333333","6500300","中和區"
"247012","056-VK","2019/06/29 16:39:26","新北市五股區中興路三段163號","121.449541666667","25.0802016666667","6501400","蘆洲區"
"228003","097-TW","2019/06/29 16:39:42","新北市貢寮區貢寮里朝陽街1-2號","121.912433333333","25.0212383333333","6502600","貢寮區"
"224006","676-BX","2019/06/29 16:39:38","新北市瑞芳區大寮路356-1號","121.78482","25.1031433333333","6501200","瑞芳區"
"224007","285-BY","2019/06/29 16:39:39","新北市瑞芳區月眉路7號","121.760313333333","25.1054533333333","6501200","瑞芳區"
"224009","275-VK","2019/06/29 16:39:26","新北市瑞芳區民權街3-1號","121.809188333333","25.1083833333333","6501200","瑞芳區"
"224008","273-VK","2019/06/29 16:39:34","新北市瑞芳區大寮路356-1號","121.784728333333","25.1031616666667","6501200","瑞芳區"
"224005","271-BY","2019/06/29 16:39:42","新北市瑞芳區籠山路214-1號","121.853733333333","25.1248416666667","6501200","瑞芳區"
"227002","642-TC","2019/06/29 16:39:26","新北市雙溪區長源里內柑腳18號","121.802338333333","25.0148666666667","6502500","雙溪區"
"227001","400-TW","2019/06/29 16:39:39","新北市雙溪區牡丹里聖南48號","121.85403","25.0556533333333","6502500","雙溪區"
"251015","KEA-2871","2019/06/29 16:39:39","新北市淡水區濱海路一段320號","121.44015","25.1893133333333","6501000","淡水區"
"251016","179-VK","2019/06/29 16:39:42","新北市淡水區中山北路一段261號","121.444455","25.180775","6501000","淡水區"
"251008","181-VK","2019/06/29 16:39:27","新北市淡水區樹梅坑6-9號","121.472618333333","25.1460183333333","6501000","淡水區"
"251013","182-VK","2019/06/29 16:39:25","新北市淡水區大溪9號","121.496608333333","25.1894183333333","6501000","淡水區"
"251014","577-R6","2019/06/29 16:39:13","新北市淡水區淡金路三段446號","121.450718333333","25.2143233333333","6501000","淡水區"
"252002","178-VK","2019/06/29 16:39:30","新北市三芝區迎旭街71號","121.510255","25.2581316666667","6502100","三芝區"
"247010","KED-0683","2019/06/29 16:39:30","新北市五股區中興路三段163號","121.4493","25.0806616666667","6501400","蘆洲區"
"252001","KED-0821","2019/06/29 16:39:23","新北市三芝區埔坪里埔頭坑61號","121.507155","25.2644583333333","6502100","三芝區"
