"lineid","car","time","location","longitude","latitude","cityid","cityname"
"249005","172-UM","2019/06/29 17:19:31","新北市五股區中直路崩山巷9-2號","121.416738333333","25.1240916666667","6502300","八里區"
"249001","173-UM","2019/06/29 17:19:42","新北市八里區中華路二段165巷3號","121.407648333333","25.1508616666667","6502300","八里區"
"249004","303-UY","2019/06/29 17:19:32","新北市八里區賢三街96號","121.417198333333","25.15791","6502300","八里區"
"249002","305-UY","2019/06/29 17:19:35","新北市八里區龍米路二段117巷18號","121.44514","25.142885","6502300","八里區"
"249003","593-UM","2019/06/29 17:19:39","新北市八里區中山路二段453號","121.396453333333","25.1455183333333","6502300","八里區"
"244007","080-UY","2019/06/29 17:19:27","新北市林口區湖北里2鄰9號","121.387935","25.0897966666667","6501700","林口區"
"244019","402-UM","2019/06/29 17:19:34","新北市林口區公園路148號","121.371591666667","25.07186","6501700","林口區"
"244013","KEA-2802","2019/06/29 17:19:29","新北市林口區粉寮路二段128號","121.404361666667","25.0906116666667","6501700","林口區"
"244023","483-VK","2019/06/29 17:19:27","新北市林口區隆林街46號","121.38765","25.0754433333333","6501700","林口區"
"244009","656-BX","2019/06/29 17:19:24","新北市林口區中北一街80號","121.385755","25.0889783333333","6501700","林口區"
"244025","837-TS","2019/06/29 17:19:41","新北市林口區民族路157號","121.367033333333","25.076375","6501700","林口區"
"244021","838-TS","2019/06/29 17:19:38","新北市林口區粉寮路67-16號","121.404101666667","25.0907733333333","6501700","林口區"
"231046","719-UM","2019/06/29 17:15:09","新北市新店區直潭七街60號","121.532233333333","24.9400083333333","6500600","新店區"
"241011","013-R5","2019/06/29 17:19:42","新北市三重區介壽路39巷173號","121.502146666667","25.0707283333333","6500200","三重區"
"241028","022-UY","2019/06/29 17:19:41","新北市三重區中正南路108號","121.49431","25.0584916666667","6500200","三重區"
"241008","059-VK","2019/06/29 17:19:35","新北市三重區永福街72巷37號","121.48019","25.0763616666667","6500200","三重區"
"241016","060-VK","2019/06/29 17:19:27","新北市三重區大同北路54巷1號","121.494153333333","25.0635383333333","6500200","三重區"
"241015","062-VK","2019/06/29 17:19:43","新北市三重區福德北路89號","121.50186","25.0662433333333","6500200","三重區"
"241017","063-VK","2019/06/29 17:19:41","新北市三重區大同北路53號","121.495145","25.0631983333333","6500200","三重區"
"241024","065-VK","2019/06/29 17:19:28","新北市三重區後竹圍街285號","121.479041666667","25.070285","6500200","三重區"
"241001","066-VK","2019/06/29 17:19:24","新北市三重區仁愛街399號","121.491086666667","25.080945","6500200","三重區"
"241002","090-VK","2019/06/29 17:19:27","新北市三重區自強路五段28號","121.492815","25.0807533333333","6500200","三重區"
"241003","091-VK","2019/06/29 17:19:24","新北市三重區五華街148號","121.491118333333","25.0839033333333","6500200","三重區"
"241005","262-UM","2019/06/29 17:19:34","新北市三重區永安北路二段43巷22號","121.483053333333","25.0827966666667","6500200","三重區"
"241009","267-UM","2019/06/29 17:19:33","新北市三重區仁愛街618號","121.483558333333","25.0806766666667","6500200","三重區"
"241018","268-UM","2019/06/29 17:19:38","新北市三重區安慶街157號","121.494181666667","25.0687733333333","6500200","三重區"
"241032","269-UM","2019/06/29 17:19:30","新北市三重區名源街28巷4號","121.482336666667","25.060395","6500200","三重區"
"241013","270-UM","2019/06/29 17:19:22","新北市三重區仁愛街104號","121.495331666667","25.074185","6500200","三重區"
"241025","271-UM","2019/06/29 17:19:33","新北市三重區中正北路335號","121.47328","25.07158","6500200","三重區"
"241007","398-BY","2019/06/29 17:19:22","新北市三重區三和路四段155巷9號","121.484401666667","25.0786366666667","6500200","三重區"
"241020","478-VK","2019/06/29 17:19:22","新北市三重區永德街8號","121.489148333333","25.0725083333333","6500200","三重區"
"241026","480-VK","2019/06/29 17:19:32","新北市三重區正義南路20號","121.498306666667","25.0614833333333","6500200","三重區"
"241014","543-UM","2019/06/29 17:19:37","新北市三重區長榮路6號","121.500076666667","25.0685966666667","6500200","三重區"
"241023","545-UM","2019/06/29 17:19:30","新北市三重區三民街150號","121.482416666667","25.0651216666667","6500200","三重區"
"241019","743-BX","2019/06/29 17:19:06","新北市三重區忠孝路二段71號","121.484685","25.070395","6500200","三重區"
"241022","KED-0820","2019/06/29 17:19:29","新北市三重區重陽路二段34巷14號","121.486493333333","25.0632566666667","6500200","三重區"
"241012","941-UM","2019/06/29 17:19:25","新北市三重區仁興街18-3號","121.499378333333","25.0749583333333","6500200","三重區"
"241029","942-UM","2019/06/29 17:19:33","新北市三重區重新路四段43號","121.48793","25.05742","6500200","三重區"
"241033","AAC-255","2019/06/29 17:19:42","新北市三重區中興北街179號","121.469023333333","25.0562783333333","6500200","三重區"
"247014","KEA-2869","2019/06/29 17:19:39","新北市蘆洲區中正路79-3號","121.470263333333","25.083245","6501400","蘆洲區"
"247008","KED-0682","2019/06/29 17:19:39","新北市蘆洲區永安北路一段72巷18號","121.476696666667","25.0771383333333","6501400","蘆洲區"
"235062","800-TS","2019/06/29 17:19:32","新北市中和區員山路36巷16-2號","121.485298333333","24.991405","6500300","中和區"
"235054","911-UM","2019/06/29 16:53:59","","121.485198333333","24.9918366666667","6500300","中和區"
"247004","893-R6","2019/06/29 17:19:25","新北市蘆洲區永安南路二段286號","121.457641666667","25.0812616666667","6501400","蘆洲區"
"247018","546-UM","2019/06/29 17:19:19","新北市蘆洲區民權路86號","121.47445","25.087705","6501400","蘆洲區"
"247002","500-BY","2019/06/29 17:19:29","新北市蘆洲區永樂街38巷33弄7號","121.45786","25.0895033333333","6501400","蘆洲區"
"247024","337-TH","2019/06/29 17:19:37","新北市蘆洲區光榮路2號","121.460313333333","25.0861283333333","6501400","蘆洲區"
"247022","057-VK","2019/06/29 17:19:30","新北市蘆洲區水湳街36號","121.470713333333","25.0896433333333","6501400","蘆洲區"
"247012","056-VK","2019/06/29 17:19:26","新北市蘆洲區信義路331號","121.478001666667","25.0867916666667","6501400","蘆洲區"
"247016","053-VK","2019/06/29 17:19:35","新北市蘆洲區正和街96巷40號","121.467553333333","25.08158","6501400","蘆洲區"
"247020","007-UY","2019/06/29 17:19:33","新北市蘆洲區仁愛街35巷15弄2號","121.47149","25.0926183333333","6501400","蘆洲區"
"247006","002-UY","2019/06/29 17:19:16","新北市蘆洲區長安街78號","121.462343333333","25.0802216666667","6501400","蘆洲區"
"228003","097-TW","2019/06/29 17:19:42","新北市貢寮區福隆里興隆街24-1號","121.94434","25.0166816666667","6502600","貢寮區"
"228001","212-TW","2019/06/29 17:19:25","新北市貢寮區仁理村尖山腳街18-3號","121.925425","25.0482783333333","6502600","貢寮區"
"228002","663-BX","2019/06/29 17:19:27","新北市貢寮區雙玉里田寮洋街37號","121.92711","25.0161583333333","6502600","貢寮區"
"224006","676-BX","2019/06/29 17:19:38","新北市瑞芳區大寮路14號","121.784293333333","25.099415","6501200","瑞芳區"
"224009","275-VK","2019/06/29 17:19:26","新北市瑞芳區汽車路137號","121.83884","25.1099483333333","6501200","瑞芳區"
"224008","273-VK","2019/06/29 17:19:40","新北市瑞芳區侯硐路158號","121.827836666667","25.085285","6501200","瑞芳區"
"224005","271-BY","2019/06/29 17:19:22","新北市瑞芳區鼻頭路95號","121.916095","25.12423","6501200","瑞芳區"
"227002","642-TC","2019/06/29 17:19:27","新北市雙溪區共和里東榮街27號","121.866021666667","25.033695","6502500","雙溪區"
"227001","400-TW","2019/06/29 17:19:39","新北市雙溪區三貂里定福路1-2號","121.850741666667","25.0634133333333","6502500","雙溪區"
"251009","008-UM","2019/06/29 17:19:36","新北市淡水區三民街22號","121.439061666667","25.1717816666667","6501000","淡水區"
"251004","009-UM","2019/06/29 17:09:04","新北市淡水區中正東路二段88巷15號","121.45907","25.1505116666667","6501000","淡水區"
"251005","010-UM","2019/06/29 17:19:40","新北市淡水區鄧公路19號","121.45136","25.1700366666667","6501000","淡水區"
"251015","KEA-2871","2019/06/29 17:19:39","新北市淡水區樹林口25號","121.475486666667","25.1688783333333","6501000","淡水區"
"251016","179-VK","2019/06/29 17:19:42","新北市淡水區鄒厝崙12-1號","121.466221666667","25.1898033333333","6501000","淡水區"
"251008","181-VK","2019/06/29 17:19:27","新北市淡水區民生路135巷37-1號","121.467048333333","25.1405116666667","6501000","淡水區"
"251013","182-VK","2019/06/29 17:19:43","新北市淡水區破瓦厝子3-5號","121.47217","25.1976416666667","6501000","淡水區"
"251010","413-VK","2019/06/29 17:19:42","新北市淡水區沙崙路198號","121.424498333333","25.1838216666667","6501000","淡水區"
"251012","441-VK","2019/06/29 17:19:38","新北市淡水區北新路19號","121.44449","25.1776683333333","6501000","淡水區"
"251007","442-VK","2019/06/29 17:19:27","新北市淡水區民生路47-4號","121.462063333333","25.1380083333333","6501000","淡水區"
"251006","561-UM","2019/06/29 17:19:43","新北市淡水區中山路189號","121.441258333333","25.17447","6501000","淡水區"
"251014","577-R6","2019/06/29 17:18:34","新北市淡水區公埔子43號","121.464061666667","25.2292","6501000","淡水區"
"251011","650-BX","2019/06/29 17:19:37","新北市淡水區坪頂路128號","121.46493","25.16142","6501000","淡水區"
"251002","672-BX","2019/06/29 17:19:39","新北市淡水區中正路二段31號","121.419361666667","25.18155","6501000","淡水區"
"251003","766-UM","2019/06/29 17:19:29","新北市淡水區中山路151-7號","121.44039","25.1723483333333","6501000","淡水區"
"207003","550-UM","2019/06/29 17:19:05","新北市萬里區龜吼里美崙路31號","121.687028333333","25.1843433333333","6502800","萬里區"
"252002","178-VK","2019/06/29 17:19:30","新北市三芝區忠孝街1-15號","121.505533333333","25.2539216666667","6502100","三芝區"
"233002","762-BX","2019/06/29 17:19:29","新北市烏來區環山路108巷7-6號","121.548585","24.8623883333333","6502900","烏來區"
"247010","KED-0683","2019/06/29 17:19:37","新北市蘆洲區中山一路120巷7弄6號","121.477581666667","25.08206","6501400","蘆洲區"
"252001","KED-0821","2019/06/29 17:19:23","新北市三芝區長安街119號","121.498013333333","25.2596466666667","6502100","三芝區"
"242039","AAC-296","2019/06/29 17:19:34","新北市新莊區中正路481號","121.441458333333","25.033825","6500500","新莊區"
"242061","986-R7","2019/06/29 17:19:27","新北市新莊區新泰路357巷3弄57號","121.44209","25.03923","6500500","新莊區"
"242002","751-BX","2019/06/29 17:19:28","新北市新莊區瓊林路19號","121.445633333333","25.0286433333333","6500500","新莊區"
"242029","615-BX","2019/06/29 17:19:31","新北市新莊區幸福路770號","121.447073333333","25.0492116666667","6500500","新莊區"
"242027","613-BX","2019/06/29 17:19:27","新北市新莊區復興路二段187號","121.45908","25.0445433333333","6500500","新莊區"
"242058","612-BX","2019/06/29 17:19:41","新北市新莊區新泰路357巷3弄57號","121.442071666667","25.0392433333333","6500500","新莊區"
"242046","566-BX","2019/06/29 17:19:29","新北市新莊區新泰路357巷2-2號","121.441876666667","25.04086","6500500","新莊區"
"242051","497-BY","2019/06/29 17:19:34","新北市新莊區瓊林南路12-5號","121.436185","25.0186516666667","6500500","新莊區"
"242056","442-UM","2019/06/29 17:19:31","新北市新莊區新莊路763巷12號","121.442386666667","25.0320733333333","6500500","新莊區"
"242004","440-UM","2019/06/29 17:19:32","新北市新莊區中港一街153號","121.447586666667","25.0450383333333","6500500","新莊區"
"242042","415-TV","2019/06/29 17:19:30","新北市新莊區新樹路52-25號","121.437091666667","25.0269516666667","6500500","新莊區"
"242011","413-TV","2019/06/29 17:19:39","新北市新莊區中港路350號","121.451878333333","25.0464216666667","6500500","新莊區"
"242025","362-BY","2019/06/29 17:19:32","新北市新莊區中和街8號","121.44844","25.0430666666667","6500500","新莊區"
"242023","353-BY","2019/06/29 17:19:29","新北市新莊區中港一街151號","121.447653333333","25.0450316666667","6500500","新莊區"
"242013","132-UY","2019/06/29 17:19:22","新北市新莊區新泰路488號","121.442405","25.0457933333333","6500500","新莊區"
"242036","135-UY","2019/06/29 17:19:42","新北市新莊區中正路481號","121.441193333333","25.03378","6500500","新莊區"
"242053","172-VK","2019/06/29 17:19:38","新北市新莊區中環路一段287號","121.442058333333","25.0320266666667","6500500","新莊區"
"242015","173-VK","2019/06/29 17:19:28","新北市新莊區三和路12-21號","121.441906666667","25.03877","6500500","新莊區"
"242021","175-VK","2019/06/29 17:19:27","新北市新莊區中港一街4號","121.45185","25.045795","6500500","新莊區"
"242048","176-VK","2019/06/29 17:19:31","新北市新莊區龍安路253號","121.419673333333","25.0200666666667","6500500","新莊區"
"242019","KED-0687","2019/06/29 17:19:40","新北市新莊區中港路132巷6號","121.455616666667","25.04057","6500500","新莊區"
"242034","348-TH","2019/06/29 17:19:41","新北市新莊區新莊路771巷10號","121.442066666667","25.03185","6500500","新莊區"
"242007","349-TH","2019/06/29 17:19:30","新北市新莊區新泰路484號","121.442726666667","25.0457766666667","6500500","新莊區"
"242031","350-TH","2019/06/29 17:19:33","新北市新莊區新泰路462號","121.443221666667","25.0447783333333","6500500","新莊區"
"242017","351-TH","2019/06/29 17:19:29","新北市新莊區新泰路357巷3弄55號","121.442355","25.03986","6500500","新莊區"
"238015","755-BX","2019/06/29 17:19:40","新北市樹林區大安路271號","121.418965","24.9936016666667","6500700","樹林區"
"238023","601-UM","2019/06/29 17:19:24","新北市樹林區中正路205號","121.423415","25.00343","6500700","樹林區"
"238019","599-UM","2019/06/29 17:19:40","新北市樹林區太平路247巷30號","121.420745","24.97557","6500700","樹林區"
"238024","5061-A6","2019/06/29 17:19:25","新北市樹林區樹新路79巷11號","121.42715","24.9955833333333","6500700","樹林區"
"238018","KEA-2217","2019/06/29 17:19:38","新北市樹林區鎮前街281-1號","121.418443333333","24.9851316666667","6500700","樹林區"
"238022","KEA-2213","2019/06/29 17:19:32","新北市樹林區忠孝街25號","121.4236","24.9823616666667","6500700","樹林區"
"238021","KEA-2539","2019/06/29 17:19:35","新北市樹林區西圳街一段64號","121.400473333333","24.962815","6500700","樹林區"
"238025","303-VK","2019/06/29 17:19:33","新北市樹林區保安二街77號","121.424395","24.99511","6500700","樹林區"
"238017","283-BY","2019/06/29 17:19:37","新北市樹林區光武街32巷2號","121.416163333333","25.00573","6500700","樹林區"
"238014","282-BY","2019/06/29 17:19:25","新北市樹林區長壽街70巷31弄12號","121.421496666667","24.9947733333333","6500700","樹林區"
"238020","268-VK","2019/06/29 17:19:26","新北市樹林區千歲街101-2號","121.428535","25.000875","6500700","樹林區"
"238016","169-UY","2019/06/29 17:19:28","新北市樹林區日新街57號","121.422516666667","24.9916033333333","6500700","樹林區"
"239007","AAC-297","2019/06/29 17:19:35","新北市鶯歌區建國路126號","121.351805","24.954035","6500800","鶯歌區"
"239006","891-R6","2019/06/29 17:19:38","新北市鶯歌區福昌街6號","121.333263333333","24.9607616666667","6500800","鶯歌區"
"239008","527-UM","2019/06/29 17:17:59","新北市鶯歌區西湖街45巷17號","121.3399","24.9591983333333","6500800","鶯歌區"
"239005","526-UM","2019/06/29 17:19:32","新北市鶯歌區福德一路2號","121.330398333333","24.9674183333333","6500800","鶯歌區"
"239001","417-VK","2019/06/29 17:19:29","新北市鶯歌區尖山路86巷28號","121.346966666667","24.9497","6500800","鶯歌區"
"239003","360-BY","2019/06/29 17:19:34","新北市鶯歌區德昌街50號","121.333063333333","24.95989","6500800","鶯歌區"
"239002","359-BY","2019/06/29 17:19:33","新北市鶯歌區建國路158號","121.350505","24.9536683333333","6500800","鶯歌區"
"239004","193-VK","2019/06/29 17:19:35","新北市鶯歌區文化路226巷7弄37號","121.352173333333","24.9476716666667","6500800","鶯歌區"
"233001","KEA-2870","2019/06/29 17:19:27","新北市烏來區瀑布路4號","121.551548333333","24.8504216666667","6502900","烏來區"
"242044","281-VK","2019/06/29 17:19:40","新北市新莊區民安路98巷25號","121.423338333333","25.0252083333333","6500500","新莊區"
"242009","280-VK","2019/06/29 17:19:22","新北市新莊區新泰路488號","121.442473333333","25.04586","6500500","新莊區"
