"lineid","car","time","location","longitude","latitude","cityid","cityname"
"234026","9371-KE","2019/06/29 17:39:38","新北市永和區中正路647號","121.515233333333","25.0101483333333","6500400","永和區"
"249005","172-UM","2019/06/29 17:39:31","新北市八里區荖阡坑路57-2號","121.406598333333","25.13341","6502300","八里區"
"249001","173-UM","2019/06/29 17:39:02","新北市八里區龍米路二段148-1號","121.437495","25.155275","6502300","八里區"
"249004","303-UY","2019/06/29 17:39:32","新北市八里區大崁腳35號","121.419511666667","25.1587716666667","6502300","八里區"
"249002","305-UY","2019/06/29 17:39:35","新北市八里區石壁腳19號","121.44172","25.1353566666667","6502300","八里區"
"249003","593-UM","2019/06/29 17:39:39","新北市八里區中山路二段141號","121.405201666667","25.1512533333333","6502300","八里區"
"232011","375-UM","2019/06/29 17:39:26","新北市坪林區北宜路八段105號","121.706115","24.934825","6502000","坪林區"
"244007","080-UY","2019/06/29 17:39:27","新北市林口區林口路268號","121.386295","25.0845133333333","6501700","林口區"
"244019","402-UM","2019/06/29 17:39:34","新北市林口區忠孝路542巷11弄9號","121.373725","25.0670866666667","6501700","林口區"
"244013","KEA-2802","2019/06/29 17:39:29","新北市林口區佳林路173號","121.38498","25.0785966666667","6501700","林口區"
"244023","483-VK","2019/06/29 17:39:27","新北市林口區東明一街121巷11號","121.390086666667","25.0701966666667","6501700","林口區"
"244017","485-VK","2019/06/29 17:39:40","新北市林口區文化二路一段226號","121.369548333333","25.0724383333333","6501700","林口區"
"244009","656-BX","2019/06/29 17:39:24","新北市林口區寶林路103號","121.3838","25.0852416666667","6501700","林口區"
"244011","701-TV","2019/06/29 17:39:30","新北市林口區竹林路35號","121.386465","25.0776816666667","6501700","林口區"
"244025","837-TS","2019/06/29 17:39:21","新北市林口區文化三路一段191巷12號","121.36095","25.0703366666667","6501700","林口區"
"244021","838-TS","2019/06/29 17:39:39","新北市林口區仁愛路一段211巷8號","121.398441666667","25.0739766666667","6501700","林口區"
"231046","719-UM","2019/06/29 17:15:09","新北市新店區直潭七街60號","121.532233333333","24.9400083333333","6500600","新店區"
"241016","060-VK","2019/06/29 17:39:27","新北市三重區重新路二段106號","121.496645","25.06171","6500200","三重區"
"241015","062-VK","2019/06/29 17:39:23","新北市三重區龍濱路2-1號","121.503193333333","25.06688","6500200","三重區"
"241017","063-VK","2019/06/29 17:39:21","新北市三重區大同北路16巷13號","121.494906666667","25.0622716666667","6500200","三重區"
"241024","065-VK","2019/06/29 17:39:28","新北市三重區車路頭街37巷1號","121.483881666667","25.0716516666667","6500200","三重區"
"241005","262-UM","2019/06/29 17:39:34","新北市三重區仁愛街519號","121.48729","25.08227","6500200","三重區"
"241007","398-BY","2019/06/29 17:39:22","新北市三重區國道路一段50號","121.482493333333","25.0729333333333","6500200","三重區"
"241014","543-UM","2019/06/29 17:39:37","新北市三重區河邊北街80號","121.504228333333","25.0688533333333","6500200","三重區"
"241023","545-UM","2019/06/29 17:39:30","新北市三重區新北大道一段137號","121.482491666667","25.0615883333333","6500200","三重區"
"241019","743-BX","2019/06/29 17:39:26","新北市三重區六張街219號","121.488118333333","25.0685466666667","6500200","三重區"
"241029","942-UM","2019/06/29 17:39:33","新北市三重區重新路四段121號","121.484803333333","25.052","6500200","三重區"
"241033","AAC-255","2019/06/29 17:39:44","新北市三重區光復路一段51號","121.472056666667","25.0488666666667","6500200","三重區"
"235028","005-UY","2019/06/29 17:39:23","新北市中和區員山路36巷16-3號","121.484996666667","24.991295","6500300","中和區"
"247008","KED-0682","2019/06/29 17:39:42","新北市蘆洲區和平路19巷5號","121.472315","25.0788816666667","6501400","蘆洲區"
"235062","800-TS","2019/06/29 17:39:31","新北市中和區員山路36巷16-3號","121.484963333333","24.991175","6500300","中和區"
"247004","893-R6","2019/06/29 17:39:25","新北市蘆洲區長安街249巷34號","121.45785","25.0827533333333","6501400","蘆洲區"
"247018","546-UM","2019/06/29 17:39:39","新北市蘆洲區水湳街13號","121.472623333333","25.0884816666667","6501400","蘆洲區"
"247002","500-BY","2019/06/29 17:39:29","新北市蘆洲區永平街42-1號","121.458031666667","25.091295","6501400","蘆洲區"
"247024","337-TH","2019/06/29 17:39:37","新北市蘆洲區長樂路125-1號","121.4621","25.0880716666667","6501400","蘆洲區"
"247022","057-VK","2019/06/29 17:39:42","新北市蘆洲區中正路202號","121.466558333333","25.08844","6501400","蘆洲區"
"247012","056-VK","2019/06/29 17:39:26","新北市蘆洲區民權路30號","121.47649","25.0862166666667","6501400","蘆洲區"
"247016","053-VK","2019/06/29 17:39:35","新北市蘆洲區中正路185巷31弄44號","121.467233333333","25.0832116666667","6501400","蘆洲區"
"247020","007-UY","2019/06/29 17:39:33","新北市蘆洲區民族路331-17號","121.473226666667","25.0918283333333","6501400","蘆洲區"
"247006","002-UY","2019/06/29 17:39:35","新北市蘆洲區長安街68巷23號","121.46363","25.0808466666667","6501400","蘆洲區"
"228003","097-TW","2019/06/29 17:39:42","新北市貢寮區真理里延平街33號","121.924505","25.05504","6502600","貢寮區"
"228001","212-TW","2019/06/29 17:39:25","新北市貢寮區仁理村仁愛路95-1號","121.927671666667","25.055415","6502600","貢寮區"
"228002","663-BX","2019/06/29 17:39:27","新北市貢寮區福隆里龜壽谷街13號","121.956586666667","25.00588","6502600","貢寮區"
"224010","AGQ-8101","2019/06/29 17:39:25","新北市瑞芳區岳王路81號","121.807088333333","25.1119216666667","6501200","瑞芳區"
"224006","676-BX","2019/06/29 17:39:38","新北市瑞芳區中山路312號","121.796971666667","25.1100083333333","6501200","瑞芳區"
"224009","275-VK","2019/06/29 17:39:26","新北市瑞芳區山尖路174號","121.847811666667","25.111875","6501200","瑞芳區"
"224008","273-VK","2019/06/29 17:39:34","新北市瑞芳區瑞柑新村10號","121.828768333333","25.106415","6501200","瑞芳區"
"224005","271-BY","2019/06/29 17:39:22","新北市瑞芳區海濱路8-6號","121.83085","25.1255433333333","6501200","瑞芳區"
"227001","400-TW","2019/06/29 17:39:39","新北市雙溪區三貂里定福路1-2號","121.850778333333","25.0634083333333","6502500","雙溪區"
"251009","008-UM","2019/06/29 17:39:36","新北市淡水區中正路173號","121.438725","25.171175","6501000","淡水區"
"251004","009-UM","2019/06/29 17:39:30","新北市淡水區中正東路二段88巷37號","121.459261666667","25.146965","6501000","淡水區"
"251005","010-UM","2019/06/29 17:39:40","新北市淡水區學府路102巷28號","121.451633333333","25.1714416666667","6501000","淡水區"
"251015","KEA-2871","2019/06/29 17:39:39","新北市淡水區樹林口168號","121.475676666667","25.1669533333333","6501000","淡水區"
"251016","179-VK","2019/06/29 17:39:21","新北市淡水區埤島39-15號","121.452745","25.195895","6501000","淡水區"
"251008","181-VK","2019/06/29 17:39:27","新北市淡水區中正東路二段143巷8弄1號","121.461455","25.1476333333333","6501000","淡水區"
"251013","182-VK","2019/06/29 17:39:25","新北市淡水區演戲埔腳6號","121.471695","25.1943416666667","6501000","淡水區"
"251010","413-VK","2019/06/29 17:39:42","新北市淡水區淡海路284號","121.41952","25.188765","6501000","淡水區"
"251012","441-VK","2019/06/29 17:39:38","新北市淡水區北新路200巷8號","121.451756666667","25.1796833333333","6501000","淡水區"
"251007","442-VK","2019/06/29 17:39:27","新北市淡水區民族路33巷2號","121.464365","25.1373616666667","6501000","淡水區"
"251006","561-UM","2019/06/29 17:39:43","新北市淡水區中山北路一段119巷3號","121.442335","25.1770016666667","6501000","淡水區"
"251014","577-R6","2019/06/29 17:38:18","新北市淡水區公埔子15-1號","121.479356666667","25.2267333333333","6501000","淡水區"
"251011","650-BX","2019/06/29 17:39:37","新北市淡水區坪頂路712號","121.482501666667","25.1584916666667","6501000","淡水區"
"251002","672-BX","2019/06/29 17:39:39","新北市淡水區真理街2號","121.438801666667","25.1728916666667","6501000","淡水區"
"251003","766-UM","2019/06/29 17:39:29","新北市淡水區中山北路一段33號","121.441581666667","25.175265","6501000","淡水區"
"207003","550-UM","2019/06/29 17:39:32","新北市萬里區野柳里東澳路20號","121.691073333333","25.1988483333333","6502800","萬里區"
"207004","225-TW","2019/06/29 17:39:28","新北市萬里區中幅里中福路22號","121.682383333333","25.1650966666667","6502800","萬里區"
"252002","178-VK","2019/06/29 17:39:30","新北市三芝區中正路二段14號","121.50456","25.2553966666667","6502100","三芝區"
"208001","170-UY","2019/06/29 17:39:37","新北市金山區磺清路135號","121.63948","25.2278366666667","6502700","金山區"
"237013","252-BX","2019/06/29 17:39:25","新北市三峽區愛國路33-9號","121.374941666667","24.9329583333333","6500900","三峽區"
"237014","433-BY","2019/06/29 17:39:30","新北市三峽區中山路459巷163-3號","121.348788333333","24.9330566666667","6500900","三峽區"
"237010","706-TV","2019/06/29 17:39:42","新北市三峽區中山路167號","121.364616666667","24.9364483333333","6500900","三峽區"
"236042","KED-0685","2019/06/29 17:39:36","新北市土城區城林路6巷80號","121.438586666667","24.979615","6501300","土城區"
"233002","762-BX","2019/06/29 17:39:29","新北市烏來區西羅岸路22號","121.549045","24.8675183333333","6502900","烏來區"
"236079","166-UM","2019/06/29 17:39:42","新北市土城區城林路6巷80號","121.438513333333","24.9797066666667","6501300","土城區"
"236030","253-BX","2019/06/29 17:39:24","新北市土城區城林路6巷80號","121.438463333333","24.9795633333333","6501300","土城區"
"236038","271-VK","2019/06/29 17:39:29","新北市土城區城林路6巷80號","121.438503333333","24.9797566666667","6501300","土城區"
"247010","KED-0683","2019/06/29 17:39:33","新北市蘆洲區中山一路74巷17號","121.47897","25.0813066666667","6501400","蘆洲區"
"236070","KEA-2877","2019/06/29 17:39:32","新北市土城區城林路6巷80號","121.438486666667","24.9797383333333","6501300","土城區"
"252001","KED-0821","2019/06/29 17:39:23","新北市三芝區淡金路一段83號","121.50209","25.2589783333333","6502100","三芝區"
"236021","401-BY","2019/06/29 17:39:35","新北市土城區城林路6巷80號","121.43848","24.9797333333333","6501300","土城區"
"236049","913-UM","2019/06/29 17:39:37","新北市土城區城林路6巷80號","121.438385","24.979785","6501300","土城區"
"236063","915-UM","2019/06/29 17:39:33","新北市土城區城林路6巷80號","121.438541666667","24.979625","6501300","土城區"
"242039","AAC-296","2019/06/29 17:39:34","新北市新莊區民全街19號","121.429001666667","25.021735","6500500","新莊區"
"242061","986-R7","2019/06/29 17:39:27","新北市新莊區瓊林南路103巷8弄43號","121.435126666667","25.0111716666667","6500500","新莊區"
"242002","751-BX","2019/06/29 17:39:28","新北市新莊區新莊路254號","121.452185","25.0340333333333","6500500","新莊區"
"242029","615-BX","2019/06/29 17:39:31","新北市新莊區復興路一段163號","121.450941666667","25.04346","6500500","新莊區"
"242027","613-BX","2019/06/29 17:39:27","新北市新莊區福壽街108號","121.45811","25.050525","6500500","新莊區"
"242058","612-BX","2019/06/29 17:39:41","新北市新莊區中正路715-1號","121.424688333333","25.0296066666667","6500500","新莊區"
"242046","566-BX","2019/06/29 17:39:29","新北市新莊區福營路103號","121.433876666667","25.0322716666667","6500500","新莊區"
"242051","497-BY","2019/06/29 17:39:34","新北市新莊區西盛街189號","121.428833333333","25.01713","6500500","新莊區"
"242056","442-UM","2019/06/29 17:39:31","新北市新莊區泰豐街3-1號","121.44855","25.0312083333333","6500500","新莊區"
"242004","440-UM","2019/06/29 17:39:12","新北市新莊區自立街109號","121.455465","25.0454833333333","6500500","新莊區"
"242042","415-TV","2019/06/29 17:39:30","新北市新莊區福營路103號","121.433666666667","25.032145","6500500","新莊區"
"242011","413-TV","2019/06/29 17:39:39","新北市新莊區中港路570號","121.451475","25.0533433333333","6500500","新莊區"
"242025","362-BY","2019/06/29 17:39:43","新北市新莊區思源路110號","121.46014","25.0465983333333","6500500","新莊區"
"242023","353-BY","2019/06/29 17:39:42","新北市新莊區中港路132巷2號","121.45551","25.0405033333333","6500500","新莊區"
"242013","132-UY","2019/06/29 17:39:42","新北市新莊區中誠街92號","121.45006","25.0478783333333","6500500","新莊區"
"242036","135-UY","2019/06/29 17:39:42","新北市新莊區建福路59巷28號","121.42802","25.0275783333333","6500500","新莊區"
"242053","172-VK","2019/06/29 17:39:38","新北市新莊區新樹路699巷1號","121.4324","25.00218","6500500","新莊區"
"242015","173-VK","2019/06/29 17:39:28","新北市新莊區新泰路283號","121.445635","25.0405283333333","6500500","新莊區"
"242021","175-VK","2019/06/29 17:39:27","新北市新莊區中華路一段78號","121.452115","25.0391033333333","6500500","新莊區"
"242048","176-VK","2019/06/29 17:39:32","新北市新莊區萬安街136號","121.420245","25.0214566666667","6500500","新莊區"
"242019","KED-0687","2019/06/29 17:39:40","新北市新莊區中港路177號","121.454975","25.0414216666667","6500500","新莊區"
"242034","348-TH","2019/06/29 17:39:21","新北市新莊區新莊路436號","121.447818333333","25.0333383333333","6500500","新莊區"
"242007","349-TH","2019/06/29 17:39:30","新北市新莊區福樂街120號","121.457095","25.047855","6500500","新莊區"
"242031","350-TH","2019/06/29 17:39:38","新北市新莊區新泰路369巷22號","121.44258","25.04327","6500500","新莊區"
"242017","351-TH","2019/06/29 17:39:29","新北市新莊區中和街30巷13號","121.448875","25.043885","6500500","新莊區"
"238015","755-BX","2019/06/29 17:39:40","新北市樹林區樹德街136巷15號","121.419581666667","24.993435","6500700","樹林區"
"238023","601-UM","2019/06/29 17:39:24","新北市樹林區福興街3巷11號","121.40484","25.0168066666667","6500700","樹林區"
"238019","599-UM","2019/06/29 17:39:40","新北市樹林區太平路121號","121.41922","24.9807966666667","6500700","樹林區"
"238024","5061-A6","2019/06/29 17:39:25","新北市樹林區八德街262-1號","121.417315","24.9720383333333","6500700","樹林區"
"238018","KEA-2217","2019/06/29 17:39:38","新北市樹林區博愛街39-3號","121.42724","24.9922983333333","6500700","樹林區"
"238022","KEA-2213","2019/06/29 17:39:31","新北市樹林區中華路187巷21號","121.420976666667","24.9808","6500700","樹林區"
"238021","KEA-2539","2019/06/29 17:39:35","新北市樹林區柑園街一段166號","121.397258333333","24.956795","6500700","樹林區"
"238025","303-VK","2019/06/29 17:39:33","新北市樹林區中正路641號","121.412713333333","25.0119866666667","6500700","樹林區"
"238017","283-BY","2019/06/29 17:39:37","新北市樹林區中正路440號","121.413405","25.0117033333333","6500700","樹林區"
"238014","282-BY","2019/06/29 17:39:25","新北市樹林區保安街一段313巷28號","121.417003333333","24.9974683333333","6500700","樹林區"
"238020","268-VK","2019/06/29 17:39:29","新北市樹林區俊英街116巷41弄14號","121.428831666667","25.00674","6500700","樹林區"
"238026","172-UY","2019/06/29 17:39:37","新北市樹林區新興街19巷36弄9號","121.402483333333","24.9732483333333","6500700","樹林區"
"238016","169-UY","2019/06/29 17:39:28","新北市樹林區育英街160號","121.418578333333","24.9896416666667","6500700","樹林區"
"239007","AAC-297","2019/06/29 17:39:35","新北市鶯歌區鶯桃路168號","121.337295","24.95534","6500800","鶯歌區"
"239006","891-R6","2019/06/29 17:39:38","新北市鶯歌區鶯桃路436巷61弄18號","121.33347","24.9671483333333","6500800","鶯歌區"
"239008","527-UM","2019/06/29 17:39:39","新北市鶯歌區大湖路732巷1弄4號","121.33264","24.9773283333333","6500800","鶯歌區"
"239005","526-UM","2019/06/29 17:39:32","新北市鶯歌區鳳吉三街26巷33號","121.32738","24.97348","6500800","鶯歌區"
"239001","417-VK","2019/06/29 17:39:29","新北市鶯歌區高職西街1號","121.3384","24.942155","6500800","鶯歌區"
"239003","360-BY","2019/06/29 17:39:34","新北市鶯歌區鶯桃路206巷58號","121.338125","24.9602516666667","6500800","鶯歌區"
"239002","359-BY","2019/06/29 17:39:33","新北市鶯歌區南雅路491號","121.345656666667","24.9540033333333","6500800","鶯歌區"
"239004","193-VK","2019/06/29 17:39:35","新北市鶯歌區文化路300號","121.352635","24.946595","6500800","鶯歌區"
"221029","298-VK","2019/06/29 17:39:41","新北市汐止區汐萬路一段256巷1號","121.651695","25.0748583333333","6501100","汐止區"
"233001","KEA-2870","2019/06/29 17:39:27","新北市烏來區西羅岸路22號","121.5492","24.8674133333333","6502900","烏來區"
"242044","281-VK","2019/06/29 17:39:25","新北市新莊區富國路65巷5號","121.419735","25.02645","6500500","新莊區"
"242009","280-VK","2019/06/29 17:39:22","新北市新莊區昌明街14巷5弄2號","121.457335","25.0532783333333","6500500","新莊區"
"235064","KEA-2876","2019/06/29 17:39:38","新北市中和區員山路36巷16-3號","121.485006666667","24.9914166666667","6500300","中和區"
