"lineid","car","time","location","longitude","latitude","cityid","cityname"
"234026","9371-KE","2019/06/29 17:49:39","新北市永和區和平街109巷5號","121.510563333333","25.0096116666667","6500400","永和區"
"249005","172-UM","2019/06/29 17:49:31","新北市八里區荖阡坑路34-2號","121.402536666667","25.130725","6502300","八里區"
"249001","173-UM","2019/06/29 17:49:41","新北市八里區龍米路二段147巷6號","121.442813333333","25.15056","6502300","八里區"
"249004","303-UY","2019/06/29 17:49:32","新北市八里區中華路一段309巷19-11號","121.416893333333","25.1534616666667","6502300","八里區"
"249002","305-UY","2019/06/29 17:49:35","新北市八里區龍形五街37巷3-1號","121.448725","25.132605","6502300","八里區"
"249003","593-UM","2019/06/29 17:49:39","新北市八里區中山路二段71號","121.406405","25.1532466666667","6502300","八里區"
"248008","KED-0815","2019/06/29 17:49:21","新北市五股區中興路二段63巷17號","121.460326666667","25.0754883333333","6501500","五股區"
"232011","375-UM","2019/06/29 17:49:26","新北市坪林區北宜路八段155號","121.707088333333","24.9344366666667","6502000","坪林區"
"244007","080-UY","2019/06/29 17:49:27","新北市林口區林口路80號","121.389088333333","25.0806016666667","6501700","林口區"
"244019","402-UM","2019/06/29 17:49:34","新北市林口區文化一路一段126號","121.375341666667","25.0724966666667","6501700","林口區"
"244013","KEA-2802","2019/06/29 17:49:29","新北市林口區中山路51號","121.394463333333","25.0785466666667","6501700","林口區"
"244023","483-VK","2019/06/29 17:49:27","新北市林口區興林路318巷9號","121.388431666667","25.070455","6501700","林口區"
"244017","485-VK","2019/06/29 17:49:40","新北市林口區文化二路一段260巷4號","121.371185","25.0733133333333","6501700","林口區"
"244009","656-BX","2019/06/29 17:49:24","新北市林口區林口路241號","121.386715","25.0837583333333","6501700","林口區"
"244011","701-TV","2019/06/29 17:49:30","新北市林口區中正路198號","121.39121","25.0776483333333","6501700","林口區"
"244025","837-TS","2019/06/29 17:49:41","新北市林口區文化三路一段165號","121.361688333333","25.0690066666667","6501700","林口區"
"244021","838-TS","2019/06/29 17:49:38","新北市林口區仁愛路一段1巷30號","121.395806666667","25.0688166666667","6501700","林口區"
"222003","436-BY","2019/06/29 17:49:27","新北市深坑區阿柔洋60-1號","121.6086","24.9985233333333","6501800","深坑區"
"222002","659-BX","2019/06/29 17:49:12","新北市深坑區平埔街22巷17弄1號","121.614858333333","25.0008683333333","6501800","深坑區"
"241024","065-VK","2019/06/29 17:49:28","新北市三重區車路頭街66號","121.484315","25.0727766666667","6500200","三重區"
"241029","942-UM","2019/06/29 17:49:33","新北市三重區新北大道一段250號","121.48022","25.0613916666667","6500200","三重區"
"241033","AAC-255","2019/06/29 17:49:44","新北市三重區重新路五段566號","121.469943333333","25.0458","6500200","三重區"
"235028","005-UY","2019/06/29 17:49:44","新北市中和區員山路36巷16-3號","121.485006666667","24.9912983333333","6500300","中和區"
"235063","006-UY","2019/06/29 17:49:28","新北市中和區員山路36巷16-3號","121.485158333333","24.9912166666667","6500300","中和區"
"235065","098-UM","2019/06/29 17:49:34","新北市中和區連城路467-5號","121.483623333333","24.9960783333333","6500300","中和區"
"235058","151-BY","2019/06/29 17:49:23","新北市中和區員山路36巷16-2號","121.485233333333","24.9915233333333","6500300","中和區"
"247008","KED-0682","2019/06/29 17:49:19","新北市蘆洲區中山一路197巷4弄21號","121.474041666667","25.0804016666667","6501400","蘆洲區"
"235062","800-TS","2019/06/29 17:49:31","新北市中和區員山路36巷16-3號","121.485","24.99126","6500300","中和區"
"235054","911-UM","2019/06/29 17:49:26","新北市中和區員山路36巷16-2號","121.485345","24.9917883333333","6500300","中和區"
"235037","AAC-213","2019/06/29 17:49:36","新北市中和區錦和路350-1號","121.490338333333","24.993575","6500300","中和區"
"247004","893-R6","2019/06/29 17:49:45","新北市蘆洲區長榮路211巷6號","121.46028","25.084695","6501400","蘆洲區"
"247002","500-BY","2019/06/29 17:49:29","新北市蘆洲區永平街32巷21弄11號","121.458646666667","25.09177","6501400","蘆洲區"
"247014","341-TH","2019/06/29 17:49:38","新北市蘆洲區忠孝路64-1號","121.471561666667","25.0851033333333","6501400","蘆洲區"
"247024","337-TH","2019/06/29 17:49:37","新北市蘆洲區光榮路63號","121.461143333333","25.0885666666667","6501400","蘆洲區"
"247022","057-VK","2019/06/29 17:49:30","新北市蘆洲區中正路491號","121.461945","25.0963883333333","6501400","蘆洲區"
"247012","056-VK","2019/06/29 17:49:26","新北市蘆洲區復興路62號","121.474545","25.08638","6501400","蘆洲區"
"247016","053-VK","2019/06/29 17:49:35","新北市蘆洲區中正路185巷23弄1號","121.467088333333","25.0846333333333","6501400","蘆洲區"
"247020","007-UY","2019/06/29 17:49:33","新北市蘆洲區民義街71巷31號","121.472108333333","25.0910783333333","6501400","蘆洲區"
"247006","002-UY","2019/06/29 17:49:35","新北市蘆洲區長安街22巷7號","121.464465","25.0796633333333","6501400","蘆洲區"
"226004","312-R5","2019/06/29 17:49:41","新北市平溪區石底里公園街18-3號","121.733393333333","25.0256766666667","6502400","平溪區"
"228003","097-TW","2019/06/29 17:49:22","新北市貢寮區真理里美艷山街11-6號","121.928031666667","25.0603416666667","6502600","貢寮區"
"228001","212-TW","2019/06/29 17:49:25","新北市貢寮區真理里新港街26巷28-6號","121.927698333333","25.05542","6502600","貢寮區"
"228002","663-BX","2019/06/29 17:49:27","新北市貢寮區福隆里龜壽谷街12號","121.955718333333","25.0063733333333","6502600","貢寮區"
"224006","676-BX","2019/06/29 17:49:38","新北市瑞芳區傑魚坑路183號","121.788438333333","25.1082933333333","6501200","瑞芳區"
"224009","275-VK","2019/06/29 17:49:26","新北市瑞芳區新山路147號","121.852001666667","25.1088233333333","6501200","瑞芳區"
"224008","273-VK","2019/06/29 17:49:34","新北市瑞芳區明燈路一段12號","121.821685","25.1073366666667","6501200","瑞芳區"
"224005","271-BY","2019/06/29 17:49:42","新北市瑞芳區瑞濱路32-6號","121.823665","25.1210133333333","6501200","瑞芳區"
"227001","400-TW","2019/06/29 17:49:39","新北市雙溪區三貂里定福路1-2號","121.850771666667","25.0634","6502500","雙溪區"
"253006","032-BX","2019/06/29 17:49:41","新北市石門區大溪墘2-4號","121.54915","25.28971","6502200","石門區"
"251009","008-UM","2019/06/29 17:49:36","新北市淡水區中山路62號","121.443806666667","25.170585","6501000","淡水區"
"251004","009-UM","2019/06/29 17:49:30","新北市淡水區民權一街17巷1號","121.458703333333","25.1367133333333","6501000","淡水區"
"251005","010-UM","2019/06/29 17:49:40","新北市淡水區學府路102巷5-1號","121.45059","25.1720266666667","6501000","淡水區"
"251015","KEA-2871","2019/06/29 17:49:39","新北市淡水區糞箕湖17-3號","121.487425","25.1697183333333","6501000","淡水區"
"251016","179-VK","2019/06/29 17:49:42","新北市淡水區埤島39-15號","121.45274","25.1959016666667","6501000","淡水區"
"251008","181-VK","2019/06/29 17:49:27","新北市淡水區八勢路一段112號","121.466805","25.156285","6501000","淡水區"
"251013","182-VK","2019/06/29 17:49:25","新北市淡水區泉洲厝31號","121.479658333333","25.1911066666667","6501000","淡水區"
"251010","413-VK","2019/06/29 17:49:43","新北市淡水區淡海路252號","121.420116666667","25.1870966666667","6501000","淡水區"
"251012","441-VK","2019/06/29 17:49:37","新北市淡水區北投子86-5號","121.468433333333","25.183045","6501000","淡水區"
"251007","442-VK","2019/06/29 17:49:27","新北市淡水區民生路16巷32號","121.461831666667","25.137475","6501000","淡水區"
"251006","561-UM","2019/06/29 17:49:43","新北市淡水區大信街1巷25號","121.44024","25.176715","6501000","淡水區"
"251014","577-R6","2019/06/29 17:48:14","新北市淡水區公埔子16-6號","121.481171666667","25.2245783333333","6501000","淡水區"
"251011","650-BX","2019/06/29 17:49:37","新北市淡水區小坪頂13-3號","121.486591666667","25.1562016666667","6501000","淡水區"
"251002","672-BX","2019/06/29 17:49:39","新北市淡水區中山路104號","121.442348333333","25.1706116666667","6501000","淡水區"
"251003","766-UM","2019/06/29 17:49:29","新北市淡水區大忠街5巷2號","121.44316","25.1763183333333","6501000","淡水區"
"207003","550-UM","2019/06/29 17:49:32","新北市萬里區野柳里東澳路31-4號","121.691978333333","25.2033433333333","6502800","萬里區"
"207004","225-TW","2019/06/29 17:49:28","新北市萬里區萬里里瑪鋉頂街61號","121.688386666667","25.1804683333333","6502800","萬里區"
"252002","178-VK","2019/06/29 17:49:30","新北市三芝區智成街16號","121.503191666667","25.25672","6502100","三芝區"
"208001","170-UY","2019/06/29 17:49:37","新北市金山區磺清路135號","121.639475","25.2278233333333","6502700","金山區"
"237004","KEA-2597","2019/06/29 17:49:38","新北市三峽區中園街125號","121.367445","24.9237433333333","6500900","三峽區"
"237007","153-BY","2019/06/29 17:49:28","新北市三峽區中園街207號","121.366971666667","24.9205916666667","6500900","三峽區"
"237009","210-TH","2019/06/29 17:49:37","新北市三峽區大勇路3巷28號","121.367736666667","24.9368066666667","6500900","三峽區"
"237013","252-BX","2019/06/29 17:49:38","新北市三峽區中華路8-1號","121.374981666667","24.93287","6500900","三峽區"
"237012","275-BY","2019/06/29 17:49:42","新北市三峽區民生街77號","121.374883333333","24.9358916666667","6500900","三峽區"
"237008","302-VK","2019/06/29 17:49:25","新北市三峽區中正路一段532號","121.369058333333","24.920025","6500900","三峽區"
"237014","433-BY","2019/06/29 17:49:30","新北市三峽區復興路101巷1弄25號","121.371883333333","24.9368316666667","6500900","三峽區"
"237006","5529-G3","2019/06/29 17:49:27","新北市三峽區介壽路二段38巷10-3號","121.391585","24.9350883333333","6500900","三峽區"
"237011","KEA-2596","2019/06/29 17:49:33","新北市三峽區中園街2號","121.368633333333","24.9277183333333","6500900","三峽區"
"237010","706-TV","2019/06/29 17:49:42","新北市三峽區文化路216號","121.368173333333","24.9359233333333","6500900","三峽區"
"237005","AKY-6261","2019/06/29 17:49:37","新北市三峽區中山路138-2號","121.365136666667","24.9362483333333","6500900","三峽區"
"236042","KED-0685","2019/06/29 17:49:36","新北市土城區城林路6巷80號","121.438595","24.9796283333333","6501300","土城區"
"233002","762-BX","2019/06/29 17:49:29","新北市烏來區西羅岸路22號","121.54905","24.86752","6502900","烏來區"
"236079","166-UM","2019/06/29 17:49:42","新北市土城區中央路三段180號","121.43086","24.9650966666667","6501300","土城區"
"236030","253-BX","2019/06/29 17:49:24","新北市土城區城林路6巷80號","121.438463333333","24.9795633333333","6501300","土城區"
"236014","270-VK","2019/06/29 17:49:42","新北市土城區城林路6巷80號","121.438433333333","24.9795816666667","6501300","土城區"
"236038","271-VK","2019/06/29 17:49:29","新北市土城區城林路6巷80號","121.438483333333","24.9797633333333","6501300","土城區"
"247010","KED-0683","2019/06/29 17:49:29","新北市蘆洲區民族路48號","121.476921666667","25.0844966666667","6501400","蘆洲區"
"236070","KEA-2877","2019/06/29 17:49:32","新北市土城區明德路一段371號","121.453048333333","24.97962","6501300","土城區"
"252001","KED-0821","2019/06/29 17:49:23","新北市三芝區中興街一段37號","121.49764","25.2578333333333","6502100","三芝區"
"236021","401-BY","2019/06/29 17:49:35","新北市土城區城林路6巷80號","121.438366666667","24.979715","6501300","土城區"
"236059","912-UM","2019/06/29 17:49:36","新北市土城區中央路三段185號","121.43092","24.9651216666667","6501300","土城區"
"236049","913-UM","2019/06/29 17:49:37","新北市土城區城林路6巷80號","121.438441666667","24.9797516666667","6501300","土城區"
"236063","915-UM","2019/06/29 17:49:33","新北市土城區城林路6巷80號","121.43854","24.9796266666667","6501300","土城區"
"242039","AAC-296","2019/06/29 17:49:34","新北市新莊區民安路145號","121.425326666667","25.0238583333333","6500500","新莊區"
"242061","986-R7","2019/06/29 17:49:28","新北市新莊區新樹路583號","121.432965","25.0067933333333","6500500","新莊區"
"242002","751-BX","2019/06/29 17:49:37","新北市新莊區新泰路47號","121.449528333333","25.0336616666667","6500500","新莊區"
"242029","615-BX","2019/06/29 17:49:31","新北市新莊區復興路一段21號","121.44611","25.04166","6500500","新莊區"
"242027","613-BX","2019/06/29 17:49:27","新北市新莊區福壽街172號","121.458083333333","25.0530216666667","6500500","新莊區"
"242058","612-BX","2019/06/29 17:49:41","新北市新莊區中正路708號","121.416148333333","25.0247933333333","6500500","新莊區"
"242046","566-BX","2019/06/29 17:49:28","新北市新莊區建國一路23號","121.434008333333","25.031425","6500500","新莊區"
"242051","497-BY","2019/06/29 17:49:34","新北市新莊區西盛街245巷21號","121.428916666667","25.0161283333333","6500500","新莊區"
"242056","442-UM","2019/06/29 17:49:31","新北市新莊區瓊林路38巷11號","121.44759","25.03047","6500500","新莊區"
"242004","440-UM","2019/06/29 17:49:32","新北市新莊區思源路177巷8號","121.45933","25.0454683333333","6500500","新莊區"
"242042","415-TV","2019/06/29 17:49:30","新北市泰山區新北大道六段365號","121.42262","25.033025","6500500","新莊區"
"242011","413-TV","2019/06/29 17:49:40","新北市新莊區中港路697號","121.450695","25.0567966666667","6500500","新莊區"
"242025","362-BY","2019/06/29 17:49:32","新北市三重區中山路279號","121.471388333333","25.0615333333333","6500500","新莊區"
"242023","353-BY","2019/06/29 17:49:29","新北市新莊區復興路二段151號","121.457883333333","25.044615","6500500","新莊區"
"242013","132-UY","2019/06/29 17:49:42","新北市新莊區中誠街142巷13弄2號","121.448616666667","25.0481216666667","6500500","新莊區"
"242036","135-UY","2019/06/29 17:49:41","新北市新莊區建福路59巷1號","121.426941666667","25.0273833333333","6500500","新莊區"
"242053","172-VK","2019/06/29 17:49:38","新北市新莊區新樹路565號","121.432836666667","25.0071633333333","6500500","新莊區"
"242015","173-VK","2019/06/29 17:49:28","新北市新莊區新泰路484號","121.442671666667","25.0457316666667","6500500","新莊區"
"242021","175-VK","2019/06/29 17:49:27","新北市新莊區復興路一段220號","121.45307","25.0436933333333","6500500","新莊區"
"242048","176-VK","2019/06/29 17:49:31","新北市新莊區萬安街97號","121.420965","25.02321","6500500","新莊區"
"242019","KED-0687","2019/06/29 17:49:40","新北市新莊區民樂街65巷12號","121.457298333333","25.041865","6500500","新莊區"
"242034","348-TH","2019/06/29 17:49:41","新北市新莊區新莊路606號","121.443638333333","25.0328633333333","6500500","新莊區"
"242007","349-TH","2019/06/29 17:49:30","新北市新莊區福樂街108巷18號","121.457816666667","25.0480816666667","6500500","新莊區"
"242031","350-TH","2019/06/29 17:49:33","新北市新莊區新泰路321巷25號","121.44358","25.0410666666667","6500500","新莊區"
"242017","351-TH","2019/06/29 17:49:29","新北市新莊區永安街126號","121.449723333333","25.0445083333333","6500500","新莊區"
"238015","755-BX","2019/06/29 17:49:40","新北市樹林區復興路205號","121.420443333333","24.991405","6500700","樹林區"
"238023","601-UM","2019/06/29 17:49:24","新北市樹林區龍興街33號","121.403066666667","25.01587","6500700","樹林區"
"238019","599-UM","2019/06/29 17:49:40","新北市樹林區太順街5巷2號","121.420305","24.9799966666667","6500700","樹林區"
"238018","KEA-2217","2019/06/29 17:49:38","新北市樹林區鎮前街10號","121.426213333333","24.9932783333333","6500700","樹林區"
"238022","KEA-2213","2019/06/29 17:49:31","新北市樹林區太順街62巷6號","121.417671666667","24.979725","6500700","樹林區"
"238021","KEA-2539","2019/06/29 17:49:35","新北市樹林區田尾街82號","121.40909","24.9580616666667","6500700","樹林區"
"238025","303-VK","2019/06/29 17:49:33","新北市樹林區俊興街195號","121.417303333333","25.0134333333333","6500700","樹林區"
"238017","283-BY","2019/06/29 17:49:37","新北市樹林區三德街30巷3號","121.41464","25.01296","6500700","樹林區"
"238014","282-BY","2019/06/29 17:49:42","新北市樹林區大安路125巷22號","121.42306","24.9968516666667","6500700","樹林區"
"238020","268-VK","2019/06/29 17:49:25","新北市樹林區俊英街252號","121.42449","25.0111483333333","6500700","樹林區"
"238026","172-UY","2019/06/29 17:49:37","新北市樹林區新興街19巷6號","121.400423333333","24.9728","6500700","樹林區"
"238016","169-UY","2019/06/29 17:49:08","新北市樹林區復興路292號","121.417331666667","24.9875516666667","6500700","樹林區"
"239007","AAC-297","2019/06/29 17:49:35","新北市鶯歌區鶯桃路94巷33-11號","121.342198333333","24.9540966666667","6500800","鶯歌區"
"239006","891-R6","2019/06/29 17:49:38","新北市鶯歌區鳳鳴路105號","121.334388333333","24.9663266666667","6500800","鶯歌區"
"239008","527-UM","2019/06/29 17:49:39","新北市鶯歌區國際一路167號","121.33589","24.9781683333333","6500800","鶯歌區"
"239005","526-UM","2019/06/29 17:49:32","新北市鶯歌區鶯桃路658巷39號","121.329945","24.969875","6500800","鶯歌區"
"239001","417-VK","2019/06/29 17:49:29","新北市鶯歌區中正三路316號","121.32822","24.9354233333333","6500800","鶯歌區"
"239003","360-BY","2019/06/29 17:49:34","新北市鶯歌區永吉街46巷80號","121.333815","24.9580466666667","6500800","鶯歌區"
"239002","359-BY","2019/06/29 17:49:33","新北市鶯歌區育智路82-1號","121.345106666667","24.95488","6500800","鶯歌區"
"239004","193-VK","2019/06/29 17:49:35","新北市鶯歌區尖山路86號","121.348598333333","24.9495516666667","6500800","鶯歌區"
"221010","269-BY","2019/06/29 17:49:37","新北市汐止區汐萬路二段48號","121.649571666667","25.08172","6501100","汐止區"
"221032","280-BY","2019/06/29 17:49:27","新北市汐止區大同路一段215-1號","121.633816666667","25.0573566666667","6501100","汐止區"
"221029","298-VK","2019/06/29 17:49:41","新北市汐止區康寧街901號","121.651623333333","25.0748516666667","6501100","汐止區"
"221031","353-TW","2019/06/29 17:49:43","新北市汐止區汐萬路一段301號","121.649613333333","25.0758416666667","6501100","汐止區"
"233001","KEA-2870","2019/06/29 17:49:27","新北市烏來區西羅岸路22號","121.549205","24.867415","6502900","烏來區"
"242044","281-VK","2019/06/29 17:49:40","新北市新莊區中正路857號","121.419698333333","25.0278083333333","6500500","新莊區"
"242009","280-VK","2019/06/29 17:49:22","新北市新莊區昌明街42-1號","121.456268333333","25.052295","6500500","新莊區"
"235064","KEA-2876","2019/06/29 17:49:38","新北市中和區員山路36巷16-3號","121.484998333333","24.9914616666667","6500300","中和區"
