"lineid","car","time","location","longitude","latitude","cityid","cityname"
"243010","297-R6","2019/06/29 20:59:42","新北市泰山區泰林路三段745巷145號","121.405355","25.0676966666667","6501600","泰山區"
"231061","002-UM","2019/06/29 20:59:39","新北市新店區永安街81號","121.519856666667","24.9866783333333","6500600","新店區"
"231058","0293-UT","2019/06/29 20:59:41","新北市新店區三民路60巷2號","121.535423333333","24.972525","6500600","新店區"
"231059","046-UY","2019/06/29 20:59:36","新北市新店區僑信路96巷41號","121.498721666667","24.9470133333333","6500600","新店區"
"231060","106-UY","2019/06/29 20:59:29","新北市新店區安康路三段527號","121.482081666667","24.9475716666667","6500600","新店區"
"231051","107-UY","2019/06/29 20:59:40","新北市新店區中正路663巷1弄2號","121.532991666667","24.989985","6500600","新店區"
"231049","108-UY","2019/06/29 20:59:40","新北市新店區安華路28-1號","121.519925","24.9607533333333","6500600","新店區"
"231065","110-UY","2019/06/29 20:59:31","新北市新店區安祥路67巷50弄1號","121.484838333333","24.9589883333333","6500600","新店區"
"231068","187-VK","2019/06/29 20:59:39","新北市新店區寶元路二段64巷1號","121.54722","24.9811166666667","6500600","新店區"
"231054","260-TV","2019/06/29 20:59:45","新北市新店區中興路一段266-5號","121.545071666667","24.9674766666667","6500600","新店區"
"231042","268-BY","2019/06/29 20:59:41","新北市新店區寶興路60巷3號","121.549888333333","24.971825","6500600","新店區"
"231064","278-BY","2019/06/29 20:59:37","新北市新店區安民街210號","121.517315","24.9721883333333","6500600","新店區"
"231050","AAD-862","2019/06/29 20:59:38","新北市新店區三民路40號","121.536161666667","24.97148","6500600","新店區"
"231041","619-UM","2019/06/29 20:59:17","新北市中和區興南路二段347號","121.500806666667","24.9794366666667","6500600","新店區"
"231063","641-BX","2019/06/29 20:59:46","新北市新店區富貴街6巷2號","121.494666666667","24.9501883333333","6500600","新店區"
"231062","718-UY","2019/06/29 20:59:32","新北市新店區裕合街31號","121.489871666667","24.9496616666667","6500600","新店區"
"231040","898-TW","2019/06/29 20:59:45","新北市新店區中正路184號","121.541041666667","24.9720983333333","6500600","新店區"
"231043","899-TW","2019/06/29 20:59:40","新北市新店區中正路435號","121.534061666667","24.978405","6500600","新店區"
"231066","AKT-0513","2019/06/29 20:59:28","新北市新店區安康路二段16巷48號","121.516815","24.9656716666667","6500600","新店區"
"241011","013-R5","2019/06/29 20:59:42","新北市三重區秀江街119號","121.499698333333","25.07223","6500200","三重區"
"241028","022-UY","2019/06/29 20:59:33","新北市三重區正義南路60-1號","121.498281666667","25.0606316666667","6500200","三重區"
"241008","059-VK","2019/06/29 20:59:37","新北市三重區車路頭街107號","121.48441","25.0747833333333","6500200","三重區"
"241016","060-VK","2019/06/29 20:59:47","新北市三重區信義西街138號","121.495686666667","25.0642633333333","6500200","三重區"
"241031","061-VK","2019/06/29 20:59:35","新北市三重區重陽路一段113巷3號","121.487633333333","25.05979","6500200","三重區"
"241015","062-VK","2019/06/29 20:59:40","新北市三重區福德北路87號","121.501886666667","25.066015","6500200","三重區"
"241017","063-VK","2019/06/29 20:59:41","新北市三重區自強路一段232號","121.493288333333","25.066785","6500200","三重區"
"241024","065-VK","2019/06/29 20:59:33","新北市三重區國道路一段58巷15號","121.481331666667","25.0720466666667","6500200","三重區"
"241001","066-VK","2019/06/29 20:59:32","新北市三重區自強路三段87巷6號","121.487835","25.074955","6500200","三重區"
"241002","090-VK","2019/06/29 20:59:47","新北市三重區仁義街161-1號","121.497101666667","25.0812283333333","6500200","三重區"
"241003","091-VK","2019/06/29 20:59:28","新北市三重區集賢路87-1號","121.49362","25.0867916666667","6500200","三重區"
"241005","262-UM","2019/06/29 20:59:34","新北市三重區五華街203號","121.489658333333","25.0854666666667","6500200","三重區"
"241029","266-UM","2019/06/29 20:59:34","新北市三重區正義南路107號","121.49827","25.0585766666667","6500200","三重區"
"241009","267-UM","2019/06/29 20:59:33","新北市三重區力行路二段121號","121.482966666667","25.07657","6500200","三重區"
"241018","268-UM","2019/06/29 20:59:26","新北市三重區自強路一段155-1號","121.493775","25.06726","6500200","三重區"
"241032","269-UM","2019/06/29 20:59:39","新北市三重區中華路18號","121.483226666667","25.0607333333333","6500200","三重區"
"241013","270-UM","2019/06/29 20:59:44","新北市三重區仁愛街131號","121.495615","25.0749","6500200","三重區"
"241025","271-UM","2019/06/29 20:59:12","新北市三重區新北大道一段148號","121.484295","25.061795","6500200","三重區"
"241007","398-BY","2019/06/29 20:59:42","新北市三重區慈愛街50號","121.485916666667","25.07921","6500200","三重區"
"241004","475-VK","2019/06/29 20:59:34","新北市三重區仁愛街420號","121.490398333333","25.0814116666667","6500200","三重區"
"241020","478-VK","2019/06/29 20:59:42","新北市三重區忠孝路二段34號","121.48583","25.071005","6500200","三重區"
"241026","480-VK","2019/06/29 20:59:33","新北市三重區文化南路45號","121.500276666667","25.0613483333333","6500200","三重區"
"241014","543-UM","2019/06/29 20:59:36","新北市三重區長榮路75號","121.502555","25.0690466666667","6500200","三重區"
"241023","545-UM","2019/06/29 20:59:30","新北市三重區洛陽街45巷13號","121.482375","25.06374","6500200","三重區"
"241006","AAD-863","2019/06/29 20:59:31","新北市三重區永福街176號","121.481146666667","25.074355","6500200","三重區"
"241019","743-BX","2019/06/29 20:59:26","新北市三重區自強路二段74巷21號","121.488031666667","25.0698466666667","6500200","三重區"
"241022","KED-0820","2019/06/29 20:59:40","新北市三重區中正北路20巷12號","121.488018333333","25.0624366666667","6500200","三重區"
"241012","941-UM","2019/06/29 20:59:45","新北市三重區仁信街27號","121.501316666667","25.07557","6500200","三重區"
"241033","AAC-255","2019/06/29 20:59:32","新北市三重區光復路二段73號","121.472151666667","25.05715","6500200","三重區"
"235055","183-VK","2019/06/29 20:59:38","新北市板橋區民生路一段1-2號","121.476955","25.0118533333333","6500300","中和區"
"247008","KED-0682","2019/06/29 20:59:28","新北市蘆洲區民生街125號","121.472795","25.0790416666667","6501400","蘆洲區"
"235069","4980-A6","2019/06/29 20:59:38","新北市中和區連城路469巷44弄16號","121.482813333333","24.9941983333333","6500300","中和區"
"235018","911-UM","2019/06/29 20:42:12","新北市中和區員山路36巷16-2號","121.485246666667","24.9918166666667","6500300","中和區"
"247004","893-R6","2019/06/29 20:59:42","新北市蘆洲區永安南路二段258號","121.459535","25.080425","6501400","蘆洲區"
"247018","546-UM","2019/06/29 20:59:40","新北市蘆洲區民權路138-2號","121.473048333333","25.08897","6501400","蘆洲區"
"247014","341-TH","2019/06/29 20:59:36","新北市蘆洲區中山二路36巷25號","121.474206666667","25.0830483333333","6501400","蘆洲區"
"247024","337-TH","2019/06/29 20:59:41","新北市蘆洲區長興路213號","121.461166666667","25.0863033333333","6501400","蘆洲區"
"247002","336-TH","2019/06/29 20:59:26","新北市蘆洲區永樂街38巷57弄1號","121.458416666667","25.0900566666667","6501400","蘆洲區"
"247022","057-VK","2019/06/29 20:59:38","新北市蘆洲區中正路263巷2號","121.467331666667","25.0873916666667","6501400","蘆洲區"
"247012","056-VK","2019/06/29 20:59:38","新北市蘆洲區民族路31-18號","121.477101666667","25.0851866666667","6501400","蘆洲區"
"247016","053-VK","2019/06/29 20:59:45","新北市蘆洲區正和街94號","121.468095","25.0807533333333","6501400","蘆洲區"
"247020","007-UY","2019/06/29 20:59:33","新北市蘆洲區民族路488號","121.471105","25.0912466666667","6501400","蘆洲區"
"247006","002-UY","2019/06/29 20:59:35","新北市蘆洲區永安南路二段16巷5號","121.467701666667","25.0771116666667","6501400","蘆洲區"
"251015","KEA-2871","2019/06/29 20:59:39","新北市淡水區淡金路四段542巷17號","121.452743333333","25.2270683333333","6501000","淡水區"
"251016","179-VK","2019/06/29 20:59:28","新北市淡水區牛埔子11-1號","121.45015","25.2184283333333","6501000","淡水區"
"251013","182-VK","2019/06/29 20:59:45","新北市淡水區番子厝13號","121.461293333333","25.20128","6501000","淡水區"
"251010","413-VK","2019/06/29 20:59:42","新北市淡水區中正路一段116-3號","121.42392","25.1787066666667","6501000","淡水區"
"251012","441-VK","2019/06/29 20:59:37","新北市淡水區淡金路五段116-1號","121.456558333333","25.2368983333333","6501000","淡水區"
"251007","442-VK","2019/06/29 20:59:27","新北市淡水區仁愛街2巷11號","121.446096666667","25.1706133333333","6501000","淡水區"
"251001","559-UM","2019/06/29 20:59:29","新北市淡水區淡金路二段147號","121.449588333333","25.18289","6501000","淡水區"
"251014","577-R6","2019/06/29 20:59:33","新北市淡水區溪口16號","121.455726666667","25.236565","6501000","淡水區"
"251011","650-BX","2019/06/29 20:59:39","新北市淡水區新民街298號","121.435126666667","25.1825983333333","6501000","淡水區"
"251002","672-BX","2019/06/29 20:59:38","新北市淡水區英專路74號","121.445731666667","25.1711616666667","6501000","淡水區"
"251003","766-UM","2019/06/29 20:59:29","新北市淡水區新春街148-1號","121.442556666667","25.1813316666667","6501000","淡水區"
"247010","KED-0683","2019/06/29 20:59:30","新北市蘆洲區鷺江街87號","121.47697","25.0836066666667","6501400","蘆洲區"
"242056","442-UM","2019/06/29 20:58:31","新北市五股區中直路21號","121.421688333333","25.1117883333333","6500500","新莊區"
"242025","362-BY","2019/06/29 20:59:32","新北市八里區中山路三段216號","121.378743333333","25.1424","6500500","新莊區"
"242048","176-VK","2019/06/29 20:59:35","新北市新莊區富國路84號","121.420276666667","25.0255933333333","6500500","新莊區"
"242034","348-TH","2019/06/29 20:59:41","新北市新莊區新泰路171號","121.447586666667","25.037265","6500500","新莊區"
"242007","349-TH","2019/06/29 20:59:30","新北市三重區後埔街61號","121.479395","25.0483366666667","6500500","新莊區"
"221035","622-UM","2019/06/29 20:59:43","新北市汐止區汐萬路一段144-2號","121.653075","25.071075","6501100","汐止區"
"221038","646-BX","2019/06/29 20:59:43","新北市汐止區汐萬路一段256巷1號","121.652041666667","25.0747183333333","6501100","汐止區"
"220101","245-BX","2019/06/29 20:59:41","新北市八里區荖阡坑路34-2號","121.401383333333","25.129925","6500100","板橋區"
