"lineid","car","time","location","longitude","latitude","cityid","cityname"
"243010","297-R6","2019/06/29 21:09:42","新北市泰山區泰林路二段607巷1-7號","121.421051666667","25.0638616666667","6501600","泰山區"
"231061","002-UM","2019/06/29 21:09:42","新北市新店區永平街52號","121.516176666667","24.9844266666667","6500600","新店區"
"231059","046-UY","2019/06/29 21:09:36","新北市新店區僑信路82號","121.499676666667","24.9483333333333","6500600","新店區"
"231060","106-UY","2019/06/29 21:09:29","新北市新店區安康路三段30號","121.4931","24.9531916666667","6500600","新店區"
"231051","107-UY","2019/06/29 21:09:40","新北市新店區中正路700巷26號","121.535443333333","24.99117","6500600","新店區"
"231065","110-UY","2019/06/29 21:09:45","新北市新店區安祥路63號","121.48401","24.9601933333333","6500600","新店區"
"231068","187-VK","2019/06/29 21:09:39","新北市中和區華新街143巷118號","121.50756","24.9780866666667","6500600","新店區"
"231054","260-TV","2019/06/29 21:09:45","新北市新店區行政街17巷6號","121.542853333333","24.9668666666667","6500600","新店區"
"231042","268-BY","2019/06/29 21:09:41","新北市中和區員山路35-1號","121.481461666667","24.9891933333333","6500600","新店區"
"231064","278-BY","2019/06/29 21:09:37","新北市新店區安康路一段266巷4號","121.51991","24.9640066666667","6500600","新店區"
"231050","AAD-862","2019/06/29 21:09:38","新北市新店區中華路83巷4弄11號","121.53847","24.968455","6500600","新店區"
"231041","619-UM","2019/06/29 21:09:38","新北市樹林區佳園路三段99巷31號","121.3906","24.952015","6500600","新店區"
"231063","641-BX","2019/06/29 21:09:26","新北市新店區玫瑰路66巷1號","121.49592","24.9451766666667","6500600","新店區"
"231062","718-UY","2019/06/29 21:09:32","新北市新店區安康路三段73號","121.492238333333","24.95207","6500600","新店區"
"231040","898-TW","2019/06/29 21:09:25","新北市新店區北新路一段8號","121.540725","24.965465","6500600","新店區"
"231043","899-TW","2019/06/29 21:09:40","新北市土城區青雲路451巷7弄1號","121.459","24.9752433333333","6500600","新店區"
"241011","013-R5","2019/06/29 21:09:42","新北市三重區龍濱路231號","121.501663333333","25.072045","6500200","三重區"
"241028","022-UY","2019/06/29 21:09:32","新北市三重區正義南路60-4號","121.498266666667","25.0604316666667","6500200","三重區"
"241008","059-VK","2019/06/29 21:09:37","新北市三重區自強路一段62號","121.497271666667","25.0666466666667","6500200","三重區"
"241016","060-VK","2019/06/29 21:09:27","新北市三重區信義西街138號","121.495683333333","25.06427","6500200","三重區"
"241031","061-VK","2019/06/29 21:09:45","新北市三重區重新路五段408巷19號","121.475795","25.0455683333333","6500200","三重區"
"241015","062-VK","2019/06/29 21:09:44","新北市三重區長元街75號","121.503078333333","25.0666583333333","6500200","三重區"
"241017","063-VK","2019/06/29 21:09:41","新北市三重區大同北路132巷8號","121.492256666667","25.0647283333333","6500200","三重區"
"241024","065-VK","2019/06/29 21:09:33","新北市三重區國道路一段58巷15號","121.48134","25.07203","6500200","三重區"
"241001","066-VK","2019/06/29 21:09:32","新北市三重區福隆路44號","121.492416666667","25.0783866666667","6500200","三重區"
"241002","090-VK","2019/06/29 21:09:47","新北市三重區五華街16號","121.49488","25.0803016666667","6500200","三重區"
"241003","091-VK","2019/06/29 21:09:28","新北市三重區仁義街224號","121.494981666667","25.0847016666667","6500200","三重區"
"241005","262-UM","2019/06/29 21:09:34","新北市三重區五華街180巷23號","121.48814","25.085755","6500200","三重區"
"241029","266-UM","2019/06/29 21:09:34","新北市三重區正義南路107號","121.498268333333","25.0585633333333","6500200","三重區"
"241009","267-UM","2019/06/29 21:09:33","新北市三重區忠孝路二段124號","121.483043333333","25.06894","6500200","三重區"
"241018","268-UM","2019/06/29 21:09:26","新北市三重區正義北路332-1號","121.49437","25.0705233333333","6500200","三重區"
"241032","269-UM","2019/06/29 21:09:47","新北市三重區中興北街193巷2號","121.469125","25.056795","6500200","三重區"
"241013","270-UM","2019/06/29 21:09:44","新北市三重區仁愛街118號","121.495143333333","25.0745366666667","6500200","三重區"
"241025","271-UM","2019/06/29 21:09:33","新北市三重區忠孝路三段40巷6弄11號","121.482225","25.0669233333333","6500200","三重區"
"241007","398-BY","2019/06/29 21:09:42","新北市三重區三和路四段145巷81號","121.486401666667","25.0786883333333","6500200","三重區"
"241004","475-VK","2019/06/29 21:09:34","新北市三重區仁愛街420號","121.490388333333","25.08141","6500200","三重區"
"241020","478-VK","2019/06/29 21:09:42","新北市三重區忠孝路二段34號","121.485796666667","25.0710116666667","6500200","三重區"
"241026","480-VK","2019/06/29 21:09:33","新北市三重區文化南路42號","121.500426666667","25.06017","6500200","三重區"
"241014","543-UM","2019/06/29 21:09:36","新北市三重區三和路二段37-9號","121.501298333333","25.0676816666667","6500200","三重區"
"241023","545-UM","2019/06/29 21:09:30","新北市三重區洛陽街45巷13號","121.482373333333","25.063745","6500200","三重區"
"241006","AAD-863","2019/06/29 21:09:31","新北市三重區中正北路2號","121.489311666667","25.0631166666667","6500200","三重區"
"241019","743-BX","2019/06/29 21:09:46","新北市三重區自強路二段74巷19號","121.488031666667","25.0699","6500200","三重區"
"241022","KED-0820","2019/06/29 21:09:40","新北市三重區中正北路64巷24號","121.486106666667","25.063705","6500200","三重區"
"241012","941-UM","2019/06/29 21:09:45","新北市三重區龍門路274巷45號","121.501145","25.0755433333333","6500200","三重區"
"241033","AAC-255","2019/06/29 21:09:32","新北市三重區光復路二段170號","121.47207","25.0611466666667","6500200","三重區"
"235055","183-VK","2019/06/29 21:09:38","新北市中和區新生街251號","121.483855","24.9985183333333","6500300","中和區"
"247008","KED-0682","2019/06/29 21:09:48","新北市蘆洲區民生街45號","121.475056666667","25.0788233333333","6501400","蘆洲區"
"235018","911-UM","2019/06/29 20:42:12","新北市中和區員山路36巷16-2號","121.485246666667","24.9918166666667","6500300","中和區"
"247004","893-R6","2019/06/29 21:09:42","新北市蘆洲區永安南路二段276號","121.458055","25.0809583333333","6501400","蘆洲區"
"247018","546-UM","2019/06/29 21:09:32","新北市蘆洲區民族路406號","121.47466","25.0916783333333","6501400","蘆洲區"
"247014","341-TH","2019/06/29 21:09:36","新北市蘆洲區中央路155號","121.472586666667","25.0846416666667","6501400","蘆洲區"
"247024","337-TH","2019/06/29 21:09:42","新北市蘆洲區長興路50巷1號","121.463796666667","25.0838716666667","6501400","蘆洲區"
"247002","336-TH","2019/06/29 21:09:46","新北市蘆洲區永樂街38巷40號","121.45858","25.0901683333333","6501400","蘆洲區"
"247022","057-VK","2019/06/29 21:09:38","新北市蘆洲區三民路237號","121.46934","25.08862","6501400","蘆洲區"
"247012","056-VK","2019/06/29 21:09:38","新北市蘆洲區三民路88號","121.473411666667","25.085515","6501400","蘆洲區"
"247020","007-UY","2019/06/29 21:09:34","新北市蘆洲區民族路484號","121.471346666667","25.09145","6501400","蘆洲區"
"247006","002-UY","2019/06/29 21:09:35","新北市蘆洲區和平路97巷7號","121.467993333333","25.0787183333333","6501400","蘆洲區"
"251009","008-UM","2019/06/29 21:09:40","新北市淡水區民族路176號","121.461816666667","25.1336633333333","6501000","淡水區"
"251004","009-UM","2019/06/29 21:09:46","新北市淡水區民族路33號","121.462303333333","25.1358233333333","6501000","淡水區"
"251005","010-UM","2019/06/29 21:09:47","新北市淡水區博愛街31號","121.446366666667","25.1695","6501000","淡水區"
"251015","KEA-2871","2019/06/29 21:09:39","新北市淡水區淡金路四段542巷91號","121.454171666667","25.2251666666667","6501000","淡水區"
"251016","179-VK","2019/06/29 21:09:48","新北市淡水區前洲子1號","121.445256666667","25.2178316666667","6501000","淡水區"
"251013","182-VK","2019/06/29 21:09:24","新北市淡水區水汴頭68號","121.469838333333","25.2027616666667","6501000","淡水區"
"251010","413-VK","2019/06/29 21:09:42","新北市淡水區中正路一段63巷7弄1號","121.423205","25.17727","6501000","淡水區"
"251012","441-VK","2019/06/29 21:09:37","新北市淡水區淡金路五段151號","121.45543","25.2402816666667","6501000","淡水區"
"251001","559-UM","2019/06/29 21:09:29","新北市淡水區新市一路三段8號","121.445076666667","25.1827866666667","6501000","淡水區"
"251014","577-R6","2019/06/29 21:09:39","新北市淡水區六塊厝1-2號","121.45082","25.24259","6501000","淡水區"
"251011","650-BX","2019/06/29 21:09:39","新北市淡水區新民街120巷45弄24號","121.437801666667","25.179745","6501000","淡水區"
"251002","672-BX","2019/06/29 21:09:38","新北市淡水區學府路99號","121.448293333333","25.17167","6501000","淡水區"
"251003","766-UM","2019/06/29 21:09:29","新北市淡水區新春街126巷5號","121.44072","25.1815166666667","6501000","淡水區"
"247010","KED-0683","2019/06/29 21:09:30","新北市蘆洲區鷺江街38號","121.477385","25.0829916666667","6501400","蘆洲區"
"242056","442-UM","2019/06/29 21:09:31","新北市林口區汕頭32號","121.366676666667","25.134925","6500500","新莊區"
"242048","176-VK","2019/06/29 21:09:35","新北市新莊區中正路797號","121.421366666667","25.028425","6500500","新莊區"
"242034","348-TH","2019/06/29 21:09:41","新北市新莊區中正路334巷25弄2號","121.445408333333","25.0359033333333","6500500","新莊區"
"242007","349-TH","2019/06/29 21:09:30","新北市五股區中直路11-21號","121.42667","25.10967","6500500","新莊區"
"220101","245-BX","2019/06/29 21:09:22","新北市三重區光復路二段129巷2號","121.474968333333","25.0592916666667","6500100","板橋區"
