"lineid","car","time","location","longitude","latitude","cityid","cityname"
"222007","289-BY","2019/09/14 09:49:27","新北市深坑區北深路二段23號","121.620333333333","25.0045233333333","6501800","深坑區"
"231008","192-VK","2019/09/14 09:48:30","新北市新店區平廣路一段185號","121.51695","24.8887683333333","6500600","新店區"
"227004","282-VK","2019/09/14 09:49:42","新北市雙溪區長源里柑腳53號","121.794738333333","25.008165","6502500","雙溪區"
"252004","249-BX","2019/09/14 09:49:23","新北市三芝區圓山里石曹子坑44-1號","121.518336666667","25.21629","6502100","三芝區"
"252007","AAC-283","2019/09/14 09:49:37","新北市三芝區新庄里新庄子95-9號","121.514001666667","25.2743283333333","6502100","三芝區"
"237007","153-BY","2019/09/14 09:49:31","新北市三峽區介壽路二段114號","121.393288333333","24.9357733333333","6500900","三峽區"
"237014","760-BX","2019/09/14 09:47:31","新北市三峽區中山路459巷135號","121.348791666667","24.9330466666667","6500900","三峽區"
