"lineid","car","time","location","longitude","latitude","cityid","cityname"
"234078","298-R6","2019/09/14 14:29:44","新北市永和區永貞路70巷2號","121.520453333333","25.0054533333333","6500400","永和區"
"234036","336-UY","2019/09/14 14:29:43","新北市永和區民樂街31巷10弄12號","121.52889","25.0008766666667","6500400","永和區"
"234062","337-UY","2019/09/14 14:29:30","新北市永和區中正路419號","121.517166666667","25.0049916666667","6500400","永和區"
"234084","338-UY","2019/09/14 14:29:36","新北市永和區永和路二段324號","121.516188333333","25.0164216666667","6500400","永和區"
"234068","552-UM","2019/09/14 14:29:23","新北市永和區永亨路6-1號","121.519396666667","25.005635","6500400","永和區"
"234028","746-BX","2019/09/14 14:29:36","新北市板橋區長江路二段35號","121.463595","25.032515","6500400","永和區"
"234052","KEA-2590","2019/09/14 14:29:42","新北市永和區環河東路一段42號","121.518888333333","25.0169733333333","6500400","永和區"
"234060","AAD-866","2019/09/14 14:29:43","新北市永和區秀朗路一段175號","121.517071666667","25.003745","6500400","永和區"
"234040","862-TW","2019/09/14 14:29:39","新北市永和區安樂路348號","121.514466666667","25.006405","6500400","永和區"
"234048","863-TW","2019/09/14 14:29:38","新北市永和區環河西路二段41號","121.50728","25.015595","6500400","永和區"
"234025","9371-KE","2019/09/14 14:29:28","新北市中和區安樂路255號","121.514096666667","24.9998733333333","6500400","永和區"
"248017","KED-0813","2019/09/14 14:29:31","新北市五股區外寮路13-1號","121.424146666667","25.0809866666667","6501500","五股區"
"234072","AAC-211","2019/09/14 14:29:43","新北市永和區環河東路一段124號","121.520681666667","25.015425","6500400","永和區"
"234001","AAC-295","2019/09/14 14:29:42","新北市永和區大新街55號","121.515903333333","25.0084183333333","6500400","永和區"
"231030","002-UM","2019/09/14 14:29:42","新北市新店區安民街86號","121.51663","24.9673083333333","6500600","新店區"
"231005","046-UY","2019/09/14 14:29:40","新北市新店區順安街59號","121.54078","24.9863416666667","6500600","新店區"
"231029","106-UY","2019/09/14 14:29:29","新北市新店區安康路二段406號","121.496848333333","24.95534","6500600","新店區"
"231013","108-UY","2019/09/14 14:29:36","新北市新店區民權路100-1號","121.536205","24.983355","6500600","新店區"
"231036","110-UY","2019/09/14 14:29:26","新北市新店區安祥路109巷91號","121.477938333333","24.9600666666667","6500600","新店區"
"231033","256-BX","2019/09/14 14:29:27","新北市新店區安業街185號","121.52753","24.9665766666667","6500600","新店區"
"231023","260-TV","2019/09/14 14:29:27","新北市新店區光明街185號","121.539958333333","24.9631183333333","6500600","新店區"
"231003","268-BY","2019/09/14 14:25:08","新北市新店區中興路一段267-2號","121.54488","24.9678583333333","6500600","新店區"
"231035","278-BY","2019/09/14 14:29:35","新北市新店區安光路10-1號","121.513805","24.9641483333333","6500600","新店區"
"231017","AAD-862","2019/09/14 14:29:28","新北市新店區北宜路三段106號","121.57975","24.9503583333333","6500600","新店區"
"231006","355-BY","2019/09/14 14:29:27","新北市新店區北宜路二段503號","121.563473333333","24.9536616666667","6500600","新店區"
"231038","3712-VJ","2019/09/14 14:29:28","新北市新店區安康路一段32號","121.53177","24.9611633333333","6500600","新店區"
"231027","3713-VJ","2019/09/14 14:29:28","新北市新店區北新路二段228巷11號","121.543361666667","24.9772316666667","6500600","新店區"
"231020","513-UM","2019/09/14 14:29:30","新北市新店區新烏路三段69號","121.555186666667","24.90381","6500600","新店區"
"231002","618-UM","2019/09/14 14:29:26","新北市新店區中央路45號","121.532891666667","24.9775366666667","6500600","新店區"
"231034","641-BX","2019/09/14 14:29:44","新北市新店區車子路11號","121.502933333333","24.951675","6500600","新店區"
"231012","KED-0819","2019/09/14 14:29:26","新北市新店區寶興路49號","121.549251666667","24.9731","6500600","新店區"
"231018","718-UY","2019/09/14 14:29:40","新北市新店區中央三街27號","121.52859","24.974075","6500600","新店區"
"231028","897-TW","2019/09/14 14:29:26","新北市新店區安和路一段15號","121.516848333333","24.9643366666667","6500600","新店區"
"231001","898-TW","2019/09/14 14:29:41","新北市新店區中正路75巷71號","121.543126666667","24.9689183333333","6500600","新店區"
"231004","899-TW","2019/09/14 14:29:39","新北市新店區中正路263-2號","121.538483333333","24.9738116666667","6500600","新店區"
"231037","AKT-0513","2019/09/14 14:29:41","新北市新店區安康路二段318號","121.504903333333","24.9584716666667","6500600","新店區"
"235030","003-UY","2019/09/14 14:29:29","新北市中和區中和路136號","121.503508333333","24.9993166666667","6500300","中和區"
"235027","006-UY","2019/09/14 14:29:34","新北市中和區連城路263巷4號","121.492088333333","24.9961333333333","6500300","中和區"
"235020","096-UM","2019/09/14 14:29:32","新北市中和區員山路581巷31弄4號","121.477193333333","25.0103933333333","6500300","中和區"
"235003","097-UM","2019/09/14 14:29:39","新北市永和區中正路70號","121.51349","24.99501","6500300","中和區"
"235029","098-UM","2019/09/14 14:29:36","新北市中和區福祥路90巷7弄5號","121.499581666667","25.0060966666667","6500300","中和區"
"235004","150-BY","2019/09/14 14:29:25","新北市中和區宜安路1巷30弄2號","121.51218","24.9940166666667","6500300","中和區"
"235022","151-BY","2019/09/14 14:29:24","新北市中和區員山路124巷26號","121.482358333333","24.9959716666667","6500300","中和區"
"235019","183-VK","2019/09/14 14:29:32","新北市中和區民生街12巷2號","121.470736666667","25.0056183333333","6500300","中和區"
"235002","185-VK","2019/09/14 14:29:30","新北市中和區立人街3號","121.521865","24.9940516666667","6500300","中和區"
"235013","186-VK","2019/09/14 14:29:36","新北市中和區景新街273巷16號","121.510136666667","24.993895","6500300","中和區"
"235031","255-BX","2019/09/14 14:29:26","新北市中和區新生街220巷25號","121.482641666667","24.9984883333333","6500300","中和區"
"235008","293-VK","2019/09/14 14:29:29","新北市中和區捷運路122號","121.505366666667","24.99146","6500300","中和區"
"235036","301-VK","2019/09/14 14:29:24","新北市中和區中和路74號","121.500795","25.000205","6500300","中和區"
"235007","352-BY","2019/09/14 14:29:38","新北市中和區景平路404號","121.50905","24.9931566666667","6500300","中和區"
"235006","KEA-2878","2019/09/14 14:29:25","新北市中和區宜安路119巷12號","121.509263333333","24.9983683333333","6500300","中和區"
"247015","KEA-2869","2019/09/14 14:29:44","新北市蘆洲區中正路185巷78弄48號","121.465591666667","25.0853033333333","6501400","蘆洲區"
"247009","KED-0682","2019/09/14 14:29:25","新北市蘆洲區信義路132-1號","121.479515","25.082855","6501400","蘆洲區"
"235034","558-UM","2019/09/14 14:29:25","新北市中和區景平路587-1號","121.497465","25.0003916666667","6500300","中和區"
"235009","565-BX","2019/09/14 14:29:43","新北市中和區安樂路1號","121.511625","24.9918516666667","6500300","中和區"
"235018","640-BX","2019/09/14 14:29:30","新北市中和區莒光路258號","121.467726666667","24.9939016666667","6500300","中和區"
"235024","647-TV","2019/09/14 14:29:39","新北市中和區中山路二段523巷41號","121.482233333333","25.0032166666667","6500300","中和區"
"235011","732-UM","2019/09/14 14:29:26","新北市中和區景平路329巷1弄4號","121.506083333333","24.9929033333333","6500300","中和區"
"235010","733-UM","2019/09/14 14:29:29","新北市中和區忠孝街37巷52號","121.511106666667","24.9848833333333","6500300","中和區"
"235074","783-BX","2019/09/14 14:29:42","新北市中和區連城路467-6號","121.483613333333","24.99597","6500300","中和區"
"235021","801-TS","2019/09/14 14:29:34","新北市中和區員山路150-1號","121.481276666667","24.997285","6500300","中和區"
"235005","802-TS","2019/09/14 14:29:37","新北市永和區中和路307號","121.506535","24.9996366666667","6500300","中和區"
"235016","805-TS","2019/09/14 14:29:27","新北市中和區華新街143巷63弄2號","121.50643","24.97925","6500300","中和區"
"235012","896-TW","2019/09/14 14:29:31","新北市中和區忠孝街39-13號","121.51204","24.984475","6500300","中和區"
"235017","900-TW","2019/09/14 14:29:36","新北市中和區民德路197-2號","121.4686","24.9989033333333","6500300","中和區"
"235015","157-BY","2019/09/14 14:29:45","新北市中和區板南路132號","121.502428333333","24.9925483333333","6500300","中和區"
"235001","AAC-213","2019/09/14 14:29:41","新北市中和區秀朗路三段107號","121.526435","24.9945883333333","6500300","中和區"
"235023","AAC-215","2019/09/14 14:29:27","新北市中和區圓通路333號","121.491928333333","24.990605","6500300","中和區"
"220013","072-UY","2019/09/14 14:29:24","新北市板橋區實踐路93巷77號","121.467121666667","25.0054016666667","6500100","板橋區"
"220034","073-UY","2019/09/14 14:29:38","新北市板橋區中正路214號","121.456093333333","25.0184","6500100","板橋區"
"220105","075-UY","2019/09/14 14:29:31","新北市板橋區文化路二段548巷27號","121.476766666667","25.0337216666667","6500100","板橋區"
"220017","AAD-861","2019/09/14 14:29:37","新北市板橋區貴興路106巷16弄2號","121.45485","25.0032566666667","6500100","板橋區"
"220016","120-SR","2019/09/14 14:29:27","新北市板橋區中山路二段555號","121.483926666667","25.021765","6500100","板橋區"
"247005","893-R6","2019/09/14 14:29:39","新北市蘆洲區中華街52號","121.461751666667","25.0802683333333","6501400","蘆洲區"
"247019","546-UM","2019/09/14 14:29:39","新北市蘆洲區水湳街271號","121.469503333333","25.09267","6501400","蘆洲區"
"247017","500-BY","2019/09/14 14:29:37","新北市蘆洲區民族路364號","121.475935","25.0908666666667","6501400","蘆洲區"
"247007","341-TH","2019/09/14 14:29:40","新北市蘆洲區民生街41號","121.475218333333","25.0789083333333","6501400","蘆洲區"
"247003","336-TH","2019/09/14 14:29:34","新北市蘆洲區長安街295號","121.458173333333","25.084665","6501400","蘆洲區"
"247023","057-VK","2019/09/14 14:29:33","新北市蘆洲區中正路263巷2號","121.467325","25.08743","6501400","蘆洲區"
"247013","056-VK","2019/09/14 14:29:31","新北市蘆洲區中正路33號","121.471205","25.082275","6501400","蘆洲區"
"247001","001-UY","2019/09/14 14:29:32","新北市蘆洲區永樂街38巷33弄38號","121.457061666667","25.0897916666667","6501400","蘆洲區"
"228005","097-TW","2019/09/14 14:29:29","新北市貢寮區美豐里巫里岸9-1號","121.901946666667","25.0701083333333","6502600","貢寮區"
"228004","212-TW","2019/09/14 14:29:28","新北市貢寮區雙玉里田寮洋街33-1號","121.93379","25.0146533333333","6502600","貢寮區"
"253003","6232-TK","2019/09/14 14:29:31","新北市石門區尖子鹿47-1號","121.580266666667","25.2680716666667","6502200","石門區"
"253004","6251-TK","2019/09/14 14:29:41","新北市石門區內阿里磅1號","121.592283333333","25.2545016666667","6502200","石門區"
"253002","637-UY","2019/09/14 14:29:29","新北市石門區七股1號","121.546065","25.2760666666667","6502200","石門區"
"253001","KEC-0718","2019/09/14 14:27:58","新北市石門區崁子腳71號","121.532891666667","25.2835683333333","6502200","石門區"
"207002","749-BX","2019/09/14 14:28:43","新北市萬里區溪底里福德坑路2號","121.625546666667","25.15639","6502800","萬里區"
"252005","073-UM","2019/09/14 14:29:35","新北市三芝區橫山里橫山43號","121.53638","25.2572883333333","6502100","三芝區"
"207001","662-BX","2019/09/14 14:29:44","新北市萬里區磺潭里清水18-2號","121.63853","25.19838","6502800","萬里區"
"237007","153-BY","2019/09/14 14:29:35","新北市三峽區中山路286號","121.36092","24.9380533333333","6500900","三峽區"
"237014","760-BX","2019/09/14 14:29:37","新北市三峽區復興路183號","121.368855","24.938915","6500900","三峽區"
"236040","KED-0685","2019/09/14 14:29:38","新北市土城區裕民路67巷4弄8號","121.450051666667","24.9877566666667","6501300","土城區"
"236029","253-BX","2019/09/14 14:29:33","新北市土城區水源街2號","121.44149","24.974945","6501300","土城區"
"236024","269-VK","2019/09/14 14:29:35","新北市土城區承天路18號","121.43918","24.9636083333333","6501300","土城區"
"236013","270-VK","2019/09/14 14:29:43","新北市土城區青雲路39巷7號","121.460308333333","24.9874","6501300","土城區"
"236032","271-VK","2019/09/14 14:29:34","新北市土城區青雲路369號","121.45885","24.9761","6501300","土城區"
"247011","KED-0683","2019/09/14 14:29:35","新北市蘆洲區集賢路224巷37弄10-1號","121.480633333333","25.0882066666667","6501400","蘆洲區"
"236068","KEA-2877","2019/09/14 14:29:26","新北市土城區永豐路255巷23弄2號","121.475306666667","24.9733483333333","6501300","土城區"
"236017","401-BY","2019/09/14 14:29:41","新北市土城區永豐路202巷14號","121.466251666667","24.983345","6501300","土城區"
"236057","912-UM","2019/09/14 14:29:35","新北市土城區中央路四段25-8號","121.424643333333","24.9624366666667","6501300","土城區"
"236045","913-UM","2019/09/14 14:29:31","新北市土城區明德路一段293號","121.460178333333","24.9772616666667","6501300","土城區"
"236060","915-UM","2019/09/14 14:29:44","新北市中和區民享街492號","121.469641666667","24.992265","6501300","土城區"
"236054","AAC-216","2019/09/14 14:29:40","新北市土城區中華路一段243-8號","121.441095","24.9820816666667","6501300","土城區"
"220027","145-BY","2019/09/14 14:29:31","新北市板橋區公館街27號","121.461086666667","25.015325","6500100","板橋區"
"220028","200-UY","2019/09/14 14:29:35","新北市板橋區大觀路二段37巷87-1號","121.450413333333","25.002335","6500100","板橋區"
"220030","610-BX","2019/09/14 14:29:40","新北市板橋區金門街314號","121.428676666667","24.985175","6500100","板橋區"
"220040","267-BY","2019/09/14 14:29:25","新北市板橋區文聖街149巷25號","121.479493333333","25.0286083333333","6500100","板橋區"
"220004","276-BY","2019/09/14 14:29:40","新北市板橋區國慶路8號","121.45804","24.9944933333333","6500100","板橋區"
"220020","277-BY","2019/09/14 14:29:41","新北市板橋區金門街215巷2弄52號","121.433075","24.988535","6500100","板橋區"
"220050","280-UM","2019/09/14 14:29:43","新北市板橋區萬板路36號","121.471978333333","25.02265","6500100","板橋區"
"220043","283-UM","2019/09/14 14:29:40","新北市板橋區銘傳街41號","121.468703333333","25.0312166666667","6500100","板橋區"
"220001","285-VK","2019/09/14 14:29:31","新北市板橋區富山街85巷6弄2號","121.476581666667","25.02114","6500100","板橋區"
"220031","286-VK","2019/09/14 14:29:34","新北市板橋區龍興街73巷46號","121.442171666667","25.00287","6500100","板橋區"
"220029","287-VK","2019/09/14 14:29:35","新北市板橋區大觀路一段75巷45號","121.44917","25.00412","6500100","板橋區"
"220009","293-UM","2019/09/14 14:29:32","新北市板橋區中山路一段283巷10號","121.47017","25.0149633333333","6500100","板橋區"
"220010","295-UM","2019/09/14 14:29:29","新北市板橋區三民路二段123巷30號","121.480528333333","25.01558","6500100","板橋區"
"220032","296-UM","2019/09/14 14:29:42","新北市板橋區篤行路三段玉平巷70號","121.428168333333","24.985925","6500100","板橋區"
"220014","299-UM","2019/09/14 14:29:25","新北市板橋區長安街138巷8號","121.472896666667","25.0092966666667","6500100","板橋區"
"220023","303-R5","2019/09/14 14:29:21","新北市板橋區中正路275巷93號","121.450846666667","25.0181166666667","6500100","板橋區"
"220041","307-R5","2019/09/14 14:29:27","新北市板橋區陽明街164巷29號","121.464625","25.0246166666667","6500100","板橋區"
"220047","317-R6","2019/09/14 14:29:24","新北市板橋區四維路266巷2弄25-1號","121.464123333333","25.0281066666667","6500100","板橋區"
"220038","487-VK","2019/09/14 14:29:21","新北市板橋區龍泉街135號","121.457641666667","25.0240133333333","6500100","板橋區"
"220037","491-VK","2019/09/14 14:29:42","新北市板橋區文化路二段389號","121.47357","25.0312833333333","6500100","板橋區"
"220104","560-BX","2019/09/14 14:29:43","新北市板橋區中正路433巷1弄6號","121.453763333333","25.0230366666667","6500100","板橋區"
"220052","561-BX","2019/09/14 14:29:40","新北市板橋區陽明街29巷1弄2號","121.465028333333","25.0214316666667","6500100","板橋區"
"220019","568-UM","2019/09/14 14:29:42","新北市板橋區忠孝路48巷9弄19號","121.462066666667","25.0004266666667","6500100","板橋區"
"220011","609-BX","2019/09/14 14:29:37","新北市板橋區三民路一段3巷33號","121.480168333333","25.0239116666667","6500100","板橋區"
"220005","686-BX","2019/09/14 14:29:32","新北市板橋區廣和街60號","121.462025","24.9939116666667","6500100","板橋區"
"220025","687-BX","2019/09/14 14:29:38","新北市板橋區大觀路二段57號","121.446705","25.0026916666667","6500100","板橋區"
"220042","689-BX","2019/09/14 14:29:29","新北市板橋區新海路407號","121.45841","25.0269233333333","6500100","板橋區"
"220002","741-BX","2019/09/14 14:29:31","新北市板橋區光明街52號","121.460756666667","25.0026183333333","6500100","板橋區"
"220051","KEA-2699","2019/09/14 14:29:35","新北市板橋區松柏街36巷19號","121.475416666667","25.0296216666667","6500100","板橋區"
"220003","827-TW","2019/09/14 14:29:29","新北市板橋區重慶路278巷20-3號","121.462703333333","24.9996833333333","6500100","板橋區"
"220039","831-TW","2019/09/14 14:29:27","新北市板橋區新海路431巷14號","121.457871666667","25.0270533333333","6500100","板橋區"
"220022","895-R6","2019/09/14 14:29:32","新北市板橋區北門街23號","121.45673","25.0110466666667","6500100","板橋區"
"220021","985-R7","2019/09/14 14:29:35","新北市板橋區中正路360巷61號","121.45678","25.022875","6500100","板橋區"
"220046","AAC-210","2019/09/14 14:29:25","新北市板橋區文化路一段285巷2弄1號","121.46461","25.0190566666667","6500100","板橋區"
"220012","AAC-253","2019/09/14 14:29:26","新北市板橋區中山路一段50-1號","121.460955","25.0092283333333","6500100","板橋區"
"235032","KEA-2873","2019/09/14 14:29:40","新北市中和區莊敬路16巷15弄1-1號","121.50026","25.00375","6500300","中和區"
"235025","KEA-2875","2019/09/14 14:29:30","新北市中和區新生街176巷24號","121.482548333333","24.9999116666667","6500300","中和區"
"235026","KEA-2876","2019/09/14 14:29:31","新北市中和區立業路70號","121.491931666667","25.0073333333333","6500300","中和區"
