"lineid","car","time","location","longitude","latitude","cityid","cityname"
"234025","9371-KE","2019/09/14 15:09:27","新北市永和區保生路55-1號","121.504546666667","25.0108916666667","6500400","永和區"
"248017","KED-0813","2019/09/14 15:09:31","新北市五股區登林路97-2號","121.415783333333","25.0754616666667","6501500","五股區"
"231030","002-UM","2019/09/14 15:09:42","新北市新店區安民街341-1號","121.516853333333","24.974965","6500600","新店區"
"231024","0291-UT","2019/09/14 15:09:32","新北市新店區中華路42巷27號","121.540971666667","24.9691083333333","6500600","新店區"
"231005","046-UY","2019/09/14 15:09:40","新北市新店區北新路三段94號","121.541926666667","24.9809666666667","6500600","新店區"
"231029","106-UY","2019/09/14 15:09:29","新北市新店區錦秀路1-1號","121.47904","24.945695","6500600","新店區"
"231036","110-UY","2019/09/14 15:09:26","新北市新店區安祥路104巷11弄2號","121.481291666667","24.963515","6500600","新店區"
"231039","187-VK","2019/09/14 15:09:40","新北市新店區寶安街17號","121.542035","24.9819633333333","6500600","新店區"
"231033","256-BX","2019/09/14 15:09:27","新北市新店區安泰路60巷55弄111號","121.484493333333","24.9462616666667","6500600","新店區"
"231023","260-TV","2019/09/14 15:09:27","新北市新店區檳榔路109號","121.544591666667","24.9616","6500600","新店區"
"231003","268-BY","2019/09/14 15:09:44","新北市新店區寶橋路230號","121.551391666667","24.978855","6500600","新店區"
"231035","278-BY","2019/09/14 15:09:43","新北市新店區安和路三段112號","121.517235","24.9854683333333","6500600","新店區"
"231017","AAD-862","2019/09/14 15:09:28","新北市新店區銀河路57號","121.577325","24.9578666666667","6500600","新店區"
"231006","355-BY","2019/09/14 15:09:27","新北市新店區新坡一街19號","121.549643333333","24.9630083333333","6500600","新店區"
"231038","3712-VJ","2019/09/14 15:09:28","新北市新店區安一路一段1-1號","121.519418333333","24.961175","6500600","新店區"
"231025","4715-K9","2019/09/14 15:09:39","新北市新店區民權路126號","121.535025","24.9828966666667","6500600","新店區"
"231020","513-UM","2019/09/14 15:09:30","新北市新店區永興路102-4號","121.54607","24.9302016666667","6500600","新店區"
"231002","618-UM","2019/09/14 15:09:33","新北市新店區中正路684號","121.534033333333","24.9901116666667","6500600","新店區"
"231034","641-BX","2019/09/14 15:09:24","新北市新店區玫瑰路4-1號","121.493591666667","24.951355","6500600","新店區"
"231012","KED-0819","2019/09/14 15:09:26","新北市新店區寶元路一段65號","121.542228333333","24.9858516666667","6500600","新店區"
"231018","718-UY","2019/09/14 15:09:40","新北市新店區中央六街119號","121.525036666667","24.9775583333333","6500600","新店區"
"231026","720-UM","2019/09/14 15:09:30","新北市新店區建興街9巷1號","121.539873333333","24.9763266666667","6500600","新店區"
"231028","897-TW","2019/09/14 15:09:41","新北市新店區安豐路49號","121.500018333333","24.954835","6500600","新店區"
"231001","898-TW","2019/09/14 15:09:41","新北市新店區中正路251號","121.538996666667","24.9734633333333","6500600","新店區"
"231004","899-TW","2019/09/14 15:09:39","新北市新店區建國路13號","121.539888333333","24.973505","6500600","新店區"
"231037","AKT-0513","2019/09/14 15:09:41","新北市新店區安興路56號","121.516466666667","24.9750166666667","6500600","新店區"
"235030","003-UY","2019/09/14 15:09:29","新北市中和區水源路128號","121.507718333333","25.0030983333333","6500300","中和區"
"235019","183-VK","2019/09/14 15:09:32","新北市八里區商港路50號","121.395611666667","25.1459266666667","6500300","中和區"
"235036","301-VK","2019/09/14 15:09:44","新北市中和區連城路253號","121.492768333333","24.9967383333333","6500300","中和區"
"235007","352-BY","2019/09/14 15:09:38","新北市中和區興南路二段159巷7號","121.505328333333","24.9830466666667","6500300","中和區"
"235014","4979-A6","2019/09/14 15:09:32","新北市中和區安樂路66號","121.512221666667","24.9932166666667","6500300","中和區"
"235033","4980-A6","2019/09/14 15:09:02","新北市中和區景新街64巷16號","121.503755","24.998405","6500300","中和區"
"235034","558-UM","2019/09/14 15:09:25","新北市中和區中正路562號","121.486696666667","24.9945783333333","6500300","中和區"
"235018","640-BX","2019/09/14 15:09:30","新北市新店區安興路97號","121.514323333333","24.97752","6500300","中和區"
"235012","896-TW","2019/09/14 15:09:31","新北市中和區興南路一段130號","121.509268333333","24.988325","6500300","中和區"
"235001","AAC-213","2019/09/14 15:09:21","新北市板橋區民生路二段15-1號","121.472961666667","25.016075","6500300","中和區"
"235023","AAC-215","2019/09/14 15:09:27","新北市中和區圓通路367巷13弄29-7號","121.493128333333","24.988265","6500300","中和區"
"220013","072-UY","2019/09/14 15:09:43","新北市板橋區民族路166號","121.464745","25.0082966666667","6500100","板橋區"
"220034","073-UY","2019/09/14 15:09:28","新北市板橋區大觀路一段31號","121.449901666667","25.008525","6500100","板橋區"
"228004","212-TW","2019/09/14 15:09:28","新北市貢寮區雙玉里田寮洋街20號","121.922793333333","25.0240816666667","6502600","貢寮區"
"253004","6251-TK","2019/09/14 15:09:41","新北市石門區茂林社區3-1號","121.592018333333","25.2710633333333","6502200","石門區"
"253002","637-UY","2019/09/14 15:09:29","新北市石門區楓林28-2號","121.542061666667","25.28907","6502200","石門區"
"207002","749-BX","2019/09/14 15:09:23","新北市萬里區崁腳里崁腳路42號","121.651838333333","25.161335","6502800","萬里區"
"252005","073-UM","2019/09/14 15:09:35","新北市三芝區埔坪里埔頭坑94號","121.510046666667","25.25027","6502100","三芝區"
"207001","662-BX","2019/09/14 15:09:24","新北市萬里區雙興里豐稟路4-1號","121.648376666667","25.1856216666667","6502800","萬里區"
"237007","153-BY","2019/09/14 14:52:02","新北市三峽區中山路459巷137號","121.349875","24.9338683333333","6500900","三峽區"
"237014","760-BX","2019/09/14 14:54:51","新北市三峽區中山路459巷135號","121.34885","24.93303","6500900","三峽區"
"236040","KED-0685","2019/09/14 15:09:38","新北市土城區金城路二段210-1號","121.4557","24.9822066666667","6501300","土城區"
"236029","253-BX","2019/09/14 15:09:28","新北市土城區福祥街64號","121.441538333333","24.9815583333333","6501300","土城區"
"236024","269-VK","2019/09/14 15:09:35","新北市土城區中央路二段232號","121.442006666667","24.9751416666667","6501300","土城區"
"236013","270-VK","2019/09/14 15:09:23","新北市土城區學府路一段99巷1號","121.456298333333","24.9876","6501300","土城區"
"236032","271-VK","2019/09/14 15:09:34","新北市土城區清水路98巷3弄45號","121.458508333333","24.9808866666667","6501300","土城區"
"236068","KEA-2877","2019/09/14 15:09:46","新北市土城區學成路132號","121.449093333333","24.9896733333333","6501300","土城區"
"236017","401-BY","2019/09/14 15:09:41","新北市土城區延峰街11號","121.46873","24.98638","6501300","土城區"
"236057","912-UM","2019/09/14 15:09:35","新北市土城區金城路一段131號","121.444918333333","24.9737316666667","6501300","土城區"
"236045","913-UM","2019/09/14 15:09:40","新北市土城區清水路211號","121.46055","24.9820466666667","6501300","土城區"
"236054","AAC-216","2019/09/14 15:09:40","新北市土城區學府路一段220號","121.452133333333","24.9852083333333","6501300","土城區"
"220027","145-BY","2019/09/14 15:09:31","新北市板橋區建國街54巷7號","121.459168333333","25.0169416666667","6500100","板橋區"
"220028","200-UY","2019/09/14 15:09:30","新北市板橋區大觀路二段153巷44弄53號","121.446098333333","24.9989066666667","6500100","板橋區"
"220030","610-BX","2019/09/14 15:09:34","新北市板橋區篤行路二段129號","121.431311666667","24.9904816666667","6500100","板橋區"
"220040","267-BY","2019/09/14 15:09:25","新北市板橋區懷德街139巷20弄66號","121.480305","25.0304066666667","6500100","板橋區"
"220050","280-UM","2019/09/14 15:09:41","新北市板橋區雙十路二段47巷2弄14號","121.475841666667","25.0266316666667","6500100","板橋區"
"220031","286-VK","2019/09/14 15:09:34","新北市板橋區僑中二街90巷34號","121.444671666667","25.00945","6500100","板橋區"
"220029","287-VK","2019/09/14 15:09:31","新北市板橋區僑中一街80巷12弄1號","121.448108333333","25.0131616666667","6500100","板橋區"
"220010","295-UM","2019/09/14 15:09:30","新北市板橋區萬安街20巷2弄13號","121.485263333333","25.0227233333333","6500100","板橋區"
"220023","303-R5","2019/09/14 15:09:21","新北市板橋區金華街10巷48弄60號","121.459366666667","25.0202416666667","6500100","板橋區"
"220038","487-VK","2019/09/14 15:09:41","新北市板橋區四維路292號","121.46283","25.0291866666667","6500100","板橋區"
"220005","686-BX","2019/09/14 15:09:33","新北市板橋區四川路二段130巷43號","121.449563333333","24.9947066666667","6500100","板橋區"
"220025","687-BX","2019/09/14 15:09:31","新北市板橋區僑中一街102巷7弄18號","121.446208333333","25.01322","6500100","板橋區"
"220042","689-BX","2019/09/14 15:09:41","新北市板橋區長江路一段59號","121.458966666667","25.0293033333333","6500100","板橋區"
"220002","741-BX","2019/09/14 15:09:31","新北市板橋區忠孝路忠義巷7號","121.465493333333","25.0036716666667","6500100","板橋區"
"220051","KEA-2699","2019/09/14 15:09:30","新北市板橋區莒光路79巷6號","121.47198","25.024435","6500100","板橋區"
"220003","827-TW","2019/09/14 15:09:29","新北市板橋區重慶路308巷22-4號","121.463498333333","24.9973783333333","6500100","板橋區"
"220022","895-R6","2019/09/14 15:09:32","新北市板橋區明德街22號","121.46008","25.0108766666667","6500100","板橋區"
"220012","AAC-253","2019/09/14 15:09:32","新北市板橋區區運路37號","121.466266666667","25.01034","6500100","板橋區"
"235062","KEA-2876","2019/09/14 15:00:24","新北市中和區員山路36巷16-3號","121.484935","24.9914066666667","6500300","中和區"
