"lineid","car","time","location","longitude","latitude","cityid","cityname"
"249005","172-UM","2019/09/14 16:49:36","新北市八里區大堀湖2-3號","121.422615","25.1537616666667","6502300","八里區"
"249004","303-UY","2019/09/14 16:49:29","新北市八里區博物館路202巷38號","121.405453333333","25.1597366666667","6502300","八里區"
"249002","305-UY","2019/09/14 16:49:40","新北市八里區牛寮埔33號","121.429965","25.1456533333333","6502300","八里區"
"249003","593-UM","2019/09/14 16:49:27","新北市八里區中山路二段283號","121.401586666667","25.1486533333333","6502300","八里區"
"231046","719-UM","2019/09/14 16:43:13","新北市新店區灣潭路3-5號","121.538053333333","24.9508033333333","6500600","新店區"
"241011","013-R5","2019/09/14 16:49:23","新北市三重區仁愛街53巷162號","121.499841666667","25.07284","6500200","三重區"
"241028","022-UY","2019/09/14 16:49:31","新北市三重區光興街95號","121.497288333333","25.0599383333333","6500200","三重區"
"241008","059-VK","2019/09/14 16:49:33","新北市三重區永福街179巷40號","121.477551666667","25.074805","6500200","三重區"
"241005","060-VK","2019/09/14 16:49:40","新北市三重區碧華街53號","121.484473333333","25.081595","6500200","三重區"
"241031","061-VK","2019/09/14 16:49:33","新北市三重區過圳街42-1號","121.488198333333","25.0598616666667","6500200","三重區"
"241015","062-VK","2019/09/14 16:49:44","新北市三重區長元西街1號","121.498795","25.0657533333333","6500200","三重區"
"241017","063-VK","2019/09/14 16:49:25","新北市三重區國隆路8巷17號","121.49297","25.0635833333333","6500200","三重區"
"241024","065-VK","2019/09/14 16:49:37","新北市三重區中正北路317巷16-1號","121.475245","25.0729816666667","6500200","三重區"
"241007","066-VK","2019/09/14 16:49:28","新北市三重區三和路四段181巷57號","121.484116666667","25.0794283333333","6500200","三重區"
"241002","090-VK","2019/09/14 16:49:40","新北市三重區仁義街143巷86號","121.498728333333","25.0813333333333","6500200","三重區"
"241003","091-VK","2019/09/14 16:49:41","新北市三重區五華街87巷36號","121.493083333333","25.0839833333333","6500200","三重區"
"241006","262-UM","2019/09/14 16:49:14","新北市三重區力行路二段184號","121.483301666667","25.0773066666667","6500200","三重區"
"241016","266-UM","2019/09/14 16:49:24","新北市三重區大同北路135巷23號","121.493548333333","25.06477","6500200","三重區"
"241009","267-UM","2019/09/14 16:49:40","新北市三重區溪尾街220號","121.487763333333","25.0814683333333","6500200","三重區"
"241018","268-UM","2019/09/14 16:49:33","新北市三重區安慶街149巷14號","121.494241666667","25.0692433333333","6500200","三重區"
"241032","269-UM","2019/09/14 16:49:27","新北市三重區重陽路一段120巷35號","121.485111666667","25.0601983333333","6500200","三重區"
"241013","270-UM","2019/09/14 16:49:37","新北市三重區仁壽街40號","121.49737","25.07359","6500200","三重區"
"241025","271-UM","2019/09/14 16:49:39","新北市三重區中正北路357號","121.472673333333","25.0717383333333","6500200","三重區"
"241030","KED-0822","2019/09/14 16:49:27","新北市三重區新興路14號","121.492405","25.0530083333333","6500200","三重區"
"241004","475-VK","2019/09/14 16:49:30","新北市三重區仁愛街397巷48號","121.491975","25.081475","6500200","三重區"
"241020","478-VK","2019/09/14 16:49:39","新北市三重區忠孝路二段34號","121.485776666667","25.071065","6500200","三重區"
"241026","480-VK","2019/09/14 16:49:39","新北市三重區文化南路36號","121.500456666667","25.0613516666667","6500200","三重區"
"241014","543-UM","2019/09/14 16:49:23","新北市三重區長榮路75號","121.502638333333","25.0691483333333","6500200","三重區"
"241023","545-UM","2019/09/14 16:49:39","新北市三重區新北大道一段206巷16號","121.482585","25.0622116666667","6500200","三重區"
"241001","547-UM","2019/09/14 16:49:31","新北市三重區仁政街56號","121.492788333333","25.076955","6500200","三重區"
"241019","KEA-2593","2019/09/14 16:49:25","新北市三重區三張街149巷10弄15號","121.48579","25.0697816666667","6500200","三重區"
"241022","KED-0820","2019/09/14 16:49:34","新北市三重區貴陽街47巷2號","121.484835","25.06276","6500200","三重區"
"241012","941-UM","2019/09/14 16:49:36","新北市三重區仁壽街214號","121.50171","25.07509","6500200","三重區"
"241029","942-UM","2019/09/14 16:49:40","新北市三重區新興路29號","121.492311666667","25.0535633333333","6500200","三重區"
"241033","AAC-255","2019/09/14 16:49:28","新北市三重區新北大道二段65號","121.469151666667","25.0609883333333","6500200","三重區"
"235064","911-UM","2019/09/14 16:46:40","新北市中和區員山路36巷16-3號","121.485058333333","24.99125","6500300","中和區"
"247008","341-TH","2019/09/14 16:49:35","新北市蘆洲區中山一路174號","121.474331666667","25.081265","6501400","蘆洲區"
"247014","056-VK","2019/09/14 16:49:27","新北市蘆洲區三民路89號","121.474245","25.084575","6501400","蘆洲區"
"228003","097-TW","2019/09/14 16:49:26","新北市貢寮區貢寮里朝陽街1-2號","121.912393333333","25.0212433333333","6502600","貢寮區"
"228001","212-TW","2019/09/14 16:49:29","新北市貢寮區貢寮里朝陽街1-2號","121.912275","25.02128","6502600","貢寮區"
"228002","663-BX","2019/09/14 16:49:34","新北市貢寮區貢寮里朝陽街142號","121.906568333333","25.02286","6502600","貢寮區"
"224007","285-BY","2019/09/14 16:49:32","新北市瑞芳區中央路48巷54號","121.760761666667","25.10338","6501200","瑞芳區"
"224009","275-VK","2019/09/14 16:49:29","新北市瑞芳區民權街3-1號","121.809341666667","25.108345","6501200","瑞芳區"
"224008","273-VK","2019/09/14 16:49:33","新北市瑞芳區大寮路356-1號","121.785486666667","25.1031266666667","6501200","瑞芳區"
"224005","271-BY","2019/09/14 16:49:14","新北市瑞芳區洞頂路133號","121.860275","25.118445","6501200","瑞芳區"
"227001","642-TC","2019/09/14 16:49:29","新北市雙溪區三貂里子崙坑1-6號","121.849855","25.0574433333333","6502500","雙溪區"
"251004","009-UM","2019/09/14 16:49:41","新北市淡水區中正路一段87巷1號","121.421496666667","25.1789666666667","6501000","淡水區"
"251015","KEA-2871","2019/09/14 16:49:32","新北市淡水區忠愛街4號","121.459536666667","25.1713733333333","6501000","淡水區"
"251016","179-VK","2019/09/14 16:49:39","新北市淡水區北新路二段48號","121.477813333333","25.1856833333333","6501000","淡水區"
"251008","181-VK","2019/09/14 16:49:41","新北市淡水區樹梅坑9號","121.472873333333","25.1425683333333","6501000","淡水區"
"251013","182-VK","2019/09/14 16:49:41","新北市淡水區泉洲厝32號","121.489283333333","25.1926283333333","6501000","淡水區"
"251007","442-VK","2019/09/14 16:49:43","新北市淡水區中正路二段10號","121.420626666667","25.1803966666667","6501000","淡水區"
"251014","577-R6","2019/09/14 16:49:26","新北市淡水區淡金路四段476號","121.452448333333","25.2239133333333","6501000","淡水區"
"251011","650-BX","2019/09/14 16:49:29","新北市淡水區文化路16號","121.439903333333","25.172505","6501000","淡水區"
"252002","178-VK","2019/09/14 16:49:33","新北市三芝區茂長里陳厝坑12-1號","121.514666666667","25.2553633333333","6502100","三芝區"
"252001","292-VK","2019/09/14 16:49:40","新北市三芝區淡金路二段89-1號","121.503968333333","25.2608516666667","6502100","三芝區"
"247012","KED-0683","2019/09/14 16:49:45","新北市蘆洲區中正路520巷9號","121.463088333333","25.0998183333333","6501400","蘆洲區"
"242042","AAC-296","2019/09/14 16:49:38","新北市新莊區新泰路357巷3弄57號","121.442165","25.0396","6500500","新莊區"
"242004","751-BX","2019/09/14 16:49:30","新北市新莊區三和路12-21號","121.442355","25.0383916666667","6500500","新莊區"
"242031","175-VK","2019/09/14 16:49:44","新北市新莊區三和路12-21號","121.441925","25.0387233333333","6500500","新莊區"
"239007","AAC-297","2019/09/14 16:49:38","新北市鶯歌區二甲路13-16號","121.345065","24.9352183333333","6500800","鶯歌區"
"239008","527-UM","2019/09/14 16:49:31","新北市鶯歌區二甲路13-16號","121.344903333333","24.9349633333333","6500800","鶯歌區"
"239005","526-UM","2019/09/14 16:49:26","新北市鶯歌區二甲路13-16號","121.345188333333","24.9350216666667","6500800","鶯歌區"
"233001","KEA-2870","2019/09/14 16:49:31","新北市烏來區啦卡路16-5號","121.564631666667","24.8557666666667","6502900","烏來區"
"242011","280-VK","2019/09/14 16:49:35","新北市新莊區三和路12-21號","121.441995","25.0383683333333","6500500","新莊區"
"235062","KEA-2876","2019/09/14 16:49:41","新北市中和區連城路469巷79弄26號","121.484106666667","24.99357","6500300","中和區"
