"lineid","car","time","location","longitude","latitude","cityid","cityname"
"249005","172-UM","2019/09/14 17:09:36","新北市八里區華富山6-8號","121.419698333333","25.14304","6502300","八里區"
"249001","173-UM","2019/09/14 17:09:31","新北市八里區中華路二段249-1號","121.404041666667","25.148375","6502300","八里區"
"249004","303-UY","2019/09/14 17:09:29","新北市八里區忠孝路201號","121.422141666667","25.1608516666667","6502300","八里區"
"249002","305-UY","2019/09/14 17:09:40","新北市八里區米倉14-2號","121.43952","25.1499","6502300","八里區"
"249003","593-UM","2019/09/14 17:09:27","新北市八里區中山路二段401號","121.398003333333","25.14671","6502300","八里區"
"244007","080-UY","2019/09/14 17:09:24","新北市林口區菁埔26-68號","121.376551666667","25.0953366666667","6501700","林口區"
"244023","483-VK","2019/09/14 17:09:42","新北市林口區仁愛路一段669號","121.387538333333","25.076665","6501700","林口區"
"244009","656-BX","2019/09/14 17:09:44","新北市林口區文化北路二段552號","121.377868333333","25.0927216666667","6501700","林口區"
"244011","701-TV","2019/09/14 17:09:42","新北市林口區粉寮路二段160巷28號","121.405196666667","25.0907416666667","6501700","林口區"
"244025","837-TS","2019/09/14 17:09:40","新北市林口區文化三路二段300號","121.377238333333","25.083725","6501700","林口區"
"244021","838-TS","2019/09/14 17:09:37","新北市林口區粉寮路60-16號","121.404381666667","25.0897616666667","6501700","林口區"
"231046","719-UM","2019/09/14 17:02:33","新北市新店區灣潭路15-2號","121.542568333333","24.9431116666667","6500600","新店區"
"241011","013-R5","2019/09/14 17:09:43","新北市三重區龍濱路172號","121.501366666667","25.0727883333333","6500200","三重區"
"241028","022-UY","2019/09/14 17:09:31","新北市三重區重新路三段110號","121.4923","25.0602883333333","6500200","三重區"
"241008","059-VK","2019/09/14 17:09:33","新北市三重區力行路二段138-1號","121.482286666667","25.0757283333333","6500200","三重區"
"241005","060-VK","2019/09/14 17:09:36","新北市三重區永安北路二段5巷14號","121.482148333333","25.081125","6500200","三重區"
"241031","061-VK","2019/09/14 17:09:34","新北市三重區重陽路一段113巷1號","121.487225","25.0599133333333","6500200","三重區"
"241015","062-VK","2019/09/14 17:09:25","新北市三重區長生街12號","121.499203333333","25.066385","6500200","三重區"
"241017","063-VK","2019/09/14 17:09:25","新北市三重區中正北路25巷25弄4號","121.493316666667","25.0627016666667","6500200","三重區"
"241024","065-VK","2019/09/14 17:09:37","新北市三重區後竹圍街285號","121.479021666667","25.0702233333333","6500200","三重區"
"241007","066-VK","2019/09/14 17:09:28","新北市三重區三和路四段163巷36號","121.4855","25.0792683333333","6500200","三重區"
"241002","090-VK","2019/09/14 17:09:40","新北市三重區自強路五段29-1號","121.493548333333","25.0809716666667","6500200","三重區"
"241003","091-VK","2019/09/14 17:09:41","新北市三重區富福街106號","121.493323333333","25.085525","6500200","三重區"
"241006","262-UM","2019/09/14 17:09:37","新北市三重區三和路四段274巷18號","121.484701666667","25.076855","6500200","三重區"
"241016","266-UM","2019/09/14 17:08:44","新北市三重區大同北路132巷2號","121.492753333333","25.0648333333333","6500200","三重區"
"241009","267-UM","2019/09/14 17:09:40","新北市三重區三和路四段412號","121.481006666667","25.0798383333333","6500200","三重區"
"241018","268-UM","2019/09/14 17:09:33","新北市三重區大智街109號","121.49156","25.0694966666667","6500200","三重區"
"241032","269-UM","2019/09/14 17:09:27","新北市三重區興華街12號","121.48582","25.0596783333333","6500200","三重區"
"241013","270-UM","2019/09/14 17:09:37","新北市三重區仁愛街96號","121.495503333333","25.073945","6500200","三重區"
"241025","271-UM","2019/09/14 17:09:39","新北市三重區中正北路560號","121.470926666667","25.07203","6500200","三重區"
"241030","KED-0822","2019/09/14 17:09:27","新北市三重區集成路36號","121.488966666667","25.0525283333333","6500200","三重區"
"241004","475-VK","2019/09/14 17:09:29","新北市三重區五華街122巷14號","121.491468333333","25.0829333333333","6500200","三重區"
"241020","478-VK","2019/09/14 17:09:39","新北市三重區自強路三段18號","121.486933333333","25.07233","6500200","三重區"
"241026","480-VK","2019/09/14 17:09:35","新北市三重區重新路一段51-3號","121.501798333333","25.06378","6500200","三重區"
"241014","543-UM","2019/09/14 17:09:23","新北市三重區龍濱路191號","121.501951666667","25.0710733333333","6500200","三重區"
"241023","545-UM","2019/09/14 17:09:39","新北市三重區忠孝路三段84巷1號","121.48027","25.0646066666667","6500200","三重區"
"241001","547-UM","2019/09/14 17:09:31","新北市三重區仁愛街255巷77號","121.494976666667","25.0792816666667","6500200","三重區"
"241019","KEA-2593","2019/09/14 17:09:25","新北市三重區力行路一段153巷42號","121.486231666667","25.0691433333333","6500200","三重區"
"241022","KED-0820","2019/09/14 17:09:34","新北市三重區重陽路二段34巷57號","121.485241666667","25.0642966666667","6500200","三重區"
"241012","941-UM","2019/09/14 17:09:36","新北市三重區河邊北街248巷5號","121.50157","25.0759083333333","6500200","三重區"
"241029","942-UM","2019/09/14 17:09:40","新北市三重區重新路三段157號","121.489553333333","25.0585966666667","6500200","三重區"
"241033","AAC-255","2019/09/14 17:09:28","新北市三重區新北大道二段65號","121.469173333333","25.0610066666667","6500200","三重區"
"247016","KEA-2869","2019/09/14 17:09:26","新北市蘆洲區光華路65巷33號","121.468965","25.08192","6501400","蘆洲區"
"247010","KED-0682","2019/09/14 17:09:39","新北市蘆洲區三民路38-2號","121.475521666667","25.0829316666667","6501400","蘆洲區"
"235064","911-UM","2019/09/14 17:09:36","新北市中和區員山路36巷16-3號","121.485023333333","24.9913333333333","6500300","中和區"
"247006","893-R6","2019/09/14 17:09:25","新北市蘆洲區長安街102巷12號","121.46235","25.0817483333333","6501400","蘆洲區"
"247020","546-UM","2019/09/14 17:09:37","新北市蘆洲區民族路426巷56號","121.472798333333","25.0937166666667","6501400","蘆洲區"
"247018","500-BY","2019/09/14 17:09:37","新北市蘆洲區復興路154號","121.477363333333","25.0879516666667","6501400","蘆洲區"
"247008","341-TH","2019/09/14 17:09:35","新北市蘆洲區信義路30巷15號","121.474595","25.0787716666667","6501400","蘆洲區"
"247004","336-TH","2019/09/14 17:09:36","新北市蘆洲區長安街201-1號","121.460185","25.0819033333333","6501400","蘆洲區"
"247024","057-VK","2019/09/14 17:09:35","新北市蘆洲區光華路162巷17號","121.464738333333","25.08264","6501400","蘆洲區"
"247014","056-VK","2019/09/14 17:09:27","新北市蘆洲區中央路37巷15號","121.473285","25.0824966666667","6501400","蘆洲區"
"247022","007-UY","2019/09/14 17:09:28","新北市蘆洲區水湳街97號","121.470171666667","25.0903433333333","6501400","蘆洲區"
"247002","001-UY","2019/09/14 17:09:23","新北市蘆洲區永樂街83號","121.455873333333","25.0887583333333","6501400","蘆洲區"
"228003","097-TW","2019/09/14 17:09:40","新北市貢寮區福隆里東興街6-14號","121.952131666667","25.0203883333333","6502600","貢寮區"
"228001","212-TW","2019/09/14 17:09:29","新北市貢寮區仁理村研海街20號","121.928335","25.0365066666667","6502600","貢寮區"
"228002","663-BX","2019/09/14 17:09:34","新北市貢寮區龍崗里泮宮路6號","121.907723333333","25.018105","6502600","貢寮區"
"224006","676-BX","2019/09/14 17:09:37","新北市瑞芳區大寮路114號","121.780298333333","25.097905","6501200","瑞芳區"
"224009","275-VK","2019/09/14 17:09:09","新北市瑞芳區濱二路30號","121.841168333333","25.1160266666667","6501200","瑞芳區"
"224008","273-VK","2019/09/14 17:09:33","新北市瑞芳區九芎橋路4-2號","121.831935","25.0908333333333","6501200","瑞芳區"
"224005","271-BY","2019/09/14 17:09:45","新北市瑞芳區明里路54號","121.870071666667","25.12312","6501200","瑞芳區"
"227001","642-TC","2019/09/14 17:09:29","新北市雙溪區三貂里政光路6-6號","121.851045","25.07144","6502500","雙溪區"
"227002","400-TW","2019/09/14 17:09:44","新北市雙溪區上林里內平林12號","121.837246666667","25.0299166666667","6502500","雙溪區"
"251009","008-UM","2019/09/14 17:09:37","新北市淡水區中正路一段87巷1號","121.42177","25.1793216666667","6501000","淡水區"
"251004","009-UM","2019/09/14 17:07:58","新北市淡水區中正東路二段88巷15號","121.459073333333","25.1505266666667","6501000","淡水區"
"251015","KEA-2871","2019/09/14 17:09:32","新北市淡水區鄧公路35巷29號","121.453306666667","25.1714183333333","6501000","淡水區"
"251016","179-VK","2019/09/14 17:09:39","新北市淡水區社厝坑1-3號","121.476685","25.1888016666667","6501000","淡水區"
"251008","181-VK","2019/09/14 17:09:41","新北市淡水區樹梅坑7-5號","121.47259","25.1446216666667","6501000","淡水區"
"251013","182-VK","2019/09/14 17:09:41","新北市淡水區桂花樹1號","121.482956666667","25.1967266666667","6501000","淡水區"
"251010","413-VK","2019/09/14 17:09:38","新北市淡水區中正路二段31號","121.419406666667","25.181505","6501000","淡水區"
"251012","441-VK","2019/09/14 17:09:35","新北市淡水區中山北路一段84號","121.442355","25.176155","6501000","淡水區"
"251007","442-VK","2019/09/14 17:09:42","新北市淡水區民權路89號","121.459793333333","25.138185","6501000","淡水區"
"251005","443-VK","2019/09/14 17:09:32","新北市淡水區鄧公路19-1號","121.450261666667","25.1699366666667","6501000","淡水區"
"251006","561-UM","2019/09/14 17:09:39","新北市淡水區真理街6號","121.438426666667","25.1745033333333","6501000","淡水區"
"251014","577-R6","2019/09/14 17:09:26","新北市淡水區八里堆8號","121.462316666667","25.2243983333333","6501000","淡水區"
"251011","650-BX","2019/09/14 17:09:29","新北市淡水區坪頂路50號","121.45786","25.16254","6501000","淡水區"
"251003","766-UM","2019/09/14 17:09:30","新北市淡水區中正路二段31號","121.419361666667","25.181925","6501000","淡水區"
"252002","178-VK","2019/09/14 17:09:33","新北市三芝區忠孝街1-38號","121.505836666667","25.2532766666667","6502100","三芝區"
"252001","292-VK","2019/09/14 17:09:40","新北市三芝區埔頭里埔頭37號","121.49842","25.260235","6502100","三芝區"
"247012","KED-0683","2019/09/14 17:09:25","新北市蘆洲區信義路268號","121.478135","25.08691","6501400","蘆洲區"
"242042","AAC-296","2019/09/14 17:09:37","新北市新莊區三和路12-9號","121.442161666667","25.0367033333333","6500500","新莊區"
"242004","751-BX","2019/09/14 17:09:30","新北市新莊區三和路12-21號","121.44228","25.038585","6500500","新莊區"
"242029","615-BX","2019/09/14 17:09:39","新北市新莊區三和路12-21號","121.442243333333","25.037905","6500500","新莊區"
"242027","613-BX","2019/09/14 17:09:27","新北市新莊區新泰路357巷3弄57號","121.442318333333","25.0392583333333","6500500","新莊區"
"242048","566-BX","2019/09/14 17:09:30","新北市新莊區中正路533-1號","121.438958333333","25.03334","6500500","新莊區"
"242053","497-BY","2019/09/14 17:09:33","新北市新莊區中環路一段287號","121.442076666667","25.0319833333333","6500500","新莊區"
"242007","440-UM","2019/09/14 17:09:29","新北市新莊區新泰路255巷83號","121.442331666667","25.0387783333333","6500500","新莊區"
"242044","415-TV","2019/09/14 17:09:36","新北市新莊區中正路461號","121.442046666667","25.0341866666667","6500500","新莊區"
"242013","413-TV","2019/09/14 17:09:44","新北市新莊區新泰路357巷3弄57號","121.442116666667","25.0394966666667","6500500","新莊區"
"242025","362-BY","2019/09/14 17:09:41","新北市新莊區新泰路357巷3弄57號","121.442075","25.0390716666667","6500500","新莊區"
"242023","353-BY","2019/09/14 17:09:26","新北市新莊區新泰路357巷3弄57號","121.442126666667","25.03925","6500500","新莊區"
"242015","132-UY","2019/09/14 17:09:36","新北市新莊區新泰路255巷83號","121.442131666667","25.038795","6500500","新莊區"
"242017","173-VK","2019/09/14 17:09:31","新北市新莊區三和路12-21號","121.442096666667","25.0387683333333","6500500","新莊區"
"242031","175-VK","2019/09/14 17:09:24","新北市新莊區三和路12-11號","121.442298333333","25.0369816666667","6500500","新莊區"
"242039","176-VK","2019/09/14 17:09:32","新北市新莊區新泰路357巷3弄33號","121.441976666667","25.0404716666667","6500500","新莊區"
"242021","KED-0687","2019/09/14 17:09:40","新北市新莊區三和路12-21號","121.442265","25.0381016666667","6500500","新莊區"
"242036","348-TH","2019/09/14 17:09:31","新北市新莊區三和路12-20號","121.44223","25.037835","6500500","新莊區"
"242034","350-TH","2019/09/14 17:07:23","新北市新莊區三和路12-21號","121.441933333333","25.0388033333333","6500500","新莊區"
"242019","351-TH","2019/09/14 17:09:33","新北市新莊區新泰路357巷3弄57號","121.442075","25.0395116666667","6500500","新莊區"
"238023","601-UM","2019/09/14 17:09:44","新北市樹林區大安路251號","121.419366666667","24.994205","6500700","樹林區"
"238019","599-UM","2019/09/14 17:09:25","新北市樹林區育德街78號","121.387945","24.968445","6500700","樹林區"
"238018","KEA-2217","2019/09/14 17:09:41","新北市樹林區水源街34號","121.425628333333","24.9814833333333","6500700","樹林區"
"238022","KEA-2213","2019/09/14 17:09:38","新北市樹林區忠孝街31號","121.423695","24.9822166666667","6500700","樹林區"
"238017","283-BY","2019/09/14 17:09:34","新北市樹林區大安路271號","121.418926666667","24.99361","6500700","樹林區"
"238014","282-BY","2019/09/14 17:09:35","新北市樹林區中山路二段230號","121.408865","24.9801783333333","6500700","樹林區"
"238020","268-VK","2019/09/14 17:09:45","新北市樹林區大安路263號","121.41913","24.9938516666667","6500700","樹林區"
"238026","172-UY","2019/09/14 17:09:24","新北市樹林區東豐街18-1號","121.41423","24.975705","6500700","樹林區"
"238016","169-UY","2019/09/14 17:09:26","新北市樹林區中山路二段10號","121.417591666667","24.9850216666667","6500700","樹林區"
"239007","AAC-297","2019/09/14 17:09:38","新北市鶯歌區中正一路68號","121.352456666667","24.9541133333333","6500800","鶯歌區"
"239006","891-R6","2019/09/14 17:09:24","新北市鶯歌區八德路2巷20弄2號","121.336351666667","24.9466566666667","6500800","鶯歌區"
"239008","527-UM","2019/09/14 17:09:31","新北市鶯歌區尖山路68號","121.349246666667","24.9495466666667","6500800","鶯歌區"
"239005","526-UM","2019/09/14 17:09:26","新北市鶯歌區德昌街1-1號","121.333853333333","24.960715","6500800","鶯歌區"
"239001","417-VK","2019/09/14 17:09:30","新北市鶯歌區尖山路137巷2號","121.346898333333","24.9486166666667","6500800","鶯歌區"
"239002","359-BY","2019/09/14 17:09:30","新北市鶯歌區建國路170號","121.350035","24.9534683333333","6500800","鶯歌區"
"239004","193-VK","2019/09/14 17:09:37","新北市鶯歌區文化路324巷8弄8號","121.349693333333","24.9451666666667","6500800","鶯歌區"
"233001","KEA-2870","2019/09/14 17:09:31","新北市烏來區環山路129號","121.549213333333","24.8601816666667","6502900","烏來區"
"242011","280-VK","2019/09/14 17:09:35","新北市新莊區三和路12-21號","121.441878333333","25.0382966666667","6500500","新莊區"
"235062","KEA-2876","2019/09/14 16:57:36","新北市中和區員山路36巷16-2號","121.485135","24.991885","6500300","中和區"
