"lineid","car","time","location","longitude","latitude","cityid","cityname"
"249005","172-UM","2019/09/14 17:19:36","新北市八里區荖阡坑路50號","121.4137","25.1229816666667","6502300","八里區"
"249001","173-UM","2019/09/14 17:19:31","新北市八里區中華路二段165巷3號","121.407685","25.150875","6502300","八里區"
"249004","303-UY","2019/09/14 17:19:29","新北市八里區中山路一段33-2號","121.420261666667","25.159695","6502300","八里區"
"249002","305-UY","2019/09/14 17:19:40","新北市八里區龍米路二段117巷31號","121.445876666667","25.1430416666667","6502300","八里區"
"249003","593-UM","2019/09/14 17:19:27","新北市八里區中山路二段453號","121.396428333333","25.1455466666667","6502300","八里區"
"244007","080-UY","2019/09/14 17:19:44","新北市林口區湖子5號","121.390936666667","25.09237","6501700","林口區"
"244023","483-VK","2019/09/14 17:19:42","新北市林口區隆林街32號","121.388235","25.075405","6501700","林口區"
"244017","485-VK","2019/09/14 17:19:38","新北市林口區粉寮路一段105號","121.397905","25.0803233333333","6501700","林口區"
"244009","656-BX","2019/09/14 17:19:42","新北市林口區中北一街82號","121.385873333333","25.0892316666667","6501700","林口區"
"244011","701-TV","2019/09/14 17:19:42","新北市林口區仁愛路一段258號","121.394265","25.0759","6501700","林口區"
"244025","837-TS","2019/09/14 17:19:40","新北市林口區民族路157號","121.366773333333","25.0761416666667","6501700","林口區"
"244021","838-TS","2019/09/14 17:19:37","新北市林口區粉寮路二段338號","121.404636666667","25.0972566666667","6501700","林口區"
"231046","719-UM","2019/09/14 17:13:33","新北市新店區直潭一街108號","121.534796666667","24.9387216666667","6500600","新店區"
"241011","013-R5","2019/09/14 17:19:43","新北市三重區龍濱路199號","121.50184","25.07146","6500200","三重區"
"241028","022-UY","2019/09/14 17:19:32","新北市三重區中正南路96號","121.494406666667","25.0586966666667","6500200","三重區"
"241008","059-VK","2019/09/14 17:19:33","新北市三重區永福街72巷31號","121.480138333333","25.07638","6500200","三重區"
"241005","060-VK","2019/09/14 17:19:36","新北市三重區碧華街171號","121.487065","25.0821766666667","6500200","三重區"
"241015","062-VK","2019/09/14 17:19:44","新北市三重區長元街82-1號","121.501948333333","25.06636","6500200","三重區"
"241017","063-VK","2019/09/14 17:19:45","新北市三重區大同北路85號","121.494828333333","25.0636416666667","6500200","三重區"
"241024","065-VK","2019/09/14 17:19:37","新北市三重區中正北路193巷21弄31號","121.478153333333","25.0708333333333","6500200","三重區"
"241007","066-VK","2019/09/14 17:19:28","新北市三重區慈愛街10號","121.484625","25.0784783333333","6500200","三重區"
"241003","091-VK","2019/09/14 17:19:41","新北市三重區富福街37號","121.490965","25.08374","6500200","三重區"
"241006","262-UM","2019/09/14 17:19:34","新北市三重區車路頭街135-1號","121.484353333333","25.07604","6500200","三重區"
"241016","266-UM","2019/09/14 17:19:24","新北市三重區大同北路54巷1號","121.494176666667","25.0634933333333","6500200","三重區"
"241009","267-UM","2019/09/14 17:19:40","新北市三重區仁美街87號","121.485975","25.0798766666667","6500200","三重區"
"241018","268-UM","2019/09/14 17:19:33","新北市三重區安慶街114號","121.495218333333","25.0690083333333","6500200","三重區"
"241032","269-UM","2019/09/14 17:19:27","新北市三重區中華路20巷30號","121.482383333333","25.0608133333333","6500200","三重區"
"241013","270-UM","2019/09/14 17:19:37","新北市三重區三和路三段107巷25號","121.495206666667","25.0730633333333","6500200","三重區"
"241025","271-UM","2019/09/14 17:19:39","新北市三重區中正北路346號","121.477805","25.069265","6500200","三重區"
"241030","KED-0822","2019/09/14 17:19:27","新北市三重區成功路73巷20號","121.489468333333","25.05199","6500200","三重區"
"241004","475-VK","2019/09/14 17:19:29","新北市三重區五華街141巷58號","121.49355","25.0866633333333","6500200","三重區"
"241020","478-VK","2019/09/14 17:19:39","新北市三重區永德街9號","121.489188333333","25.0725666666667","6500200","三重區"
"241026","480-VK","2019/09/14 17:19:35","新北市三重區正義南路15-2號","121.49805","25.0615166666667","6500200","三重區"
"241014","543-UM","2019/09/14 17:19:23","新北市三重區長榮路6號","121.50014","25.06854","6500200","三重區"
"241023","545-UM","2019/09/14 17:19:39","新北市三重區忠孝路三段50巷56號","121.482448333333","25.0650783333333","6500200","三重區"
"241001","547-UM","2019/09/14 17:19:31","新北市三重區分子尾街111號","121.488533333333","25.0828966666667","6500200","三重區"
"241019","KEA-2593","2019/09/14 17:19:30","新北市三重區忠孝路二段1號","121.487141666667","25.0715333333333","6500200","三重區"
"241022","KED-0820","2019/09/14 17:19:34","新北市三重區重陽路二段36號","121.486808333333","25.0630966666667","6500200","三重區"
"241012","941-UM","2019/09/14 17:19:36","新北市三重區仁興街27號","121.499561666667","25.0750716666667","6500200","三重區"
"241033","AAC-255","2019/09/14 17:19:28","新北市三重區中興北街136巷12號","121.46818","25.0558683333333","6500200","三重區"
"247016","KEA-2869","2019/09/14 17:19:26","新北市蘆洲區正和街91號","121.46804","25.0806166666667","6501400","蘆洲區"
"247010","KED-0682","2019/09/14 17:19:39","新北市蘆洲區鷺江街12號","121.479145","25.0826266666667","6501400","蘆洲區"
"235064","911-UM","2019/09/14 17:18:31","新北市中和區員山路36巷16-3號","121.485166666667","24.9913166666667","6500300","中和區"
"247006","893-R6","2019/09/14 17:19:25","新北市蘆洲區長安街95號","121.461971666667","25.0805183333333","6501400","蘆洲區"
"247020","546-UM","2019/09/14 17:19:37","新北市蘆洲區仁愛街35巷14弄2號","121.471446666667","25.0927883333333","6501400","蘆洲區"
"247018","500-BY","2019/09/14 17:19:37","新北市蘆洲區民權路84號","121.474481666667","25.0876816666667","6501400","蘆洲區"
"247008","341-TH","2019/09/14 17:19:35","新北市蘆洲區永安北路一段72巷58號","121.47603","25.0768966666667","6501400","蘆洲區"
"247004","336-TH","2019/09/14 17:19:33","新北市蘆洲區永安南路二段286號","121.45769","25.0813483333333","6501400","蘆洲區"
"247024","057-VK","2019/09/14 17:19:35","新北市蘆洲區長榮路655號","121.46005","25.09121","6501400","蘆洲區"
"247014","056-VK","2019/09/14 17:19:27","新北市蘆洲區中正路94號","121.470251666667","25.0840083333333","6501400","蘆洲區"
"247022","007-UY","2019/09/14 17:19:28","新北市蘆洲區水湳街73-5號","121.470721666667","25.0892733333333","6501400","蘆洲區"
"247002","001-UY","2019/09/14 17:19:23","新北市蘆洲區永樂街38巷33弄5號","121.457858333333","25.08944","6501400","蘆洲區"
"228003","097-TW","2019/09/14 17:19:26","新北市貢寮區福隆里東興街100號","121.946241666667","25.0170766666667","6502600","貢寮區"
"228001","212-TW","2019/09/14 17:19:29","新北市貢寮區仁理村尖山腳街18-3號","121.925503333333","25.0482616666667","6502600","貢寮區"
"228002","663-BX","2019/09/14 17:19:34","新北市貢寮區雙玉里下雙溪街21號","121.919768333333","25.010395","6502600","貢寮區"
"224006","676-BX","2019/09/14 17:19:27","新北市瑞芳區傑魚坑路313號","121.786145","25.104335","6501200","瑞芳區"
"224009","275-VK","2019/09/14 17:19:29","新北市瑞芳區汽車路110號","121.840258333333","25.1096766666667","6501200","瑞芳區"
"224008","273-VK","2019/09/14 17:19:33","新北市瑞芳區侯硐路48號","121.825726666667","25.0829066666667","6501200","瑞芳區"
"224005","271-BY","2019/09/14 17:19:44","新北市瑞芳區南雅路29-1號","121.88818","25.1205883333333","6501200","瑞芳區"
"227001","642-TC","2019/09/14 17:19:29","新北市雙溪區三貂里十三層5號","121.850545","25.064605","6502500","雙溪區"
"227002","400-TW","2019/09/14 17:19:44","新北市雙溪區雙溪里大同街18號","121.86468","25.03505","6502500","雙溪區"
"253005","295-VK","2019/09/14 17:19:45","新北市石門區中山路64-1號","121.567656666667","25.290395","6502200","石門區"
"251009","008-UM","2019/09/14 17:19:38","新北市淡水區三民街22號","121.439073333333","25.1717933333333","6501000","淡水區"
"251004","009-UM","2019/09/14 17:07:58","新北市淡水區中正東路二段88巷15號","121.459073333333","25.1505266666667","6501000","淡水區"
"251002","012-UM","2019/09/14 17:19:32","新北市淡水區中正路二段31號","121.419421666667","25.1816033333333","6501000","淡水區"
"251015","KEA-2871","2019/09/14 17:19:35","新北市淡水區樹林口22號","121.477366666667","25.1699016666667","6501000","淡水區"
"251016","179-VK","2019/09/14 17:19:39","新北市淡水區鄒厝崙14號","121.461811666667","25.1905366666667","6501000","淡水區"
"251008","181-VK","2019/09/14 17:19:41","新北市淡水區大同路293號","121.467748333333","25.1424083333333","6501000","淡水區"
"251013","182-VK","2019/09/14 17:19:41","新北市淡水區演戲埔腳9-1號","121.472738333333","25.1964083333333","6501000","淡水區"
"251010","413-VK","2019/09/14 17:19:38","新北市淡水區沙崙路97-1號","121.421973333333","25.1818183333333","6501000","淡水區"
"251012","441-VK","2019/09/14 17:19:39","新北市淡水區中山北路一段158號","121.44428","25.1779166666667","6501000","淡水區"
"251007","442-VK","2019/09/14 17:19:23","新北市淡水區民生路47-4號","121.46205","25.1380183333333","6501000","淡水區"
"251005","443-VK","2019/09/14 17:19:32","新北市淡水區鄧公路19號","121.4514","25.16999","6501000","淡水區"
"251006","561-UM","2019/09/14 17:19:39","新北市淡水區大智街10號","121.44165","25.1745716666667","6501000","淡水區"
"251014","577-R6","2019/09/14 17:18:06","新北市淡水區公埔子43號","121.463988333333","25.2292916666667","6501000","淡水區"
"251011","650-BX","2019/09/14 17:19:29","新北市淡水區坪頂路70巷8弄6號","121.459681666667","25.1630433333333","6501000","淡水區"
"251003","766-UM","2019/09/14 17:19:30","新北市淡水區文化路65號","121.437781666667","25.1729583333333","6501000","淡水區"
"207003","550-UM","2019/09/14 17:19:37","新北市萬里區萬里里獅頭路23號","121.693431666667","25.1782566666667","6502800","萬里區"
"207004","291-VK","2019/09/14 17:19:25","新北市萬里區萬里里獅頭路23號","121.693318333333","25.1782533333333","6502800","萬里區"
"252002","178-VK","2019/09/14 17:19:33","新北市三芝區忠孝街1-14號","121.50561","25.2539866666667","6502100","三芝區"
"252001","292-VK","2019/09/14 17:19:40","新北市三芝區長安街119號","121.498035","25.2596616666667","6502100","三芝區"
"247012","KED-0683","2019/09/14 17:19:25","新北市蘆洲區信義路319巷10弄12號","121.477565","25.0865466666667","6501400","蘆洲區"
"242042","AAC-296","2019/09/14 17:19:37","新北市新莊區新樹路52-5號","121.437296666667","25.0271033333333","6500500","新莊區"
"242061","986-R7","2019/09/14 17:19:43","新北市新莊區中環路一段299號","121.44207","25.0322333333333","6500500","新莊區"
"242004","751-BX","2019/09/14 17:19:30","新北市新莊區新泰路357巷3弄57號","121.442343333333","25.0396616666667","6500500","新莊區"
"242029","615-BX","2019/09/14 17:19:39","新北市新莊區幸福路69號","121.457116666667","25.04927","6500500","新莊區"
"242027","613-BX","2019/09/14 17:19:27","新北市新莊區中港路335號","121.452326666667","25.045245","6500500","新莊區"
"242058","612-BX","2019/09/14 17:19:25","新北市新莊區新泰路357巷3弄57號","121.442231666667","25.0393283333333","6500500","新莊區"
"242048","566-BX","2019/09/14 17:19:30","新北市新莊區龍安路120-2號","121.419321666667","25.0202233333333","6500500","新莊區"
"242053","497-BY","2019/09/14 17:19:33","新北市新莊區環河路636-7號","121.436676666667","25.010815","6500500","新莊區"
"242002","442-UM","2019/09/14 17:19:33","新北市新莊區瓊林路48號","121.446273333333","25.0288616666667","6500500","新莊區"
"242007","440-UM","2019/09/14 17:19:29","新北市新莊區新泰路500號","121.442323333333","25.0458533333333","6500500","新莊區"
"242044","415-TV","2019/09/14 17:19:36","新北市新莊區富國路101-1號","121.421391666667","25.0255183333333","6500500","新莊區"
"242013","413-TV","2019/09/14 17:19:44","新北市新莊區中誠街34號","121.451541666667","25.0480983333333","6500500","新莊區"
"242051","400-BY","2019/09/14 17:19:35","新北市新莊區瓊泰路77巷16號","121.442178333333","25.0293683333333","6500500","新莊區"
"242025","362-BY","2019/09/14 17:19:41","新北市新莊區中港一街161號","121.447276666667","25.0449466666667","6500500","新莊區"
"242023","353-BY","2019/09/14 17:19:26","新北市新莊區中平路82巷12號","121.445288333333","25.0448333333333","6500500","新莊區"
"242015","132-UY","2019/09/14 17:19:36","新北市新莊區新泰路275號","121.44565","25.0403716666667","6500500","新莊區"
"242056","172-VK","2019/09/14 17:19:23","新北市新莊區新莊路664-2號","121.44232","25.0329133333333","6500500","新莊區"
"242017","173-VK","2019/09/14 17:19:30","新北市新莊區三和路12-11號","121.442173333333","25.0370166666667","6500500","新莊區"
"242031","175-VK","2019/09/14 17:19:44","新北市新莊區新泰路462號","121.443305","25.0448566666667","6500500","新莊區"
"242039","176-VK","2019/09/14 17:19:32","新北市新莊區民安路302號","121.428226666667","25.0219316666667","6500500","新莊區"
"242021","KED-0687","2019/09/14 17:19:40","新北市新莊區新泰路208號","121.446843333333","25.0386233333333","6500500","新莊區"
"242036","348-TH","2019/09/14 17:19:31","新北市新莊區新樹路223號","121.43533","25.0230066666667","6500500","新莊區"
"242009","349-TH","2019/09/14 17:19:43","新北市新莊區新泰路528號","121.442431666667","25.0473316666667","6500500","新莊區"
"242034","350-TH","2019/09/14 17:19:43","新北市新莊區瓊林路48號","121.446306666667","25.028865","6500500","新莊區"
"242019","351-TH","2019/09/14 17:19:33","新北市新莊區新泰路119號","121.448441666667","25.035895","6500500","新莊區"
"238015","755-BX","2019/09/14 17:19:40","新北市樹林區大安路263號","121.419123333333","24.9938183333333","6500700","樹林區"
"238023","601-UM","2019/09/14 17:19:24","新北市樹林區中正路666號","121.409588333333","25.016805","6500700","樹林區"
"238019","599-UM","2019/09/14 17:19:45","新北市樹林區八德街263-1號","121.419166666667","24.9738533333333","6500700","樹林區"
"238024","5061-A6","2019/09/14 17:19:35","新北市樹林區保安街一段48巷28號","121.426591666667","24.995275","6500700","樹林區"
"238018","KEA-2217","2019/09/14 17:19:21","新北市樹林區樹中街63-1號","121.421318333333","24.9850583333333","6500700","樹林區"
"238022","KEA-2213","2019/09/14 17:19:38","新北市樹林區仁愛街77號","121.423641666667","24.9828566666667","6500700","樹林區"
"238021","KEA-2539","2019/09/14 17:19:45","新北市樹林區西圳街一段61-1號","121.400533333333","24.9625333333333","6500700","樹林區"
"238025","303-VK","2019/09/14 17:19:36","新北市樹林區保安二街46號","121.424453333333","24.995155","6500700","樹林區"
"238017","283-BY","2019/09/14 17:19:34","新北市樹林區光武街30巷6號","121.416993333333","25.0052983333333","6500700","樹林區"
"238014","282-BY","2019/09/14 17:19:35","新北市樹林區長壽街70巷26號","121.421861666667","24.99495","6500700","樹林區"
"238020","268-VK","2019/09/14 17:19:24","新北市樹林區千歲街101號","121.428535","25.0008783333333","6500700","樹林區"
"238026","172-UY","2019/09/14 17:19:44","新北市樹林區東順街79巷1號","121.409768333333","24.9765583333333","6500700","樹林區"
"238016","169-UY","2019/09/14 17:19:26","新北市樹林區中山路一段330號","121.419768333333","24.98618","6500700","樹林區"
"239007","AAC-297","2019/09/14 17:19:38","新北市鶯歌區行政路3號","121.350996666667","24.9554183333333","6500800","鶯歌區"
"239006","891-R6","2019/09/14 17:19:44","新北市鶯歌區鶯桃路301號","121.33352","24.9607466666667","6500800","鶯歌區"
"239008","527-UM","2019/09/14 17:19:31","新北市鶯歌區鶯桃路182巷96弄13號","121.340586666667","24.9580616666667","6500800","鶯歌區"
"239005","526-UM","2019/09/14 17:19:26","新北市鶯歌區福德三街13號","121.329753333333","24.9675233333333","6500800","鶯歌區"
"239001","417-VK","2019/09/14 17:19:30","新北市鶯歌區尖山路173巷1-2號","121.345146666667","24.9473416666667","6500800","鶯歌區"
"239003","360-BY","2019/09/14 17:19:42","新北市鶯歌區德昌街50號","121.33311","24.9599033333333","6500800","鶯歌區"
"239002","359-BY","2019/09/14 17:19:30","新北市鶯歌區建國路236號","121.348185","24.9535566666667","6500800","鶯歌區"
"239004","193-VK","2019/09/14 17:19:37","新北市鶯歌區文化路417-5號","121.352901666667","24.9488166666667","6500800","鶯歌區"
"244019","KED-0667","2019/09/14 17:19:40","新北市林口區公園路116號","121.370375","25.0709916666667","6501700","林口區"
"233001","KEA-2870","2019/09/14 17:19:11","新北市烏來區野要街112號","121.54578","24.854655","6502900","烏來區"
"242046","281-VK","2019/09/14 17:19:36","新北市新莊區新樹路65-7號","121.439391666667","25.0307666666667","6500500","新莊區"
"242011","280-VK","2019/09/14 17:19:35","新北市新莊區新泰路500號","121.442376666667","25.046155","6500500","新莊區"
"235061","KEA-2875","2019/09/14 17:13:11","新北市中和區員山路36巷16-2號","121.485343333333","24.9916616666667","6500300","中和區"
"235062","KEA-2876","2019/09/14 17:19:28","新北市中和區員山路36巷16-2號","121.485183333333","24.9914083333333","6500300","中和區"
