"lineid","car","time","location","longitude","latitude","cityid","cityname"
"234042","862-TW","2019/09/14 18:09:39","新北市永和區福和路1號","121.526315","25.0099166666667","6500400","永和區"
"234026","9371-KE","2019/09/14 18:09:39","新北市永和區自由街26號","121.514351666667","25.0064266666667","6500400","永和區"
"249005","172-UM","2019/09/14 18:09:36","新北市八里區荖阡坑路15-40號","121.401728333333","25.1398766666667","6502300","八里區"
"249001","173-UM","2019/09/14 18:09:31","新北市八里區龍米路二段26號","121.448761666667","25.1395483333333","6502300","八里區"
"249004","303-UY","2019/09/14 18:09:29","新北市八里區龍米路二段159巷2-10號","121.438886666667","25.1531866666667","6502300","八里區"
"249002","305-UY","2019/09/14 18:09:40","新北市八里區龍米路一段356巷20號","121.452215","25.1309316666667","6502300","八里區"
"249003","593-UM","2019/09/14 18:09:27","新北市八里區中華路二段341-1號","121.400075","25.1453133333333","6502300","八里區"
"248014","025-BX","2019/09/14 18:09:35","新北市五股區成泰路一段189巷16號","121.434053333333","25.076685","6501500","五股區"
"248006","077-UY","2019/09/14 18:09:32","新北市五股區中興路二段64號","121.46145","25.0769166666667","6501500","五股區"
"248008","KED-0815","2019/09/14 18:09:31","新北市蘆洲區永安南路二段294號","121.45729","25.081855","6501500","五股區"
"248020","KED-0813","2019/09/14 18:09:30","新北市五股區成泰路三段544-1號","121.454483333333","25.1024583333333","6501500","五股區"
"248004","677-BX","2019/09/14 18:09:38","新北市五股區中興路四段41號","121.43831","25.0828383333333","6501500","五股區"
"232011","375-UM","2019/09/14 18:09:35","新北市坪林區國中路3號","121.71304","24.93734","6502000","坪林區"
"244007","080-UY","2019/09/14 18:09:44","新北市林口區林口路115號","121.388846666667","25.0806733333333","6501700","林口區"
"244013","KEA-2802","2019/09/14 18:09:27","新北市林口區林口路41號","121.390015","25.07884","6501700","林口區"
"244023","483-VK","2019/09/14 18:09:42","新北市林口區東湖路75巷36號","121.38521","25.0725583333333","6501700","林口區"
"244017","485-VK","2019/09/14 18:09:38","新北市林口區八德路20巷15號","121.367568333333","25.0677733333333","6501700","林口區"
"244009","656-BX","2019/09/14 18:09:27","新北市林口區文化二路二段130號","121.38004","25.082995","6501700","林口區"
"244011","701-TV","2019/09/14 18:09:22","新北市林口區中正路74巷5弄1號","121.39459","25.0779383333333","6501700","林口區"
"244025","837-TS","2019/09/14 18:09:40","新北市林口區文化北路一段301-1號","121.36063","25.0725733333333","6501700","林口區"
"244021","838-TS","2019/09/14 18:09:37","新北市林口區自強六街26號","121.399515","25.0761316666667","6501700","林口區"
"222003","436-BY","2019/09/14 18:09:42","新北市深坑區阿柔洋33-1號","121.612555","24.998075","6501800","深坑區"
"222002","659-BX","2019/09/14 18:09:26","新北市深坑區文化街52號","121.619018333333","25.0016133333333","6501800","深坑區"
"231061","002-UM","2019/09/14 18:09:37","新北市新店區安華路28-1號","121.519916666667","24.960885","6500600","新店區"
"231044","046-UY","2019/09/14 18:09:24","新北市新店區安華路28-1號","121.519306666667","24.9606883333333","6500600","新店區"
"231060","106-UY","2019/09/14 18:09:34","新北市新店區安華路28-1號","121.51966","24.9608916666667","6500600","新店區"
"231042","268-BY","2019/09/14 18:09:30","新北市新店區安一路一段1-1號","121.519791666667","24.9614633333333","6500600","新店區"
"231064","278-BY","2019/09/14 18:09:35","新北市新店區安一路一段1-1號","121.51967","24.9611083333333","6500600","新店區"
"231050","AAD-862","2019/09/14 18:09:40","新北市新店區安華路28-1號","121.520105","24.9609966666667","6500600","新店區"
"231045","355-BY","2019/09/14 18:09:41","新北市新店區安一路一段1-1號","121.519411666667","24.961055","6500600","新店區"
"231058","3713-VJ","2019/09/14 18:09:37","新北市新店區安華路28-1號","121.519151666667","24.9606683333333","6500600","新店區"
"231056","4715-K9","2019/09/14 18:09:35","新北市新店區安華路1-1號","121.519323333333","24.96036","6500600","新店區"
"231052","513-UM","2019/09/14 18:09:38","新北市新店區安一路一段1-1號","121.519581666667","24.9610683333333","6500600","新店區"
"231051","718-UY","2019/09/14 18:09:27","新北市新店區安一路一段1-1號","121.5197","24.9611766666667","6500600","新店區"
"231057","720-UM","2019/09/14 18:09:31","新北市新店區安一路一段1-1號","121.519305","24.9611516666667","6500600","新店區"
"231040","898-TW","2019/09/14 18:09:41","新北市新店區安華路28-1號","121.519395","24.9609016666667","6500600","新店區"
"231043","899-TW","2019/09/14 18:09:26","新北市新店區安華路28-1號","121.51927","24.9608583333333","6500600","新店區"
"241024","065-VK","2019/09/14 18:09:17","新北市三重區中正北路317巷16號","121.474993333333","25.0729866666667","6500200","三重區"
"241033","AAC-255","2019/09/14 18:09:28","新北市三重區光復路一段68巷25號","121.470171666667","25.04941","6500200","三重區"
"235063","006-UY","2019/09/14 18:09:37","新北市中和區中正路637巷52弄1號","121.485486666667","24.9935916666667","6500300","中和區"
"235039","097-UM","2019/09/14 18:09:24","新北市中和區錦和路350-1號","121.490178333333","24.9935716666667","6500300","中和區"
"235065","098-UM","2019/09/14 18:09:36","新北市中和區莊敬路49巷18號","121.501668333333","25.0061383333333","6500300","中和區"
"235040","150-BY","2019/09/14 18:09:35","新北市中和區中正路190-1號","121.49782","24.9939683333333","6500300","中和區"
"235058","151-BY","2019/09/14 18:09:40","新北市中和區圓通路367巷58號","121.491791666667","24.9844083333333","6500300","中和區"
"235055","183-VK","2019/09/14 18:09:25","新北市中和區員山路36巷16-3號","121.485135","24.991415","6500300","中和區"
"235038","185-VK","2019/09/14 18:09:39","新北市中和區景平路280號","121.513708333333","24.9925583333333","6500300","中和區"
"235072","301-VK","2019/09/14 18:09:24","新北市中和區中正路513號","121.488298333333","24.9942116666667","6500300","中和區"
"235043","352-BY","2019/09/14 18:09:42","新北市中和區中正路271-1號","121.495743333333","24.993675","6500300","中和區"
"235042","KEA-2878","2019/09/14 18:09:28","新北市中和區中正路165號","121.498288333333","24.9935933333333","6500300","中和區"
"247016","KEA-2869","2019/09/14 18:09:26","新北市蘆洲區中正路185巷86弄6號","121.465423333333","25.0842533333333","6501400","蘆洲區"
"235050","4979-A6","2019/09/14 18:09:36","新北市中和區錦和路350-1號","121.49025","24.9935516666667","6500300","中和區"
"235070","558-UM","2019/09/14 18:09:30","新北市中和區圓通路178號","121.496775","24.99454","6500300","中和區"
"235045","565-BX","2019/09/14 18:09:36","新北市中和區南山路150號","121.504246666667","24.9921916666667","6500300","中和區"
"235054","640-BX","2019/09/14 18:09:37","新北市中和區莒光路185號","121.472596666667","24.9990183333333","6500300","中和區"
"235060","647-TV","2019/09/14 18:09:28","新北市中和區員山路111號","121.480836666667","24.994755","6500300","中和區"
"235047","732-UM","2019/09/14 18:09:38","新北市中和區中正路637巷60弄61號","121.485451666667","24.9928816666667","6500300","中和區"
"235046","733-UM","2019/09/14 18:09:26","新北市中和區員山路36巷13號","121.484471666667","24.9903466666667","6500300","中和區"
"235057","801-TS","2019/09/14 18:09:36","新北市中和區民享街97巷19號","121.475385","24.9995833333333","6500300","中和區"
"235052","805-TS","2019/09/14 18:09:36","新北市中和區中正路13號","121.503156666667","24.9933883333333","6500300","中和區"
"235053","900-TW","2019/09/14 18:09:31","新北市中和區員山路36巷16-2號","121.485298333333","24.9915116666667","6500300","中和區"
"235064","911-UM","2019/09/14 18:09:36","新北市中和區中正路166號","121.498361666667","24.9937883333333","6500300","中和區"
"235051","157-BY","2019/09/14 18:09:28","新北市中和區復興路277-1號","121.502428333333","24.9902983333333","6500300","中和區"
"235037","AAC-213","2019/09/14 18:09:40","新北市中和區景平路111巷12弄1號","121.516405","24.991275","6500300","中和區"
"226004","312-R5","2019/09/14 18:09:39","新北市平溪區薯榔里薯榔寮20號","121.716573333333","25.0196866666667","6502400","平溪區"
"228003","097-TW","2019/09/14 18:09:26","新北市貢寮區真理里美艷山街6-2號","121.928753333333","25.0608083333333","6502600","貢寮區"
"228001","212-TW","2019/09/14 18:09:29","新北市貢寮區真理里新港街26巷55弄2-1號","121.927388333333","25.0528483333333","6502600","貢寮區"
"228002","663-BX","2019/09/14 18:09:34","新北市貢寮區福連里福興街23號","121.991025","25.0106083333333","6502600","貢寮區"
"224006","676-BX","2019/09/14 18:09:27","新北市瑞芳區中山路179號","121.801855","25.106575","6501200","瑞芳區"
"224002","639-TC","2019/09/14 18:09:37","新北市瑞芳區三爪子坑路149巷22-16號","121.811583333333","25.1060066666667","6501200","瑞芳區"
"224007","285-BY","2019/09/14 18:09:34","新北市瑞芳區四腳亭坑路3-1號","121.777038333333","25.1094","6501200","瑞芳區"
"224009","275-VK","2019/09/14 18:09:29","新北市瑞芳區山尖路130號","121.850953333333","25.1131366666667","6501200","瑞芳區"
"224008","273-VK","2019/09/14 18:09:32","新北市瑞芳區員山子路37號","121.821955","25.1033133333333","6501200","瑞芳區"
"224005","271-BY","2019/09/14 18:08:04","新北市瑞芳區南雅路91號","121.884308333333","25.1230366666667","6501200","瑞芳區"
"227001","642-TC","2019/09/14 18:09:37","新北市雙溪區三貂里定福路1-2號","121.850696666667","25.0635233333333","6502500","雙溪區"
"227002","400-TW","2019/09/14 18:09:24","新北市雙溪區共和里東榮街42號","121.866095","25.03372","6502500","雙溪區"
"253005","032-BX","2019/09/14 18:09:25","新北市石門區福安街37號","121.56863","25.292095","6502200","石門區"
"253006","295-VK","2019/09/14 18:09:31","新北市石門區老梅路52巷25弄2-1號","121.546818333333","25.2869933333333","6502200","石門區"
"222001","KEA-2212","2019/09/14 18:09:28","新北市深坑區北深路二段182號","121.614145","25.0023683333333","6501800","深坑區"
"208002","KEA-2872","2019/09/14 18:09:37","新北市金山區三界壇路99巷19-1號","121.619923333333","25.2275116666667","6502700","金山區"
"208003","665-BX","2019/09/14 18:09:43","新北市金山區磺港里磺港路313號","121.64433","25.2279566666667","6502700","金山區"
"251009","008-UM","2019/09/14 18:09:38","新北市淡水區大忠街24巷7號","121.443095","25.1752833333333","6501000","淡水區"
"251004","009-UM","2019/09/14 18:09:34","新北市淡水區民族路110巷43弄1號","121.461463333333","25.1352333333333","6501000","淡水區"
"251001","011-UM","2019/09/14 18:09:34","新北市淡水區自立路10號","121.463288333333","25.1297016666667","6501000","淡水區"
"251002","012-UM","2019/09/14 18:09:33","新北市淡水區中正東路40號","121.450223333333","25.1650966666667","6501000","淡水區"
"251015","KEA-2871","2019/09/14 18:09:32","新北市淡水區興福寮88巷1號","121.485313333333","25.164965","6501000","淡水區"
"251016","179-VK","2019/09/14 18:09:39","新北市淡水區下圭柔山18-1號","121.453706666667","25.202795","6501000","淡水區"
"251008","181-VK","2019/09/14 18:09:41","新北市淡水區坪頂路70巷41號","121.4607","25.1604316666667","6501000","淡水區"
"251013","182-VK","2019/09/14 18:09:21","新北市淡水區竹圍子12號","121.476346666667","25.193835","6501000","淡水區"
"251010","413-VK","2019/09/14 18:09:38","新北市淡水區中正路二段50巷10號","121.419845","25.1832833333333","6501000","淡水區"
"251012","441-VK","2019/09/14 18:09:35","新北市淡水區泉洲厝13-1號","121.48849","25.1900966666667","6501000","淡水區"
"251005","443-VK","2019/09/14 18:09:32","新北市淡水區水源街一段141號","121.447211666667","25.171875","6501000","淡水區"
"251006","561-UM","2019/09/14 18:09:39","新北市淡水區新民街82號","121.438441666667","25.17657","6501000","淡水區"
"251014","577-R6","2019/09/14 18:09:26","新北市淡水區南平15號","121.488513333333","25.2190866666667","6501000","淡水區"
"251011","650-BX","2019/09/14 18:09:29","新北市淡水區坪頂路500號","121.476688333333","25.1608183333333","6501000","淡水區"
"251003","766-UM","2019/09/14 18:09:30","新北市淡水區大忠街113巷18號","121.44723","25.1774983333333","6501000","淡水區"
"207003","550-UM","2019/09/14 18:09:37","新北市萬里區野柳里港東路156號","121.689911666667","25.2050566666667","6502800","萬里區"
"207004","291-VK","2019/09/14 18:09:25","新北市萬里區中幅里中福路89號","121.676366666667","25.171035","6502800","萬里區"
"252002","178-VK","2019/09/14 18:09:33","新北市三芝區中山路二段39號","121.50297","25.255115","6502100","三芝區"
"252003","249-BX","2019/09/14 18:09:40","新北市三芝區埔頭里埔頭39-1號","121.499","25.2606983333333","6502100","三芝區"
"252001","292-VK","2019/09/14 18:09:40","新北市三芝區中興街二段2號","121.498401666667","25.2566383333333","6502100","三芝區"
"208001","170-UY","2019/09/14 18:09:32","新北市金山區磺港里磺港路116號","121.645985","25.2264533333333","6502700","金山區"
"237007","153-BY","2019/09/14 18:09:39","新北市三峽區中正路二段368號","121.365526666667","24.9097966666667","6500900","三峽區"
"237009","210-TH","2019/09/14 18:09:32","新北市三峽區大仁路50巷10號","121.365375","24.9378966666667","6500900","三峽區"
"237013","252-BX","2019/09/14 18:09:26","新北市三峽區長泰街42號","121.378353333333","24.93223","6500900","三峽區"
"237012","275-BY","2019/09/14 18:09:39","新北市三峽區民生街19巷7弄43號","121.377678333333","24.93578","6500900","三峽區"
"237008","302-VK","2019/09/14 18:09:22","新北市三峽區白雞42號","121.378958333333","24.9108433333333","6500900","三峽區"
"237014","433-BY","2019/09/14 18:09:40","新北市三峽區國光街63巷6號","121.373923333333","24.9379816666667","6500900","三峽區"
"237006","5529-G3","2019/09/14 18:09:41","新北市三峽區溪北街1號","121.395955","24.936325","6500900","三峽區"
"237011","KEA-2596","2019/09/14 18:09:41","新北市三峽區大同路1-10號","121.377871666667","24.9292716666667","6500900","三峽區"
"237015","649-BX","2019/09/14 18:09:46","新北市三峽區紫新路1號","121.422498333333","24.92024","6500900","三峽區"
"237010","706-TV","2019/09/14 18:09:41","新北市三峽區中園街18號","121.368088333333","24.9272033333333","6500900","三峽區"
"237005","AKY-6261","2019/09/14 18:09:41","新北市三峽區民生街191號","121.371925","24.9348566666667","6500900","三峽區"
"236042","KED-0685","2019/09/14 18:09:28","新北市土城區城林路6巷80號","121.438543333333","24.9797133333333","6501300","土城區"
"236030","253-BX","2019/09/14 18:09:29","新北市土城區城林路6巷80號","121.438626666667","24.979685","6501300","土城區"
"236026","269-VK","2019/09/14 18:09:40","新北市土城區承天路43巷8號","121.439381666667","24.9641566666667","6501300","土城區"
"236014","270-VK","2019/09/14 18:09:37","新北市土城區裕民路163號","121.452578333333","24.9857266666667","6501300","土城區"
"236038","271-VK","2019/09/14 18:09:37","新北市土城區青雲路451巷1號","121.459005","24.9747216666667","6501300","土城區"
"236070","KEA-2877","2019/09/14 18:09:36","新北市土城區石門路12號","121.459335","24.9681533333333","6501300","土城區"
"236021","401-BY","2019/09/14 18:09:35","新北市土城區中華路二段2號","121.439466666667","24.9796233333333","6501300","土城區"
"236059","912-UM","2019/09/14 18:09:28","新北市土城區中央路四段246號","121.415163333333","24.956935","6501300","土城區"
"236049","913-UM","2019/09/14 18:09:32","新北市土城區明德路一段365-1號","121.453566666667","24.9790466666667","6501300","土城區"
"236063","915-UM","2019/09/14 18:09:44","新北市土城區金城路二段28-6號","121.45066","24.9784033333333","6501300","土城區"
"236055","AAC-216","2019/09/14 18:09:23","新北市土城區中華路二段98號","121.438168333333","24.9744083333333","6501300","土城區"
"242042","AAC-296","2019/09/14 18:09:37","新北市新莊區雙鳳路116巷15弄2號","121.413611666667","25.0291633333333","6500500","新莊區"
"242061","986-R7","2019/09/14 18:09:28","新北市新莊區新樹路69-34號","121.4382","25.02887","6500500","新莊區"
"242004","751-BX","2019/09/14 18:09:30","新北市新莊區自由街34號","121.455798333333","25.0465066666667","6500500","新莊區"
"242029","615-BX","2019/09/14 18:09:39","新北市新莊區中平路181號","121.444646666667","25.04886","6500500","新莊區"
"242027","613-BX","2019/09/14 18:09:27","新北市新莊區幸福路71號","121.457031666667","25.04928","6500500","新莊區"
"242058","612-BX","2019/09/14 18:09:25","新北市新莊區壽山路47號","121.41441","25.0309","6500500","新莊區"
"242048","566-BX","2019/09/14 18:09:40","新北市新莊區萬安街9號","121.421606666667","25.0247766666667","6500500","新莊區"
"242053","497-BY","2019/09/14 18:08:42","新北市新莊區民安西路327巷4弄4號","121.428075","25.01128","6500500","新莊區"
"242002","442-UM","2019/09/14 18:09:33","新北市新莊區新莊路2號","121.459358333333","25.037955","6500500","新莊區"
"242007","440-UM","2019/09/14 18:09:29","新北市新莊區自重街1號","121.453365","25.0475483333333","6500500","新莊區"
"242044","415-TV","2019/09/14 18:09:36","新北市新莊區雙鳳路102-1號","121.414286666667","25.0281116666667","6500500","新莊區"
"242013","413-TV","2019/09/14 18:09:44","新北市新莊區新泰路357巷3弄51號","121.441835","25.0399066666667","6500500","新莊區"
"242051","400-BY","2019/09/14 18:09:35","新北市新莊區民本街27巷17號","121.429145","25.0191016666667","6500500","新莊區"
"242025","362-BY","2019/09/14 18:09:41","新北市新莊區五工二路94巷15號","121.459903333333","25.0672783333333","6500500","新莊區"
"242015","132-UY","2019/09/14 18:09:35","新北市新莊區中和街59巷8號","121.447066666667","25.0469116666667","6500500","新莊區"
"242056","172-VK","2019/09/14 18:09:43","新北市新莊區豐年街豐1巷22號","121.447378333333","25.03115","6500500","新莊區"
"242017","173-VK","2019/09/14 18:09:30","新北市新莊區永樂街5號","121.452156666667","25.0451133333333","6500500","新莊區"
"242031","175-VK","2019/09/14 18:09:41","新北市新莊區新泰路277巷17號","121.445061666667","25.04028","6500500","新莊區"
"242039","176-VK","2019/09/14 18:09:32","新北市新莊區民安西路88巷2號","121.426446666667","25.019995","6500500","新莊區"
"242021","KED-0687","2019/09/14 18:09:40","新北市新莊區新興街98巷1號","121.450631666667","25.038765","6500500","新莊區"
"242036","348-TH","2019/09/14 18:09:44","新北市新莊區後港一路47號","121.425943333333","25.02633","6500500","新莊區"
"242009","349-TH","2019/09/14 18:09:42","新北市新莊區昌平街31巷2號","121.454608333333","25.052305","6500500","新莊區"
"242034","350-TH","2019/09/14 18:09:43","新北市新莊區景德路382號","121.446255","25.0334466666667","6500500","新莊區"
"242019","351-TH","2019/09/14 18:09:33","新北市新莊區長青街37巷22弄1號","121.456146666667","25.041195","6500500","新莊區"
"238015","755-BX","2019/09/14 18:09:40","新北市樹林區大安路325號","121.417296666667","24.99163","6500700","樹林區"
"238023","601-UM","2019/09/14 18:09:44","新北市樹林區三福街67巷4號","121.40779","25.0160033333333","6500700","樹林區"
"238019","599-UM","2019/09/14 18:09:25","新北市樹林區水源街15號","121.42516","24.9831116666667","6500700","樹林區"
"238018","KEA-2217","2019/09/14 18:09:41","新北市樹林區保安街一段16巷39號","121.428696666667","24.9947366666667","6500700","樹林區"
"238022","KEA-2213","2019/09/14 18:09:37","新北市樹林區太平路225巷2號","121.418518333333","24.9769283333333","6500700","樹林區"
"238021","KEA-2539","2019/09/14 18:09:34","新北市樹林區柑園街二段149巷1號","121.382326666667","24.9538466666667","6500700","樹林區"
"238025","303-VK","2019/09/14 18:09:36","新北市樹林區保安街二段68號","121.415351666667","25.0028916666667","6500700","樹林區"
"238017","283-BY","2019/09/14 18:09:34","新北市樹林區中正路815號","121.409428333333","25.0169266666667","6500700","樹林區"
"238014","282-BY","2019/09/14 18:09:35","新北市樹林區潭興街107巷1弄7號","121.424915","24.998785","6500700","樹林區"
"238020","268-VK","2019/09/14 18:09:44","新北市樹林區三龍街118巷7號","121.415405","25.01783","6500700","樹林區"
"238026","172-UY","2019/09/14 18:09:24","新北市樹林區中山路三段125-10號","121.397373333333","24.97337","6500700","樹林區"
"238016","169-UY","2019/09/14 18:09:26","新北市樹林區育英街146號","121.419173333333","24.9894566666667","6500700","樹林區"
"239007","AAC-297","2019/09/14 18:09:38","新北市鶯歌區尖山埔路195號","121.345333333333","24.95053","6500800","鶯歌區"
"239006","891-R6","2019/09/14 18:09:44","新北市鶯歌區鶯桃路455巷2弄2號","121.331888333333","24.96552","6500800","鶯歌區"
"239008","527-UM","2019/09/14 18:09:31","新北市鶯歌區朝陽街61巷35號","121.33895","24.9776583333333","6500800","鶯歌區"
"239005","526-UM","2019/09/14 18:09:46","新北市鶯歌區鶯桃路668巷73號","121.329956666667","24.9718233333333","6500800","鶯歌區"
"239001","417-VK","2019/09/14 18:09:30","新北市鶯歌區中正三路387號","121.326888333333","24.93446","6500800","鶯歌區"
"239003","360-BY","2019/09/14 18:09:42","新北市鶯歌區鶯桃路234巷1號","121.336596666667","24.9593716666667","6500800","鶯歌區"
"239002","359-BY","2019/09/14 18:09:30","新北市鶯歌區光明街76號","121.346883333333","24.955985","6500800","鶯歌區"
"221008","489-VK","2019/09/14 18:09:34","新北市汐止區明峰街70-1號","121.631863333333","25.07113","6501100","汐止區"
"221036","130-UY","2019/09/14 18:09:41","新北市汐止區大同路三段116號","121.672035","25.0767266666667","6501100","汐止區"
"221015","131-UY","2019/09/14 18:09:37","新北市汐止區長江街271號","121.664545","25.0805583333333","6501100","汐止區"
"244019","KED-0667","2019/09/14 18:09:34","新北市林口區忠孝路552巷17-8號","121.374628333333","25.0672783333333","6501700","林口區"
"221010","269-BY","2019/09/14 18:09:30","新北市汐止區汐萬路二段275巷1弄25號","121.646263333333","25.08821","6501100","汐止區"
"221012","278-VK","2019/09/14 18:09:43","新北市汐止區長興街二段50巷31號","121.674698333333","25.081095","6501100","汐止區"
"221023","279-VK","2019/09/14 18:09:30","新北市汐止區民族五街69號","121.628235","25.07033","6501100","汐止區"
"221032","280-BY","2019/09/14 18:09:33","新北市汐止區橫科路73巷22-2號","121.619331666667","25.051545","6501100","汐止區"
"221029","298-VK","2019/09/14 18:09:42","新北市汐止區樟樹二路130號","121.639871666667","25.0656383333333","6501100","汐止區"
"221021","299-VK","2019/09/14 18:09:24","新北市汐止區新興路8號","121.65631","25.0648666666667","6501100","汐止區"
"221031","353-TW","2019/09/14 18:09:28","新北市汐止區中興路181巷24弄14號","121.629208333333","25.0667283333333","6501100","汐止區"
"221035","622-UM","2019/09/14 18:09:33","新北市汐止區汐萬路一段115巷21號","121.653486666667","25.070265","6501100","汐止區"
"221025","623-UM","2019/09/14 18:09:34","新北市汐止區秀峰路139號","121.660241666667","25.062375","6501100","汐止區"
"221038","646-BX","2019/09/14 18:09:40","新北市汐止區南興路85號","121.653118333333","25.05898","6501100","汐止區"
"221033","647-BX","2019/09/14 18:09:35","新北市汐止區宜興街10巷21號","121.621975","25.040715","6501100","汐止區"
"221002","707-TV","2019/09/14 18:09:38","新北市汐止區福德一路213巷1號","121.634863333333","25.0652616666667","6501100","汐止區"
"221018","753-BX","2019/09/14 18:05:51","新北市汐止區招商街11巷1號","121.666491666667","25.0689583333333","6501100","汐止區"
"233001","KEA-2870","2019/09/14 18:09:37","新北市烏來區新烏路五段56號","121.54395","24.8764816666667","6502900","烏來區"
"242046","281-VK","2019/09/14 18:09:36","新北市新莊區福營路334號","121.421708333333","25.026765","6500500","新莊區"
"242011","280-VK","2019/09/14 18:09:34","新北市新莊區中信街86號","121.447906666667","25.05329","6500500","新莊區"
"235061","KEA-2875","2019/09/14 18:09:32","新北市中和區國光街215巷24弄6號","121.466561666667","25.00017","6500300","中和區"
"235062","KEA-2876","2019/09/14 18:09:44","新北市中和區景平路997巷2號","121.495655","25.005785","6500300","中和區"
