"lineid","car","time","location","longitude","latitude","cityid","cityname"
"234046","148-BY","2019/09/14 19:09:33","新北市永和區永元路18巷40弄2號","121.524166666667","25.0003133333333","6500400","永和區"
"234081","298-R6","2019/09/14 19:09:43","新北市永和區永亨路59號","121.520926666667","25.0061983333333","6500400","永和區"
"234038","336-UY","2019/09/14 19:09:40","新北市永和區民樂街71巷2號","121.52742","24.9973516666667","6500400","永和區"
"234064","337-UY","2019/09/14 19:09:43","新北市永和區秀朗路二段33號","121.521255","25.0024383333333","6500400","永和區"
"234086","338-UY","2019/09/14 19:09:28","新北市永和區永貞路114號","121.518821666667","25.0044416666667","6500400","永和區"
"234070","552-UM","2019/09/14 19:09:42","新北市永和區豫溪街137巷2號","121.519763333333","25.0105416666667","6500400","永和區"
"234017","745-BX","2019/09/14 19:09:27","新北市永和區忠孝街27號","121.513933333333","25.0155933333333","6500400","永和區"
"234030","746-BX","2019/09/14 19:09:34","新北市永和區民生路23號","121.52291","24.998825","6500400","永和區"
"234054","KEA-2590","2019/09/14 19:09:28","新北市永和區中興街133巷8號","121.518708333333","25.0126833333333","6500400","永和區"
"234007","KED-0605","2019/09/14 19:09:25","新北市永和區中山路一段334號","121.506135","25.00644","6500400","永和區"
"234013","KEA-2591","2019/09/14 19:09:34","新北市永和區仁愛路122號","121.511653333333","25.0131066666667","6500400","永和區"
"234061","AAD-866","2019/09/14 19:09:24","新北市永和區安樂路461號","121.514278333333","25.00517","6500400","永和區"
"234074","748-BX","2019/09/14 19:09:32","新北市永和區竹林路202號","121.520476666667","25.008765","6500400","永和區"
"234042","862-TW","2019/09/14 19:09:39","新北市永和區保平路111巷16-1號","121.511438333333","25.0057516666667","6500400","永和區"
"234050","863-TW","2019/09/14 19:09:36","新北市永和區仁愛路104巷7弄58號","121.51095","25.01415","6500400","永和區"
"234026","9371-KE","2019/09/14 19:09:39","新北市永和區安樂路272巷9弄7號","121.515093333333","25.0046516666667","6500400","永和區"
"234011","9373-KE","2019/09/14 19:09:23","新北市永和區中山路一段62號","121.512808333333","25.01075","6500400","永和區"
"249005","172-UM","2019/09/14 19:09:36","新北市八里區中華路三段27號","121.39646","25.143005","6502300","八里區"
"249001","173-UM","2019/09/14 19:09:31","新北市八里區龍米路二段230-1號","121.431816666667","25.1584916666667","6502300","八里區"
"249004","303-UY","2019/09/14 19:08:09","新北市八里區中山路三段409號","121.368625","25.1349066666667","6502300","八里區"
"249003","593-UM","2019/09/14 19:09:26","新北市八里區仁愛路17號","121.413383333333","25.160995","6502300","八里區"
"248014","025-BX","2019/09/14 19:09:35","新北市五股區民義路一段163-2號","121.432111666667","25.087885","6501500","五股區"
"248008","KED-0815","2019/09/14 19:09:31","新北市五股區中興路二段2-1號","121.463265","25.0743383333333","6501500","五股區"
"248020","KED-0813","2019/09/14 19:09:30","新北市五股區凌雲路三段59-2號","121.425181666667","25.1250466666667","6501500","五股區"
"248012","247-BX","2019/09/14 19:09:36","新北市五股區中興路四段48巷16號","121.43864","25.083425","6501500","五股區"
"248004","677-BX","2019/09/14 19:09:25","新北市五股區五福路7-3號","121.43427","25.0879633333333","6501500","五股區"
"248002","678-BX","2019/09/14 19:09:27","新北市五股區凌雲路一段158巷6號","121.447813333333","25.10299","6501500","五股區"
"248010","682-TV","2019/09/14 19:09:41","新北市五股區水碓一路23號","121.430606666667","25.07127","6501500","五股區"
"234023","9380-KE","2019/09/14 19:09:35","新北市永和區中興街10巷19號","121.515843333333","25.01116","6500400","永和區"
"234077","969-R7","2019/09/14 19:09:36","新北市永和區民族街27巷2號","121.518985","24.9995333333333","6500400","永和區"
"234067","AAC-212","2019/09/14 19:09:27","新北市永和區保平路23號","121.512668333333","25.0073233333333","6500400","永和區"
"234003","AAC-295","2019/09/14 19:09:43","新北市永和區保福路一段88號","121.512221666667","25.0104033333333","6500400","永和區"
"244013","KEA-2802","2019/09/14 19:09:27","新北市林口區麗園一街9巷2號","121.376825","25.071065","6501700","林口區"
"244023","483-VK","2019/09/14 19:09:41","新北市林口區文化二路二段92號","121.378645","25.0815","6501700","林口區"
"244011","701-TV","2019/09/14 19:09:22","新北市林口區中正路264巷20號","121.388373333333","25.0785333333333","6501700","林口區"
"244025","837-TS","2019/09/14 19:09:40","新北市林口區忠孝路1號","121.364146666667","25.0760016666667","6501700","林口區"
"243012","AAD-798","2019/09/14 19:09:25","新北市泰山區辭修路16號","121.429263333333","25.0581533333333","6501600","泰山區"
"243010","297-R6","2019/09/14 19:09:37","新北市泰山區明志路一段483巷1弄4號","121.431121666667","25.05542","6501600","泰山區"
"243014","KEA-2801","2019/09/14 19:09:34","新北市泰山區泰林路二段480號","121.425073333333","25.0641183333333","6501600","泰山區"
"243016","421-VK","2019/09/14 19:09:45","新北市泰山區明志路二段390號","121.42538","25.0445416666667","6501600","泰山區"
"243009","KEA-2215","2019/09/14 19:09:35","新北市泰山區福德街7號","121.432421666667","25.0624916666667","6501600","泰山區"
"243011","KEA-2216","2019/09/14 19:09:39","新北市泰山區明志路二段328號","121.426183333333","25.04579","6501600","泰山區"
"243013","646-TV","2019/09/14 19:09:38","新北市泰山區明志路三段277號","121.423048333333","25.036805","6501600","泰山區"
"243015","680-BX","2019/09/14 19:09:34","新北市泰山區明志路一段435號","121.430781666667","25.0564383333333","6501600","泰山區"
"222003","436-BY","2019/09/14 19:09:28","新北市深坑區深南路170號","121.625853333333","25.0151516666667","6501800","深坑區"
"222002","659-BX","2019/09/14 19:09:26","新北市深坑區烏月路1號","121.633405","25.0082016666667","6501800","深坑區"
"231061","002-UM","2019/09/14 19:09:37","新北市新店區安康路一段289號","121.522831666667","24.9636566666667","6500600","新店區"
"231055","0291-UT","2019/09/14 19:09:27","新北市新店區力行路5號","121.539375","24.9645916666667","6500600","新店區"
"231044","046-UY","2019/09/14 19:09:24","新北市新店區中興路三段202號","121.54384","24.9819316666667","6500600","新店區"
"231060","106-UY","2019/09/14 19:09:34","新北市新店區安康路二段216號","121.509855","24.9593483333333","6500600","新店區"
"231049","108-UY","2019/09/14 19:09:34","新北市新店區二十張路25巷18弄1號","121.539273333333","24.9817583333333","6500600","新店區"
"231065","110-UY","2019/09/14 19:09:41","新北市新店區安祥路113號","121.475198333333","24.9568966666667","6500600","新店區"
"231062","256-BX","2019/09/14 19:09:41","新北市新店區安平路24-6號","121.524413333333","24.966325","6500600","新店區"
"231054","260-TV","2019/09/14 19:09:33","新北市新店區新店路143號","121.537071666667","24.9546983333333","6500600","新店區"
"231042","268-BY","2019/09/14 19:09:29","新北市新店區中興路一段165號","121.542615","24.9643516666667","6500600","新店區"
"231064","278-BY","2019/09/14 19:09:35","新北市新店區安忠路56巷2號","121.512805","24.9592733333333","6500600","新店區"
"231050","AAD-862","2019/09/14 19:09:40","新北市新店區竹林路2巷29弄1號","121.550125","24.9504633333333","6500600","新店區"
"231045","355-BY","2019/09/14 19:09:44","新北市新店區北宜路一段106號","121.539001666667","24.9553383333333","6500600","新店區"
"231058","3713-VJ","2019/09/14 19:09:37","新北市新店區檳榔路50號","121.541841666667","24.9634016666667","6500600","新店區"
"231056","4715-K9","2019/09/14 19:09:35","新北市新店區安業街8巷2號","121.515041666667","24.977845","6500600","新店區"
"231067","4772-VM","2019/09/14 19:09:45","新北市新店區安康路一段247巷6號","121.524783333333","24.9629516666667","6500600","新店區"
"231052","513-UM","2019/09/14 19:09:38","新北市新店區自強路90號","121.54638","24.9240233333333","6500600","新店區"
"231041","618-UM","2019/09/14 19:09:36","新北市新店區中央路151號","121.529336666667","24.97196","6500600","新店區"
"231063","641-BX","2019/09/14 19:09:41","新北市新店區車子路117號","121.505333333333","24.9518","6500600","新店區"
"231048","KED-0819","2019/09/14 19:09:42","新北市新店區德正街27巷29弄60號","121.54577","24.9728616666667","6500600","新店區"
"231051","718-UY","2019/09/14 19:09:27","新北市新店區中正路382巷22號","121.535355","24.9777766666667","6500600","新店區"
"231046","719-UM","2019/09/14 19:09:13","新北市新店區華潭街52號","121.52906","24.955195","6500600","新店區"
"231057","720-UM","2019/09/14 19:09:31","新北市新店區百齡一路12號","121.553108333333","24.9325083333333","6500600","新店區"
"231059","897-TW","2019/09/14 19:09:43","新北市新店區安和路一段2-3號","121.517298333333","24.96426","6500600","新店區"
"231040","898-TW","2019/09/14 19:09:41","新北市新店區三民路98-3號","121.533926666667","24.973405","6500600","新店區"
"231043","899-TW","2019/09/14 19:09:26","新北市新店區寶橋路132號","121.547428333333","24.9760216666667","6500600","新店區"
"231066","AKT-0513","2019/09/14 19:09:40","新北市新店區安康路二段458號","121.494158333333","24.954165","6500600","新店區"
"241035","KEA-2210","2019/09/14 19:09:41","新北市三重區大智街12號","121.495175","25.06449","6500200","三重區"
"241026","480-VK","2019/09/14 19:09:38","新北市三重區重安街139號","121.495433333333","25.0546766666667","6500200","三重區"
"241022","KED-0820","2019/09/14 19:09:33","新北市三重區三民街155巷9號","121.484431666667","25.0648383333333","6500200","三重區"
"241029","942-UM","2019/09/14 19:09:40","新北市三重區集美街222號","121.492043333333","25.05539","6500200","三重區"
"235066","003-UY","2019/09/14 19:09:28","新北市中和區廣福路12-5號","121.505376666667","25.0027683333333","6500300","中和區"
"235063","006-UY","2019/09/14 19:09:37","新北市中和區中正路260號","121.495265","24.99441","6500300","中和區"
"235056","096-UM","2019/09/14 19:09:39","新北市中和區中正路1161號","121.481943333333","25.0087366666667","6500300","中和區"
"235039","097-UM","2019/09/14 19:09:24","新北市中和區景平路3號","121.523686666667","24.9902966666667","6500300","中和區"
"235065","098-UM","2019/09/14 19:09:36","新北市中和區中山路二段136巷1號","121.50189","25.0036933333333","6500300","中和區"
"235040","150-BY","2019/09/14 19:09:35","新北市中和區宜安路11巷24號","121.512701666667","24.9950866666667","6500300","中和區"
"235058","151-BY","2019/09/14 19:09:40","新北市中和區連城路328號","121.483241666667","24.995925","6500300","中和區"
"235055","183-VK","2019/09/14 19:09:31","新北市中和區德光路132號","121.468058333333","25.0032783333333","6500300","中和區"
"235038","185-VK","2019/09/14 19:09:39","新北市中和區大仁街10巷9弄29號","121.519293333333","24.9930033333333","6500300","中和區"
"235049","186-VK","2019/09/14 19:09:32","新北市中和區景新街214號","121.507063333333","24.9951416666667","6500300","中和區"
"235067","255-BX","2019/09/14 19:09:42","新北市中和區連城路286號","121.484271666667","24.996315","6500300","中和區"
"235044","293-VK","2019/09/14 19:09:31","新北市中和區中興街263巷2號","121.500305","24.988965","6500300","中和區"
"235072","301-VK","2019/09/14 19:09:44","新北市中和區永和路1-1號","121.499891666667","25.003005","6500300","中和區"
"235043","352-BY","2019/09/14 19:09:42","新北市中和區景平路322號","121.51222","24.9928116666667","6500300","中和區"
"235042","KEA-2878","2019/09/14 19:09:27","新北市中和區自強路15巷7號","121.521248333333","24.993715","6500300","中和區"
"235050","4979-A6","2019/09/14 19:09:36","新北市中和區復興路249巷11弄3-1號","121.503608333333","24.98972","6500300","中和區"
"235069","4980-A6","2019/09/14 19:09:44","新北市中和區中和路165巷20號","121.503415","25.0004016666667","6500300","中和區"
"235070","558-UM","2019/09/14 19:09:30","新北市中和區中山路二段211號","121.499025","25.002525","6500300","中和區"
"235045","565-BX","2019/09/14 19:09:36","新北市中和區景新街423巷36號","121.514891666667","24.9895016666667","6500300","中和區"
"235054","640-BX","2019/09/14 19:09:37","新北市中和區國光街109巷27號","121.469445","24.9994683333333","6500300","中和區"
"235060","647-TV","2019/09/14 19:09:28","新北市中和區中山路三段100號","121.477081666667","25.00572","6500300","中和區"
"235047","732-UM","2019/09/14 19:09:38","新北市中和區興南路一段56巷1弄2號","121.5107","24.990845","6500300","中和區"
"235046","733-UM","2019/09/14 19:09:26","新北市中和區工專路111號","121.507696666667","24.982335","6500300","中和區"
"235071","783-BX","2019/09/14 19:09:35","新北市中和區連城路358號","121.482075","24.995515","6500300","中和區"
"235057","801-TS","2019/09/14 19:09:35","新北市中和區員山路423巷4號","121.480416666667","25.0032566666667","6500300","中和區"
"235041","802-TS","2019/09/14 19:09:37","新北市中和區中和路302-1號","121.508658333333","24.9999083333333","6500300","中和區"
"235052","805-TS","2019/09/14 19:09:36","新北市中和區興南路二段142巷19弄9號","121.502846666667","24.98338","6500300","中和區"
"235048","896-TW","2019/09/14 19:09:28","新北市中和區忠孝街37巷3號","121.510838333333","24.98342","6500300","中和區"
"235053","900-TW","2019/09/14 19:09:31","新北市中和區華福街71巷2號","121.467246666667","24.99689","6500300","中和區"
"235064","911-UM","2019/09/14 19:09:36","新北市中和區中和路35號","121.500041666667","25.0015816666667","6500300","中和區"
"235051","157-BY","2019/09/14 19:09:27","新北市中和區興南路一段89號","121.509955","24.9887583333333","6500300","中和區"
"235037","AAC-213","2019/09/14 19:09:40","新北市中和區秀朗路三段10巷37弄4號","121.524043333333","24.995815","6500300","中和區"
"235059","AAC-215","2019/09/14 19:09:41","新北市中和區圓通路296巷31弄1號","121.488598333333","24.9904483333333","6500300","中和區"
"220065","072-UY","2019/09/14 19:09:36","新北市板橋區民族路229號","121.469708333333","25.007295","6500100","板橋區"
"220086","073-UY","2019/09/14 19:09:28","新北市板橋區中正路250巷35號","121.457136666667","25.0196033333333","6500100","板橋區"
"220106","075-UY","2019/09/14 19:09:23","新北市板橋區江寧路三段85巷14號","121.472315","25.033215","6500100","板橋區"
"220069","AAD-861","2019/09/14 19:09:41","新北市板橋區貴興路31號","121.457638333333","25.0039466666667","6500100","板橋區"
"220068","120-SR","2019/09/14 19:09:24","新北市板橋區三民路一段31巷39號","121.480653333333","25.0233633333333","6500100","板橋區"
"226004","312-R5","2019/09/14 19:09:39","新北市平溪區望古里灰3-1號","121.75432","25.0278433333333","6502400","平溪區"
"228003","097-TW","2019/09/14 19:09:26","新北市貢寮區和美里龍洞街60號","121.914175","25.1160633333333","6502600","貢寮區"
"228001","212-TW","2019/09/14 19:09:29","新北市貢寮區仁理村仁和路270巷3弄1號","121.92515","25.05428","6502600","貢寮區"
"228002","663-BX","2019/09/14 19:09:46","新北市貢寮區福隆里福隆街36號","121.945106666667","25.017495","6502600","貢寮區"
"224010","AGQ-8101","2019/09/14 19:09:23","新北市瑞芳區基山街38號","121.844938333333","25.108375","6501200","瑞芳區"
"224009","275-VK","2019/09/14 19:09:29","新北市瑞芳區祈堂路12號","121.858468333333","25.1129783333333","6501200","瑞芳區"
"224008","272-VK","2019/09/14 19:09:29","新北市瑞芳區瑞芳街129號","121.805235","25.109825","6501200","瑞芳區"
"224005","271-BY","2019/09/14 19:09:24","新北市瑞芳區深澳路91號","121.818288333333","25.1302216666667","6501200","瑞芳區"
"227001","642-TC","2019/09/14 19:09:37","新北市雙溪區牡丹里自強路8巷12號","121.86511","25.0383916666667","6502500","雙溪區"
"227002","400-TW","2019/09/14 19:09:24","新北市雙溪區平林里外平林16號","121.8586","25.0378833333333","6502500","雙溪區"
"253005","032-BX","2019/09/14 19:09:24","新北市石門區小坑14-3號","121.600125","25.2875","6502200","石門區"
"253006","295-VK","2019/09/14 19:09:31","新北市石門區海灣新城8號","121.525421666667","25.28505","6502200","石門區"
"222001","KEA-2212","2019/09/14 19:09:28","新北市深坑區北深路一段300號","121.62428","25.0057083333333","6501800","深坑區"
"208002","KEA-2872","2019/09/14 19:09:35","新北市金山區仁愛路67巷28號","121.63413","25.220875","6502700","金山區"
"208003","665-BX","2019/09/14 19:09:43","新北市金山區中正路136號","121.631955","25.2214666666667","6502700","金山區"
"251009","008-UM","2019/09/14 19:09:37","新北市淡水區重建街36號","121.439961666667","25.1712583333333","6501000","淡水區"
"251001","011-UM","2019/09/14 19:09:34","新北市淡水區自強路201巷39號","121.462176666667","25.1267966666667","6501000","淡水區"
"251002","012-UM","2019/09/14 19:09:31","新北市淡水區中山路50號","121.444055","25.17032","6501000","淡水區"
"251015","KEA-2871","2019/09/14 19:09:45","新北市淡水區糞箕湖58號","121.484573333333","25.1725733333333","6501000","淡水區"
"251016","179-VK","2019/09/14 19:09:39","新北市淡水區淡金路三段36號","121.448096666667","25.1990916666667","6501000","淡水區"
"251013","182-VK","2019/09/14 19:09:40","新北市淡水區安子內12-1號","121.481515","25.2191266666667","6501000","淡水區"
"251010","413-VK","2019/09/14 19:09:38","新北市淡水區中正路一段156巷3號","121.421173333333","25.180265","6501000","淡水區"
"251007","442-VK","2019/09/14 19:09:22","新北市淡水區民生路135巷32號","121.466661666667","25.1390983333333","6501000","淡水區"
"251014","577-R6","2019/09/14 19:09:46","新北市淡水區北勢子9號","121.482831666667","25.22825","6501000","淡水區"
"251003","766-UM","2019/09/14 19:09:30","新北市淡水區大義街3號","121.443788333333","25.1781833333333","6501000","淡水區"
"207003","550-UM","2019/09/14 19:09:37","新北市萬里區大鵬里頂社41號","121.65613","25.2109166666667","6502800","萬里區"
"207004","291-VK","2019/09/14 19:09:25","新北市萬里區萬里里瑪鋉下街46-1號","121.691496666667","25.1792733333333","6502800","萬里區"
"252002","178-VK","2019/09/14 19:09:33","新北市三芝區埔坪里埔頭坑78號","121.509085","25.2543366666667","6502100","三芝區"
"252003","249-BX","2019/09/14 19:09:40","新北市三芝區錫板里南勢崗5-6號","121.479926666667","25.2623","6502100","三芝區"
"252001","292-VK","2019/09/14 19:09:40","新北市三芝區長勤街80號","121.500295","25.2551316666667","6502100","三芝區"
"208001","170-UY","2019/09/14 19:09:32","新北市金山區金包里街68號","121.639043333333","25.2214183333333","6502700","金山區"
"237004","KEA-2597","2019/09/14 19:09:41","新北市三峽區有木151號","121.447735","24.8476466666667","6500900","三峽區"
"237007","153-BY","2019/09/14 19:09:37","新北市三峽區中正路二段42巷50號","121.364308333333","24.9205283333333","6500900","三峽區"
"237013","252-BX","2019/09/14 19:09:37","新北市三峽區光明路69巷2號","121.376185","24.9287866666667","6500900","三峽區"
"237012","275-BY","2019/09/14 19:09:39","新北市三峽區三樹路222巷254弄64號","121.39367","24.94444","6500900","三峽區"
"237008","302-VK","2019/09/14 19:09:42","新北市三峽區大同路102號","121.374506666667","24.9270116666667","6500900","三峽區"
"237014","433-BY","2019/09/14 19:09:40","新北市三峽區大仁路63號","121.365111666667","24.937385","6500900","三峽區"
"237006","5529-G3","2019/09/14 19:09:44","新北市三峽區溪東路132號","121.404663333333","24.93338","6500900","三峽區"
"237011","KEA-2596","2019/09/14 19:09:41","新北市三峽區介壽路三段107號","121.395505","24.939335","6500900","三峽區"
"237015","649-BX","2019/09/14 19:09:29","新北市三峽區建安71號","121.448758333333","24.9261466666667","6500900","三峽區"
"237010","706-TV","2019/09/14 19:09:40","新北市三峽區國光街352號","121.371446666667","24.9395966666667","6500900","三峽區"
"237005","AKY-6261","2019/09/14 19:09:41","新北市三峽區中山路459巷131號","121.350925","24.9345916666667","6500900","三峽區"
"236042","KED-0685","2019/09/14 19:09:28","新北市土城區學府路一段239號","121.450415","24.9833883333333","6501300","土城區"
"236026","269-VK","2019/09/14 19:09:39","新北市土城區中正路74巷3弄2號","121.444803333333","24.97475","6501300","土城區"
"236014","270-VK","2019/09/14 19:09:37","新北市土城區學府路一段99巷6號","121.45658","24.9870433333333","6501300","土城區"
"236038","271-VK","2019/09/14 19:09:36","新北市土城區清水路32巷18號","121.457398333333","24.9811466666667","6501300","土城區"
"236070","KEA-2877","2019/09/14 19:09:36","新北市土城區裕生路84巷1號","121.447248333333","24.9853366666667","6501300","土城區"
"236021","401-BY","2019/09/14 19:09:35","新北市土城區延吉街185號","121.469168333333","24.9855966666667","6501300","土城區"
"236059","912-UM","2019/09/14 19:09:28","新北市土城區金城路一段53號","121.441248333333","24.9697116666667","6501300","土城區"
"236049","913-UM","2019/09/14 19:09:32","新北市土城區明德路一段365-1號","121.453651666667","24.9790783333333","6501300","土城區"
"236055","AAC-216","2019/09/14 19:09:23","新北市土城區學府路一段276號","121.450205","24.9833416666667","6501300","土城區"
"242019","351-TH","2019/09/14 19:09:33","新北市新莊區新泰路357巷3弄57號","121.44179","25.0394583333333","6500500","新莊區"
"238023","601-UM","2019/09/14 19:09:24","新北市樹林區三興路35號","121.396161666667","25.0147533333333","6500700","樹林區"
"238019","599-UM","2019/09/14 19:09:45","新北市樹林區鎮前街423號","121.413771666667","24.982855","6500700","樹林區"
"238022","KEA-2213","2019/09/14 19:09:37","新北市樹林區中山路二段151巷15弄14號","121.408055","24.9769966666667","6500700","樹林區"
"238021","KEA-2539","2019/09/14 19:09:34","新北市樹林區柑園街二段426-1號","121.364311666667","24.947005","6500700","樹林區"
"238025","303-VK","2019/09/14 19:09:36","新北市樹林區民和街79號","121.380051666667","24.97219","6500700","樹林區"
"238017","283-BY","2019/09/14 19:09:34","新北市樹林區光興街50號","121.40985","25.0027316666667","6500700","樹林區"
"238014","282-BY","2019/09/14 19:09:35","新北市樹林區千歲街92巷7弄41號","121.427698333333","24.99871","6500700","樹林區"
"238020","268-VK","2019/09/14 19:09:44","新北市樹林區俊英街155巷9弄10號","121.423361666667","25.01185","6500700","樹林區"
"238026","172-UY","2019/09/14 19:09:24","新北市樹林區中和街46號","121.389191666667","24.9739166666667","6500700","樹林區"
"238016","169-UY","2019/09/14 19:09:26","新北市樹林區復興路373巷7弄7號","121.417611666667","24.986725","6500700","樹林區"
"239007","AAC-297","2019/09/14 19:09:38","新北市鶯歌區中正一路345巷1號","121.357536666667","24.9573366666667","6500800","鶯歌區"
"239006","891-R6","2019/09/14 19:09:24","新北市鶯歌區鶯桃路296巷95號","121.336481666667","24.961765","6500800","鶯歌區"
"239008","527-UM","2019/09/14 19:09:27","新北市鶯歌區國際二路52號","121.335468333333","24.9757483333333","6500800","鶯歌區"
"239005","526-UM","2019/09/14 19:09:26","新北市鶯歌區大湖路361巷81-1號","121.333606666667","24.9751","6500800","鶯歌區"
"239001","417-VK","2019/09/14 19:09:30","新北市鶯歌區永明街58號","121.340606666667","24.9559483333333","6500800","鶯歌區"
"239003","360-BY","2019/09/14 19:09:22","新北市鶯歌區鶯桃路559號","121.330198333333","24.9682116666667","6500800","鶯歌區"
"239002","359-BY","2019/09/14 19:09:30","新北市鶯歌區中山路268號","121.344381666667","24.9569316666667","6500800","鶯歌區"
"239004","193-VK","2019/09/14 19:09:37","新北市鶯歌區中正三路318巷32號","121.3266","24.9374266666667","6500800","鶯歌區"
"221008","489-VK","2019/09/14 19:09:34","新北市汐止區康寧街426號","121.630755","25.068135","6501100","汐止區"
"221036","130-UY","2019/09/14 19:09:41","新北市汐止區南昌街47號","121.663305","25.0684366666667","6501100","汐止區"
"221015","131-UY","2019/09/14 19:09:37","新北市汐止區鄉長路一段55巷22號","121.664811666667","25.0763333333333","6501100","汐止區"
"221031","353-TW","2019/09/14 19:09:28","新北市汐止區福德三路131號","121.633291666667","25.0675166666667","6501100","汐止區"
"221035","622-UM","2019/09/14 19:09:33","新北市汐止區禮門街10號","121.656723333333","25.0676033333333","6501100","汐止區"
"221002","707-TV","2019/09/14 19:09:38","新北市汐止區大同路一段321號","121.638008333333","25.0591666666667","6501100","汐止區"
"220079","145-BY","2019/09/14 19:09:43","新北市板橋區公館街18號","121.457486666667","25.0126916666667","6500100","板橋區"
"220080","200-UY","2019/09/14 19:09:41","新北市板橋區大觀路二段7巷108號","121.450365","25.002905","6500100","板橋區"
"220082","610-BX","2019/09/14 19:09:30","新北市板橋區溪崑二街41號","121.428383333333","24.9909933333333","6500100","板橋區"
"220091","267-BY","2019/09/14 19:09:39","新北市板橋區縣民大道三段209號","121.480045","25.02517","6500100","板橋區"
"220056","276-BY","2019/09/14 19:09:32","新北市板橋區信義路74巷4弄2號","121.457051666667","24.9930816666667","6500100","板橋區"
"220072","277-BY","2019/09/14 19:09:29","新北市板橋區溪城路115號","121.427425","24.9826683333333","6500100","板橋區"
"220101","280-UM","2019/09/14 19:09:38","新北市板橋區莊敬路2號","121.473973333333","25.0284","6500100","板橋區"
"220094","283-UM","2019/09/14 19:09:35","新北市板橋區吳鳳路76號","121.4671","25.03106","6500100","板橋區"
"220053","285-VK","2019/09/14 19:09:44","新北市板橋區懷仁街25巷4號","121.4767","25.01979","6500100","板橋區"
"220083","286-VK","2019/09/14 19:09:34","新北市板橋區龍興街97巷11號","121.443605","25.00276","6500100","板橋區"
"220081","287-VK","2019/09/14 19:09:43","新北市板橋區南雅西路二段156巷7號","121.4522","25.013355","6500100","板橋區"
"220061","293-UM","2019/09/14 19:09:30","新北市板橋區光復街192巷20號","121.481443333333","25.0189466666667","6500100","板橋區"
"220062","295-UM","2019/09/14 19:09:43","新北市板橋區三民路二段居仁巷1弄24號","121.479983333333","25.0135366666667","6500100","板橋區"
"220084","296-UM","2019/09/14 19:09:43","新北市板橋區溪崑一街30巷32號","121.429248333333","24.9914666666667","6500100","板橋區"
"220067","299-UM","2019/09/14 19:09:40","新北市板橋區長安街224巷7號","121.475","25.011885","6500100","板橋區"
"220075","303-R5","2019/09/14 19:09:44","新北市板橋區南雅南路一段73號","121.455793333333","25.0056733333333","6500100","板橋區"
"220092","307-R5","2019/09/14 19:09:39","新北市板橋區松江街72巷19-3號","121.469326666667","25.027925","6500100","板橋區"
"220098","317-R6","2019/09/14 19:09:44","新北市板橋區民有街47號","121.46552","25.0259283333333","6500100","板橋區"
"220089","487-VK","2019/09/14 19:09:36","新北市板橋區文化路一段239號","121.464108333333","25.017735","6500100","板橋區"
"220088","491-VK","2019/09/14 19:09:42","新北市板橋區雙十路二段4號","121.477136666667","25.0254483333333","6500100","板橋區"
"220035","560-BX","2019/09/14 19:09:42","新北市板橋區中正路379巷1弄36號","121.45306","25.0219066666667","6500100","板橋區"
"220103","561-BX","2019/09/14 19:09:41","新北市板橋區介壽街3號","121.467193333333","25.02042","6500100","板橋區"
"220071","568-UM","2019/09/14 19:09:28","新北市板橋區忠孝路154巷46號","121.464198333333","25.0014083333333","6500100","板橋區"
"220063","609-BX","2019/09/14 19:09:24","新北市板橋區三民路二段110號","121.47918","25.0166466666667","6500100","板橋區"
"220057","686-BX","2019/09/14 19:09:41","新北市板橋區廣權路113號","121.465005","24.9930916666667","6500100","板橋區"
"220077","687-BX","2019/09/14 19:09:31","新北市板橋區大觀路二段146-2號","121.442121666667","24.99881","6500100","板橋區"
"220093","689-BX","2019/09/14 19:09:35","新北市板橋區漢生西路38號","121.463325","25.01832","6500100","板橋區"
"220054","741-BX","2019/09/14 19:09:30","新北市板橋區實踐路34號","121.463485","25.0070866666667","6500100","板橋區"
"220102","KEA-2699","2019/09/14 19:09:33","新北市板橋區田單街49巷2號","121.482516666667","25.0281183333333","6500100","板橋區"
"220055","827-TW","2019/09/14 19:09:33","新北市板橋區新民街39號","121.46386","25.0105766666667","6500100","板橋區"
"220090","831-TW","2019/09/14 19:09:32","新北市板橋區長江路一段106巷13弄5號","121.46028","25.029295","6500100","板橋區"
"220074","895-R6","2019/09/14 19:09:32","新北市板橋區中正路自強新村5-1號","121.45519","25.0140133333333","6500100","板橋區"
"220073","985-R7","2019/09/14 19:09:44","新北市板橋區中正路302號","121.454806666667","25.02066","6500100","板橋區"
"220097","AAC-210","2019/09/14 19:09:30","新北市板橋區幸福路60巷15號","121.460776666667","25.02069","6500100","板橋區"
"220064","AAC-253","2019/09/14 19:09:30","新北市板橋區板新路238號","121.468231666667","25.0160933333333","6500100","板橋區"
"235068","KEA-2873","2019/09/14 19:09:17","新北市中和區連勝街38巷16號","121.497763333333","24.9978833333333","6500300","中和區"
"235061","KEA-2875","2019/09/14 19:09:32","新北市中和區員山路310號","121.481583333333","25.00287","6500300","中和區"
