"lineid","car","time","location","longitude","latitude","cityid","cityname"
"234046","148-BY","2019/09/14 19:19:27","新北市永和區永元路4號","121.521961666667","24.9999316666667","6500400","永和區"
"234081","298-R6","2019/09/14 19:19:43","新北市永和區福和路7巷10弄2號","121.525128333333","25.0079383333333","6500400","永和區"
"234038","336-UY","2019/09/14 19:19:35","新北市永和區民樂街55巷2號","121.52754","24.9984","6500400","永和區"
"234064","337-UY","2019/09/14 19:19:43","新北市永和區永元路17巷6弄2號","121.521348333333","25.0006883333333","6500400","永和區"
"234086","338-UY","2019/09/14 19:19:29","新北市永和區永利路80號","121.520543333333","25.0040933333333","6500400","永和區"
"234070","552-UM","2019/09/14 19:19:42","新北市永和區中正路668號","121.516798333333","25.0090933333333","6500400","永和區"
"234017","745-BX","2019/09/14 19:19:27","新北市永和區文化路144巷31弄6號","121.512493333333","25.016785","6500400","永和區"
"234030","746-BX","2019/09/14 19:19:36","新北市永和區四維街34號","121.525573333333","24.9980566666667","6500400","永和區"
"234054","KEA-2590","2019/09/14 19:19:28","新北市永和區中興街45號","121.516465","25.0118166666667","6500400","永和區"
"234007","KED-0605","2019/09/14 19:19:45","新北市永和區中山路一段157號","121.509811666667","25.0094016666667","6500400","永和區"
"234013","KEA-2591","2019/09/14 19:19:34","新北市永和區信義路10-1號","121.51449","25.0121033333333","6500400","永和區"
"234061","AAD-866","2019/09/14 19:19:24","新北市永和區秀朗路一段175號","121.517111666667","25.0036966666667","6500400","永和區"
"234074","748-BX","2019/09/14 19:19:32","新北市永和區竹林路64號","121.518385","25.0133833333333","6500400","永和區"
"234042","862-TW","2019/09/14 19:19:39","新北市永和區保平路151巷2弄6-3號","121.50958","25.005255","6500400","永和區"
"234050","863-TW","2019/09/14 19:19:36","新北市永和區仁愛路100號","121.512238333333","25.0131916666667","6500400","永和區"
"234026","9371-KE","2019/09/14 19:19:39","新北市永和區安樂路144巷29號","121.51515","24.99982","6500400","永和區"
"234011","9373-KE","2019/09/14 19:19:43","新北市永和區保福路二段23巷21號","121.510083333333","25.0112083333333","6500400","永和區"
"249005","172-UM","2019/09/14 19:19:36","新北市八里區中華路三段170-1號","121.392175","25.1304166666667","6502300","八里區"
"249001","173-UM","2019/09/14 19:19:31","新北市八里區中華路一段320號","121.414633333333","25.1546933333333","6502300","八里區"
"249004","303-UY","2019/09/14 19:19:29","新北市八里區商港路48號","121.395728333333","25.1450016666667","6502300","八里區"
"249002","305-UY","2019/09/14 19:19:33","新北市八里區頂寮二街138號","121.449313333333","25.1294466666667","6502300","八里區"
"249003","593-UM","2019/09/14 19:19:26","新北市八里區中山路二段460號","121.39911","25.1472466666667","6502300","八里區"
"248014","025-BX","2019/09/14 19:19:35","新北市五股區民義路一段185-20號","121.431156666667","25.0873783333333","6501500","五股區"
"248008","KED-0815","2019/09/14 19:19:31","新北市五股區中興路二段57-6號","121.460471666667","25.0754283333333","6501500","五股區"
"248020","KED-0813","2019/09/14 19:19:30","新北市五股區凌雲路三段59-2號","121.42517","25.125025","6501500","五股區"
"248012","247-BX","2019/09/14 19:19:36","新北市五股區中興路四段48巷16號","121.438628333333","25.083445","6501500","五股區"
"248004","677-BX","2019/09/14 19:19:25","新北市五股區五福路85-1號","121.432298333333","25.090365","6501500","五股區"
"248002","678-BX","2019/09/14 19:19:27","新北市五股區凌雲路一段158巷6號","121.447796666667","25.1029716666667","6501500","五股區"
"248010","682-TV","2019/09/14 19:19:41","新北市五股區水碓一路23號","121.430618333333","25.071295","6501500","五股區"
"234023","9380-KE","2019/09/14 19:19:35","新北市永和區竹林路109巷7號","121.52029","25.01202","6500400","永和區"
"234077","969-R7","2019/09/14 19:19:45","新北市永和區民治街70號","121.51776","24.9980783333333","6500400","永和區"
"234067","AAC-212","2019/09/14 19:19:27","新北市永和區保平路30巷3號","121.51175","25.0075033333333","6500400","永和區"
"234003","AAC-295","2019/09/14 19:19:23","新北市永和區中山路一段147號","121.510138333333","25.0095833333333","6500400","永和區"
"244013","KEA-2802","2019/09/14 19:19:27","新北市林口區寶林路70號","121.371205","25.09292","6501700","林口區"
"244023","483-VK","2019/09/14 19:19:41","新北市林口區文化三路二段77巷39號","121.373065","25.0802516666667","6501700","林口區"
"244025","837-TS","2019/09/14 19:19:40","新北市林口區民族路218號","121.369148333333","25.0778916666667","6501700","林口區"
"243012","AAD-798","2019/09/14 19:19:25","新北市泰山區同義街22號","121.431596666667","25.0563466666667","6501600","泰山區"
"243010","297-R6","2019/09/14 19:19:37","新北市泰山區明志路一段517號","121.430428333333","25.0542316666667","6501600","泰山區"
"243014","KEA-2801","2019/09/14 19:19:34","新北市泰山區泰林路二段236號","121.432296666667","25.06204","6501600","泰山區"
"243016","421-VK","2019/09/14 19:19:36","新北市泰山區明志路三段146號","121.42458","25.0397966666667","6501600","泰山區"
"243009","KEA-2215","2019/09/14 19:19:35","新北市泰山區楓樹街15巷5號","121.434786666667","25.0630366666667","6501600","泰山區"
"243011","KEA-2216","2019/09/14 19:19:39","新北市泰山區中央路11巷1號","121.426346666667","25.042815","6501600","泰山區"
"243013","646-TV","2019/09/14 19:19:38","新北市泰山區明志路三段145巷7號","121.425423333333","25.040035","6501600","泰山區"
"243015","680-BX","2019/09/14 19:19:33","新北市泰山區公園路71號","121.426385","25.055435","6501600","泰山區"
"222003","436-BY","2019/09/14 19:19:28","新北市深坑區深南路91號","121.626491666667","25.01602","6501800","深坑區"
"222002","659-BX","2019/09/14 19:19:26","新北市深坑區紅葉街2號","121.633198333333","25.0111516666667","6501800","深坑區"
"231061","002-UM","2019/09/14 19:19:37","新北市新店區安康路一段20號","121.531098333333","24.9611466666667","6500600","新店區"
"231055","0291-UT","2019/09/14 19:19:27","新北市新店區安德街148巷37號","121.507135","24.9612216666667","6500600","新店區"
"231044","046-UY","2019/09/14 19:19:24","新北市新店區中興路三段301號","121.542183333333","24.9854083333333","6500600","新店區"
"231060","106-UY","2019/09/14 19:19:34","新北市新店區安康路二段138號","121.512485","24.9618366666667","6500600","新店區"
"231049","108-UY","2019/09/14 19:19:34","新北市新店區明德路66號","121.541588333333","24.9795","6500600","新店區"
"231065","110-UY","2019/09/14 19:19:41","新北市新店區安祥路109巷3弄98號","121.47913","24.9606166666667","6500600","新店區"
"231062","256-BX","2019/09/14 19:19:41","新北市新店區莒光路59號","121.523456666667","24.95903","6500600","新店區"
"231054","260-TV","2019/09/14 19:19:33","新北市新店區國校路52號","121.538308333333","24.95396","6500600","新店區"
"231042","268-BY","2019/09/14 19:19:30","新北市新店區北宜路一段3號","121.538516666667","24.9584433333333","6500600","新店區"
"231064","278-BY","2019/09/14 19:19:35","新北市新店區安忠路57巷26弄45號","121.51206","24.95765","6500600","新店區"
"231050","AAD-862","2019/09/14 19:19:40","新北市新店區竹林路25巷10號","121.552318333333","24.9513416666667","6500600","新店區"
"231045","355-BY","2019/09/14 19:19:22","新北市新店區北宜路一段260號","121.545688333333","24.952775","6500600","新店區"
"231058","3713-VJ","2019/09/14 19:19:37","新北市新店區檳榔路36巷14號","121.541076666667","24.9633566666667","6500600","新店區"
"231056","4715-K9","2019/09/14 19:19:35","新北市新店區安康路二段414巷2號","121.495818333333","24.95778","6500600","新店區"
"231052","513-UM","2019/09/14 19:19:38","新北市新店區櫻花街210號","121.548115","24.91891","6500600","新店區"
"231041","618-UM","2019/09/14 19:19:36","新北市新店區溪園路259號","121.523306666667","24.9811783333333","6500600","新店區"
"231063","641-BX","2019/09/14 19:19:37","新北市新店區達觀路14巷5號","121.504016666667","24.94257","6500600","新店區"
"231048","KED-0819","2019/09/14 19:19:42","新北市新店區中興路二段59號","121.546383333333","24.97053","6500600","新店區"
"231051","718-UY","2019/09/14 19:19:27","新北市新店區中央路192號","121.530835","24.974725","6500600","新店區"
"231046","719-UM","2019/09/14 19:19:33","新北市新店區北新路一段14號","121.540856666667","24.9656333333333","6500600","新店區"
"231057","720-UM","2019/09/14 19:19:31","新北市新店區百齡一路12號","121.55306","24.93246","6500600","新店區"
"231059","897-TW","2019/09/14 19:19:23","新北市新店區安和路二段185號","121.518248333333","24.9749666666667","6500600","新店區"
"231040","898-TW","2019/09/14 19:19:41","新北市新店區三民路64號","121.535086666667","24.9721733333333","6500600","新店區"
"231043","899-TW","2019/09/14 19:19:26","新北市新店區北新路二段135號","121.542831666667","24.97553","6500600","新店區"
"231066","AKT-0513","2019/09/14 19:19:40","新北市新店區安祥路35-2號","121.490693333333","24.9567516666667","6500600","新店區"
"241028","022-UY","2019/09/14 19:19:26","新北市三重區中正北路23號","121.492211666667","25.061305","6500200","三重區"
"241031","061-VK","2019/09/14 19:19:33","新北市三重區重新路四段101號","121.485788333333","25.0545883333333","6500200","三重區"
"241017","063-VK","2019/09/14 19:19:25","新北市三重區大同北路213-1號","121.491831666667","25.065745","6500200","三重區"
"241007","066-VK","2019/09/14 19:19:27","新北市三重區慈愛街66號","121.487201666667","25.07951","6500200","三重區"
"241009","267-UM","2019/09/14 19:19:40","新北市三重區溪尾街230巷40號","121.486348333333","25.081225","6500200","三重區"
"241032","269-UM","2019/09/14 19:19:39","新北市三重區新生街93-1號","121.483776666667","25.05942","6500200","三重區"
"241025","271-UM","2019/09/14 19:19:38","新北市三重區中正北路406號","121.475311666667","25.070505","6500200","三重區"
"241035","KEA-2210","2019/09/14 19:19:41","新北市三重區信義西街138號","121.495458333333","25.0642983333333","6500200","三重區"
"241030","KED-0822","2019/09/14 19:19:30","新北市三重區成功路41巷70號","121.49128","25.0531283333333","6500200","三重區"
"241020","478-VK","2019/09/14 19:19:27","新北市三重區大智街234號","121.489646666667","25.0726566666667","6500200","三重區"
"241026","480-VK","2019/09/14 19:19:38","新北市三重區正義南路111號","121.4987","25.058465","6500200","三重區"
"241022","KED-0820","2019/09/14 19:19:33","新北市三重區重陽路二段26號","121.486686666667","25.0626383333333","6500200","三重區"
"241029","942-UM","2019/09/14 19:19:40","新北市三重區重安街15-1號","121.490415","25.0577766666667","6500200","三重區"
"235066","003-UY","2019/09/14 19:19:28","新北市中和區中和路102號","121.502746666667","24.9997233333333","6500300","中和區"
"235063","006-UY","2019/09/14 19:19:37","新北市中和區連城路219巷17號","121.494891666667","24.9962083333333","6500300","中和區"
"235056","096-UM","2019/09/14 19:19:39","新北市中和區中山路三段108號","121.476888333333","25.0062966666667","6500300","中和區"
"235039","097-UM","2019/09/14 19:19:24","新北市中和區秀峰街119巷4弄1號","121.519736666667","24.990125","6500300","中和區"
"235065","098-UM","2019/09/14 19:19:36","新北市中和區中山路二段64巷12弄1號","121.503706666667","25.0051983333333","6500300","中和區"
"235040","150-BY","2019/09/14 19:19:35","新北市中和區保健路50巷68號","121.509123333333","24.9951766666667","6500300","中和區"
"235058","151-BY","2019/09/14 19:19:40","新北市中和區連城路477巷6弄15號","121.482571666667","24.9950583333333","6500300","中和區"
"235055","183-VK","2019/09/14 19:19:25","新北市中和區莒光路84巷12號","121.471998333333","25.0021583333333","6500300","中和區"
"235038","185-VK","2019/09/14 19:19:39","新北市中和區自強路21號","121.520498333333","24.9930666666667","6500300","中和區"
"235049","186-VK","2019/09/14 19:19:41","新北市中和區景新街287號","121.5098","24.9933416666667","6500300","中和區"
"235067","255-BX","2019/09/14 19:19:42","新北市中和區新生街186巷5弄23號","121.482915","24.99892","6500300","中和區"
"235044","293-VK","2019/09/14 19:19:31","新北市中和區復興路268號","121.50319","24.9904133333333","6500300","中和區"
"235072","301-VK","2019/09/14 19:19:24","新北市中和區連城路204號","121.491778333333","24.99658","6500300","中和區"
"235043","352-BY","2019/09/14 19:19:42","新北市中和區南山路76號","121.502495","24.9952966666667","6500300","中和區"
"235042","KEA-2878","2019/09/14 19:19:28","新北市中和區安樂路217巷35弄8號","121.51385","24.9977333333333","6500300","中和區"
"235050","4979-A6","2019/09/14 19:19:36","新北市中和區景安路208巷17號","121.503198333333","24.9914183333333","6500300","中和區"
"235069","4980-A6","2019/09/14 19:19:24","新北市中和區莊敬路33巷2-2號","121.50049","25.005055","6500300","中和區"
"235070","558-UM","2019/09/14 19:19:30","新北市中和區景平路634-5號","121.499328333333","24.999255","6500300","中和區"
"235045","565-BX","2019/09/14 19:19:36","新北市中和區景新街399巷8號","121.512995","24.9898216666667","6500300","中和區"
"235054","640-BX","2019/09/14 19:19:37","新北市中和區國光街112巷24弄2號","121.470683333333","25.0023666666667","6500300","中和區"
"235060","647-TV","2019/09/14 19:19:28","新北市中和區員山路266巷31號","121.48244","25.001885","6500300","中和區"
"235047","732-UM","2019/09/14 19:19:38","新北市中和區景平路239巷32號","121.508485","24.9922166666667","6500300","中和區"
"235046","733-UM","2019/09/14 19:19:26","新北市中和區忠孝街20巷5號","121.510645","24.98263","6500300","中和區"
"235071","783-BX","2019/09/14 19:19:35","新北市中和區連城路469巷54號","121.483456666667","24.9942583333333","6500300","中和區"
"235057","801-TS","2019/09/14 19:19:35","新北市中和區員山路457號","121.480553333333","25.0043116666667","6500300","中和區"
"235041","802-TS","2019/09/14 19:19:37","新北市中和區中和路324巷3弄1號","121.509936666667","25.0008733333333","6500300","中和區"
"235052","805-TS","2019/09/14 19:19:36","新北市中和區興南路二段159巷8號","121.504543333333","24.98359","6500300","中和區"
"235048","896-TW","2019/09/14 19:19:28","新北市中和區景新街487號","121.513566666667","24.98737","6500300","中和區"
"235053","900-TW","2019/09/14 19:19:31","新北市中和區華安街17巷11號","121.466921666667","24.9983016666667","6500300","中和區"
"235064","911-UM","2019/09/14 19:19:36","新北市中和區南山路62-2號","121.502135","24.9965","6500300","中和區"
"235051","157-BY","2019/09/14 19:19:27","新北市中和區景平路239巷33弄18號","121.509428333333","24.9919966666667","6500300","中和區"
"235037","AAC-213","2019/09/14 19:19:40","新北市中和區秀朗路三段10巷14弄14號","121.525005","24.996615","6500300","中和區"
"235059","AAC-215","2019/09/14 19:19:41","新北市中和區圓通路286巷10號","121.49156","24.9911366666667","6500300","中和區"
"220065","072-UY","2019/09/14 19:19:36","新北市板橋區民族路129巷14號","121.467676666667","25.00849","6500100","板橋區"
"220086","073-UY","2019/09/14 19:19:30","新北市板橋區中正路216巷133號","121.460421666667","25.0195216666667","6500100","板橋區"
"220106","075-UY","2019/09/14 19:19:43","新北市板橋區江寧路三段77號","121.472278333333","25.0323966666667","6500100","板橋區"
"220069","AAD-861","2019/09/14 19:19:35","新北市板橋區稚暉街35號","121.457143333333","25.00416","6500100","板橋區"
"220068","120-SR","2019/09/14 19:19:44","新北市板橋區萬安街161號","121.482823333333","25.0262366666667","6500100","板橋區"
"226004","312-R5","2019/09/14 19:19:39","新北市平溪區十分里十分街96-1號","121.776708333333","25.0425633333333","6502400","平溪區"
"228003","097-TW","2019/09/14 19:19:26","新北市貢寮區和美里龍洞街61號","121.915416666667","25.1171633333333","6502600","貢寮區"
"228001","212-TW","2019/09/14 19:19:29","新北市貢寮區真理里新港街10號","121.92548","25.0543133333333","6502600","貢寮區"
"228002","663-BX","2019/09/14 19:19:34","新北市貢寮區龍門里復興街46-5號","121.928485","25.029865","6502600","貢寮區"
"224009","275-VK","2019/09/14 19:19:29","新北市瑞芳區長仁路32-2號","121.866216666667","25.1177916666667","6501200","瑞芳區"
"224008","272-VK","2019/09/14 19:19:36","新北市瑞芳區逢甲路285-1號","121.80142","25.1119666666667","6501200","瑞芳區"
"224005","271-BY","2019/09/14 19:19:44","新北市瑞芳區建基路二段49號","121.806928333333","25.1333783333333","6501200","瑞芳區"
"227001","642-TC","2019/09/14 19:19:37","新北市雙溪區新基里中華路10號","121.866333333333","25.0365933333333","6502500","雙溪區"
"227002","400-TW","2019/09/14 19:19:43","新北市雙溪區平林里梅竹蹊66-1號","121.860156666667","25.0358416666667","6502500","雙溪區"
"253005","032-BX","2019/09/14 19:19:24","新北市石門區阿里荖13號","121.608443333333","25.2800966666667","6502200","石門區"
"253006","295-VK","2019/09/14 19:19:31","新北市石門區崁子腳25-2號","121.535051666667","25.2908366666667","6502200","石門區"
"222001","KEA-2212","2019/09/14 19:19:28","新北市深坑區北深路二段103號","121.617546666667","25.0034016666667","6501800","深坑區"
"208002","KEA-2872","2019/09/14 19:19:35","新北市金山區環金路376巷1號","121.631966666667","25.22225","6502700","金山區"
"208003","665-BX","2019/09/14 19:19:43","新北市金山區中山路179號","121.638406666667","25.22088","6502700","金山區"
"251009","008-UM","2019/09/14 19:19:37","新北市淡水區清水街194號","121.440473333333","25.17095","6501000","淡水區"
"251001","011-UM","2019/09/14 19:19:34","新北市淡水區自強路201巷39號","121.46211","25.1268066666667","6501000","淡水區"
"251002","012-UM","2019/09/14 19:19:31","新北市淡水區文化路18號","121.439726666667","25.17265","6501000","淡水區"
"251015","KEA-2871","2019/09/14 19:19:32","新北市淡水區南勢埔5-1號","121.48215","25.18004","6501000","淡水區"
"251016","179-VK","2019/09/14 19:19:39","新北市淡水區淡金路三段350巷18號","121.450771666667","25.20834","6501000","淡水區"
"251008","181-VK","2019/09/14 19:19:41","新北市淡水區中正路二段206號","121.426233333333","25.1890716666667","6501000","淡水區"
"251013","182-VK","2019/09/14 19:19:40","新北市淡水區安子內12-1號","121.481516666667","25.2191233333333","6501000","淡水區"
"251010","413-VK","2019/09/14 19:19:38","新北市淡水區淡海路184巷11號","121.421046666667","25.185135","6501000","淡水區"
"251007","442-VK","2019/09/14 19:19:42","新北市淡水區民生路117巷10號","121.464985","25.13911","6501000","淡水區"
"251005","443-VK","2019/09/14 19:19:32","新北市淡水區水源街一段34巷1號","121.443215","25.1722716666667","6501000","淡水區"
"251014","577-R6","2019/09/14 19:19:26","新北市淡水區小中寮19-7號","121.484771666667","25.2297083333333","6501000","淡水區"
"251003","766-UM","2019/09/14 19:19:30","新北市淡水區中山北路一段71號","121.441968333333","25.175845","6501000","淡水區"
"207003","550-UM","2019/09/14 19:19:37","新北市萬里區大鵬里萬里加投29-1號","121.646713333333","25.209165","6502800","萬里區"
"207004","291-VK","2019/09/14 19:19:25","新北市萬里區萬里里成功新村63號","121.688261666667","25.1745766666667","6502800","萬里區"
"252001","292-VK","2019/09/14 19:19:40","新北市三芝區長勤街37巷18號","121.50113","25.2551533333333","6502100","三芝區"
"208001","170-UY","2019/09/14 19:19:34","新北市金山區民生路220巷2號","121.640195","25.21986","6502700","金山區"
"237004","KEA-2597","2019/09/14 19:19:41","新北市三峽區有木205-1號","121.439045","24.8516316666667","6500900","三峽區"
"237007","153-BY","2019/09/14 19:19:37","新北市三峽區二鬮路178號","121.359101666667","24.9068066666667","6500900","三峽區"
"237009","210-TH","2019/09/14 19:19:32","新北市三峽區民生街161號","121.372616666667","24.93485","6500900","三峽區"
"237013","252-BX","2019/09/14 19:19:26","新北市三峽區大同路39巷9號","121.377181666667","24.927625","6500900","三峽區"
"237012","275-BY","2019/09/14 19:19:39","新北市三峽區三樹路222巷236弄23號","121.391376666667","24.9430433333333","6500900","三峽區"
"237008","302-VK","2019/09/14 19:19:42","新北市三峽區光明路106巷66號","121.374965","24.9266583333333","6500900","三峽區"
"237014","433-BY","2019/09/14 19:19:40","新北市三峽區中山路277巷18號","121.361631666667","24.93688","6500900","三峽區"
"237006","5529-G3","2019/09/14 19:19:41","新北市三峽區橫溪路95號","121.398395","24.9354666666667","6500900","三峽區"
"237011","KEA-2596","2019/09/14 19:19:41","新北市三峽區介壽路三段35號","121.395756666667","24.9370083333333","6500900","三峽區"
"237015","649-BX","2019/09/14 19:19:29","新北市三峽區安坑40-2號","121.455143333333","24.9322833333333","6500900","三峽區"
"237010","706-TV","2019/09/14 19:19:40","新北市三峽區國光街33號","121.375251666667","24.9372016666667","6500900","三峽區"
"237005","AKY-6261","2019/09/14 19:19:41","新北市三峽區中山路459巷50-1號","121.356258333333","24.93735","6500900","三峽區"
"236042","KED-0685","2019/09/14 19:19:28","新北市土城區學府路一段239號","121.45042","24.9833833333333","6501300","土城區"
"236026","269-VK","2019/09/14 19:19:39","新北市土城區中央路二段177巷23號","121.44389","24.9762566666667","6501300","土城區"
"236014","270-VK","2019/09/14 19:19:37","新北市土城區廣福街74巷43號","121.457996666667","24.990185","6501300","土城區"
"236070","KEA-2877","2019/09/14 19:19:36","新北市土城區學成路76巷1號","121.451178333333","24.9882716666667","6501300","土城區"
"236021","401-BY","2019/09/14 19:19:35","新北市土城區峰廷街18號","121.469021666667","24.9872933333333","6501300","土城區"
"236059","912-UM","2019/09/14 19:19:28","新北市土城區中央路二段252號","121.44167","24.9745666666667","6501300","土城區"
"236049","913-UM","2019/09/14 19:19:32","新北市土城區明德路一段365-1號","121.453661666667","24.9790983333333","6501300","土城區"
"236055","AAC-216","2019/09/14 19:19:43","新北市土城區學府路一段276號","121.45023","24.98332","6501300","土城區"
"242019","351-TH","2019/09/14 19:19:33","新北市新莊區新泰路357巷3弄57號","121.44176","25.03947","6500500","新莊區"
"238015","755-BX","2019/09/14 19:18:39","新北市樹林區光明街42號","121.412301666667","24.9913816666667","6500700","樹林區"
"238023","601-UM","2019/09/14 19:19:44","新北市樹林區中正路865號","121.408778333333","25.0181116666667","6500700","樹林區"
"238019","599-UM","2019/09/14 19:19:25","新北市樹林區東華街69號","121.415403333333","24.9811116666667","6500700","樹林區"
"238018","KEA-2217","2019/09/14 19:19:36","新北市樹林區太元街2巷5號","121.417193333333","24.9810633333333","6500700","樹林區"
"238022","KEA-2213","2019/09/14 19:19:37","新北市樹林區中山路二段151巷6弄1號","121.40669","24.97848","6500700","樹林區"
"238021","KEA-2539","2019/09/14 19:19:34","新北市樹林區學府路212號","121.377786666667","24.9501116666667","6500700","樹林區"
"238025","303-VK","2019/09/14 19:19:36","新北市樹林區中山路三段80號","121.393485","24.9722966666667","6500700","樹林區"
"238017","283-BY","2019/09/14 19:19:34","新北市樹林區光興街122號","121.407153333333","25.0032416666667","6500700","樹林區"
"238014","282-BY","2019/09/14 19:19:35","新北市樹林區中正路22-1號","121.427813333333","24.9994583333333","6500700","樹林區"
"238020","268-VK","2019/09/14 19:19:24","新北市樹林區俊英街123巷1號","121.424456666667","25.010645","6500700","樹林區"
"238026","172-UY","2019/09/14 19:19:44","新北市樹林區佳園路一段41巷24號","121.394283333333","24.971075","6500700","樹林區"
"238016","169-UY","2019/09/14 19:19:26","新北市樹林區中山路一段306巷20弄1號","121.419346666667","24.9866216666667","6500700","樹林區"
"239007","AAC-297","2019/09/14 19:19:38","新北市鶯歌區中正一路211巷1弄2號","121.353658333333","24.95743","6500800","鶯歌區"
"239006","891-R6","2019/09/14 19:19:24","新北市鶯歌區鶯桃路296巷96號","121.337008333333","24.96198","6500800","鶯歌區"
"239008","527-UM","2019/09/14 19:19:27","新北市鶯歌區國際二路12巷25號","121.338311666667","24.974735","6500800","鶯歌區"
"239005","526-UM","2019/09/14 19:19:26","新北市鶯歌區中湖街152巷1號","121.349726666667","24.9735833333333","6500800","鶯歌區"
"239001","417-VK","2019/09/14 19:19:30","新北市鶯歌區永安街70號","121.338281666667","24.9562233333333","6500800","鶯歌區"
"239003","360-BY","2019/09/14 19:19:42","新北市鶯歌區德昌二街71號","121.33336","24.9580933333333","6500800","鶯歌區"
"239002","359-BY","2019/09/14 19:19:30","新北市鶯歌區中山路96號","121.350873333333","24.9570583333333","6500800","鶯歌區"
"239004","193-VK","2019/09/14 19:19:37","新北市鶯歌區二橋新村32號","121.329176666667","24.9344933333333","6500800","鶯歌區"
"221008","489-VK","2019/09/14 19:19:34","新北市汐止區康寧街310號","121.626786666667","25.06724","6501100","汐止區"
"221035","622-UM","2019/09/14 19:19:33","新北市汐止區汐萬路一段288號","121.65075","25.0743016666667","6501100","汐止區"
"221002","707-TV","2019/09/14 19:19:38","新北市汐止區中興路22號","121.637111666667","25.05977","6501100","汐止區"
"220079","145-BY","2019/09/14 19:19:43","新北市板橋區民權路254號","121.45837","25.0150366666667","6500100","板橋區"
"220080","200-UY","2019/09/14 19:19:32","新北市板橋區大觀路二段1巷54號","121.450511666667","25.003605","6500100","板橋區"
"220082","610-BX","2019/09/14 19:19:30","新北市板橋區篤行路三段67號","121.427583333333","24.9857716666667","6500100","板橋區"
"220091","267-BY","2019/09/14 19:19:38","新北市板橋區文聖街225號","121.480508333333","25.02569","6500100","板橋區"
"220056","276-BY","2019/09/14 19:19:42","新北市板橋區信義路279巷11-3號","121.4627","24.98983","6500100","板橋區"
"220072","277-BY","2019/09/14 19:19:29","新北市板橋區金門街339-2號","121.429213333333","24.985595","6500100","板橋區"
"220101","280-UM","2019/09/14 19:19:38","新北市板橋區莊敬路208巷4弄1號","121.471595","25.0209366666667","6500100","板橋區"
"220094","283-UM","2019/09/14 19:19:35","新北市板橋區松江街118號","121.469271666667","25.03025","6500100","板橋區"
"220053","285-VK","2019/09/14 19:19:31","新北市板橋區富山街74號","121.476996666667","25.0219566666667","6500100","板橋區"
"220083","286-VK","2019/09/14 19:19:34","新北市板橋區龍興街99巷39號","121.443118333333","25.003515","6500100","板橋區"
"220081","287-VK","2019/09/14 19:19:43","新北市板橋區南雅東路29巷11號","121.45351","25.0054733333333","6500100","板橋區"
"220061","293-UM","2019/09/14 19:19:39","新北市板橋區成功路6巷23號","121.476161666667","25.0172466666667","6500100","板橋區"
"220062","295-UM","2019/09/14 19:19:43","新北市板橋區三民路二段153巷8弄1號","121.480938333333","25.0150533333333","6500100","板橋區"
"220084","296-UM","2019/09/14 19:19:43","新北市板橋區溪北路45號","121.427656666667","24.9900716666667","6500100","板橋區"
"220067","299-UM","2019/09/14 19:19:40","新北市板橋區長安街138巷7弄52號","121.474088333333","25.00912","6500100","板橋區"
"220075","303-R5","2019/09/14 19:19:45","新北市板橋區中正路275巷93號","121.450833333333","25.018135","6500100","板橋區"
"220092","307-R5","2019/09/14 19:19:39","新北市板橋區文化路一段383號","121.46718","25.0217066666667","6500100","板橋區"
"220098","317-R6","2019/09/14 19:19:37","新北市板橋區自由路51巷9-3號","121.465066666667","25.0234766666667","6500100","板橋區"
"220089","487-VK","2019/09/14 19:19:35","新北市板橋區英士路17號","121.461736666667","25.0251133333333","6500100","板橋區"
"220088","491-VK","2019/09/14 19:19:41","新北市板橋區文化路二段318號","121.472378333333","25.0297883333333","6500100","板橋區"
"220035","560-BX","2019/09/14 19:19:43","新北市板橋區新生街23巷15號","121.456425","25.0224433333333","6500100","板橋區"
"220103","561-BX","2019/09/14 19:19:40","新北市板橋區陽明街23巷8弄17號","121.465491666667","25.020705","6500100","板橋區"
"220071","568-UM","2019/09/14 19:19:31","新北市板橋區重慶路275號","121.463481666667","24.99983","6500100","板橋區"
"220063","609-BX","2019/09/14 19:19:44","新北市板橋區翠華街6巷2號","121.480241666667","25.0239166666667","6500100","板橋區"
"220057","686-BX","2019/09/14 19:19:41","新北市板橋區和平路71號","121.461308333333","24.9946066666667","6500100","板橋區"
"220077","687-BX","2019/09/14 19:19:31","新北市板橋區大觀路二段125號","121.445895","25.0013416666667","6500100","板橋區"
"220093","689-BX","2019/09/14 19:19:42","新北市板橋區英士路60號","121.460858333333","25.0246983333333","6500100","板橋區"
"220054","741-BX","2019/09/14 19:19:30","新北市板橋區校前街64號","121.461678333333","25.003385","6500100","板橋區"
"220102","KEA-2699","2019/09/14 19:19:32","新北市板橋區松柏街22巷36號","121.475075","25.0289016666667","6500100","板橋區"
"220055","827-TW","2019/09/14 19:19:33","新北市板橋區實踐路65巷6-7號","121.464501666667","25.006535","6500100","板橋區"
"220090","831-TW","2019/09/14 19:19:32","新北市板橋區長江路一段106巷13弄31號","121.46127","25.0297366666667","6500100","板橋區"
"220074","895-R6","2019/09/14 19:19:32","新北市板橋區中正路自強新村91-1號","121.454833333333","25.0132683333333","6500100","板橋區"
"220073","985-R7","2019/09/14 19:19:44","新北市板橋區新生街64-1號","121.457243333333","25.0209233333333","6500100","板橋區"
"220097","AAC-210","2019/09/14 19:19:30","新北市板橋區幸福路32巷3號","121.461456666667","25.02052","6500100","板橋區"
"220064","AAC-253","2019/09/14 19:19:30","新北市板橋區公園街64號","121.461908333333","25.0076366666667","6500100","板橋區"
"235068","KEA-2873","2019/09/14 19:19:17","新北市中和區圓通路158巷2號","121.497628333333","24.9961116666667","6500300","中和區"
"235061","KEA-2875","2019/09/14 19:19:32","新北市中和區員山路143巷14-3號","121.480373333333","24.9961316666667","6500300","中和區"
