"lineid","car","time","location","longitude","latitude","cityid","cityname"
"234046","148-BY","2019/09/14 20:09:29","新北市永和區得和路321號","121.523461666667","24.9995416666667","6500400","永和區"
"234081","298-R6","2019/09/14 20:09:43","新北市永和區國中路45號","121.524633333333","25.0057983333333","6500400","永和區"
"234038","336-UY","2019/09/14 20:09:34","新北市永和區成功路一段64巷2號","121.526755","25.0038866666667","6500400","永和區"
"234064","337-UY","2019/09/14 20:09:43","新北市永和區永元路96號","121.522533333333","25.0018733333333","6500400","永和區"
"234086","338-UY","2019/09/14 20:09:29","新北市永和區福和路137號","121.521135","25.0077333333333","6500400","永和區"
"234070","552-UM","2019/09/14 20:09:42","新北市永和區福和路200號","121.519905","25.0077633333333","6500400","永和區"
"234017","745-BX","2019/09/14 20:09:31","新北市永和區文化路92號","121.513811666667","25.015275","6500400","永和區"
"234030","746-BX","2019/09/14 20:09:34","新北市永和區民有街25巷6號","121.517335","24.9963383333333","6500400","永和區"
"234054","KEA-2590","2019/09/14 20:09:28","新北市永和區博愛街20巷2號","121.517745","25.01579","6500400","永和區"
"234007","KED-0605","2019/09/14 20:09:25","新北市永和區環河西路二段229巷5號","121.50154","25.0099266666667","6500400","永和區"
"234013","KEA-2591","2019/09/14 20:09:34","新北市永和區永貞路413號","121.507431666667","25.0092833333333","6500400","永和區"
"234061","AAD-866","2019/09/14 20:09:43","新北市永和區中正路151巷5弄10號","121.515536666667","24.9982716666667","6500400","永和區"
"234074","748-BX","2019/09/14 20:09:40","新北市永和區豫溪街136巷1號","121.521298333333","25.0103216666667","6500400","永和區"
"234042","862-TW","2019/09/14 20:09:39","新北市永和區雙和街14號","121.509576666667","25.0020716666667","6500400","永和區"
"234050","863-TW","2019/09/14 20:09:36","新北市永和區環河西路二段107號","121.50638","25.014705","6500400","永和區"
"249005","172-UM","2019/09/14 20:09:38","新北市八里區下罟子59號","121.387255","25.13666","6502300","八里區"
"249001","173-UM","2019/09/14 20:09:44","新北市八里區中華路二段326號","121.403273333333","25.147925","6502300","八里區"
"249002","305-UY","2019/09/14 20:09:33","新北市五股區成泰路四段44號","121.455918333333","25.110625","6502300","八里區"
"249003","593-UM","2019/09/14 20:09:46","新北市八里區中山路二段540巷9弄17號","121.39661","25.1467433333333","6502300","八里區"
"249004","759-BX","2019/09/14 20:09:29","新北市八里區中山路一段398巷51弄18號","121.41068","25.1587816666667","6502300","八里區"
"248016","026-BX","2019/09/14 20:09:25","新北市五股區成泰路三段577巷80弄72號","121.448901666667","25.104795","6501500","五股區"
"248008","KED-0815","2019/09/14 20:09:31","新北市五股區中興路一段1巷31-1號","121.469391666667","25.0700283333333","6501500","五股區"
"248020","KED-0813","2019/09/14 20:09:30","新北市五股區凌雲路三段24巷16-1號","121.434891666667","25.10563","6501500","五股區"
"248012","247-BX","2019/09/14 20:09:36","新北市五股區六合街70號","121.431856666667","25.0901033333333","6501500","五股區"
"248004","677-BX","2019/09/14 20:09:45","新北市五股區成泰路一段210號","121.436163333333","25.0791583333333","6501500","五股區"
"248002","678-BX","2019/09/14 20:09:26","新北市五股區成泰路三段369-1號","121.44885","25.096035","6501500","五股區"
"248010","682-TV","2019/09/14 20:09:41","新北市五股區成泰路一段15號","121.43376","25.0666766666667","6501500","五股區"
"234023","9380-KE","2019/09/14 20:09:35","新北市永和區中正路654巷20號","121.517425","25.0085333333333","6500400","永和區"
"234077","969-R7","2019/09/14 20:09:45","新北市永和區民光街34號","121.516608333333","24.9957316666667","6500400","永和區"
"234067","AAC-212","2019/09/14 20:09:27","新北市永和區保平路214巷5號","121.509238333333","25.0064866666667","6500400","永和區"
"234003","AAC-295","2019/09/14 20:09:43","新北市永和區中正路529號","121.51691","25.0077066666667","6500400","永和區"
"243012","AAD-798","2019/09/14 20:09:25","新北市泰山區楓江路23-6號","121.434368333333","25.0625016666667","6501600","泰山區"
"243010","297-R6","2019/09/14 20:09:37","新北市泰山區明志路二段136巷19號","121.426063333333","25.0519416666667","6501600","泰山區"
"243014","KEA-2801","2019/09/14 20:09:35","新北市泰山區明志路一段50號","121.433455","25.0649733333333","6501600","泰山區"
"243016","421-VK","2019/09/14 20:09:33","新北市泰山區明志路三段409號","121.421235","25.03403","6501600","泰山區"
"243009","KEA-2215","2019/09/14 20:09:35","新北市泰山區泰林路二段116巷4弄1號","121.435213333333","25.0595633333333","6501600","泰山區"
"243011","KEA-2216","2019/09/14 20:09:39","新北市新莊區丹鳳街36號","121.421611666667","25.0295633333333","6501600","泰山區"
"243015","680-BX","2019/09/14 20:09:33","新北市泰山區明志路二段39號","121.429636666667","25.0531083333333","6501600","泰山區"
"222003","436-BY","2019/09/14 20:09:28","新北市深坑區埔新街67號","121.620101666667","25.0023266666667","6501800","深坑區"
"222002","659-BX","2019/09/14 20:09:26","新北市深坑區北深路三段158巷28號","121.60194","25.0042333333333","6501800","深坑區"
"231061","002-UM","2019/09/14 20:09:37","新北市新店區安民街166號","121.516835","24.9706516666667","6500600","新店區"
"231055","0291-UT","2019/09/14 20:09:27","新北市新店區中華路54巷26號","121.540683333333","24.969215","6500600","新店區"
"231044","046-UY","2019/09/14 20:09:24","新北市新店區寶慶街66號","121.542015","24.9868733333333","6500600","新店區"
"231060","106-UY","2019/09/14 20:09:33","新北市新店區安康路三段277-1號","121.485951666667","24.9515966666667","6500600","新店區"
"231049","108-UY","2019/09/14 20:09:41","新北市新店區北新路二段139巷9-1號","121.542185","24.97554","6500600","新店區"
"231065","110-UY","2019/09/14 20:09:41","新北市新店區安祥路106巷135號","121.473291666667","24.9585483333333","6500600","新店區"
"231068","187-VK","2019/09/14 20:09:28","新北市新店區中興路三段88號","121.545263333333","24.978895","6500600","新店區"
"231062","256-BX","2019/09/14 20:09:33","新北市新店區安康路一段20號","121.53103","24.9610833333333","6500600","新店區"
"231054","260-TV","2019/09/14 20:09:33","新北市新店區檳榔路21號","121.541563333333","24.9638033333333","6500600","新店區"
"231042","268-BY","2019/09/14 20:09:29","新北市新店區中興路二段89號","121.547038333333","24.971455","6500600","新店區"
"231064","278-BY","2019/09/14 20:09:35","新北市新店區安德街2號","121.512353333333","24.9628633333333","6500600","新店區"
"231050","AAD-862","2019/09/14 20:09:40","新北市新店區北新路一段63號","121.53824","24.95983","6500600","新店區"
"231045","355-BY","2019/09/14 20:09:42","新北市新店區北宜路二段10號","121.54787","24.951775","6500600","新店區"
"231056","4715-K9","2019/09/14 20:09:40","新北市新店區中正路330號","121.53701","24.975045","6500600","新店區"
"231067","4772-VM","2019/09/14 20:09:25","新北市新店區溪洲路6巷124-1號","121.533386666667","24.9633983333333","6500600","新店區"
"231052","513-UM","2019/09/14 20:09:38","新北市新店區新烏路三段寶島巷4號","121.551233333333","24.8993633333333","6500600","新店區"
"231041","618-UM","2019/09/14 20:09:36","新北市新店區中正路460號","121.533971666667","24.9793516666667","6500600","新店區"
"231063","641-BX","2019/09/14 20:09:37","新北市新店區黎明路56巷2號","121.502331666667","24.947905","6500600","新店區"
"231048","KED-0819","2019/09/14 20:09:42","新北市新店區永華街75號","121.545061666667","24.975175","6500600","新店區"
"231051","718-UY","2019/09/14 20:09:27","新北市新店區中央路192號","121.530893333333","24.9747366666667","6500600","新店區"
"231057","720-UM","2019/09/14 20:09:31","新北市新店區百齡一路12號","121.553103333333","24.9324483333333","6500600","新店區"
"231059","897-TW","2019/09/14 20:09:42","新北市新店區安德街84號","121.509983333333","24.961485","6500600","新店區"
"231040","898-TW","2019/09/14 20:09:41","新北市新店區中正路96號","121.543476666667","24.9705183333333","6500600","新店區"
"231043","899-TW","2019/09/14 20:09:46","新北市新店區民族路162號","121.537531666667","24.976685","6500600","新店區"
"231066","AKT-0513","2019/09/14 20:09:40","新北市新店區安興路20號","121.515021666667","24.9660033333333","6500600","新店區"
"241011","013-R5","2019/09/14 20:09:37","新北市三重區仁愛街57號","121.496471666667","25.071985","6500200","三重區"
"241028","022-UY","2019/09/14 20:09:26","新北市三重區大同南路174號","121.496728333333","25.0571466666667","6500200","三重區"
"241008","059-VK","2019/09/14 20:09:39","新北市三重區永福街197巷6號","121.479128333333","25.0746083333333","6500200","三重區"
"241005","060-VK","2019/09/14 20:09:36","新北市三重區碧華街309號","121.490796666667","25.0841266666667","6500200","三重區"
"241031","061-VK","2019/09/14 20:09:33","新北市三重區過圳街9-1號","121.488723333333","25.0601166666667","6500200","三重區"
"241015","062-VK","2019/09/14 20:09:29","新北市三重區福德北路24號","121.502303333333","25.0647366666667","6500200","三重區"
"241017","063-VK","2019/09/14 20:09:25","新北市三重區自強路一段167號","121.493038333333","25.0672516666667","6500200","三重區"
"241024","065-VK","2019/09/14 20:09:36","新北市三重區力行路一段261號","121.48232","25.0711383333333","6500200","三重區"
"241007","066-VK","2019/09/14 20:09:27","新北市三重區三和路四段111-2號","121.485678333333","25.0773083333333","6500200","三重區"
"241002","090-VK","2019/09/14 20:09:40","新北市三重區五華街35巷72號","121.495956666667","25.082025","6500200","三重區"
"241003","091-VK","2019/09/14 20:09:33","新北市三重區仁愛街457號","121.489755","25.081905","6500200","三重區"
"241006","262-UM","2019/09/14 20:09:34","新北市三重區力行路二段69號","121.482331666667","25.0750133333333","6500200","三重區"
"241016","266-UM","2019/09/14 20:08:43","新北市三重區中正北路25巷26號","121.493798333333","25.06321","6500200","三重區"
"241009","267-UM","2019/09/14 20:09:40","新北市三重區三和路四段382巷98號","121.478765","25.0780616666667","6500200","三重區"
"241018","268-UM","2019/09/14 20:09:32","新北市三重區正義北路256巷39號","121.49473","25.0682416666667","6500200","三重區"
"241032","269-UM","2019/09/14 20:09:39","新北市三重區捷運路65號","121.483416666667","25.0556633333333","6500200","三重區"
"241013","270-UM","2019/09/14 20:09:38","新北市三重區三和路三段151巷39號","121.493748333333","25.0743133333333","6500200","三重區"
"241025","271-UM","2019/09/14 20:09:38","新北市三重區中正北路169號","121.47849","25.0692533333333","6500200","三重區"
"241035","KEA-2210","2019/09/14 20:09:41","新北市三重區平安街3號","121.498948333333","25.064345","6500200","三重區"
"241030","KED-0822","2019/09/14 20:09:27","新北市三重區成功路145巷11號","121.487301666667","25.0526866666667","6500200","三重區"
"241004","475-VK","2019/09/14 20:09:38","新北市三重區自強路四段110號","121.491536666667","25.0799666666667","6500200","三重區"
"241020","478-VK","2019/09/14 20:09:26","新北市三重區後竹圍街2巷2號","121.491896666667","25.0735066666667","6500200","三重區"
"241026","480-VK","2019/09/14 20:09:38","新北市三重區中央南路97號","121.501498333333","25.06052","6500200","三重區"
"241014","543-UM","2019/09/14 20:09:43","新北市三重區長樂街82號","121.501105","25.0694816666667","6500200","三重區"
"241023","545-UM","2019/09/14 20:09:38","新北市三重區頂崁街233號","121.477003333333","25.06845","6500200","三重區"
"241001","547-UM","2019/09/14 20:09:38","新北市三重區自強路四段3巷4號","121.4889","25.0761833333333","6500200","三重區"
"241019","KEA-2593","2019/09/14 20:09:45","新北市三重區自強路二段33巷64-3號","121.490903333333","25.0699683333333","6500200","三重區"
"241012","941-UM","2019/09/14 20:09:36","新北市三重區仁愛街125巷113號","121.499163333333","25.0764816666667","6500200","三重區"
"241029","942-UM","2019/09/14 20:09:40","新北市三重區光明路34號","121.491446666667","25.0585583333333","6500200","三重區"
"241033","AAC-255","2019/09/14 20:09:28","新北市三重區光復路一段61巷27號","121.47366","25.0492866666667","6500200","三重區"
"235066","003-UY","2019/09/14 20:09:28","新北市中和區水源路127巷2弄2號","121.508101666667","25.00407","6500300","中和區"
"235039","097-UM","2019/09/14 20:09:24","新北市中和區立人街6號","121.51977","24.99421","6500300","中和區"
"235065","098-UM","2019/09/14 20:09:36","新北市中和區永和路120-1號","121.496531666667","25.0065166666667","6500300","中和區"
"235040","150-BY","2019/09/14 20:09:35","新北市中和區保健路31號","121.508631666667","24.9977333333333","6500300","中和區"
"235055","183-VK","2019/09/14 20:09:25","新北市三重區光復路二段143巷16號","121.474011666667","25.0605733333333","6500300","中和區"
"247010","KED-0682","2019/09/14 20:09:40","新北市蘆洲區中山一路74巷55號","121.479821666667","25.081665","6501400","蘆洲區"
"235050","4979-A6","2019/09/14 20:09:35","新北市中和區安樂路58號","121.512161666667","24.9932083333333","6500300","中和區"
"235069","4980-A6","2019/09/14 20:09:24","新北市中和區南山路81巷63號","121.50445","24.9980183333333","6500300","中和區"
"235051","157-BY","2019/09/14 20:09:27","新北市中和區捷運路75號","121.50854","24.989975","6500300","中和區"
"235059","AAC-215","2019/09/14 20:09:41","新北市中和區圓通路335巷33弄17號","121.49296","24.9889383333333","6500300","中和區"
"220065","072-UY","2019/09/14 20:09:36","新北市板橋區民族路166號","121.46472","25.0083283333333","6500100","板橋區"
"220086","073-UY","2019/09/14 20:09:28","新北市板橋區大觀路一段28巷106號","121.450248333333","25.0110833333333","6500100","板橋區"
"247006","893-R6","2019/09/14 20:09:33","新北市蘆洲區中山二路288號","121.468891666667","25.077655","6501400","蘆洲區"
"247020","546-UM","2019/09/14 20:09:23","新北市蘆洲區民義街68巷18號","121.473755","25.089405","6501400","蘆洲區"
"247018","500-BY","2019/09/14 20:09:35","新北市蘆洲區民族路314巷1號","121.477301666667","25.0902283333333","6501400","蘆洲區"
"247016","337-TH","2019/09/14 20:09:31","新北市蘆洲區光華路134號","121.466325","25.08232","6501400","蘆洲區"
"247004","336-TH","2019/09/14 20:09:27","新北市蘆洲區長安街283號","121.458235","25.0844683333333","6501400","蘆洲區"
"247024","057-VK","2019/09/14 20:09:31","新北市蘆洲區長樂路56巷13號","121.463565","25.0865216666667","6501400","蘆洲區"
"247014","056-VK","2019/09/14 20:09:33","新北市蘆洲區中山二路265巷20號","121.470741666667","25.079555","6501400","蘆洲區"
"247022","007-UY","2019/09/14 20:09:42","新北市蘆洲區三民路171巷18號","121.470421666667","25.08698","6501400","蘆洲區"
"247002","001-UY","2019/09/14 20:09:33","新北市蘆洲區永康街58號","121.459211666667","25.086065","6501400","蘆洲區"
"226004","312-R5","2019/09/14 20:09:39","新北市平溪區望古里灰3-1號","121.755256666667","25.029025","6502400","平溪區"
"224002","639-TC","2019/09/14 20:09:37","新北市瑞芳區員山子路員山巷23號","121.816918333333","25.1044883333333","6501200","瑞芳區"
"224005","271-BY","2019/09/14 20:09:24","新北市瑞芳區濱二路73號","121.828925","25.1208783333333","6501200","瑞芳區"
"222001","KEA-2212","2019/09/14 20:09:28","新北市深坑區北深路三段191號","121.601236666667","25.003715","6501800","深坑區"
"208003","665-BX","2019/09/14 20:09:23","新北市金山區海興路71-1號","121.632338333333","25.2397433333333","6502700","金山區"
"251009","008-UM","2019/09/14 20:09:37","新北市淡水區英專路2巷7號","121.446121666667","25.1689266666667","6501000","淡水區"
"251004","009-UM","2019/09/14 20:09:23","新北市淡水區民族路29巷46號","121.461751666667","25.1369216666667","6501000","淡水區"
"251001","011-UM","2019/09/14 20:09:34","新北市淡水區淡金路二段15號","121.446348333333","25.1892083333333","6501000","淡水區"
"251002","012-UM","2019/09/14 20:09:31","新北市淡水區中正路342號","121.434986666667","25.173605","6501000","淡水區"
"251015","KEA-2871","2019/09/14 20:09:32","新北市淡水區泉洲厝25-8號","121.484203333333","25.1904","6501000","淡水區"
"251016","179-VK","2019/09/14 20:09:43","新北市淡水區番子田25-3號","121.456178333333","25.2305766666667","6501000","淡水區"
"251008","181-VK","2019/09/14 20:09:40","新北市淡水區淡海路72巷30弄7號","121.424626666667","25.1826916666667","6501000","淡水區"
"251013","182-VK","2019/09/14 20:09:40","新北市淡水區奎柔山路576號","121.468","25.2050883333333","6501000","淡水區"
"251010","413-VK","2019/09/14 20:09:38","新北市淡水區新市五路一段152號","121.426795","25.1984566666667","6501000","淡水區"
"251012","441-VK","2019/09/14 20:09:35","新北市淡水區淡金路三段224號","121.448925","25.204865","6501000","淡水區"
"251006","561-UM","2019/09/14 20:09:39","新北市淡水區北新路141巷2弄2號","121.449303333333","25.1791266666667","6501000","淡水區"
"251014","577-R6","2019/09/14 20:09:26","新北市淡水區石頭厝2-1號","121.45796","25.2356016666667","6501000","淡水區"
"251011","650-BX","2019/09/14 20:09:36","新北市淡水區崁頂57號","121.442615","25.1971666666667","6501000","淡水區"
"251003","766-UM","2019/09/14 20:09:43","新北市淡水區中山北路二段1號","121.44432","25.1830866666667","6501000","淡水區"
"207003","550-UM","2019/09/14 20:09:37","新北市萬里區大鵬里萬里加投166號","121.643495","25.21551","6502800","萬里區"
"207004","291-VK","2019/09/14 20:09:25","新北市萬里區北基里仁一街30號","121.682413333333","25.1766616666667","6502800","萬里區"
"252002","178-VK","2019/09/14 20:09:33","新北市三芝區中正路一段68號","121.503746666667","25.2576183333333","6502100","三芝區"
"252001","292-VK","2019/09/14 20:09:40","新北市三芝區公正街66號","121.499765","25.2574583333333","6502100","三芝區"
"237012","275-BY","2019/09/14 20:09:39","新北市三峽區中華路135號","121.371273333333","24.9275783333333","6500900","三峽區"
"237006","5529-G3","2019/09/14 20:09:43","新北市三峽區嘉添183號","121.36985","24.9113533333333","6500900","三峽區"
"237015","649-BX","2019/09/14 20:09:29","新北市三峽區介壽路二段138巷41號","121.395435","24.9334866666667","6500900","三峽區"
"236042","KED-0685","2019/09/14 20:09:35","新北市土城區學享街41號","121.45177","24.9871383333333","6501300","土城區"
"236030","253-BX","2019/09/14 20:09:37","新北市土城區中央路一段141號","121.446768333333","24.9879716666667","6501300","土城區"
"236026","269-VK","2019/09/14 20:09:39","新北市土城區明德路二段291號","121.444683333333","24.9842216666667","6501300","土城區"
"236014","270-VK","2019/09/14 20:09:37","新北市土城區德興街135號","121.45505","24.99166","6501300","土城區"
"236038","271-VK","2019/09/14 20:09:23","新北市土城區延吉街351號","121.464581666667","24.9839116666667","6501300","土城區"
"247012","KED-0683","2019/09/14 20:09:33","新北市蘆洲區復興路258巷2弄9號","121.479645","25.088985","6501400","蘆洲區"
"236070","KEA-2877","2019/09/14 20:09:36","新北市土城區中央路三段185-5號","121.431608333333","24.96495","6501300","土城區"
"236021","401-BY","2019/09/14 20:09:42","新北市土城區延吉街11號","121.472183333333","24.9889216666667","6501300","土城區"
"236059","912-UM","2019/09/14 20:09:35","新北市土城區中央路二段241號","121.440103333333","24.9717633333333","6501300","土城區"
"236049","913-UM","2019/09/14 20:09:32","新北市土城區明德路一段365-1號","121.453658333333","24.979445","6501300","土城區"
"236055","AAC-216","2019/09/14 20:09:43","新北市土城區中華路一段301號","121.439738333333","24.9796916666667","6501300","土城區"
"242042","AAC-296","2019/09/14 20:09:38","新北市新莊區青山路一段200-4號","121.397776666667","25.03179","6500500","新莊區"
"242061","986-R7","2019/09/14 20:09:33","新北市新莊區瓊林路59-38號","121.441113333333","25.0234483333333","6500500","新莊區"
"242004","751-BX","2019/09/14 20:09:30","新北市新莊區頭興街9巷1號","121.462291666667","25.0535466666667","6500500","新莊區"
"242029","615-BX","2019/09/14 20:09:39","新北市新莊區中原路512號","121.446591666667","25.054475","6500500","新莊區"
"242027","613-BX","2019/09/14 20:09:29","新北市新莊區立信一街75號","121.442998333333","25.0500483333333","6500500","新莊區"
"242058","612-BX","2019/09/14 20:09:41","新北市新莊區八德街139號","121.423676666667","25.0199833333333","6500500","新莊區"
"242048","566-BX","2019/09/14 20:09:32","新北市新莊區四維路152巷28號","121.422043333333","25.0225716666667","6500500","新莊區"
"242053","497-BY","2019/09/14 20:09:35","新北市新莊區西盛街387巷1號","121.428171666667","25.013005","6500500","新莊區"
"242002","442-UM","2019/09/14 20:09:33","新北市新莊區中正路55-4號","121.461891666667","25.039685","6500500","新莊區"
"242007","440-UM","2019/09/14 20:09:29","新北市新莊區思源路453巷1號","121.459238333333","25.0533283333333","6500500","新莊區"
"242044","415-TV","2019/09/14 20:09:43","新北市新莊區中正路929巷22號","121.411176666667","25.0199533333333","6500500","新莊區"
"242013","413-TV","2019/09/14 20:09:24","新北市新莊區幸福路678巷2號","121.45084","25.0497066666667","6500500","新莊區"
"242051","400-BY","2019/09/14 20:09:35","新北市新莊區民安西路172巷2弄2號","121.42583","25.0159833333333","6500500","新莊區"
"242025","362-BY","2019/09/14 20:09:41","新北市新莊區五工三路80號","121.458943333333","25.0650033333333","6500500","新莊區"
"242023","353-BY","2019/09/14 20:09:26","新北市新莊區化成路604號","121.466196666667","25.0545916666667","6500500","新莊區"
"242015","132-UY","2019/09/14 20:09:38","新北市新莊區中平路26巷24號","121.445711666667","25.0432783333333","6500500","新莊區"
"242056","172-VK","2019/09/14 20:09:43","新北市新莊區豐年街28巷1弄11號","121.446093333333","25.0319066666667","6500500","新莊區"
"242017","173-VK","2019/09/14 20:09:27","新北市新莊區中港路332號","121.452516666667","25.0458616666667","6500500","新莊區"
"242031","175-VK","2019/09/14 20:09:24","新北市新莊區中正路370號","121.443515","25.0345233333333","6500500","新莊區"
"242039","176-VK","2019/09/14 20:09:32","新北市新莊區民安西路122號","121.426755","25.01839","6500500","新莊區"
"242021","KED-0687","2019/09/14 20:09:40","新北市新莊區中興街6號","121.449373333333","25.0360883333333","6500500","新莊區"
"242036","348-TH","2019/09/14 20:09:31","新北市新莊區建安街9巷3-1號","121.429028333333","25.0266416666667","6500500","新莊區"
"242034","350-TH","2019/09/14 20:09:29","新北市新莊區華興街2號","121.446285","25.0351183333333","6500500","新莊區"
"242019","351-TH","2019/09/14 20:09:37","新北市新莊區思源路139號","121.459578333333","25.0437833333333","6500500","新莊區"
"238017","283-BY","2019/09/14 20:09:33","新北市樹林區長壽街37號","121.420071666667","24.9952166666667","6500700","樹林區"
"239006","891-R6","2019/09/14 20:09:44","新北市鶯歌區文化路60號","121.356241666667","24.95471","6500800","鶯歌區"
"239002","359-BY","2019/09/14 20:09:30","新北市鶯歌區中山路300號","121.34289","24.9571466666667","6500800","鶯歌區"
"221008","489-VK","2019/09/14 20:09:34","台北市內湖區康樂街125巷2號","121.61953","25.0733983333333","6501100","汐止區"
"221036","130-UY","2019/09/14 20:09:41","新北市汐止區新台五路二段41巷1號","121.663031666667","25.0665816666667","6501100","汐止區"
"221015","131-UY","2019/09/14 20:09:37","新北市汐止區建成路15號","121.66452","25.072565","6501100","汐止區"
"221010","269-BY","2019/09/14 20:09:30","新北市汐止區連峰街230號","121.645593333333","25.080755","6501100","汐止區"
"221012","278-VK","2019/09/14 20:09:39","新北市汐止區大同路三段491號","121.679971666667","25.0711933333333","6501100","汐止區"
"221023","279-VK","2019/09/14 20:09:30","新北市汐止區明峰街218號","121.626921666667","25.068825","6501100","汐止區"
"221032","280-BY","2019/09/14 20:09:33","新北市汐止區力行街59巷9弄2號","121.617268333333","25.0496616666667","6501100","汐止區"
"221027","281-BY","2019/09/14 20:09:43","新北市汐止區光明街28號","121.660178333333","25.0686416666667","6501100","汐止區"
"221029","298-VK","2019/09/14 20:09:42","新北市汐止區樟樹一路119巷10弄1號","121.641236666667","25.06452","6501100","汐止區"
"221021","299-VK","2019/09/14 20:09:24","新北市汐止區水源路一段250號","121.6541","25.0600216666667","6501100","汐止區"
"221031","353-TW","2019/09/14 20:09:39","新北市汐止區中興路214巷1號","121.631171666667","25.06651","6501100","汐止區"
"221035","622-UM","2019/09/14 20:09:33","新北市汐止區長江街39巷20號","121.655343333333","25.07208","6501100","汐止區"
"221025","623-UM","2019/09/14 20:09:34","新北市汐止區秀峰路62號","121.659796666667","25.0646416666667","6501100","汐止區"
"221038","646-BX","2019/09/14 20:09:40","新北市汐止區橋東街5巷3號","121.66699","25.0761716666667","6501100","汐止區"
"221033","647-BX","2019/09/14 20:09:33","新北市汐止區東勢街201巷104號","121.633481666667","25.0429","6501100","汐止區"
"221018","753-BX","2019/09/14 20:09:31","新北市汐止區茄苳路319號","121.673648333333","25.0665133333333","6501100","汐止區"
"220079","145-BY","2019/09/14 20:09:23","新北市板橋區建國街72號","121.45919","25.017225","6500100","板橋區"
"220080","200-UY","2019/09/14 20:09:33","新北市板橋區大觀路二段179巷10號","121.445368333333","24.99987","6500100","板橋區"
"220082","610-BX","2019/09/14 20:09:30","新北市板橋區篤行路二段120-3號","121.431173333333","24.9908633333333","6500100","板橋區"
"220083","286-VK","2019/09/14 20:09:34","新北市板橋區僑中二街12巷10號","121.446416666667","25.0106233333333","6500100","板橋區"
"220081","287-VK","2019/09/14 20:09:42","新北市板橋區僑中一街124巷20弄18-2號","121.44691","25.0139416666667","6500100","板橋區"
"220061","293-UM","2019/09/14 20:09:30","新北市板橋區四川路一段286巷5號","121.458316666667","25.00093","6500100","板橋區"
"220062","295-UM","2019/09/14 20:09:23","新北市板橋區萬安街85巷18-1號","121.484145","25.02571","6500100","板橋區"
"220084","296-UM","2019/09/14 20:09:43","新北市板橋區溪崑二街112巷25號","121.425958333333","24.98879","6500100","板橋區"
"242046","281-VK","2019/09/14 20:09:36","新北市新莊區裕民街85巷22弄2號","121.419521666667","25.02305","6500500","新莊區"
"220075","303-R5","2019/09/14 20:09:25","新北市板橋區金華街10巷98號","121.458536666667","25.0204283333333","6500100","板橋區"
"242011","280-VK","2019/09/14 20:09:34","新北市新莊區中信街52號","121.449288333333","25.050915","6500500","新莊區"
"220035","560-BX","2019/09/14 20:09:31","新北市板橋區新生街23巷1弄1號","121.456068333333","25.0214416666667","6500100","板橋區"
"220103","561-BX","2019/09/14 20:09:40","新北市板橋區漢生東路73巷28號","121.467268333333","25.016965","6500100","板橋區"
"220071","568-UM","2019/09/14 20:09:28","新北市板橋區和平路178號","121.4634","24.9954116666667","6500100","板橋區"
"220077","687-BX","2019/09/14 20:09:37","新北市板橋區僑中一街124巷11弄2號","121.445981666667","25.012975","6500100","板橋區"
"220054","741-BX","2019/09/14 20:09:30","新北市板橋區忠孝路201巷30號","121.465051666667","25.0034466666667","6500100","板橋區"
"220055","827-TW","2019/09/14 20:09:33","新北市板橋區仁愛路86巷16號","121.461046666667","24.9989083333333","6500100","板橋區"
"220074","895-R6","2019/09/14 20:09:35","新北市板橋區明德街2-3號","121.459706666667","25.009965","6500100","板橋區"
"220073","985-R7","2019/09/14 20:09:44","新北市板橋區南雅東路89號","121.45319","25.0086583333333","6500100","板橋區"
"235068","KEA-2873","2019/09/14 20:09:16","新北市中和區福祥路110號","121.499038333333","25.0062766666667","6500300","中和區"
