"lineid","car","time","location","longitude","latitude","cityid","cityname"
"234044","148-BY","2019/10/01 09:29:28","新北市永和區永元路18巷31號","121.523791666667","25.0002316666667","6500400","永和區"
"234078","298-R6","2019/10/01 09:29:31","新北市永和區福和路57巷14弄2號","121.522938333333","25.0071616666667","6500400","永和區"
"234062","337-UY","2019/10/01 09:29:27","新北市永和區秀朗路二段24巷35號","121.520315","25.0021","6500400","永和區"
"234084","338-UY","2019/10/01 09:29:19","新北市永和區國中路2號","121.52422","25.00427","6500400","永和區"
"234068","552-UM","2019/10/01 09:29:33","新北市永和區豫溪街55號","121.517208333333","25.009895","6500400","永和區"
"234015","745-BX","2019/10/01 09:29:18","新北市永和區環河西路一段87號","121.512315","25.0179266666667","6500400","永和區"
"234028","746-BX","2019/10/01 09:29:21","新北市永和區民生路21號","121.522956666667","24.99902","6500400","永和區"
"234052","KEA-2590","2019/10/01 09:29:21","新北市永和區復興街1巷2號","121.515718333333","25.0129716666667","6500400","永和區"
"234005","KED-0605","2019/10/01 09:29:18","新北市中和區中山路二段17號","121.505113333333","25.005475","6500400","永和區"
"234012","KEA-2591","2019/10/01 09:29:33","新北市永和區信義路36號","121.513566666667","25.0124333333333","6500400","永和區"
"234060","AAD-866","2019/10/01 09:29:18","新北市永和區中正路403號","121.517143333333","25.004705","6500400","永和區"
"234048","863-TW","2019/10/01 09:29:30","新北市永和區信義路117號","121.512321666667","25.0148366666667","6500400","永和區"
"234025","9371-KE","2019/10/01 09:29:21","新北市永和區秀朗路一段10巷21號","121.513311666667","25.00624","6500400","永和區"
"234010","9373-KE","2019/10/01 09:29:36","新北市永和區永和路二段405巷25號","121.514701666667","25.0170683333333","6500400","永和區"
"234022","9380-KE","2019/10/01 09:29:35","新北市永和區中興街10巷19號","121.515913333333","25.011255","6500400","永和區"
"234076","969-R7","2019/10/01 09:29:25","新北市永和區智光街22號","121.518015","24.999225","6500400","永和區"
"234072","AAC-211","2019/10/01 09:29:34","新北市永和區竹林路30號","121.517123333333","25.014765","6500400","永和區"
"234066","AAC-212","2019/10/01 09:29:27","新北市永和區永貞路378巷2號","121.509715","25.0071133333333","6500400","永和區"
"234001","AAC-295","2019/10/01 09:29:18","新北市永和區中山路一段105號","121.511001666667","25.0103666666667","6500400","永和區"
"243004","AAD-798","2019/10/01 09:29:33","新北市泰山區明志路一段501巷19號","121.431408333333","25.0546133333333","6501600","泰山區"
"243002","297-R6","2019/10/01 09:29:22","新北市泰山區民生路17巷30號","121.429548333333","25.0517766666667","6501600","泰山區"
"243006","KEA-2801","2019/10/01 09:29:24","新北市泰山區中港西路420號","121.43383","25.0539933333333","6501600","泰山區"
"243008","421-VK","2019/10/01 09:29:21","新北市泰山區明志路三段429號","121.421186666667","25.0327083333333","6501600","泰山區"
"243003","KEA-2216","2019/10/01 09:29:32","新北市泰山區貴子路17-15號","121.427493333333","25.0411916666667","6501600","泰山區"
"243005","646-TV","2019/10/01 09:29:28","新北市泰山區貴子路36巷16號","121.42583","25.0411616666667","6501600","泰山區"
"243007","680-BX","2019/10/01 09:29:29","新北市泰山區公園路2號","121.430038333333","25.0539833333333","6501600","泰山區"
"222005","289-BY","2019/10/01 09:29:36","新北市深坑區文山路二段61號","121.613701666667","24.9964266666667","6501800","深坑區"
"231007","189-VK","2019/10/01 09:29:35","新北市新店區新潭路三段190號","121.507655","24.9050266666667","6500600","新店區"
"231009","192-VK","2019/10/01 09:29:29","新北市新店區平廣路一段202巷7號","121.514801666667","24.8899983333333","6500600","新店區"
"220013","072-UY","2019/10/01 09:29:31","新北市板橋區漢生東路319號","121.471941666667","25.007975","6500100","板橋區"
"220034","073-UY","2019/10/01 09:29:36","新北市板橋區中正路216巷99號","121.458895","25.019255","6500100","板橋區"
"220105","075-UY","2019/10/01 09:29:34","新北市板橋區江寧路三段79巷2號","121.472361666667","25.0324316666667","6500100","板橋區"
"220017","AAD-861","2019/10/01 09:29:32","新北市板橋區貴興路7號","121.457748333333","25.00438","6500100","板橋區"
"223003","205-TH","2019/10/01 09:29:16","新北市石碇區北宜路五段12號","121.629608333333","24.9539216666667","6501900","石碇區"
"223008","406-TH","2019/10/01 09:29:36","新北市石碇區光明路32號","121.695076666667","25.0227333333333","6501900","石碇區"
"223001","592-UM","2019/10/01 09:29:32","新北市石碇區北宜路五段12號","121.629448333333","24.9539316666667","6501900","石碇區"
"223004","660-BX","2019/10/01 09:29:33","新北市石碇區碇坪路二段22號","121.687316666667","24.9740266666667","6501900","石碇區"
"223007","661-BX","2019/10/01 09:29:21","新北市石碇區光明路32號","121.694891666667","25.022515","6501900","石碇區"
"223005","677-TV","2019/10/01 09:29:20","新北市石碇區大崙2-1號","121.687133333333","24.9768266666667","6501900","石碇區"
"227004","282-VK","2019/10/01 09:29:22","新北市雙溪區長源里赤皮崙5-1號","121.794325","25.01574","6502500","雙溪區"
"227006","030-BX","2019/10/01 09:29:27","新北市坪林區柑腳坑22號","121.771405","24.9624316666667","6502500","雙溪區"
"243001","549-UM","2019/10/01 09:29:30","新北市泰山區半山雅28號","121.431118333333","25.0675633333333","6501600","泰山區"
"252004","249-BX","2019/10/01 09:29:33","新北市三芝區店子里店子112-5號","121.511085","25.2099966666667","6502100","三芝區"
"252007","AAC-283","2019/10/01 09:29:37","新北市三芝區古庄里四棧橋20號","121.489026666667","25.2612116666667","6502100","三芝區"
"237014","760-BX","2019/10/01 09:29:26","新北市三峽區三層坪路67巷10號","121.448643333333","24.90247","6500900","三峽區"
"220027","145-BY","2019/10/01 09:29:22","新北市板橋區民權路202巷7弄2-1號","121.460051666667","25.0148316666667","6500100","板橋區"
"233003","KEA-2870","2019/10/01 09:29:27","新北市烏來區卡拉模基18-1號","121.502945","24.7799916666667","6502900","烏來區"
"220028","200-UY","2019/10/01 09:29:29","新北市板橋區大觀路二段7巷86號","121.449778333333","25.003015","6500100","板橋區"
"220030","610-BX","2019/10/01 09:29:21","新北市板橋區大觀路三段273號","121.428628333333","24.9925083333333","6500100","板橋區"
"220032","256-TC","2019/10/01 09:29:21","新北市板橋區溪崑一街47巷3號","121.430446666667","24.9909716666667","6500100","板橋區"
"220004","276-BY","2019/10/01 09:29:29","新北市板橋區信義路148號","121.458775","24.9918833333333","6500100","板橋區"
"220020","277-BY","2019/10/01 09:29:32","新北市板橋區大觀路三段5-4號","121.432841666667","24.9960116666667","6500100","板橋區"
"220050","280-UM","2019/10/01 09:29:37","新北市板橋區雙十路二段47巷52號","121.474956666667","25.0254216666667","6500100","板橋區"
"220019","283-VK","2019/10/01 09:29:33","新北市板橋區重慶路245巷52弄2號","121.465408333333","25.0006166666667","6500100","板橋區"
"220043","285-UM","2019/10/01 09:29:25","新北市板橋區吳鳳路50巷18號","121.469141666667","25.0302116666667","6500100","板橋區"
"220031","286-VK","2019/10/01 09:29:33","新北市板橋區大觀路二段174巷181號","121.442165","25.0038483333333","6500100","板橋區"
"220029","287-VK","2019/10/01 09:29:31","新北市板橋區南雅西路二段94號","121.452453333333","25.0113133333333","6500100","板橋區"
"220039","288-VK","2019/10/01 09:29:30","新北市板橋區長江路一段107號","121.459651666667","25.02965","6500100","板橋區"
"220009","293-UM","2019/10/01 09:29:29","新北市板橋區成功路6巷24號","121.476631666667","25.0175516666667","6500100","板橋區"
"220001","299-UM","2019/10/01 09:29:21","新北市板橋區懷仁街35巷2弄2號","121.476763333333","25.0195966666667","6500100","板橋區"
"220023","303-R5","2019/10/01 09:29:30","新北市板橋區林園街56號","121.453948333333","25.0107333333333","6500100","板橋區"
"220010","305-R5","2019/10/01 09:29:27","新北市板橋區三民路二段153巷34弄1號","121.481156666667","25.014185","6500100","板橋區"
"220041","307-R5","2019/10/01 09:29:28","新北市板橋區光武街2巷7號","121.468361666667","25.0250333333333","6500100","板橋區"
"220047","317-R6","2019/10/01 09:29:25","新北市板橋區民有街47號","121.465566666667","25.0259716666667","6500100","板橋區"
"220038","487-VK","2019/10/01 09:29:35","新北市板橋區新生街98巷10號","121.458788333333","25.0218683333333","6500100","板橋區"
"220037","491-VK","2019/10/01 09:29:19","新北市板橋區雙十路二段231號","121.472833333333","25.0290683333333","6500100","板橋區"
"220104","560-BX","2019/10/01 09:29:40","新北市板橋區中正路352號","121.454321666667","25.0237733333333","6500100","板橋區"
"220052","561-BX","2019/10/01 09:29:25","新北市板橋區文化路一段286巷13號","121.467995","25.02161","6500100","板橋區"
"220011","609-BX","2019/10/01 09:29:22","新北市板橋區三民路二段203-7號","121.479038333333","25.01346","6500100","板橋區"
"220040","637-BX","2019/10/01 09:29:19","新北市板橋區縣民大道三段247巷18號","121.481856666667","25.02636","6500100","板橋區"
"220005","686-BX","2019/10/01 09:29:25","新北市板橋區重慶路343-3號","121.464016666667","24.9981366666667","6500100","板橋區"
"220077","687-BX","2019/10/01 09:29:26","新北市板橋區大觀路二段125-1號","121.445845","25.0013016666667","6500100","板橋區"
"220042","689-BX","2019/10/01 09:29:27","新北市板橋區新海路397號","121.458715","25.0266283333333","6500100","板橋區"
"220002","741-BX","2019/10/01 09:29:29","新北市板橋區四川路一段144號","121.459843333333","25.00359","6500100","板橋區"
"220051","KEA-2699","2019/10/01 09:29:34","新北市板橋區松柏街22巷3號","121.474665","25.02964","6500100","板橋區"
"220003","827-TW","2019/10/01 09:29:39","新北市板橋區中山路一段158號","121.465705","25.01184","6500100","板橋區"
"220016","830-TW","2019/10/01 09:29:38","新北市板橋區三民路一段1巷49-1號","121.480781666667","25.0250216666667","6500100","板橋區"
"220014","831-TW","2019/10/01 09:29:37","新北市板橋區長安街138巷1弄54號","121.473975","25.0101566666667","6500100","板橋區"
"220022","895-R6","2019/10/01 09:29:29","新北市板橋區南雅南路一段29號","121.45623","25.0066266666667","6500100","板橋區"
"220021","985-R7","2019/10/01 09:29:36","新北市板橋區中正路101號","121.45649","25.0147283333333","6500100","板橋區"
"220046","AAC-210","2019/10/01 09:29:25","新北市板橋區幸福路32巷18號","121.46141","25.0210316666667","6500100","板橋區"
"220012","AAC-253","2019/10/01 09:29:32","新北市板橋區板新路42號","121.47381","25.01377","6500100","板橋區"
