"lineid","car","time","location","longitude","latitude","cityid","cityname"
"234044","148-BY","2019/10/01 09:39:28","新北市永和區得和路375號","121.524713333333","24.999555","6500400","永和區"
"234078","298-R6","2019/10/01 09:39:31","新北市永和區福和路26號","121.52398","25.0084166666667","6500400","永和區"
"234062","337-UY","2019/10/01 09:39:27","新北市永和區秀朗路二段24巷43號","121.520028333333","25.00191","6500400","永和區"
"234084","338-UY","2019/10/01 09:39:39","新北市永和區永亨路165巷1-4號","121.526166666667","25.0041683333333","6500400","永和區"
"234068","552-UM","2019/10/01 09:39:33","新北市永和區警光街5-1號","121.5198","25.0094983333333","6500400","永和區"
"234015","745-BX","2019/10/01 09:39:38","新北市永和區環河西路一段51巷24號","121.514275","25.01756","6500400","永和區"
"234028","746-BX","2019/10/01 09:39:22","新北市中和區自立路3號","121.522613333333","24.9966816666667","6500400","永和區"
"234052","KEA-2590","2019/10/01 09:39:21","新北市永和區復興街91號","121.517773333333","25.0140866666667","6500400","永和區"
"234005","KED-0605","2019/10/01 09:39:38","新北市永和區中山路一段192號","121.50893","25.0087583333333","6500400","永和區"
"234012","KEA-2591","2019/10/01 09:39:28","新北市永和區永平路216號","121.509288333333","25.010425","6500400","永和區"
"234060","AAD-866","2019/10/01 09:39:37","新北市永和區中正路171號","121.51665","24.9985833333333","6500400","永和區"
"234048","863-TW","2019/10/01 09:39:31","新北市永和區保安路2號","121.510871666667","25.0174133333333","6500400","永和區"
"234025","9371-KE","2019/10/01 09:39:21","新北市永和區豫溪街28巷19號","121.515083333333","25.0090283333333","6500400","永和區"
"234010","9373-KE","2019/10/01 09:39:36","新北市永和區保福路二段44巷2弄10號","121.511613333333","25.01187","6500400","永和區"
"234022","9380-KE","2019/10/01 09:39:35","新北市永和區竹林路109巷8號","121.520333333333","25.0119","6500400","永和區"
"234076","969-R7","2019/10/01 09:39:25","新北市永和區民族街27巷7號","121.519271666667","24.9995783333333","6500400","永和區"
"234072","AAC-211","2019/10/01 09:39:34","新北市永和區福和路70號","121.523233333333","25.0080916666667","6500400","永和區"
"234066","AAC-212","2019/10/01 09:39:27","新北市永和區中山路一段203號","121.50892","25.00868","6500400","永和區"
"234001","AAC-295","2019/10/01 09:39:37","新北市永和區保平路14號","121.512658333333","25.0076","6500400","永和區"
"243004","AAD-798","2019/10/01 09:39:39","新北市泰山區仁愛路100巷31號","121.433655","25.0549016666667","6501600","泰山區"
"243002","297-R6","2019/10/01 09:39:26","新北市泰山區中華街14巷2號","121.427706666667","25.0524666666667","6501600","泰山區"
"243006","KEA-2801","2019/10/01 09:39:24","新北市泰山區泰林路二段96號","121.434873333333","25.0588583333333","6501600","泰山區"
"243008","421-VK","2019/10/01 09:39:26","新北市泰山區貴陽街42號","121.423396666667","25.0323583333333","6501600","泰山區"
"243003","KEA-2216","2019/10/01 09:39:31","新北市泰山區貴子路41-1號","121.4297","25.0399616666667","6501600","泰山區"
"243005","646-TV","2019/10/01 09:39:28","新北市泰山區明志路二段420號","121.424981666667","25.0437733333333","6501600","泰山區"
"243007","680-BX","2019/10/01 09:39:29","新北市泰山區民權街53號","121.428948333333","25.05048","6501600","泰山區"
"222005","289-BY","2019/10/01 09:39:36","新北市深坑區公館後13號","121.602181666667","24.99251","6501800","深坑區"
"231007","189-VK","2019/10/01 09:39:35","新北市新店區小坑二路136號","121.513061666667","24.9100433333333","6500600","新店區"
"231009","192-VK","2019/10/01 09:36:09","新北市新店區平廣路一段270-2號","121.504478333333","24.886355","6500600","新店區"
"220013","072-UY","2019/10/01 09:39:31","新北市板橋區民族路247巷7弄11號","121.470833333333","25.0077416666667","6500100","板橋區"
"220034","073-UY","2019/10/01 09:39:36","新北市板橋區中正路216巷7號","121.456251666667","25.0185033333333","6500100","板橋區"
"220105","075-UY","2019/10/01 09:39:20","新北市板橋區民治街28號","121.477848333333","25.0340983333333","6500100","板橋區"
"220017","AAD-861","2019/10/01 09:39:32","新北市板橋區華興街21巷18號","121.458531666667","25.0037116666667","6500100","板橋區"
"223001","592-UM","2019/10/01 09:39:32","新北市石碇區北宜路四段3-1號","121.613545","24.958915","6501900","石碇區"
"223004","660-BX","2019/10/01 09:39:20","新北市石碇區碇坪路一段226號","121.674441666667","24.981225","6501900","石碇區"
"223005","677-TV","2019/10/01 09:39:20","新北市石碇區碇坪路一段226號","121.674565","24.98123","6501900","石碇區"
"227004","282-VK","2019/10/01 09:39:22","新北市雙溪區長源里土地公山1號","121.798098333333","25.0129233333333","6502500","雙溪區"
"227006","030-BX","2019/10/01 09:38:47","新北市坪林區中心崙5號","121.783708333333","24.949465","6502500","雙溪區"
"243001","549-UM","2019/10/01 09:39:30","新北市泰山區明志路一段122巷6號","121.432535","25.063925","6501600","泰山區"
"252004","249-BX","2019/10/01 09:39:18","新北市三芝區圓山里石曹子坑51號","121.518401666667","25.2137816666667","6502100","三芝區"
"252007","AAC-283","2019/10/01 09:39:23","新北市三芝區埔坪里埔頭坑107號","121.504445","25.261455","6502100","三芝區"
"237014","760-BX","2019/10/01 09:39:26","新北市三峽區三層坪路37號","121.441663333333","24.9046683333333","6500900","三峽區"
"220027","145-BY","2019/10/01 09:39:22","新北市板橋區民權路202巷10弄1號","121.460465","25.0153566666667","6500100","板橋區"
"233003","KEA-2870","2019/10/01 09:39:27","新北市烏來區大羅蘭10號","121.501511666667","24.774825","6502900","烏來區"
"220028","200-UY","2019/10/01 09:39:28","新北市板橋區大觀路二段19巷111號","121.450275","25.0027766666667","6500100","板橋區"
"220030","610-BX","2019/10/01 09:39:21","新北市板橋區溪崑二街134號","121.425895","24.9877383333333","6500100","板橋區"
"220032","256-TC","2019/10/01 09:39:21","新北市板橋區溪北路73巷5號","121.428363333333","24.9899083333333","6500100","板橋區"
"220004","276-BY","2019/10/01 09:39:26","新北市板橋區信義路110巷2弄14號","121.457663333333","24.9927166666667","6500100","板橋區"
"220020","277-BY","2019/10/01 09:39:32","新北市板橋區金門街347-2號","121.428873333333","24.9853033333333","6500100","板橋區"
"220050","280-UM","2019/10/01 09:39:37","新北市板橋區萬板路192-2號","121.47663","25.023645","6500100","板橋區"
"220019","283-VK","2019/10/01 09:39:34","新北市板橋區重慶路253號","121.463533333333","24.9998866666667","6500100","板橋區"
"220043","285-UM","2019/10/01 09:39:25","新北市板橋區宏國路97-3號","121.469916666667","25.0323066666667","6500100","板橋區"
"220031","286-VK","2019/10/01 09:39:35","新北市板橋區龍興街73巷2號","121.443983333333","25.002185","6500100","板橋區"
"220029","287-VK","2019/10/01 09:39:31","新北市板橋區南雅西路一段10巷7弄15號","121.45407","25.0043966666667","6500100","板橋區"
"220039","288-VK","2019/10/01 09:39:30","新北市板橋區裕民街151號","121.458631666667","25.02707","6500100","板橋區"
"220009","293-UM","2019/10/01 09:39:31","新北市板橋區中山路一段265巷36弄2號","121.469023333333","25.0149683333333","6500100","板橋區"
"220001","299-UM","2019/10/01 09:39:21","新北市板橋區富山街76號","121.476911666667","25.0219783333333","6500100","板橋區"
"220023","303-R5","2019/10/01 09:39:30","新北市板橋區南雅南路一段5巷19號","121.456375","25.00542","6500100","板橋區"
"220010","305-R5","2019/10/01 09:39:27","新北市板橋區三民路二段181巷1號","121.479601666667","25.0144383333333","6500100","板橋區"
"220041","307-R5","2019/10/01 09:39:23","新北市板橋區自由路51巷24弄1號","121.464616666667","25.023265","6500100","板橋區"
"220047","317-R6","2019/10/01 09:39:25","新北市板橋區自由路51巷9-3號","121.465036666667","25.0234816666667","6500100","板橋區"
"220038","487-VK","2019/10/01 09:39:35","新北市板橋區英士路51巷1號","121.460865","25.0244683333333","6500100","板橋區"
"220037","491-VK","2019/10/01 09:39:24","新北市板橋區雙十路二段6-3號","121.476846666667","25.0260816666667","6500100","板橋區"
"220104","560-BX","2019/10/01 09:39:20","新北市板橋區中正路399巷17號","121.452868333333","25.022735","6500100","板橋區"
"220052","561-BX","2019/10/01 09:39:38","新北市板橋區陽明街29巷21號","121.464415","25.022195","6500100","板橋區"
"220011","609-BX","2019/10/01 09:39:22","新北市板橋區三民路二段136-3號","121.479168333333","25.01616","6500100","板橋區"
"220040","637-BX","2019/10/01 09:39:39","新北市板橋區文聖街149巷23弄1號","121.479385","25.0284966666667","6500100","板橋區"
"220005","686-BX","2019/10/01 09:39:25","新北市板橋區國慶路182巷16號","121.462938333333","24.9959916666667","6500100","板橋區"
"220077","687-BX","2019/10/01 09:39:39","新北市板橋區大觀路一段28巷44號","121.449873333333","25.00999","6500100","板橋區"
"220042","689-BX","2019/10/01 09:39:27","新北市板橋區民生路三段323號","121.463573333333","25.0311983333333","6500100","板橋區"
"220002","741-BX","2019/10/01 09:39:29","新北市板橋區光明街68-2號","121.461546666667","25.0025433333333","6500100","板橋區"
"220051","KEA-2699","2019/10/01 09:39:33","新北市板橋區雙十路二段70巷35號","121.476028333333","25.0287483333333","6500100","板橋區"
"220003","827-TW","2019/10/01 09:39:39","新北市板橋區新民街35號","121.464073333333","25.0105583333333","6500100","板橋區"
"220016","830-TW","2019/10/01 09:39:38","新北市板橋區翠華街6巷99號","121.482181666667","25.025375","6500100","板橋區"
"220014","831-TW","2019/10/01 09:39:34","新北市板橋區漢生東路330-1號","121.471791666667","25.0077566666667","6500100","板橋區"
"220022","895-R6","2019/10/01 09:39:29","新北市板橋區府中路151號","121.455196666667","25.0094316666667","6500100","板橋區"
"220021","985-R7","2019/10/01 09:39:36","新北市板橋區中正路166號","121.456543333333","25.0169583333333","6500100","板橋區"
"220046","AAC-210","2019/10/01 09:39:17","新北市板橋區文化路一段285巷52號","121.463236666667","25.01989","6500100","板橋區"
"220012","AAC-253","2019/10/01 09:39:32","新北市板橋區中山路一段102-3號","121.462453333333","25.010425","6500100","板橋區"
