"lineid","car","time","location","longitude","latitude","cityid","cityname"
"234044","148-BY","2019/10/01 10:29:28","新北市永和區得和路393號","121.525278333333","24.9992716666667","6500400","永和區"
"234078","298-R6","2019/10/01 10:29:31","新北市永和區國中路86巷1號","121.524673333333","25.0061816666667","6500400","永和區"
"234062","337-UY","2019/10/01 10:29:27","新北市永和區中正路486號","121.517415","25.0039266666667","6500400","永和區"
"234068","552-UM","2019/10/01 10:29:33","新北市永和區永寧街97號","121.518506666667","25.0066633333333","6500400","永和區"
"234028","746-BX","2019/10/01 10:29:21","新北市永和區民權路49巷18號","121.521013333333","24.9972833333333","6500400","永和區"
"234052","KEA-2590","2019/10/01 10:29:38","新北市永和區環河東路一段42號","121.518568333333","25.0171766666667","6500400","永和區"
"234060","AAD-866","2019/10/01 10:29:17","新北市永和區秀朗路一段175號","121.517028333333","25.0037033333333","6500400","永和區"
"234048","863-TW","2019/10/01 10:29:28","新北市永和區保安路134號","121.508628333333","25.0154466666667","6500400","永和區"
"234025","9371-KE","2019/10/01 10:29:21","新北市永和區安樂路198巷5號","121.515541666667","25.00202","6500400","永和區"
"234022","9380-KE","2019/10/01 10:29:35","新北市永和區博愛街32巷17-1號","121.518936666667","25.01517","6500400","永和區"
"234072","AAC-211","2019/10/01 10:29:34","新北市永和區竹林路119巷22弄4號","121.521403333333","25.011545","6500400","永和區"
"234066","AAC-212","2019/10/01 10:29:27","新北市永和區保平路292巷46弄2號","121.507428333333","25.0054183333333","6500400","永和區"
"234001","AAC-295","2019/10/01 10:29:37","新北市永和區大新街14號","121.514998333333","25.0084766666667","6500400","永和區"
"243003","KEA-2216","2019/10/01 10:29:31","新北市泰山區新北大道六段313巷13弄11號","121.424703333333","25.03376","6501600","泰山區"
"243007","680-BX","2019/10/01 10:29:29","新北市泰山區福興街26號","121.434301666667","25.0575366666667","6501600","泰山區"
"231007","189-VK","2019/10/01 10:29:35","新北市新店區新潭路一段25號","121.523256666667","24.9425383333333","6500600","新店區"
"231009","192-VK","2019/10/01 10:28:09","新北市新店區成功路43號","121.542846666667","24.90121","6500600","新店區"
"220013","072-UY","2019/10/01 10:29:31","新北市板橋區民族路270巷35號","121.469323333333","25.0061216666667","6500100","板橋區"
"220017","AAD-861","2019/10/01 10:29:32","新北市板橋區大明街25巷2弄2號","121.458241666667","25.002355","6500100","板橋區"
"227004","282-VK","2019/10/01 10:29:22","新北市雙溪區平林里外平林44號","121.852851666667","25.0362766666667","6502500","雙溪區"
"227006","030-BX","2019/10/01 10:29:27","新北市雙溪區泰平里料角坑43-1號","121.793328333333","24.955135","6502500","雙溪區"
"237014","760-BX","2019/10/01 10:29:26","新北市三峽區介壽路三段115號","121.398466666667","24.9417933333333","6500900","三峽區"
"220027","145-BY","2019/10/01 10:29:22","新北市板橋區民權路186號","121.459453333333","25.013635","6500100","板橋區"
"233003","KEA-2870","2019/10/01 10:29:27","新北市烏來區烏來街1號","121.551218333333","24.8672316666667","6502900","烏來區"
"220028","200-UY","2019/10/01 10:29:28","新北市板橋區大觀路二段153巷33號","121.446798333333","25.0002716666667","6500100","板橋區"
"220030","610-BX","2019/10/01 10:29:33","新北市板橋區溪北路101號","121.428838333333","24.9891966666667","6500100","板橋區"
"220032","256-TC","2019/10/01 10:29:21","新北市板橋區滿平街84巷80號","121.426083333333","24.987155","6500100","板橋區"
"220004","276-BY","2019/10/01 10:29:26","新北市板橋區德興街37巷1號","121.453736666667","24.9938","6500100","板橋區"
"220020","277-BY","2019/10/01 10:29:37","新北市板橋區金門街215-1號","121.432616666667","24.9899633333333","6500100","板橋區"
"220050","280-UM","2019/10/01 10:29:22","新北市板橋區雙十路二段47巷13號","121.475845","25.0258483333333","6500100","板橋區"
"220031","286-VK","2019/10/01 10:29:30","新北市板橋區僑中二街90巷11號","121.44577","25.0091716666667","6500100","板橋區"
"220029","287-VK","2019/10/01 10:29:31","新北市板橋區僑中一街80巷7弄20號","121.446965","25.01293","6500100","板橋區"
"220023","303-R5","2019/10/01 10:29:30","新北市板橋區金華街10巷114號","121.459185","25.02046","6500100","板橋區"
"220047","317-R6","2019/10/01 10:29:25","新北市板橋區裕民街131號","121.459078333333","25.0273883333333","6500100","板橋區"
"220038","487-VK","2019/10/01 10:29:35","新北市板橋區四維路159號","121.464808333333","25.02581","6500100","板橋區"
"220005","686-BX","2019/10/01 10:29:25","新北市板橋區四川路二段47巷4弄17號","121.453481666667","24.9943166666667","6500100","板橋區"
"220077","687-BX","2019/10/01 10:29:23","新北市板橋區僑中一街124巷70-5號","121.448646666667","25.0164133333333","6500100","板橋區"
"220042","689-BX","2019/10/01 10:29:27","新北市板橋區長江路二段311巷18-1號","121.470211666667","25.0359816666667","6500100","板橋區"
"220003","827-TW","2019/10/01 10:29:38","新北市板橋區仁愛路75號","121.460993333333","24.9996983333333","6500100","板橋區"
"220022","895-R6","2019/10/01 10:29:29","新北市板橋區民權路65號","121.4616","25.0111033333333","6500100","板橋區"
"220021","985-R7","2019/10/01 10:29:39","新北市板橋區館前西路162號","121.452796666667","25.008595","6500100","板橋區"
"220012","AAC-253","2019/10/01 10:29:32","新北市板橋區區運路82號","121.46685","25.0103566666667","6500100","板橋區"
