"lineid","car","time","location","longitude","latitude","cityid","cityname"
"234044","148-BY","2019/10/01 13:59:37","新北市永和區成功路一段16巷4號","121.526718333333","25.0055533333333","6500400","永和區"
"234078","298-R6","2019/10/01 13:59:25","新北市永和區永利路81巷5號","121.5215","25.0040916666667","6500400","永和區"
"234036","336-UY","2019/10/01 13:59:30","新北市永和區成功路二段179-1號","121.526631666667","24.996595","6500400","永和區"
"234062","337-UY","2019/10/01 13:59:37","新北市永和區中正路368巷1弄47號","121.519196666667","25.001225","6500400","永和區"
"234084","338-UY","2019/10/01 13:59:37","新北市永和區福和路172號","121.520926666667","25.0079583333333","6500400","永和區"
"234068","552-UM","2019/10/01 13:59:32","新北市永和區國光路17號","121.519991666667","25.0084516666667","6500400","永和區"
"234015","745-BX","2019/10/01 13:59:29","新北市永和區文化路116號","121.513268333333","25.0153233333333","6500400","永和區"
"234028","746-BX","2019/10/01 13:59:33","新北市永和區民生路22巷22號","121.52147","24.9972166666667","6500400","永和區"
"234052","KEA-2590","2019/10/01 13:59:36","新北市永和區竹林路39巷35-1號","121.520171666667","25.01534","6500400","永和區"
"234005","KED-0605","2019/10/01 13:59:24","新北市中和區中和路332號","121.509995","25.0012966666667","6500400","永和區"
"234012","KEA-2591","2019/10/01 13:59:23","新北市永和區保生路55號","121.504773333333","25.0106383333333","6500400","永和區"
"234060","AAD-866","2019/10/01 13:59:22","新北市永和區中正路151巷14號","121.515573333333","24.9988016666667","6500400","永和區"
"234048","863-TW","2019/10/01 13:59:33","新北市永和區保安路260號","121.505941666667","25.0123883333333","6500400","永和區"
"234025","9371-KE","2019/10/01 13:59:35","新北市永和區自由街47號","121.513986666667","25.00594","6500400","永和區"
"234010","9373-KE","2019/10/01 13:59:38","新北市永和區仁愛路352巷92弄16號","121.501258333333","25.008125","6500400","永和區"
"248015","026-BX","2019/10/01 13:59:31","新北市五股區成泰路三段559巷14弄2號","121.451343333333","25.10246","6501500","五股區"
"248007","KED-0815","2019/10/01 13:59:20","新北市五股區中興路一段128巷12號","121.465808333333","25.07439","6501500","五股區"
"248017","KED-0813","2019/10/01 13:59:32","新北市五股區民義路二段22巷27號","121.423848333333","25.0979816666667","6501500","五股區"
"248011","247-BX","2019/10/01 13:59:40","新北市五股區工商路18巷1號","121.439918333333","25.0835083333333","6501500","五股區"
"248003","677-BX","2019/10/01 13:59:34","新北市五股區民義路一段255-3號","121.427236666667","25.0913783333333","6501500","五股區"
"248001","678-BX","2019/10/01 13:59:33","新北市五股區凌雲路一段136號","121.449533333333","25.1021783333333","6501500","五股區"
"234022","9380-KE","2019/10/01 13:59:30","新北市永和區永和路二段243號","121.515785","25.01467","6500400","永和區"
"234076","969-R7","2019/10/01 13:59:29","新北市永和區民族街41巷1號","121.518648333333","24.9988983333333","6500400","永和區"
"234066","AAC-212","2019/10/01 13:59:38","新北市永和區中山路一段238號","121.50737","25.0075666666667","6500400","永和區"
"234001","AAC-295","2019/10/01 13:59:27","新北市永和區福和路345號","121.51534","25.0071716666667","6500400","永和區"
"244002","248-BX","2019/10/01 13:59:35","新北市林口區南勢里34-8號","121.352496666667","25.0703016666667","6501700","林口區"
"231030","002-UM","2019/10/01 13:59:27","新北市新店區安康路一段166號","121.525835","24.963105","6500600","新店區"
"231029","106-UY","2019/10/01 13:59:34","新北市新店區安康路二段22號","121.51585","24.9637483333333","6500600","新店區"
"231018","107-UY","2019/10/01 13:59:36","新北市新店區百忍街90號","121.532728333333","24.9771666666667","6500600","新店區"
"231013","108-UY","2019/10/01 13:59:31","新北市新店區明德路64號","121.541566666667","24.9793866666667","6500600","新店區"
"231036","110-UY","2019/10/01 13:59:23","新北市新店區安祥路110巷28號","121.473873333333","24.9562466666667","6500600","新店區"
"231032","256-BX","2019/10/01 13:59:40","新北市新店區華城路36巷1號","121.52786","24.9553633333333","6500600","新店區"
"231023","260-TV","2019/10/01 13:59:36","新北市新店區文中路40-5號","121.539965","24.956505","6500600","新店區"
"231003","268-BY","2019/10/01 13:59:39","新北市新店區光明街50號","121.538933333333","24.95929","6500600","新店區"
"231035","278-BY","2019/10/01 13:59:24","新北市新店區安康路二段85巷17號","121.51422","24.9618083333333","6500600","新店區"
"231015","AAD-862","2019/10/01 13:59:38","新北市新店區竹林路71-7號","121.55368","24.9514083333333","6500600","新店區"
"231006","355-BY","2019/10/01 13:59:36","新北市新店區北宜路一段304號","121.547221666667","24.9522216666667","6500600","新店區"
"231038","3712-VJ","2019/10/01 13:59:35","新北市新店區安華路1號","121.520683333333","24.9633933333333","6500600","新店區"
"231027","3713-VJ","2019/10/01 13:59:33","新北市新店區北宜路一段97號","121.53927","24.9556933333333","6500600","新店區"
"231025","4715-K9","2019/10/01 13:59:29","新北市新店區自立街18號","121.538808333333","24.9782283333333","6500600","新店區"
"231020","515-UM","2019/10/01 13:59:23","新北市新店區新烏路二段40-2號","121.544861666667","24.928345","6500600","新店區"
"231001","617-UM","2019/10/01 13:59:35","新北市新店區三民路80號","121.534673333333","24.972485","6500600","新店區"
"231005","618-UM","2019/10/01 13:59:28","新北市新店區寶中路45-2號","121.54486","24.9794016666667","6500600","新店區"
"231002","619-UM","2019/10/01 13:59:31","新北市新店區中正路678號","121.534098333333","24.9898616666667","6500600","新店區"
"231034","641-BX","2019/10/01 13:59:23","新北市新店區達觀路32號","121.502085","24.9402066666667","6500600","新店區"
"231012","KED-0819","2019/10/01 13:59:30","新北市新店區德正街27巷29弄94號","121.545718333333","24.9736466666667","6500600","新店區"
"231010","719-UM","2019/10/01 13:59:37","新北市新店區平等街46巷15號","121.535676666667","24.9734916666667","6500600","新店區"
"231026","720-UM","2019/10/01 13:59:20","新北市新店區三民路159巷19弄44號","121.532221666667","24.9732566666667","6500600","新店區"
"231028","897-TW","2019/10/01 13:59:24","新北市新店區安和路三段46號","121.518006666667","24.981925","6500600","新店區"
"231004","899-TW","2019/10/01 13:59:35","新北市新店區北新路二段106號","121.542991666667","24.973955","6500600","新店區"
"231037","AKT-0513","2019/10/01 13:59:26","新北市新店區安康路三段355巷13號","121.484866666667","24.95048","6500600","新店區"
"235030","003-UY","2019/10/01 13:59:31","新北市中和區廣福路56巷3號","121.503526666667","25.0022983333333","6500300","中和區"
"235027","006-UY","2019/10/01 13:59:37","新北市中和區中正路464號","121.490166666667","24.99428","6500300","中和區"
"235020","096-UM","2019/10/01 13:59:31","新北市中和區中正路1180號","121.481193333333","25.0101433333333","6500300","中和區"
"235003","097-UM","2019/10/01 13:59:33","新北市中和區秀朗路三段177號","121.524356666667","24.9911066666667","6500300","中和區"
"235029","098-UM","2019/10/01 13:59:23","新北市中和區勝利路35巷1弄1號","121.498966666667","25.0075166666667","6500300","中和區"
"235004","150-BY","2019/10/01 13:59:38","新北市中和區保健路44巷30號","121.508833333333","24.99646","6500300","中和區"
"235022","151-BY","2019/10/01 13:59:34","新北市中和區連城路508號","121.476865","24.992075","6500300","中和區"
"235019","183-VK","2019/10/01 13:59:28","新北市中和區德光路102號","121.468446666667","25.003415","6500300","中和區"
"235002","185-VK","2019/10/01 13:59:25","新北市中和區立人街24-4號","121.518938333333","24.9941733333333","6500300","中和區"
"235031","255-BX","2019/10/01 13:59:23","新北市新店區安和路二段220號","121.518026666667","24.976065","6500300","中和區"
"235008","293-VK","2019/10/01 13:59:29","新北市中和區中興街161巷3弄22號","121.500645","24.9914333333333","6500300","中和區"
"235036","301-VK","2019/10/01 13:59:33","新北市中和區中山路二段68號","121.503771666667","25.0046666666667","6500300","中和區"
"235007","352-BY","2019/10/01 13:59:21","新北市中和區成功路1巷4號","121.526441666667","24.99442","6500300","中和區"
"235006","KEA-2878","2019/10/01 13:59:18","新北市中和區成功路1巷4號","121.526401666667","24.99445","6500300","中和區"
"247015","KEA-2869","2019/10/01 13:59:28","新北市蘆洲區光華路42號","121.468863333333","25.08321","6501400","蘆洲區"
"247009","KED-0682","2019/10/01 13:59:23","新北市蘆洲區集賢路400號","121.480176666667","25.081995","6501400","蘆洲區"
"235010","551-UM","2019/10/01 13:59:33","新北市中和區興南路一段137號","121.50884","24.98764","6500300","中和區"
"235034","558-UM","2019/10/01 13:59:21","新北市中和區中和路194號","121.505053333333","24.9997133333333","6500300","中和區"
"235009","565-BX","2019/10/01 13:59:35","新北市中和區興南路一段63-6號","121.510378333333","24.9895166666667","6500300","中和區"
"235024","KED-0823","2019/10/01 13:59:39","新北市中和區民有街43號","121.47585","25.0048466666667","6500300","中和區"
"235018","640-BX","2019/10/01 13:59:37","新北市中和區民享街29-1號","121.474083333333","25.004275","6500300","中和區"
"235011","732-UM","2019/10/01 13:59:33","新北市中和區興南路二段32巷5號","121.507106666667","24.985505","6500300","中和區"
"235035","783-BX","2019/10/01 13:59:22","新北市中和區立德街98巷113號","121.488831666667","25.0080966666667","6500300","中和區"
"235021","801-TS","2019/10/01 13:59:21","新北市中和區民利街100巷4弄1號","121.477271666667","24.9983216666667","6500300","中和區"
"235005","802-TS","2019/10/01 13:59:36","新北市中和區中安街26號","121.513385","25.0028683333333","6500300","中和區"
"235016","805-TS","2019/10/01 13:59:21","新北市中和區興南路二段399巷57號","121.501266666667","24.97634","6500300","中和區"
"235012","896-TW","2019/10/01 13:59:29","新北市中和區華新街64號","121.50811","24.9838483333333","6500300","中和區"
"235017","900-TW","2019/10/01 13:59:30","新北市中和區民德路378號","121.465326666667","24.9945133333333","6500300","中和區"
"235015","157-BY","2019/10/01 13:59:23","新北市中和區忠孝街31巷25-5號","121.509953333333","24.9839216666667","6500300","中和區"
"235001","AAC-213","2019/10/01 13:59:25","新北市中和區秀朗路三段56號","121.526275","24.9952033333333","6500300","中和區"
"235023","AAC-215","2019/10/01 13:59:20","新北市中和區圓通路369巷33弄3號","121.49097","24.9881233333333","6500300","中和區"
"220013","072-UY","2019/10/01 13:59:37","新北市板橋區漢生東路324號","121.471798333333","25.0079516666667","6500100","板橋區"
"220034","073-UY","2019/10/01 13:59:37","新北市板橋區大智街78-3號","121.453735","25.015595","6500100","板橋區"
"220106","075-UY","2019/10/01 13:59:35","新北市板橋區文化路二段263巷10號","121.471121666667","25.0293466666667","6500100","板橋區"
"220017","AAD-861","2019/10/01 13:59:27","新北市板橋區華興街50號","121.458208333333","25.0047066666667","6500100","板橋區"
"247019","546-UM","2019/10/01 13:59:26","新北市蘆洲區民族路424號","121.474075","25.0918583333333","6501400","蘆洲區"
"247005","341-TH","2019/10/01 13:59:18","新北市蘆洲區永安南路二段50號","121.466066666667","25.077625","6501400","蘆洲區"
"247011","337-TH","2019/10/01 13:59:24","新北市蘆洲區民族路95號","121.479575","25.0863383333333","6501400","蘆洲區"
"247003","336-TH","2019/10/01 13:59:34","新北市蘆洲區長榮路19號","121.463645","25.0822183333333","6501400","蘆洲區"
"247013","056-VK","2019/10/01 13:59:32","新北市蘆洲區保和街69巷2弄1號","121.469518333333","25.08573","6501400","蘆洲區"
"247017","053-VK","2019/10/01 13:59:32","新北市蘆洲區民族路257巷2號","121.476533333333","25.090485","6501400","蘆洲區"
"247007","002-UY","2019/10/01 13:59:34","新北市蘆洲區重陽街68號","121.481655","25.08406","6501400","蘆洲區"
"247001","001-UY","2019/10/01 13:59:24","新北市蘆洲區三民路607號","121.460611666667","25.093785","6501400","蘆洲區"
"235013","251-BX","2019/10/01 13:59:18","新北市中和區景新街210巷15號","121.507031666667","24.9945683333333","6500300","中和區"
"228005","097-TW","2019/10/01 13:59:27","新北市貢寮區美豐里雞母嶺街52-1號","121.888545","25.068505","6502600","貢寮區"
"228004","212-TW","2019/10/01 13:59:24","新北市貢寮區龍崗里嵩陽街40號","121.905488333333","25.01504","6502600","貢寮區"
"253003","6232-TK","2019/10/01 13:59:21","新北市石門區尖子鹿54號","121.582726666667","25.27347","6502200","石門區"
"253004","6251-TK","2019/10/01 13:59:32","新北市石門區草埔尾16號","121.602691666667","25.2634583333333","6502200","石門區"
"253002","637-UY","2019/10/01 13:58:02","新北市石門區七股56號","121.552966666667","25.2561616666667","6502200","石門區"
"253001","KEC-0718","2019/10/01 13:59:35","新北市石門區八甲73號","121.529768333333","25.2636366666667","6502200","石門區"
"207002","749-BX","2019/10/01 13:59:36","新北市萬里區溪底里溪底路9號","121.620658333333","25.14874","6502800","萬里區"
"207001","662-BX","2019/10/01 13:59:35","新北市萬里區磺潭里清水1號","121.640118333333","25.2022516666667","6502800","萬里區"
"252005","AAC-283","2019/10/01 13:59:35","新北市三芝區橫山里橫山33號","121.541178333333","25.2585866666667","6502100","三芝區"
"236040","KED-0685","2019/10/01 13:59:39","新北市土城區城林路6巷80號","121.438463333333","24.9797483333333","6501300","土城區"
"236074","166-UM","2019/10/01 13:59:26","新北市土城區永寧路32巷10弄25號","121.42884","24.9610616666667","6501300","土城區"
"236029","253-BX","2019/10/01 13:59:28","新北市土城區城林路6巷80號","121.438445","24.979755","6501300","土城區"
"236024","269-VK","2019/10/01 13:59:38","新北市土城區城林路6巷80號","121.43861","24.9797916666667","6501300","土城區"
"236013","270-VK","2019/10/01 13:59:34","新北市土城區城林路6巷80號","121.438556666667","24.9797383333333","6501300","土城區"
"236032","271-VK","2019/10/01 13:59:33","新北市土城區城林路6巷80號","121.438453333333","24.9798416666667","6501300","土城區"
"236065","KEA-2877","2019/10/01 13:59:32","新北市土城區金城路一段72號","121.443936666667","24.9725483333333","6501300","土城區"
"236017","401-BY","2019/10/01 13:59:28","新北市土城區城林路6巷80號","121.438516666667","24.97971","6501300","土城區"
"236057","912-UM","2019/10/01 13:59:27","新北市土城區中央路三段260號","121.427253333333","24.96406","6501300","土城區"
"236045","913-UM","2019/10/01 13:59:24","新北市土城區城林路6巷80號","121.438445","24.979785","6501300","土城區"
"236060","915-UM","2019/10/01 13:59:28","新北市土城區城林路6巷80號","121.438458333333","24.9797933333333","6501300","土城區"
"236054","AAC-216","2019/10/01 13:59:26","新北市土城區城林路6巷80號","121.438333333333","24.9798683333333","6501300","土城區"
"220027","145-BY","2019/10/01 13:59:20","新北市板橋區中正路183巷36號","121.4553","25.0161766666667","6500100","板橋區"
"220028","200-UY","2019/10/01 13:59:38","新北市板橋區大觀路二段265巷3弄49號","121.444915","24.9977533333333","6500100","板橋區"
"220030","610-BX","2019/10/01 13:59:38","新北市板橋區篤行路三段72號","121.427003333333","24.985365","6500100","板橋區"
"220032","256-TC","2019/10/01 13:59:23","新北市板橋區大觀路二段156巷22號","121.441356666667","24.9997666666667","6500100","板橋區"
"220004","276-BY","2019/10/01 13:59:23","新北市板橋區信義路83號","121.45733","24.9945733333333","6500100","板橋區"
"220020","277-BY","2019/10/01 13:59:40","新北市板橋區大觀路三段57號","121.433763333333","24.9954116666667","6500100","板橋區"
"220050","280-UM","2019/10/01 13:59:36","新北市板橋區莊敬路168號","121.471645","25.0224883333333","6500100","板橋區"
"220019","283-VK","2019/10/01 13:59:36","新北市板橋區忠孝路196巷27號","121.465541666667","25.00177","6500100","板橋區"
"220043","285-UM","2019/10/01 13:59:39","新北市板橋區光武街112號","121.465611666667","25.0293183333333","6500100","板橋區"
"220031","286-VK","2019/10/01 13:59:38","新北市板橋區大觀路一段38巷1-3號","121.443198333333","25.0044616666667","6500100","板橋區"
"220029","287-VK","2019/10/01 13:59:35","新北市板橋區光華街19巷36號","121.45322","25.0120583333333","6500100","板橋區"
"220039","288-VK","2019/10/01 13:59:36","新北市板橋區裕民街18號","121.462013333333","25.0290733333333","6500100","板橋區"
"220009","293-UM","2019/10/01 13:59:30","新北市板橋區中山路二段275號","121.477771666667","25.0178733333333","6500100","板橋區"
"220023","303-R5","2019/10/01 13:59:23","新北市板橋區南興路28巷2號","121.454755","25.00788","6500100","板橋區"
"220010","305-R5","2019/10/01 13:59:30","新北市中和區環中路120號","121.48201","25.0123683333333","6500100","板橋區"
"220041","307-R5","2019/10/01 13:59:23","新北市板橋區文化路二段225巷60弄14號","121.469216666667","25.0288066666667","6500100","板橋區"
"220047","317-R6","2019/10/01 13:59:35","新北市板橋區民生路二段234巷24弄1號","121.470278333333","25.0224166666667","6500100","板橋區"
"220003","461-BY","2019/10/01 13:59:32","新北市板橋區中正路1巷14號","121.455251666667","25.0116066666667","6500100","板橋區"
"220038","487-VK","2019/10/01 13:59:37","新北市板橋區文化路二段347號","121.472693333333","25.0305516666667","6500100","板橋區"
"220037","491-VK","2019/10/01 13:59:35","新北市板橋區莊敬路38號","121.472825","25.0270116666667","6500100","板橋區"
"220104","560-BX","2019/10/01 13:59:35","新北市板橋區中正路275巷20號","121.45497","25.018835","6500100","板橋區"
"220052","561-BX","2019/10/01 13:59:30","新北市板橋區介壽街82號","121.469826666667","25.01898","6500100","板橋區"
"220032","568-UM","2019/10/01 13:59:35","新北市板橋區大觀路二段156巷36號","121.441356666667","25.0000516666667","6500100","板橋區"
"220011","609-BX","2019/10/01 13:59:34","新北市板橋區中山路二段311號","121.478871666667","25.01843","6500100","板橋區"
"220040","637-BX","2019/10/01 13:59:31","新北市板橋區大同街8巷54-1號","121.477913333333","25.02625","6500100","板橋區"
"220005","686-BX","2019/10/01 13:59:25","新北市板橋區重慶路293號","121.463373333333","24.99926","6500100","板橋區"
"220025","687-BX","2019/10/01 13:59:23","新北市板橋區金門街64號","121.433473333333","24.9929866666667","6500100","板橋區"
"220042","689-BX","2019/10/01 13:59:36","新北市板橋區民生路三段139號","121.465996666667","25.02636","6500100","板橋區"
"220002","741-BX","2019/10/01 13:59:35","新北市板橋區重慶路127巷20號","121.463721666667","25.0048483333333","6500100","板橋區"
"220051","KEA-2699","2019/10/01 13:59:26","新北市板橋區田單街2巷31號","121.482221666667","25.0279966666667","6500100","板橋區"
"220003","827-TW","2019/10/01 13:59:31","新北市板橋區四川路一段281號","121.459423333333","25.0019533333333","6500100","板橋區"
"220014","829-TW","2019/10/01 13:59:32","新北市板橋區中山路二段90巷43弄2號","121.476496666667","25.01473","6500100","板橋區"
"220016","830-TW","2019/10/01 13:59:23","新北市板橋區中山路二段465巷74弄2-5號","121.48127","25.0220566666667","6500100","板橋區"
"220001","831-TW","2019/10/01 13:59:34","新北市板橋區太和街6巷2號","121.473785","25.0199966666667","6500100","板橋區"
"220022","895-R6","2019/10/01 13:59:32","新北市板橋區南雅南路一段113號","121.45533","25.004915","6500100","板橋區"
"220021","985-R7","2019/10/01 13:59:35","新北市板橋區館前西路195號","121.455155","25.0082166666667","6500100","板橋區"
"220046","AAC-210","2019/10/01 13:59:23","新北市板橋區新海路135巷33號","121.460018333333","25.0228733333333","6500100","板橋區"
"220012","AAC-253","2019/10/01 13:59:31","新北市板橋區板新路121巷1號","121.471291666667","25.0150616666667","6500100","板橋區"
"235032","KEA-2873","2019/10/01 13:59:12","新北市中和區連勝街38巷7號","121.497603333333","24.9979316666667","6500300","中和區"
"235025","KEA-2875","2019/10/01 13:59:36","新北市中和區中山路三段65號","121.476555","25.0057666666667","6500300","中和區"
