"lineid","car","time","location","longitude","latitude","cityid","cityname"
"234025","9371-KE","2019/10/01 14:59:35","新北市永和區水源街21巷14弄3號","121.511435","25.0037166666667","6500400","永和區"
"248015","026-BX","2019/10/01 14:59:31","新北市五股區成泰路三段577巷80弄70號","121.44981","25.1051666666667","6501500","五股區"
"248007","KED-0815","2019/10/01 14:59:20","新北市五股區四維路118巷15號","121.469416666667","25.07426","6501500","五股區"
"248017","KED-0813","2019/10/01 14:59:32","新北市五股區登林路106巷13號","121.426825","25.0721883333333","6501500","五股區"
"248011","247-BX","2019/10/01 14:59:40","新北市五股區民義路一段212號","121.430638333333","25.0893483333333","6501500","五股區"
"248013","261-SL","2019/10/01 14:59:22","新北市五股區五福路6巷39號","121.436275","25.0884116666667","6501500","五股區"
"248003","677-BX","2019/10/01 14:59:34","新北市五股區成泰路一段88號","121.435863333333","25.0711733333333","6501500","五股區"
"248001","678-BX","2019/10/01 14:59:33","新北市五股區成泰路三段74號","121.444193333333","25.0894983333333","6501500","五股區"
"248009","682-TV","2019/10/01 14:59:34","新北市五股區成泰路一段15號","121.433731666667","25.0667483333333","6501500","五股區"
"244002","248-BX","2019/10/01 14:59:35","新北市林口區竹林路266號","121.38974","25.0807616666667","6501700","林口區"
"231030","002-UM","2019/10/01 14:59:27","新北市新店區安民街152號","121.516673333333","24.9699216666667","6500600","新店區"
"231029","106-UY","2019/10/01 14:59:26","新北市新店區錦秀路11巷96弄2號","121.480116666667","24.9422083333333","6500600","新店區"
"231018","107-UY","2019/10/01 14:59:35","新北市新店區中央一街39號","121.527468333333","24.973695","6500600","新店區"
"231013","108-UY","2019/10/01 14:59:31","新北市新店區北新路二段139巷5號","121.542348333333","24.9755366666667","6500600","新店區"
"231039","187-VK","2019/10/01 14:59:27","新北市新店區寶橋路78巷120號","121.54661","24.9730316666667","6500600","新店區"
"231013","189-VK","2019/10/01 14:59:37","新北市新店區安康路一段48號","121.530366666667","24.9611333333333","6500600","新店區"
"231032","256-BX","2019/10/01 14:59:20","新北市新店區安康路二段380號","121.500475","24.957375","6500600","新店區"
"231023","260-TV","2019/10/01 14:59:36","新北市新店區檳榔路109號","121.544486666667","24.9616433333333","6500600","新店區"
"231003","268-BY","2019/10/01 14:59:38","新北市新店區中興路二段100巷2號","121.54729","24.9711033333333","6500600","新店區"
"231035","278-BY","2019/10/01 14:59:24","新北市新店區新和街33號","121.518848333333","24.9846566666667","6500600","新店區"
"231015","AAD-862","2019/10/01 14:59:37","新北市新店區北宜路三段100號","121.578828333333","24.950925","6500600","新店區"
"231006","355-BY","2019/10/01 14:59:37","新北市新店區北宜路一段170號","121.540726666667","24.9530883333333","6500600","新店區"
"231038","3712-VJ","2019/10/01 14:59:34","新北市新店區安忠路205巷8號","121.509696666667","24.9548783333333","6500600","新店區"
"231027","3713-VJ","2019/10/01 14:59:33","新北市新店區中正路110號","121.542955","24.9707083333333","6500600","新店區"
"231025","4715-K9","2019/10/01 14:59:29","新北市新店區建國路218號","121.538006666667","24.98113","6500600","新店區"
"231020","515-UM","2019/10/01 14:59:23","新北市新店區桂山路37號","121.562141666667","24.9043066666667","6500600","新店區"
"231001","617-UM","2019/10/01 14:59:28","新北市新店區三民路42-1號","121.536095","24.9716166666667","6500600","新店區"
"231005","618-UM","2019/10/01 14:59:28","新北市新店區復興路90號","121.533545","24.9882433333333","6500600","新店區"
"231002","619-UM","2019/10/01 14:59:31","新北市新店區民權路42-1號","121.540338333333","24.9830016666667","6500600","新店區"
"231034","641-BX","2019/10/01 14:59:23","新北市新店區玫瑰路4-1號","121.493588333333","24.9514266666667","6500600","新店區"
"231012","KED-0819","2019/10/01 14:59:30","新北市新店區寶橋路160號","121.548966666667","24.9772166666667","6500600","新店區"
"231026","720-UM","2019/10/01 14:59:19","新北市新店區北新路一段91號","121.53874","24.9617833333333","6500600","新店區"
"231028","897-TW","2019/10/01 14:59:26","新北市新店區安成街38號","121.509891666667","24.96123","6500600","新店區"
"231004","899-TW","2019/10/01 14:59:25","新北市新店區民族路37號","121.54075","24.9787083333333","6500600","新店區"
"231037","AKT-0513","2019/10/01 14:59:26","新北市新店區柴埕路52巷20號","121.510231666667","24.965715","6500600","新店區"
"241020","478-VK","2019/10/01 14:59:25","新北市三重區重新路四段121號","121.484775","25.052535","6500200","三重區"
"235027","006-UY","2019/10/01 14:59:37","新北市中和區連城路249巷26弄1號","121.494585","24.99525","6500300","中和區"
"235020","096-UM","2019/10/01 14:59:31","新北市中和區中山路三段114巷35號","121.475318333333","25.0084716666667","6500300","中和區"
"235019","183-VK","2019/10/01 14:59:22","新北市中和區民享街95-4號","121.474945","25.0000933333333","6500300","中和區"
"235031","255-BX","2019/10/01 14:59:23","新北市中和區新生街220巷31號","121.48231","24.9984633333333","6500300","中和區"
"235008","293-VK","2019/10/01 14:59:29","新北市中和區板南路180號","121.50077","24.992815","6500300","中和區"
"235036","301-VK","2019/10/01 14:59:33","新北市中和區中和路74號","121.500811666667","25.0002266666667","6500300","中和區"
"235007","352-BY","2019/10/01 14:59:21","新北市中和區南山路86號","121.5027","24.994975","6500300","中和區"
"247015","KEA-2869","2019/10/01 14:59:28","新北市蘆洲區和平路174巷20號","121.467155","25.081785","6501400","蘆洲區"
"235033","4980-A6","2019/10/01 14:59:31","新北市中和區連城路134巷11號","121.495183333333","25.0000616666667","6500300","中和區"
"235034","558-UM","2019/10/01 14:59:21","新北市中和區景平路624-1號","121.500346666667","24.9975716666667","6500300","中和區"
"235009","565-BX","2019/10/01 14:59:35","新北市中和區景新街467巷35弄4號","121.514616666667","24.98912","6500300","中和區"
"235018","640-BX","2019/10/01 14:59:37","新北市中和區莒光路43號","121.472091666667","25.0047916666667","6500300","中和區"
"235011","732-UM","2019/10/01 14:59:33","新北市新店區薏仁坑路自強巷1號","121.496791666667","24.9579566666667","6500300","中和區"
"235035","783-BX","2019/10/01 14:59:22","新北市中和區中正路760號","121.485171666667","24.99927","6500300","中和區"
"235021","801-TS","2019/10/01 14:59:21","新北市中和區員山路30-6號","121.484101666667","24.98827","6500300","中和區"
"235005","802-TS","2019/10/01 14:59:36","新北市中和區永貞路239巷15號","121.512598333333","25.0031533333333","6500300","中和區"
"235012","896-TW","2019/10/01 14:59:29","新北市中和區忠孝街1巷2-1號","121.509191666667","24.9831633333333","6500300","中和區"
"235017","900-TW","2019/10/01 14:59:30","新北市中和區國光街173號","121.467995","25.001495","6500300","中和區"
"235028","911-UM","2019/10/01 14:59:31","新北市中和區連城路23巷3號","121.499045","25.0018283333333","6500300","中和區"
"220013","072-UY","2019/10/01 14:59:37","新北市板橋區民族路231號","121.469813333333","25.00715","6500100","板橋區"
"220034","073-UY","2019/10/01 14:59:37","新北市板橋區中正路12巷135弄13號","121.456203333333","25.0122783333333","6500100","板橋區"
"220105","075-UY","2019/10/01 14:59:18","新北市板橋區仁化街162號","121.478075","25.0336","6500100","板橋區"
"220017","AAD-861","2019/10/01 14:59:36","新北市板橋區貴興路49-1號","121.457441666667","25.00314","6500100","板橋區"
"247019","546-UM","2019/10/01 14:59:26","新北市蘆洲區民義街65號","121.473043333333","25.089955","6501400","蘆洲區"
"247011","337-TH","2019/10/01 14:59:23","新北市蘆洲區民權路3巷14弄15號","121.475123333333","25.0855983333333","6501400","蘆洲區"
"247013","056-VK","2019/10/01 14:59:32","新北市蘆洲區中央路2-1號","121.473283333333","25.0823483333333","6501400","蘆洲區"
"247001","001-UY","2019/10/01 14:59:21","新北市蘆洲區長安街232號","121.457801666667","25.0856683333333","6501400","蘆洲區"
"228004","212-TW","2019/10/01 14:59:35","新北市貢寮區雙玉里田寮洋街1號","121.928211666667","25.018175","6502600","貢寮區"
"253004","6251-TK","2019/10/01 14:59:31","新北市石門區坪林52-1號","121.59503","25.272005","6502200","石門區"
"253002","637-UY","2019/10/01 14:59:22","新北市石門區楓林42號","121.540421666667","25.2815316666667","6502200","石門區"
"253001","KEC-0718","2019/10/01 14:59:31","新北市石門區崁子腳18-4號","121.535555","25.289435","6502200","石門區"
"207001","662-BX","2019/10/01 14:59:35","新北市萬里區雙興里豐稟路9號","121.64765","25.181715","6502800","萬里區"
"236040","KED-0685","2019/10/01 14:59:38","新北市土城區裕民路116號","121.451005","24.986565","6501300","土城區"
"236074","166-UM","2019/10/01 14:59:26","新北市土城區中央路四段67巷6號","121.417683333333","24.9574416666667","6501300","土城區"
"236029","253-BX","2019/10/01 14:59:28","新北市土城區興城路49巷5號","121.441095","24.971065","6501300","土城區"
"236024","269-VK","2019/10/01 14:59:18","新北市土城區光明街4號","121.441925","24.9745566666667","6501300","土城區"
"236013","270-VK","2019/10/01 14:59:34","新北市土城區永豐路29巷10號","121.46346","24.988485","6501300","土城區"
"236032","271-VK","2019/10/01 14:59:32","新北市土城區仁愛路20-2號","121.46099","24.98011","6501300","土城區"
"236065","KEA-2877","2019/10/01 14:59:32","新北市土城區中央路一段291巷14號","121.444978333333","24.9837233333333","6501300","土城區"
"236017","401-BY","2019/10/01 14:59:28","新北市土城區延吉街168巷1號","121.468285","24.9855283333333","6501300","土城區"
"236057","912-UM","2019/10/01 14:59:27","新北市土城區永平街50-1號","121.4269","24.9591216666667","6501300","土城區"
"236045","913-UM","2019/10/01 14:59:24","新北市土城區青雲路227號","121.459158333333","24.9817133333333","6501300","土城區"
"236060","915-UM","2019/10/01 14:59:27","新北市土城區金城路三段139巷10號","121.468023333333","24.98876","6501300","土城區"
"236054","AAC-216","2019/10/01 14:59:26","新北市土城區裕民路59號","121.449091666667","24.9878416666667","6501300","土城區"
"238010","601-UM","2019/10/01 14:59:21","新北市樹林區中山路三段204號","121.386735","24.9682566666667","6500700","樹林區"
"238006","599-UM","2019/10/01 14:59:33","新北市樹林區育德街78號","121.38758","24.9685566666667","6500700","樹林區"
"238012","303-VK","2019/10/01 14:59:23","新北市樹林區育德街78號","121.387511666667","24.9686133333333","6500700","樹林區"
"238004","283-BY","2019/10/01 14:59:35","新北市樹林區育德街78號","121.388328333333","24.9683833333333","6500700","樹林區"
"238007","268-VK","2019/10/01 14:59:37","新北市樹林區八德街670號","121.395703333333","24.9688416666667","6500700","樹林區"
"220027","145-BY","2019/10/01 14:59:38","新北市板橋區建國街25號","121.458051666667","25.0171116666667","6500100","板橋區"
"220028","200-UY","2019/10/01 14:59:33","新北市板橋區大觀路二段163巷17號","121.446311666667","25.0001716666667","6500100","板橋區"
"220030","610-BX","2019/10/01 14:59:38","新北市板橋區大觀路三段263號","121.429196666667","24.99221","6500100","板橋區"
"220032","256-TC","2019/10/01 14:57:45","新北市板橋區龍興街63巷2號","121.443045","25.0013283333333","6500100","板橋區"
"220004","276-BY","2019/10/01 14:59:23","新北市板橋區四川路二段47巷2弄2號","121.454001666667","24.9949533333333","6500100","板橋區"
"220020","277-BY","2019/10/01 14:59:20","新北市板橋區金門街215巷79號","121.434075","24.989315","6500100","板橋區"
"220050","280-UM","2019/10/01 14:59:36","新北市板橋區縣民大道三段105-2號","121.476228333333","25.0225216666667","6500100","板橋區"
"220019","283-VK","2019/10/01 14:59:35","新北市板橋區五權街30巷37弄16-1號","121.463451666667","24.992285","6500100","板橋區"
"220043","285-UM","2019/10/01 14:59:18","新北市板橋區陽明街25巷1號","121.466103333333","25.0217983333333","6500100","板橋區"
"220031","286-VK","2019/10/01 14:59:38","新北市板橋區僑中二街48巷20號","121.445515","25.0104583333333","6500100","板橋區"
"220029","287-VK","2019/10/01 14:59:35","新北市板橋區僑中一街80巷5弄1號","121.447691666667","25.0122583333333","6500100","板橋區"
"220009","293-UM","2019/10/01 14:59:30","新北市板橋區觀光街2-4號","121.472201666667","25.0155583333333","6500100","板橋區"
"220023","303-R5","2019/10/01 14:59:22","新北市板橋區中正路225號","121.455878333333","25.01773","6500100","板橋區"
"220010","305-R5","2019/10/01 14:59:35","新北市板橋區光復街33巷41號","121.482748333333","25.018985","6500100","板橋區"
"220041","307-R5","2019/10/01 14:59:23","新北市板橋區漢生西路77-2號","121.462838333333","25.0190916666667","6500100","板橋區"
"220047","317-R6","2019/10/01 14:59:35","新北市板橋區新海路385巷12號","121.458468333333","25.0258783333333","6500100","板橋區"
"220003","461-BY","2019/10/01 14:58:52","新北市樹林區中山路三段214號","121.379605","24.9676933333333","6500100","板橋區"
"220038","487-VK","2019/10/01 14:59:35","新北市板橋區互助街54號","121.461448333333","25.026915","6500100","板橋區"
"220037","491-VK","2019/10/01 14:59:35","新北市板橋區文聖街105號","121.477775","25.0294683333333","6500100","板橋區"
"220104","560-BX","2019/10/01 14:59:34","新北市板橋區公館街260號","121.459688333333","25.0209716666667","6500100","板橋區"
"220052","561-BX","2019/10/01 14:59:30","新北市板橋區漢生西路68號","121.462938333333","25.0190033333333","6500100","板橋區"
"220032","568-UM","2019/10/01 14:59:34","新北市板橋區溪崑二街103巷2號","121.426778333333","24.988925","6500100","板橋區"
"220011","609-BX","2019/10/01 14:59:34","新北市板橋區中山路二段561號","121.484123333333","25.0218666666667","6500100","板橋區"
"220040","637-BX","2019/10/01 14:59:19","新北市板橋區懷德街174巷1-18號","121.479021666667","25.0295483333333","6500100","板橋區"
"220005","686-BX","2019/10/01 14:59:30","新北市板橋區四川路一段338號","121.456845","24.99681","6500100","板橋區"
"220025","687-BX","2019/10/01 14:59:29","新北市板橋區僑中二街106巷1號","121.445966666667","25.0075316666667","6500100","板橋區"
"220002","741-BX","2019/10/01 14:59:35","新北市板橋區忠孝路201巷112號","121.46464","25.0050916666667","6500100","板橋區"
"220051","KEA-2699","2019/10/01 14:59:38","新北市板橋區莒光路17號","121.469918333333","25.02496","6500100","板橋區"
"220003","827-TW","2019/10/01 14:59:31","新北市板橋區仁愛路64號","121.459953333333","24.9994383333333","6500100","板橋區"
"220014","829-TW","2019/10/01 14:59:23","新北市板橋區長安街150號","121.47308","25.010365","6500100","板橋區"
"220016","830-TW","2019/10/01 14:59:23","新北市板橋區光復街213號","121.484861666667","25.0211866666667","6500100","板橋區"
"220001","831-TW","2019/10/01 14:59:34","新北市板橋區永豐街12號","121.47493","25.0168516666667","6500100","板橋區"
"220022","895-R6","2019/10/01 14:59:26","新北市板橋區文化路一段46巷16號","121.460211666667","25.011545","6500100","板橋區"
"220021","985-R7","2019/10/01 14:59:35","新北市板橋區大仁街9號","121.455901666667","25.0168716666667","6500100","板橋區"
"220046","AAC-210","2019/10/01 14:59:24","新北市板橋區光正街43號","121.46181","25.0172333333333","6500100","板橋區"
"220012","AAC-253","2019/10/01 14:59:31","新北市板橋區館前東路98-2號","121.462666666667","25.0075716666667","6500100","板橋區"
"235032","KEA-2873","2019/10/01 14:59:30","新北市中和區中和路143號","121.502218333333","24.99983","6500300","中和區"
