"lineid","car","time","location","longitude","latitude","cityid","cityname"
"249005","172-UM","2019/10/01 17:29:25","新北市八里區荖阡坑路69-20號","121.406631666667","25.1263283333333","6502300","八里區"
"249001","173-UM","2019/10/01 17:29:23","新北市八里區中華路一段1-5號","121.423295","25.1586833333333","6502300","八里區"
"249004","303-UY","2019/10/01 17:29:22","新北市八里區埤頭二街2-2號","121.414506666667","25.1552416666667","6502300","八里區"
"249002","305-UY","2019/10/01 17:29:28","新北市八里區龍米路二段65巷15弄1號","121.447106666667","25.1409116666667","6502300","八里區"
"249003","593-UM","2019/10/01 17:29:32","新北市八里區中山路二段313號","121.400785","25.1478533333333","6502300","八里區"
"232011","375-UM","2019/10/01 17:29:31","新北市坪林區北宜路八段553號","121.714878333333","24.9111366666667","6502000","坪林區"
"244007","080-UY","2019/10/01 17:29:28","新北市林口區湖子8號","121.392151666667","25.0921833333333","6501700","林口區"
"244013","KEA-2802","2019/10/01 17:29:39","新北市林口區中山路2號","121.39675","25.0783516666667","6501700","林口區"
"244023","483-VK","2019/10/01 17:29:24","新北市林口區興林一街107號","121.391758333333","25.0726316666667","6501700","林口區"
"244017","485-VK","2019/10/01 17:29:37","新北市林口區中山路198號","121.388813333333","25.079015","6501700","林口區"
"244009","656-BX","2019/10/01 17:29:28","新北市林口區中北三街136號","121.383718333333","25.08382","6501700","林口區"
"244011","701-TV","2019/10/01 17:29:26","新北市林口區仁愛路一段386巷8號","121.388036666667","25.0772216666667","6501700","林口區"
"244025","837-TS","2019/10/01 17:29:38","新北市林口區文化二路一段241巷26號","121.36631","25.0717066666667","6501700","林口區"
"244021","838-TS","2019/10/01 17:29:21","新北市林口區醒吾新村1號","121.396315","25.0791333333333","6501700","林口區"
"231046","719-UM","2019/10/01 17:13:40","新北市新店區直潭五街86號","121.531761666667","24.9406783333333","6500600","新店區"
"241015","062-VK","2019/10/01 17:29:28","新北市三重區長元街65巷8弄18號","121.503485","25.06654","6500200","三重區"
"241003","091-VK","2019/10/01 17:29:31","新北市三重區碧華街373號","121.492575","25.085365","6500200","三重區"
"241016","266-UM","2019/10/01 17:29:34","新北市三重區信義西街41號","121.495293333333","25.06404","6500200","三重區"
"241030","KED-0822","2019/10/01 17:29:23","新北市三重區集成路28號","121.488831666667","25.05243","6500200","三重區"
"241019","KEA-2593","2019/10/01 17:29:28","新北市三重區自強路二段24號","121.489593333333","25.0692133333333","6500200","三重區"
"241005","AAD-863","2019/10/01 17:29:28","新北市三重區永安北路二段25巷24號","121.482735","25.0819033333333","6500200","三重區"
"241031","743-BX","2019/10/01 17:29:24","新北市八里區中山路三段409號","121.368303333333","25.134845","6500200","三重區"
"241033","AAC-255","2019/10/01 17:29:38","新北市三重區光復路二段42巷40號","121.469086666667","25.0544033333333","6500200","三重區"
"247016","KEA-2869","2019/10/01 17:29:09","新北市蘆洲區光華路22巷1號","121.469398333333","25.0835516666667","6501400","蘆洲區"
"247010","KED-0682","2019/10/01 17:29:27","新北市蘆洲區信義路118號","121.479836666667","25.082245","6501400","蘆洲區"
"235064","911-UM","2019/10/01 17:29:31","新北市中和區員山路36巷16-3號","121.485","24.9913866666667","6500300","中和區"
"247020","546-UM","2019/10/01 17:29:22","新北市蘆洲區水湳街417號","121.470675","25.09411","6501400","蘆洲區"
"247006","341-TH","2019/10/01 17:29:19","新北市蘆洲區長安街73巷20號","121.461918333333","25.079575","6501400","蘆洲區"
"247012","337-TH","2019/10/01 17:29:37","新北市蘆洲區三民路70號","121.47548","25.0838533333333","6501400","蘆洲區"
"247004","336-TH","2019/10/01 17:29:34","新北市蘆洲區中原路35號","121.460005","25.0826733333333","6501400","蘆洲區"
"247024","057-VK","2019/10/01 17:29:37","新北市蘆洲區長興路393號","121.461226666667","25.0918283333333","6501400","蘆洲區"
"247014","056-VK","2019/10/01 17:29:23","新北市蘆洲區忠孝路20號","121.470683333333","25.084255","6501400","蘆洲區"
"247018","053-VK","2019/10/01 17:29:38","新北市蘆洲區民權路82巷6弄2號","121.475053333333","25.08802","6501400","蘆洲區"
"247022","007-UY","2019/10/01 17:29:37","新北市蘆洲區三民路182號","121.469853333333","25.0884533333333","6501400","蘆洲區"
"247008","002-UY","2019/10/01 17:29:34","新北市蘆洲區信義路34巷127號","121.475768333333","25.0766183333333","6501400","蘆洲區"
"247002","001-UY","2019/10/01 17:29:32","新北市蘆洲區永樂街38巷67弄24號","121.457585","25.091045","6501400","蘆洲區"
"228003","097-TW","2019/10/01 17:29:25","新北市貢寮區仁理村研海街62-2號","121.925611666667","25.0453183333333","6502600","貢寮區"
"228001","212-TW","2019/10/01 17:29:18","新北市貢寮區仁理村仁愛路39號","121.925015","25.0533183333333","6502600","貢寮區"
"228002","663-BX","2019/10/01 17:29:41","新北市貢寮區福隆里興隆街21-2號","121.933003333333","25.0188116666667","6502600","貢寮區"
"224010","AGQ-8101","2019/10/01 17:29:23","新北市瑞芳區逢甲路15號","121.809853333333","25.10868","6501200","瑞芳區"
"224006","676-BX","2019/10/01 17:29:25","新北市瑞芳區傑魚坑路147號","121.790496666667","25.1097566666667","6501200","瑞芳區"
"224009","275-VK","2019/10/01 17:29:29","新北市瑞芳區輕便路17-1號","121.846188333333","25.111215","6501200","瑞芳區"
"224008","273-VK","2019/10/01 17:29:31","新北市瑞芳區侯硐路170號","121.831488333333","25.084365","6501200","瑞芳區"
"224005","271-BY","2019/10/01 17:29:24","新北市瑞芳區海濱路8-6號","121.831168333333","25.1261016666667","6501200","瑞芳區"
"227002","642-TC","2019/10/01 17:22:44","新北市雙溪區共和里東榮街42號","121.866071666667","25.033705","6502500","雙溪區"
"227001","400-TW","2019/10/01 17:29:28","新北市雙溪區三貂里定福路1-2號","121.850771666667","25.0634533333333","6502500","雙溪區"
"251009","008-UM","2019/10/01 17:29:31","新北市淡水區新生街20-4號","121.43896","25.1737116666667","6501000","淡水區"
"251004","009-UM","2019/10/01 17:10:25","新北市淡水區中正東路二段88巷15號","121.459053333333","25.15052","6501000","淡水區"
"251005","010-UM","2019/10/01 17:29:37","新北市淡水區鄧公路31巷1號","121.451295","25.1708966666667","6501000","淡水區"
"251015","KEA-2871","2019/10/01 17:29:37","新北市淡水區三空泉20號","121.470385","25.1654316666667","6501000","淡水區"
"251016","179-VK","2019/10/01 17:29:24","新北市淡水區埤島72號","121.455486666667","25.1930216666667","6501000","淡水區"
"251013","180-VK","2019/10/01 17:29:17","新北市淡水區大竹圍5號","121.46659","25.1952166666667","6501000","淡水區"
"251008","181-VK","2019/10/01 17:29:25","新北市淡水區大同路118號","121.462763333333","25.140155","6501000","淡水區"
"251010","413-VK","2019/10/01 17:29:24","新北市淡水區中正路二段200巷5號","121.425715","25.1884133333333","6501000","淡水區"
"251012","441-VK","2019/10/01 17:29:24","新北市淡水區北新路70號","121.446373333333","25.17831","6501000","淡水區"
"251007","442-VK","2019/10/01 17:29:25","新北市淡水區民生路60號","121.462096666667","25.137955","6501000","淡水區"
"251006","561-UM","2019/10/01 17:29:23","新北市淡水區大仁街19號","121.44249","25.1751633333333","6501000","淡水區"
"251014","577-R6","2019/10/01 17:29:34","新北市淡水區公埔子10號","121.473598333333","25.2271733333333","6501000","淡水區"
"251011","650-BX","2019/10/01 17:29:26","新北市淡水區三空泉8-1號","121.475945","25.1612883333333","6501000","淡水區"
"251002","672-BX","2019/10/01 17:29:29","新北市淡水區中正路一段33號","121.42578","25.17666","6501000","淡水區"
"251003","766-UM","2019/10/01 17:29:38","新北市淡水區中山路157號","121.440748333333","25.1728533333333","6501000","淡水區"
"207003","550-UM","2019/10/01 17:29:37","新北市萬里區龜吼里美崙路93號","121.685275","25.18509","6502800","萬里區"
"207004","291-VK","2019/10/01 17:29:37","新北市萬里區萬里里景美路16號","121.687298333333","25.1739433333333","6502800","萬里區"
"252002","178-VK","2019/10/01 17:29:30","新北市三芝區忠孝街1-14號","121.50551","25.2539233333333","6502100","三芝區"
"233002","762-BX","2019/10/01 17:29:31","新北市烏來區環山路82巷24號","121.548123333333","24.863725","6502900","烏來區"
"252001","KED-0821","2019/10/01 17:29:31","新北市三芝區長安街119號","121.498025","25.259675","6502100","三芝區"
"242042","AAC-296","2019/10/01 17:29:35","新北市新莊區新樹路113巷19號","121.43921","25.026395","6500500","新莊區"
"242061","986-R7","2019/10/01 17:29:38","新北市新莊區瓊林路59-38號","121.441115","25.0234583333333","6500500","新莊區"
"242005","751-BX","2019/10/01 17:29:32","新北市新莊區中港路280號","121.453126666667","25.0441433333333","6500500","新莊區"
"242029","615-BX","2019/10/01 17:29:34","新北市新莊區復興路二段194號","121.459285","25.04439","6500500","新莊區"
"242027","613-BX","2019/10/01 17:29:22","新北市新莊區思源路41號","121.460008333333","25.0398416666667","6500500","新莊區"
"242058","612-BX","2019/10/01 17:29:28","新北市新莊區中正路386號","121.441931666667","25.03506","6500500","新莊區"
"242048","566-BX","2019/10/01 17:29:24","新北市新莊區龍安路256號","121.421366666667","25.019565","6500500","新莊區"
"242002","441-UM","2019/10/01 17:29:31","新北市新莊區環漢路二段8號","121.450215","25.0319266666667","6500500","新莊區"
"242007","440-UM","2019/10/01 17:29:28","新北市新莊區中華路二段2號","121.45318","25.0444533333333","6500500","新莊區"
"242044","415-TV","2019/10/01 17:29:36","新北市新莊區富國路101-1號","121.421385","25.0255383333333","6500500","新莊區"
"242013","413-TV","2019/10/01 17:29:19","新北市新莊區中誠街53巷1號","121.451455","25.04795","6500500","新莊區"
"242051","400-BY","2019/10/01 17:29:31","新北市新莊區新樹路453號","121.432725","25.0134266666667","6500500","新莊區"
"242025","362-BY","2019/10/01 17:29:24","新北市新莊區中港路272號","121.453223333333","25.0439833333333","6500500","新莊區"
"242023","353-BY","2019/10/01 17:29:22","新北市新莊區公園路41號","121.45318","25.0401683333333","6500500","新莊區"
"242015","132-UY","2019/10/01 17:29:32","新北市新莊區新泰路154號","121.447686666667","25.0373933333333","6500500","新莊區"
"242039","135-UY","2019/10/01 17:29:36","新北市新莊區民安東路33號","121.428636666667","25.020975","6500500","新莊區"
"242056","172-VK","2019/10/01 17:29:27","新北市新莊區新泰路51號","121.449506666667","25.033855","6500500","新莊區"
"242017","173-VK","2019/10/01 17:29:35","新北市新莊區中港路293號","121.45287","25.04416","6500500","新莊區"
"242032","175-VK","2019/10/01 17:29:29","新北市新莊區新泰路440號","121.443345","25.044545","6500500","新莊區"
"242021","KED-0687","2019/10/01 17:29:34","新北市新莊區中正路134號","121.45276","25.0361166666667","6500500","新莊區"
"242011","346-TH","2019/10/01 17:29:23","新北市新莊區中港路467號","121.452413333333","25.048985","6500500","新莊區"
"242054","347-TH","2019/10/01 17:29:35","新北市新莊區瓊林南路305巷35號","121.435956666667","25.0052833333333","6500500","新莊區"
"242037","348-TH","2019/10/01 17:29:28","新北市新莊區建國二路5-3號","121.43479","25.0237183333333","6500500","新莊區"
"242009","349-TH","2019/10/01 17:29:18","新北市新莊區中原路240號","121.452736666667","25.05448","6500500","新莊區"
"242034","350-TH","2019/10/01 17:29:23","新北市新莊區新莊路364號","121.449546666667","25.0334833333333","6500500","新莊區"
"242019","351-TH","2019/10/01 17:29:34","新北市新莊區中港路五守新村1巷5號","121.455353333333","25.038275","6500500","新莊區"
"238015","755-BX","2019/10/01 17:29:28","新北市樹林區大安路261號","121.41912","24.9939266666667","6500700","樹林區"
"238023","601-UM","2019/10/01 17:29:21","新北市樹林區三福街114號","121.406446666667","25.0163266666667","6500700","樹林區"
"238019","599-UM","2019/10/01 17:29:33","新北市樹林區八德街251巷10弄2號","121.422366666667","24.97871","6500700","樹林區"
"238024","5061-A6","2019/10/01 17:29:37","新北市樹林區博愛街226巷7號","121.424235","24.9887183333333","6500700","樹林區"
"238018","KEA-2217","2019/10/01 17:29:24","新北市樹林區鎮前街191號","121.421548333333","24.9867533333333","6500700","樹林區"
"238022","KEA-2213","2019/10/01 17:29:37","新北市樹林區仁愛街23號","121.421683333333","24.981725","6500700","樹林區"
"238021","KEA-2539","2019/10/01 17:29:32","新北市樹林區西圳街一段203巷38號","121.393605","24.9592616666667","6500700","樹林區"
"238025","303-VK","2019/10/01 17:29:23","新北市樹林區保安街二段2號","121.416723333333","24.9995316666667","6500700","樹林區"
"238017","283-BY","2019/10/01 17:29:35","新北市樹林區中正路460號","121.412933333333","25.0124283333333","6500700","樹林區"
"238014","282-BY","2019/10/01 17:29:31","新北市樹林區保安街一段294巷8號","121.419706666667","24.99792","6500700","樹林區"
"238020","268-VK","2019/10/01 17:29:37","新北市樹林區千歲街111-1號","121.429266666667","25.001665","6500700","樹林區"
"238026","172-UY","2019/10/01 17:29:26","新北市樹林區中山路三段27巷2號","121.401631666667","24.9745333333333","6500700","樹林區"
"238016","169-UY","2019/10/01 17:29:31","新北市樹林區中山路一段4號","121.424201666667","24.9931116666667","6500700","樹林區"
"239007","AAC-297","2019/10/01 17:29:19","新北市鶯歌區仁愛路1號","121.353546666667","24.9567466666667","6500800","鶯歌區"
"239006","891-R6","2019/10/01 17:29:36","新北市鶯歌區福昌街32號","121.332646666667","24.9610766666667","6500800","鶯歌區"
"239008","527-UM","2019/10/01 17:29:23","新北市鶯歌區大湖路349號","121.338056666667","24.9719283333333","6500800","鶯歌區"
"239005","526-UM","2019/10/01 17:29:31","新北市鶯歌區福德一路20號","121.329866666667","24.9669733333333","6500800","鶯歌區"
"239001","417-VK","2019/10/01 17:29:26","新北市鶯歌區尖山路300-3號","121.340318333333","24.9440216666667","6500800","鶯歌區"
"239003","360-BY","2019/10/01 17:29:34","新北市鶯歌區德昌街152號","121.331598333333","24.9606133333333","6500800","鶯歌區"
"239002","359-BY","2019/10/01 17:29:32","新北市鶯歌區南雅路55號","121.348091666667","24.95408","6500800","鶯歌區"
"239004","193-VK","2019/10/01 17:29:36","新北市鶯歌區文化路224號","121.352636666667","24.9487383333333","6500800","鶯歌區"
"244019","KED-0667","2019/10/01 17:29:32","新北市林口區公園路126號","121.370948333333","25.0713633333333","6501700","林口區"
"233001","KEA-2870","2019/10/01 17:29:32","新北市烏來區信福路2巷2號","121.531521666667","24.8405516666667","6502900","烏來區"
"242046","281-VK","2019/10/01 17:29:25","新北市新莊區新樹路65-4號","121.439471666667","25.0309216666667","6500500","新莊區"
"235026","KEA-2876","2019/10/01 17:29:15","新北市中和區連城路222巷8弄2號","121.49075","24.998075","6500300","中和區"
