"lineid","car","time","location","longitude","latitude","cityid","cityname"
"234026","9371-KE","2019/10/01 17:39:24","新北市永和區豫溪街33號","121.516413333333","25.0098683333333","6500400","永和區"
"249005","172-UM","2019/10/01 17:39:33","新北市八里區荖阡坑路34-1號","121.402726666667","25.1298466666667","6502300","八里區"
"249001","173-UM","2019/10/01 17:39:23","新北市八里區龍米路二段189號","121.434186666667","25.1582683333333","6502300","八里區"
"249004","303-UY","2019/10/01 17:39:22","新北市八里區埤頭一街152號","121.41429","25.1580683333333","6502300","八里區"
"249002","305-UY","2019/10/01 17:39:28","新北市八里區石壁腳19號","121.441706666667","25.13536","6502300","八里區"
"249003","593-UM","2019/10/01 17:39:38","新北市八里區中山路二段270號","121.40505","25.1512183333333","6502300","八里區"
"232011","375-UM","2019/10/01 17:39:31","新北市坪林區北宜路八段153號","121.706968333333","24.9345416666667","6502000","坪林區"
"244007","080-UY","2019/10/01 17:39:28","新北市林口區文化一路二段313號","121.385861666667","25.08601","6501700","林口區"
"244013","KEA-2802","2019/10/01 17:39:19","新北市林口區中正路486號","121.382508333333","25.0773933333333","6501700","林口區"
"244023","483-VK","2019/10/01 17:39:24","新北市林口區東明一街121巷11號","121.39012","25.0702483333333","6501700","林口區"
"244017","485-VK","2019/10/01 17:39:37","新北市林口區仁愛路二段201-1號","121.377958333333","25.0747716666667","6501700","林口區"
"244009","656-BX","2019/10/01 17:39:28","新北市林口區民享路182號","121.382403333333","25.0839466666667","6501700","林口區"
"244011","701-TV","2019/10/01 17:39:26","新北市林口區佳林路253號","121.382948333333","25.0761283333333","6501700","林口區"
"244025","837-TS","2019/10/01 17:39:18","新北市林口區文化三路一段394巷8號","121.36617","25.07292","6501700","林口區"
"244021","838-TS","2019/10/01 17:39:21","新北市林口區仁愛路一段211巷56號","121.397091666667","25.0743033333333","6501700","林口區"
"222002","659-BX","2019/10/01 17:39:35","新北市深坑區深南路88巷1號","121.621298333333","25.0113333333333","6501800","深坑區"
"231046","719-UM","2019/10/01 17:13:40","新北市新店區直潭五街86號","121.531761666667","24.9406783333333","6500600","新店區"
"241015","062-VK","2019/10/01 17:39:28","新北市三重區三和路二段75號","121.500015","25.068015","6500200","三重區"
"241016","266-UM","2019/10/01 17:39:33","新北市三重區正義北路62號","121.497265","25.0640366666667","6500200","三重區"
"241030","KED-0822","2019/10/01 17:39:23","新北市三重區集美街162號","121.490001666667","25.0529616666667","6500200","三重區"
"241005","AAD-863","2019/10/01 17:39:28","新北市三重區永安北路二段43巷22號","121.483013333333","25.082765","6500200","三重區"
"241031","743-BX","2019/10/01 17:39:24","新北市八里區中山路三段321號","121.378221666667","25.1390066666667","6500200","三重區"
"241033","AAC-255","2019/10/01 17:39:38","新北市三重區興德路139號","121.469745","25.0529466666667","6500200","三重區"
"247016","KEA-2869","2019/10/01 17:39:29","新北市蘆洲區光華路46巷35號","121.467823333333","25.0841216666667","6501400","蘆洲區"
"247010","KED-0682","2019/10/01 17:39:27","新北市蘆洲區中山一路74巷55號","121.479831666667","25.081485","6501400","蘆洲區"
"235054","640-BX","2019/10/01 17:37:27","新北市中和區員山路36巷16-2號","121.485231666667","24.9916283333333","6500300","中和區"
"235064","911-UM","2019/10/01 17:39:31","新北市中和區員山路36巷16-3號","121.485146666667","24.9913183333333","6500300","中和區"
"247020","546-UM","2019/10/01 17:39:22","新北市蘆洲區民族路448號","121.472495","25.0919183333333","6501400","蘆洲區"
"247006","341-TH","2019/10/01 17:39:39","新北市蘆洲區長安街22巷31弄17號","121.464081666667","25.0804316666667","6501400","蘆洲區"
"247012","337-TH","2019/10/01 17:39:32","新北市蘆洲區民權路28號","121.476548333333","25.08604","6501400","蘆洲區"
"247004","336-TH","2019/10/01 17:39:34","新北市蘆洲區長安街233巷45-1號","121.457631666667","25.0820016666667","6501400","蘆洲區"
"247024","057-VK","2019/10/01 17:39:37","新北市蘆洲區光榮路95號","121.462676666667","25.0886166666667","6501400","蘆洲區"
"247014","056-VK","2019/10/01 17:39:23","新北市蘆洲區三民路5號","121.475863333333","25.0820416666667","6501400","蘆洲區"
"247018","053-VK","2019/10/01 17:39:38","新北市蘆洲區水湳街47號","121.472138333333","25.087395","6501400","蘆洲區"
"247022","007-UY","2019/10/01 17:39:37","新北市蘆洲區三民路277號","121.467868333333","25.0898083333333","6501400","蘆洲區"
"247008","002-UY","2019/10/01 17:39:34","新北市蘆洲區成功路1號","121.47393","25.0776283333333","6501400","蘆洲區"
"247002","001-UY","2019/10/01 17:39:32","新北市蘆洲區永平街32巷11弄23號","121.458018333333","25.09161","6501400","蘆洲區"
"228003","097-TW","2019/10/01 17:39:25","新北市貢寮區仁理村仁和路148號","121.923196666667","25.0517933333333","6502600","貢寮區"
"228002","663-BX","2019/10/01 17:39:21","新北市貢寮區福隆里龜壽谷街28號","121.952601666667","25.0103883333333","6502600","貢寮區"
"224010","AGQ-8101","2019/10/01 17:39:23","新北市瑞芳區岳王路48號","121.808275","25.1112216666667","6501200","瑞芳區"
"224006","676-BX","2019/10/01 17:39:26","新北市瑞芳區中山路308號","121.797093333333","25.10997","6501200","瑞芳區"
"224009","275-VK","2019/10/01 17:39:33","新北市瑞芳區崙頂路2-2號","121.846561666667","25.1070533333333","6501200","瑞芳區"
"224008","273-VK","2019/10/01 17:39:31","新北市瑞芳區九芎橋路198號","121.834115","25.1002283333333","6501200","瑞芳區"
"224005","271-BY","2019/10/01 17:39:27","新北市瑞芳區籠山路15-1號","121.831758333333","25.12412","6501200","瑞芳區"
"227002","642-TC","2019/10/01 17:22:44","新北市雙溪區共和里東榮街42號","121.866071666667","25.033705","6502500","雙溪區"
"227001","400-TW","2019/10/01 17:39:28","新北市雙溪區三貂里定福路1-2號","121.850783333333","25.06344","6502500","雙溪區"
"251009","008-UM","2019/10/01 17:39:30","新北市淡水區新生街30巷40號","121.439526666667","25.1731366666667","6501000","淡水區"
"251004","009-UM","2019/10/01 17:39:27","新北市淡水區中正東路二段145號","121.45925","25.1470416666667","6501000","淡水區"
"251005","010-UM","2019/10/01 17:39:37","新北市淡水區鄧公路33巷1號","121.451401666667","25.1711783333333","6501000","淡水區"
"251015","KEA-2871","2019/10/01 17:39:37","新北市淡水區樹林口168號","121.47659","25.1670233333333","6501000","淡水區"
"251016","179-VK","2019/10/01 17:39:24","新北市淡水區埤島39-15號","121.452716666667","25.195885","6501000","淡水區"
"251013","180-VK","2019/10/01 17:39:37","新北市淡水區演戲埔腳6-1號","121.472548333333","25.1933333333333","6501000","淡水區"
"251008","181-VK","2019/10/01 17:39:25","新北市淡水區大同路113巷6號","121.463455","25.1414333333333","6501000","淡水區"
"251010","413-VK","2019/10/01 17:39:36","新北市淡水區淡海路280巷21號","121.419773333333","25.1897866666667","6501000","淡水區"
"251012","441-VK","2019/10/01 17:39:24","新北市淡水區北新路180號","121.449178333333","25.1787666666667","6501000","淡水區"
"251007","442-VK","2019/10/01 17:39:25","新北市淡水區民生路124巷23號","121.464266666667","25.137545","6501000","淡水區"
"251006","561-UM","2019/10/01 17:39:23","新北市淡水區大信街32號","121.442055","25.1770666666667","6501000","淡水區"
"251014","577-R6","2019/10/01 17:39:34","新北市淡水區北勢子19-1號","121.48116","25.2266183333333","6501000","淡水區"
"251011","650-BX","2019/10/01 17:39:26","新北市淡水區坪頂路718號","121.48255","25.158505","6501000","淡水區"
"251002","672-BX","2019/10/01 17:39:29","新北市淡水區重建街永興巷11號","121.439365","25.1726966666667","6501000","淡水區"
"251003","766-UM","2019/10/01 17:39:38","新北市淡水區中山北路一段33號","121.44158","25.175335","6501000","淡水區"
"207003","550-UM","2019/10/01 17:39:36","新北市萬里區龜吼里石角路55號","121.685456666667","25.1925916666667","6502800","萬里區"
"207004","291-VK","2019/10/01 17:39:37","新北市萬里區中幅里中福路27號","121.679951666667","25.1669716666667","6502800","萬里區"
"252002","178-VK","2019/10/01 17:39:30","新北市三芝區智成街80號","121.505025","25.255745","6502100","三芝區"
"237013","252-BX","2019/10/01 17:39:34","新北市三峽區愛國路33-9號","121.374883333333","24.9330316666667","6500900","三峽區"
"237011","KEA-2596","2019/10/01 17:39:34","新北市三峽區大智路69號","121.360506666667","24.93577","6500900","三峽區"
"237010","706-TV","2019/10/01 17:39:34","新北市三峽區中山路229號","121.362926666667","24.9371116666667","6500900","三峽區"
"236038","271-VK","2019/10/01 17:39:26","新北市土城區城林路6巷80號","121.438463333333","24.9797433333333","6501300","土城區"
"252001","KED-0821","2019/10/01 17:39:31","新北市三芝區淡金路一段83號","121.502041666667","25.2588583333333","6502100","三芝區"
"242042","AAC-296","2019/10/01 17:39:35","新北市新莊區中正路512號","121.433046666667","25.0330016666667","6500500","新莊區"
"242061","986-R7","2019/10/01 17:39:38","新北市新莊區瓊林南路35-1號","121.435521666667","25.0165833333333","6500500","新莊區"
"242005","751-BX","2019/10/01 17:39:32","新北市新莊區自立街109號","121.455478333333","25.0455283333333","6500500","新莊區"
"242029","615-BX","2019/10/01 17:39:34","新北市新莊區復興路一段165號","121.450995","25.0434383333333","6500500","新莊區"
"242027","613-BX","2019/10/01 17:39:22","新北市新莊區福壽街77號","121.458156666667","25.0497983333333","6500500","新莊區"
"242058","612-BX","2019/10/01 17:39:27","新北市新莊區中正路587號","121.434308333333","25.0326583333333","6500500","新莊區"
"242048","566-BX","2019/10/01 17:39:24","新北市新莊區萬安街142號","121.420188333333","25.0212783333333","6500500","新莊區"
"242002","441-UM","2019/10/01 17:39:31","新北市新莊區新莊路317號","121.452811666667","25.0342566666667","6500500","新莊區"
"242007","440-UM","2019/10/01 17:39:37","新北市新莊區自信街48號","121.45495","25.0482133333333","6500500","新莊區"
"242044","415-TV","2019/10/01 17:39:36","新北市新莊區富國路15號","121.418405","25.0264283333333","6500500","新莊區"
"242013","413-TV","2019/10/01 17:39:39","新北市新莊區中誠街72號","121.450628333333","25.0478983333333","6500500","新莊區"
"242051","400-BY","2019/10/01 17:39:30","新北市新莊區西盛街193號","121.42812","25.0172766666667","6500500","新莊區"
"242025","362-BY","2019/10/01 17:39:24","新北市新莊區思源路157號","121.459708333333","25.0445716666667","6500500","新莊區"
"242023","353-BY","2019/10/01 17:39:22","新北市新莊區中港路137號","121.455075","25.040465","6500500","新莊區"
"242015","132-UY","2019/10/01 17:39:32","新北市新莊區新泰路255巷1號","121.445948333333","25.039675","6500500","新莊區"
"242039","135-UY","2019/10/01 17:39:36","新北市新莊區民安路322號","121.429021666667","25.0220316666667","6500500","新莊區"
"242056","172-VK","2019/10/01 17:39:26","新北市新莊區瓊林路13-3號","121.448733333333","25.0308883333333","6500500","新莊區"
"242017","173-VK","2019/10/01 17:39:33","新北市新莊區中和街19號","121.448205","25.0437233333333","6500500","新莊區"
"242032","175-VK","2019/10/01 17:39:29","新北市新莊區新泰路369巷19號","121.44291","25.0432483333333","6500500","新莊區"
"242021","KED-0687","2019/10/01 17:39:31","新北市新莊區中華路一段55號","121.451956666667","25.0388233333333","6500500","新莊區"
"242011","346-TH","2019/10/01 17:39:23","新北市新莊區中港路518號","121.451658333333","25.0519966666667","6500500","新莊區"
"242054","347-TH","2019/10/01 17:39:35","新北市新莊區新樹路701號","121.432206666667","25.0022566666667","6500500","新莊區"
"242037","348-TH","2019/10/01 17:39:29","新北市新莊區後港一路161號","121.431738333333","25.0280266666667","6500500","新莊區"
"242009","349-TH","2019/10/01 17:39:20","新北市新莊區昌明街14巷3弄1號","121.45733","25.05292","6500500","新莊區"
"242034","350-TH","2019/10/01 17:39:23","新北市新莊區新莊路476號","121.446865","25.03336","6500500","新莊區"
"242019","351-TH","2019/10/01 17:39:31","新北市新莊區中港路127號","121.455206666667","25.04011","6500500","新莊區"
"238015","755-BX","2019/10/01 17:39:27","新北市樹林區啟智街9-1號","121.421131666667","24.99392","6500700","樹林區"
"238023","601-UM","2019/10/01 17:39:41","新北市樹林區三福街114號","121.406231666667","25.01624","6500700","樹林區"
"238019","599-UM","2019/10/01 17:39:33","新北市樹林區八德街37-3號","121.419168333333","24.9831616666667","6500700","樹林區"
"238024","5061-A6","2019/10/01 17:39:37","新北市樹林區八德街369-1號","121.41621","24.9715766666667","6500700","樹林區"
"238018","KEA-2217","2019/10/01 17:39:24","新北市樹林區鎮前街61號","121.424895","24.9910316666667","6500700","樹林區"
"238022","KEA-2213","2019/10/01 17:39:37","新北市樹林區太元街36號","121.418171666667","24.9800016666667","6500700","樹林區"
"238021","KEA-2539","2019/10/01 17:39:32","新北市樹林區柑園街一段230號","121.39258","24.9563066666667","6500700","樹林區"
"238025","303-VK","2019/10/01 17:39:23","新北市樹林區保安街二段176-2號","121.41259","25.0098866666667","6500700","樹林區"
"238017","283-BY","2019/10/01 17:39:35","新北市樹林區三德街21號","121.413423333333","25.0130516666667","6500700","樹林區"
"238014","282-BY","2019/10/01 17:39:21","新北市樹林區保安街一段313巷27號","121.417035","24.9974133333333","6500700","樹林區"
"238020","268-VK","2019/10/01 17:39:37","新北市樹林區俊英街116巷29弄2號","121.428245","25.0064233333333","6500700","樹林區"
"238026","172-UY","2019/10/01 17:39:26","新北市樹林區新興街19巷36弄14號","121.402456666667","24.9730166666667","6500700","樹林區"
"238016","169-UY","2019/10/01 17:39:31","新北市樹林區復興路242號","121.418505","24.9892683333333","6500700","樹林區"
"239007","AAC-297","2019/10/01 17:39:19","新北市鶯歌區國光街66號","121.34129","24.9581533333333","6500800","鶯歌區"
"239006","891-R6","2019/10/01 17:39:36","新北市鶯歌區福安街7巷24弄52號","121.33472","24.9660333333333","6500800","鶯歌區"
"239008","527-UM","2019/10/01 17:39:23","新北市鶯歌區宏德司法新村143號","121.33393","24.978655","6500800","鶯歌區"
"239005","526-UM","2019/10/01 17:39:31","桃園市桃園區大仁路75號","121.323331666667","24.9716316666667","6500800","鶯歌區"
"239001","417-VK","2019/10/01 17:39:26","新北市鶯歌區高職西街20號","121.337748333333","24.9424933333333","6500800","鶯歌區"
"239003","360-BY","2019/10/01 17:39:34","新北市鶯歌區鶯桃路179號","121.337978333333","24.958365","6500800","鶯歌區"
"239002","359-BY","2019/10/01 17:39:32","新北市鶯歌區育才街27巷1號","121.349171666667","24.954915","6500800","鶯歌區"
"239004","193-VK","2019/10/01 17:39:36","新北市鶯歌區三鶯路29巷28號","121.354121666667","24.9397666666667","6500800","鶯歌區"
"244019","KED-0667","2019/10/01 17:39:32","新北市林口區文化一路一段83巷14弄92號","121.372765","25.07155","6501700","林口區"
"233001","KEA-2870","2019/10/01 17:39:32","新北市烏來區信福路87號","121.526203333333","24.8366383333333","6502900","烏來區"
"242046","281-VK","2019/10/01 17:39:25","新北市新莊區福營路132號","121.43572","25.0324716666667","6500500","新莊區"
"235062","KEA-2876","2019/10/01 17:39:15","新北市中和區中正路637巷48號","121.485481666667","24.9941533333333","6500300","中和區"
