"lineid","car","time","location","longitude","latitude","cityid","cityname"
"234046","148-BY","2019/10/01 18:09:21","新北市永和區福和路1號","121.526445","25.01006","6500400","永和區"
"234007","KED-0605","2019/10/01 18:09:24","新北市永和區環河西路二段219號","121.501151666667","25.010405","6500400","永和區"
"234026","9371-KE","2019/10/01 18:09:24","新北市永和區自由街33號","121.514308333333","25.0063333333333","6500400","永和區"
"234011","9373-KE","2019/10/01 17:45:45","新北市永和區福和路1號","121.525686666667","25.0093966666667","6500400","永和區"
"249005","172-UM","2019/10/01 18:09:25","新北市八里區荖阡坑路15-40號","121.401728333333","25.1398933333333","6502300","八里區"
"249001","173-UM","2019/10/01 18:09:23","新北市八里區龍米路二段11號","121.448645","25.1394233333333","6502300","八里區"
"249004","303-UY","2019/10/01 18:09:22","新北市八里區龍米路二段203-3號","121.432723333333","25.1583183333333","6502300","八里區"
"249002","305-UY","2019/10/01 18:09:28","新北市八里區龍米路一段386巷8號","121.452295","25.1317766666667","6502300","八里區"
"249003","593-UM","2019/10/01 18:09:18","新北市八里區松子腳4-3號","121.403015","25.1442566666667","6502300","八里區"
"248016","026-BX","2019/10/01 18:09:32","新北市五股區成泰路三段123號","121.44443","25.0908166666667","6501500","五股區"
"248006","077-UY","2019/10/01 18:09:21","新北市五股區中興路二段16號","121.46283","25.0746483333333","6501500","五股區"
"248008","KED-0815","2019/10/01 18:09:22","新北市五股區中興路二段182巷18-1號","121.456356666667","25.0815616666667","6501500","五股區"
"248020","KED-0813","2019/10/01 18:09:37","新北市五股區成泰路三段544-1號","121.454355","25.1023766666667","6501500","五股區"
"248014","261-SL","2019/10/01 18:09:22","新北市五股區成泰路一段189巷29號","121.433553333333","25.07637","6501500","五股區"
"248004","677-BX","2019/10/01 18:09:27","新北市五股區成泰路二段55號","121.437846666667","25.0834383333333","6501500","五股區"
"248002","678-BX","2019/10/01 18:09:28","新北市五股區中興路三段188號","121.444658333333","25.081185","6501500","五股區"
"248009","682-TV","2019/10/01 18:09:21","新北市五股區成泰路一段231-10號","121.435428333333","25.0776466666667","6501500","五股區"
"234077","969-R7","2019/10/01 18:09:34","新北市永和區福和路1號","121.526345","25.0095733333333","6500400","永和區"
"232011","375-UM","2019/10/01 18:09:31","新北市坪林區國中路1號","121.712643333333","24.9364733333333","6502000","坪林區"
"244007","080-UY","2019/10/01 18:09:28","新北市林口區林口路160號","121.387838333333","25.082355","6501700","林口區"
"244013","KEA-2802","2019/10/01 18:09:19","新北市林口區中山路130號","121.392208333333","25.07866","6501700","林口區"
"244023","483-VK","2019/10/01 18:09:24","新北市林口區東湖路120號","121.384728333333","25.0735","6501700","林口區"
"244017","485-VK","2019/10/01 18:09:37","新北市林口區忠孝路380號","121.369533333333","25.0712783333333","6501700","林口區"
"244009","656-BX","2019/10/01 18:09:28","新北市林口區佳林路97號","121.38594","25.0805333333333","6501700","林口區"
"244011","701-TV","2019/10/01 18:09:26","新北市林口區中正路30巷24號","121.396181666667","25.0781516666667","6501700","林口區"
"244025","837-TS","2019/10/01 18:09:18","新北市林口區八德路408號","121.35846","25.066015","6501700","林口區"
"244021","838-TS","2019/10/01 18:09:21","新北市林口區仁愛路一段145號","121.398786666667","25.07192","6501700","林口區"
"222003","436-BY","2019/10/01 18:09:22","新北市深坑區腳坑1號","121.611723333333","24.9967766666667","6501800","深坑區"
"222002","659-BX","2019/10/01 18:09:35","新北市深坑區文化街42號","121.619115","25.0017266666667","6501800","深坑區"
"231055","0291-UT","2019/10/01 18:09:27","新北市新店區安華路28-1號","121.519593333333","24.96069","6500600","新店區"
"231042","047-UY","2019/10/01 18:09:29","新北市新店區安一路一段1-1號","121.519815","24.961435","6500600","新店區"
"231060","106-UY","2019/10/01 18:09:25","新北市新店區安華路28-1號","121.519581666667","24.9608816666667","6500600","新店區"
"231062","256-BX","2019/10/01 18:09:30","新北市新店區安一路一段1-1號","121.519671666667","24.9611666666667","6500600","新店區"
"231064","278-BY","2019/10/01 18:09:40","新北市新店區安華路28-1號","121.51974","24.9610483333333","6500600","新店區"
"231050","AAD-862","2019/10/01 18:09:25","新北市新店區安華路28-1號","121.519926666667","24.9609383333333","6500600","新店區"
"231045","355-BY","2019/10/01 18:09:37","新北市新店區安華路28-1號","121.519231666667","24.960895","6500600","新店區"
"231058","3713-VJ","2019/10/01 18:09:20","新北市新店區安華路28-1號","121.51948","24.9606316666667","6500600","新店區"
"231056","4715-K9","2019/10/01 18:09:28","新北市新店區安康路一段116號","121.527116666667","24.9626483333333","6500600","新店區"
"231053","515-UM","2019/10/01 18:09:32","新北市新店區安一路一段1-1號","121.519255","24.9611133333333","6500600","新店區"
"231041","619-UM","2019/10/01 18:09:22","新北市新店區安華路28-1號","121.519768333333","24.9607","6500600","新店區"
"231048","KED-0819","2019/10/01 18:09:29","新北市新店區安一路一段1-1號","121.519826666667","24.9612383333333","6500600","新店區"
"231057","720-UM","2019/10/01 18:09:33","新北市新店區安一路一段1-1號","121.519288333333","24.9613283333333","6500600","新店區"
"231059","897-TW","2019/10/01 18:09:39","新北市新店區安華路28-1號","121.519666666667","24.96077","6500600","新店區"
"231043","899-TW","2019/10/01 18:09:29","新北市新店區安一路一段1-1號","121.519278333333","24.96109","6500600","新店區"
"231066","AKT-0513","2019/10/01 18:09:28","新北市新店區安華路28-1號","121.519588333333","24.960655","6500600","新店區"
"241013","270-UM","2019/10/01 18:09:23","新北市三重區仁愛街88號","121.49554","25.0739133333333","6500200","三重區"
"241014","543-UM","2019/10/01 18:09:23","新北市三重區三和路二段67號","121.500353333333","25.0680833333333","6500200","三重區"
"241023","545-UM","2019/10/01 18:09:33","新北市三重區忠孝路三段56-1號","121.48048","25.0652016666667","6500200","三重區"
"241001","547-UM","2019/10/01 18:09:22","新北市三重區仁愛街247號","121.493538333333","25.0780016666667","6500200","三重區"
"241033","AAC-255","2019/10/01 18:09:38","新北市三重區重新路五段561號","121.470435","25.0460283333333","6500200","三重區"
"235063","006-UY","2019/10/01 18:09:38","新北市中和區中正路637巷52弄1號","121.485475","24.9934766666667","6500300","中和區"
"235039","097-UM","2019/10/01 18:09:33","新北市中和區錦和路350-1號","121.490335","24.993585","6500300","中和區"
"235065","098-UM","2019/10/01 18:09:21","新北市中和區橋和路119號","121.49174","25.0058033333333","6500300","中和區"
"235040","150-BY","2019/10/01 18:09:30","新北市中和區錦和路350-1號","121.490123333333","24.9935633333333","6500300","中和區"
"235058","151-BY","2019/10/01 18:09:34","新北市中和區圓通路367巷61弄2號","121.49178","24.9833583333333","6500300","中和區"
"235055","183-VK","2019/10/01 18:09:24","新北市中和區中正路637巷60弄61號","121.485426666667","24.9932283333333","6500300","中和區"
"235038","185-VK","2019/10/01 18:09:21","新北市中和區景平路105號","121.516783333333","24.9919433333333","6500300","中和區"
"235072","301-VK","2019/10/01 18:09:38","新北市中和區中正路589巷3號","121.485865","24.99423","6500300","中和區"
"235043","352-BY","2019/10/01 18:09:31","新北市中和區錦和路350-1號","121.490226666667","24.993575","6500300","中和區"
"247016","KEA-2869","2019/10/01 18:09:28","新北市蘆洲區中正路185巷25弄1號","121.46671","25.0845133333333","6501400","蘆洲區"
"235050","4979-A6","2019/10/01 18:07:02","新北市中和區錦和路350-1號","121.49074","24.9936133333333","6500300","中和區"
"235070","558-UM","2019/10/01 18:09:29","新北市中和區圓通路162-4號","121.497368333333","24.995185","6500300","中和區"
"235060","KED-0823","2019/10/01 18:09:36","新北市中和區員山路119號","121.480998333333","24.9953383333333","6500300","中和區"
"235054","640-BX","2019/10/01 18:09:39","新北市中和區莒光路185號","121.472643333333","24.999095","6500300","中和區"
"235047","732-UM","2019/10/01 18:09:22","新北市中和區中正路271號","121.495826666667","24.99367","6500300","中和區"
"235057","801-TS","2019/10/01 18:09:31","新北市中和區民享街97巷10號","121.475196666667","24.9995633333333","6500300","中和區"
"235041","802-TS","2019/10/01 18:09:37","新北市中和區和城路一段271巷1號","121.485425","24.99169","6500300","中和區"
"235052","805-TS","2019/10/01 18:09:34","新北市中和區中正路19號","121.50284","24.9932033333333","6500300","中和區"
"235048","896-TW","2019/10/01 18:09:19","新北市中和區員山路36巷16-2號","121.48524","24.9915733333333","6500300","中和區"
"235064","911-UM","2019/10/01 18:09:31","新北市中和區中正路148號","121.499111666667","24.99379","6500300","中和區"
"235051","157-BY","2019/10/01 18:09:34","新北市中和區南山路287號","121.504301666667","24.9921983333333","6500300","中和區"
"235037","AAC-213","2019/10/01 18:09:37","新北市中和區景德街67號","121.516908333333","24.9914233333333","6500300","中和區"
"235059","AAC-215","2019/10/01 18:09:17","新北市中和區員山路36巷16-3號","121.484993333333","24.9912366666667","6500300","中和區"
"247006","341-TH","2019/10/01 18:09:39","新北市蘆洲區長安街23巷23號","121.463365","25.0783566666667","6501400","蘆洲區"
"247012","337-TH","2019/10/01 18:09:32","新北市蘆洲區復興路182號","121.47796","25.0885283333333","6501400","蘆洲區"
"247014","056-VK","2019/10/01 18:09:23","新北市蘆洲區三民路139號","121.471936666667","25.0865933333333","6501400","蘆洲區"
"226004","312-R5","2019/10/01 18:09:29","新北市平溪區白石里白石腳5號","121.721468333333","25.0214883333333","6502400","平溪區"
"228003","097-TW","2019/10/01 18:09:25","新北市貢寮區真理里美艷山街6-2號","121.928866666667","25.0607533333333","6502600","貢寮區"
"228001","212-TW","2019/10/01 18:09:39","新北市貢寮區真理里新港街26巷55弄2-1號","121.927365","25.05286","6502600","貢寮區"
"228002","663-BX","2019/10/01 18:09:21","新北市貢寮區福連里福連街1號","121.988276666667","25.016505","6502600","貢寮區"
"224006","676-BX","2019/10/01 18:09:25","新北市瑞芳區中山路52號","121.803258333333","25.1064183333333","6501200","瑞芳區"
"224002","639-TC","2019/10/01 18:09:33","新北市瑞芳區三爪子坑路66-2號","121.810658333333","25.105695","6501200","瑞芳區"
"224007","285-BY","2019/10/01 18:09:35","新北市瑞芳區四腳亭坑路2號","121.776323333333","25.108835","6501200","瑞芳區"
"224009","275-VK","2019/10/01 18:09:29","新北市瑞芳區金光路221號","121.851995","25.1067233333333","6501200","瑞芳區"
"224008","273-VK","2019/10/01 18:09:31","新北市瑞芳區員山子路23號","121.821383333333","25.103025","6501200","瑞芳區"
"224005","271-BY","2019/10/01 18:09:24","新北市瑞芳區建基路二段12-1號","121.815245","25.128635","6501200","瑞芳區"
"227002","642-TC","2019/10/01 18:09:37","新北市雙溪區共和里東榮街42號","121.866106666667","25.0337183333333","6502500","雙溪區"
"227001","400-TW","2019/10/01 18:09:28","新北市雙溪區三貂里定福路1-2號","121.850773333333","25.063435","6502500","雙溪區"
"253005","032-BX","2019/10/01 18:09:34","新北市石門區福安街13號","121.56862","25.2927533333333","6502200","石門區"
"253006","295-VK","2019/10/01 18:09:39","新北市石門區老梅路52巷25弄1號","121.546448333333","25.2880516666667","6502200","石門區"
"222001","KEA-2212","2019/10/01 18:09:21","新北市深坑區北深路二段186號","121.61407","25.0022016666667","6501800","深坑區"
"208002","KEA-2872","2019/10/01 18:09:28","新北市金山區三界壇路99巷14號","121.620423333333","25.227665","6502700","金山區"
"208003","665-BX","2019/10/01 18:09:26","新北市金山區磺港里磺港路8號","121.649666666667","25.23061","6502700","金山區"
"251009","008-UM","2019/10/01 18:09:30","新北市淡水區大仁街6巷19號","121.442866666667","25.1749516666667","6501000","淡水區"
"251004","009-UM","2019/10/01 18:09:27","新北市淡水區民權路187巷35號","121.461045","25.13358","6501000","淡水區"
"251005","010-UM","2019/10/01 18:09:37","新北市淡水區學府路123號","121.450481666667","25.1729816666667","6501000","淡水區"
"251015","KEA-2871","2019/10/01 18:09:37","新北市淡水區興福寮88巷1號","121.485275","25.1649266666667","6501000","淡水區"
"251016","179-VK","2019/10/01 18:09:38","新北市淡水區下圭柔山15號","121.453041666667","25.2021933333333","6501000","淡水區"
"251013","180-VK","2019/10/01 18:09:37","新北市淡水區竹圍子9-3號","121.476713333333","25.192545","6501000","淡水區"
"251008","181-VK","2019/10/01 18:09:25","新北市淡水區八勢一街32巷4號","121.461871666667","25.1558966666667","6501000","淡水區"
"251010","413-VK","2019/10/01 18:09:24","新北市淡水區淡海路88-2號","121.422885","25.1817966666667","6501000","淡水區"
"251012","441-VK","2019/10/01 18:09:24","新北市淡水區北新路三段50號","121.48467","25.1875366666667","6501000","淡水區"
"251001","559-UM","2019/10/01 18:09:29","新北市淡水區自立路8-6號","121.463168333333","25.1294883333333","6501000","淡水區"
"251006","561-UM","2019/10/01 18:09:23","新北市淡水區真理街3巷15-1號","121.437266666667","25.1755216666667","6501000","淡水區"
"251014","577-R6","2019/10/01 18:09:34","新北市淡水區南平15號","121.487925","25.2196816666667","6501000","淡水區"
"251011","650-BX","2019/10/01 18:09:26","新北市淡水區三空泉8-1號","121.475751666667","25.161145","6501000","淡水區"
"251002","672-BX","2019/10/01 18:09:29","新北市淡水區中正東路40-7號","121.45025","25.1650083333333","6501000","淡水區"
"251003","766-UM","2019/10/01 18:09:38","新北市淡水區大忠街89號","121.446485","25.1776216666667","6501000","淡水區"
"207003","550-UM","2019/10/01 18:09:36","新北市萬里區港東路野柳風景區攤販66號","121.6913","25.2058366666667","6502800","萬里區"
"207004","291-VK","2019/10/01 18:09:37","新北市萬里區中幅里中福路89號","121.676331666667","25.1710066666667","6502800","萬里區"
"252002","178-VK","2019/10/01 18:09:30","新北市三芝區中山路二段38號","121.502978333333","25.2551216666667","6502100","三芝區"
"252003","249-BX","2019/10/01 18:09:19","新北市三芝區埔頭里埔頭39-3號","121.499383333333","25.26101","6502100","三芝區"
"208001","170-UY","2019/10/01 18:09:32","新北市金山區磺港里磺港路110號","121.646355","25.2268033333333","6502700","金山區"
"237004","KEA-2597","2019/10/01 18:09:33","新北市三峽區大埔路150-2號","121.36503","24.8972233333333","6500900","三峽區"
"237007","153-BY","2019/10/01 18:09:32","新北市三峽區中正路二段319號","121.366008333333","24.9104116666667","6500900","三峽區"
"237009","210-TH","2019/10/01 18:09:23","新北市三峽區大仁路32號","121.365966666667","24.93767","6500900","三峽區"
"237013","252-BX","2019/10/01 18:09:34","新北市三峽區長泰街55號","121.377358333333","24.93285","6500900","三峽區"
"237012","275-BY","2019/10/01 18:09:39","新北市三峽區民生街19巷7弄32號","121.377186666667","24.935135","6500900","三峽區"
"237008","302-VK","2019/10/01 18:09:32","新北市三峽區白雞44-39號","121.377371666667","24.9102083333333","6500900","三峽區"
"237014","433-BY","2019/10/01 18:09:35","新北市三峽區復興路128號","121.372108333333","24.9379666666667","6500900","三峽區"
"237006","5529-G3","2019/10/01 18:09:33","新北市三峽區介壽路二段138巷1弄20號","121.396383333333","24.9337366666667","6500900","三峽區"
"237011","KEA-2596","2019/10/01 18:09:34","新北市三峽區大同路9號","121.377511666667","24.9289316666667","6500900","三峽區"
"237015","649-BX","2019/10/01 18:09:33","新北市三峽區紫新路36巷1號","121.422013333333","24.9222333333333","6500900","三峽區"
"237010","706-TV","2019/10/01 18:09:34","新北市三峽區民權街162號","121.368043333333","24.9305733333333","6500900","三峽區"
"237005","AKY-6261","2019/10/01 18:09:25","新北市三峽區文化路65巷8號","121.372055","24.9357633333333","6500900","三峽區"
"236042","KED-0685","2019/10/01 18:09:34","新北市土城區中華路一段227號","121.441936666667","24.9836083333333","6501300","土城區"
"233002","762-BX","2019/10/01 18:09:31","新北市烏來區新烏路五段16號","121.54233","24.88026","6502900","烏來區"
"236079","166-UM","2019/10/01 18:09:25","新北市土城區永安街41號","121.433003333333","24.9641016666667","6501300","土城區"
"236030","253-BX","2019/10/01 18:09:25","新北市土城區城林路6巷80號","121.438591666667","24.97965","6501300","土城區"
"236026","269-VK","2019/10/01 18:09:31","新北市土城區承天路1號","121.435811666667","24.9665366666667","6501300","土城區"
"236014","270-VK","2019/10/01 18:09:17","新北市土城區學府路2段81-1號","121.44841","24.9810316666667","6501300","土城區"
"236038","271-VK","2019/10/01 18:09:26","新北市土城區青雲路449號","121.458828333333","24.9748083333333","6501300","土城區"
"236070","KEA-2877","2019/10/01 18:09:21","新北市土城區石門路19號","121.459438333333","24.9670333333333","6501300","土城區"
"252001","KED-0821","2019/10/01 18:09:30","新北市三芝區中興街二段2號","121.498381666667","25.2566816666667","6502100","三芝區"
"236021","401-BY","2019/10/01 18:09:31","新北市土城區城林路6巷80號","121.438351666667","24.9796","6501300","土城區"
"236059","912-UM","2019/10/01 18:09:26","新北市土城區中央路四段56-1號","121.420338333333","24.9604916666667","6501300","土城區"
"236049","913-UM","2019/10/01 18:09:38","新北市土城區金城路二段26號","121.45028","24.978075","6501300","土城區"
"236063","915-UM","2019/10/01 18:09:27","新北市土城區中正路75號","121.44514","24.9757216666667","6501300","土城區"
"236055","AAC-216","2019/10/01 18:09:30","新北市土城區中華路二段82-1號","121.438803333333","24.9760683333333","6501300","土城區"
"242042","AAC-296","2019/10/01 18:09:34","新北市新莊區中正路692-8號","121.419891666667","25.02864","6500500","新莊區"
"242061","986-R7","2019/10/01 18:09:38","新北市新莊區新樹路254-1號","121.432846666667","25.016175","6500500","新莊區"
"242005","751-BX","2019/10/01 18:09:32","新北市新莊區思源路177巷35號","121.459136666667","25.04678","6500500","新莊區"
"242029","615-BX","2019/10/01 18:09:34","新北市新莊區中平路122號","121.444813333333","25.0464783333333","6500500","新莊區"
"242027","613-BX","2019/10/01 18:09:22","新北市新莊區思源路455號","121.459731666667","25.0534633333333","6500500","新莊區"
"242058","612-BX","2019/10/01 18:09:27","新北市新莊區中正路730-10號","121.414596666667","25.0234583333333","6500500","新莊區"
"242048","566-BX","2019/10/01 18:09:24","新北市新莊區萬安街51號","121.421495","25.0245483333333","6500500","新莊區"
"242002","441-UM","2019/10/01 18:09:39","新北市新莊區中正路145-19號","121.458196666667","25.0376316666667","6500500","新莊區"
"242007","440-UM","2019/10/01 18:09:28","新北市新莊區自信街67號","121.455465","25.0482583333333","6500500","新莊區"
"242044","415-TV","2019/10/01 18:09:36","新北市新莊區雙鳳路105號","121.414085","25.02787","6500500","新莊區"
"242013","413-TV","2019/10/01 18:09:39","新北市新莊區中和街125巷2號","121.44718","25.0486583333333","6500500","新莊區"
"242051","400-BY","2019/10/01 18:09:30","新北市新莊區龍安路500號","121.426686666667","25.0170633333333","6500500","新莊區"
"242025","362-BY","2019/10/01 18:09:24","新北市新莊區五工路70-1號","121.457751666667","25.06366","6500500","新莊區"
"242023","353-BY","2019/10/01 18:09:23","新北市新莊區福壽街57號","121.458241666667","25.0491166666667","6500500","新莊區"
"242015","132-UY","2019/10/01 18:09:32","新北市新莊區中平路87巷4號","121.444488333333","25.0458383333333","6500500","新莊區"
"242039","135-UY","2019/10/01 18:09:35","新北市新莊區民安西路24巷19號","121.426146666667","25.0207466666667","6500500","新莊區"
"242056","172-VK","2019/10/01 18:09:26","新北市新莊區豐年街55-8號","121.446495","25.030865","6500500","新莊區"
"242017","173-VK","2019/10/01 18:09:38","新北市新莊區永樂街170號","121.44858","25.0447033333333","6500500","新莊區"
"242032","175-VK","2019/10/01 18:09:29","新北市新莊區新泰路289巷46號","121.443478333333","25.0404533333333","6500500","新莊區"
"242021","KED-0687","2019/10/01 18:09:31","新北市新莊區建興街69號","121.44992","25.038025","6500500","新莊區"
"242011","346-TH","2019/10/01 18:09:23","新北市新莊區中港路中慶巷13號","121.450651666667","25.0537766666667","6500500","新莊區"
"242054","347-TH","2019/10/01 18:09:35","新北市新莊區西盛街395巷29弄13號","121.42863","25.0118583333333","6500500","新莊區"
"242037","348-TH","2019/10/01 18:09:28","新北市新莊區建福路11巷24號","121.426951666667","25.029675","6500500","新莊區"
"242009","349-TH","2019/10/01 18:09:18","新北市新莊區中華路二段260號","121.452643333333","25.0532","6500500","新莊區"
"242034","350-TH","2019/10/01 18:09:23","新北市新莊區福海街28號","121.445398333333","25.0341216666667","6500500","新莊區"
"242019","351-TH","2019/10/01 18:09:31","新北市新莊區明中街49巷15號","121.456766666667","25.0389316666667","6500500","新莊區"
"238015","755-BX","2019/10/01 18:09:27","新北市樹林區大安路493號","121.414521666667","24.9868916666667","6500700","樹林區"
"238023","601-UM","2019/10/01 18:09:21","新北市樹林區三福街85巷11號","121.407351666667","25.0154466666667","6500700","樹林區"
"238018","KEA-2217","2019/10/01 18:09:24","新北市樹林區保順街85號","121.42906","24.994535","6500700","樹林區"
"238022","KEA-2213","2019/10/01 18:09:37","新北市樹林區太平路150巷68號","121.417348333333","24.977465","6500700","樹林區"
"238021","KEA-2539","2019/10/01 18:09:32","新北市樹林區柑園街一段345號","121.390505","24.9564133333333","6500700","樹林區"
"238025","303-VK","2019/10/01 18:09:23","新北市樹林區三俊街70號","121.413296666667","25.0157","6500700","樹林區"
"238017","283-BY","2019/10/01 18:09:35","新北市樹林區中正路825號","121.409248333333","25.0172066666667","6500700","樹林區"
"238014","282-BY","2019/10/01 18:09:21","新北市樹林區千歲街61巷40弄19號","121.426181666667","24.99934","6500700","樹林區"
"238020","268-VK","2019/10/01 18:09:37","新北市樹林區俊興街286號","121.418671666667","25.01702","6500700","樹林區"
"238026","172-UY","2019/10/01 18:09:26","新北市樹林區育德街35號","121.391846666667","24.970315","6500700","樹林區"
"238016","169-UY","2019/10/01 18:09:31","新北市樹林區中山路一段276號","121.420778333333","24.9870483333333","6500700","樹林區"
"239007","AAC-297","2019/10/01 18:09:19","新北市鶯歌區尖山埔路237號","121.344543333333","24.950185","6500800","鶯歌區"
"239006","891-R6","2019/10/01 18:09:36","新北市鶯歌區鶯桃路417號","121.332795","24.9646283333333","6500800","鶯歌區"
"239008","527-UM","2019/10/01 18:09:23","新北市鶯歌區國際一路78號","121.335595","24.9779116666667","6500800","鶯歌區"
"239005","526-UM","2019/10/01 18:09:31","新北市鶯歌區永和街249號","121.33704","24.972245","6500800","鶯歌區"
"239001","417-VK","2019/10/01 18:09:26","新北市鶯歌區中正三路328號","121.327766666667","24.9350116666667","6500800","鶯歌區"
"239003","360-BY","2019/10/01 18:09:34","新北市鶯歌區永吉街7巷1號","121.336728333333","24.9585833333333","6500800","鶯歌區"
"239002","359-BY","2019/10/01 18:09:32","新北市鶯歌區國華路56號","121.342828333333","24.95512","6500800","鶯歌區"
"239004","193-VK","2019/10/01 18:09:36","新北市鶯歌區尖山路137巷1號","121.34698","24.9485266666667","6500800","鶯歌區"
"221008","489-VK","2019/10/01 18:09:24","新北市汐止區明峰街132號","121.629961666667","25.0708816666667","6501100","汐止區"
"221036","130-UY","2019/10/01 18:09:28","新北市汐止區大同路三段116號","121.672068333333","25.0767683333333","6501100","汐止區"
"221015","131-UY","2019/10/01 18:09:28","新北市汐止區長江街255巷6號","121.66364","25.079805","6501100","汐止區"
"244019","KED-0667","2019/10/01 18:09:32","新北市林口區文化一路一段100巷10弄1號","121.373881666667","25.07075","6501700","林口區"
"221010","269-BY","2019/10/01 18:09:24","新北市汐止區汐萬路二段245巷56號","121.645263333333","25.08757","6501100","汐止區"
"221012","278-VK","2019/10/01 18:09:22","新北市汐止區長興街二段50巷10號","121.674461666667","25.0811483333333","6501100","汐止區"
"221023","279-VK","2019/10/01 18:09:30","新北市汐止區民族五街52號","121.628678333333","25.07084","6501100","汐止區"
"221032","280-BY","2019/10/01 18:09:33","新北市汐止區橫科路73巷31號","121.61936","25.0511816666667","6501100","汐止區"
"221029","298-VK","2019/10/01 18:09:28","新北市汐止區樟樹二路251巷46號","121.640548333333","25.0670866666667","6501100","汐止區"
"221021","299-VK","2019/10/01 18:09:33","新北市汐止區新興路15號","121.656495","25.06475","6501100","汐止區"
"221031","353-TW","2019/10/01 18:09:37","新北市汐止區中興路175-3號","121.630645","25.0665533333333","6501100","汐止區"
"221035","622-UM","2019/10/01 18:09:38","新北市汐止區汐萬路一段118號","121.653808333333","25.0712583333333","6501100","汐止區"
"221025","623-UM","2019/10/01 18:09:37","新北市汐止區秀峰路139號","121.660256666667","25.0623733333333","6501100","汐止區"
"221038","646-BX","2019/10/01 18:09:29","新北市汐止區南興路83巷18號","121.653805","25.05897","6501100","汐止區"
"221033","647-BX","2019/10/01 18:09:28","新北市汐止區林森街7號","121.621271666667","25.040975","6501100","汐止區"
"221002","707-TV","2019/10/01 18:09:39","新北市汐止區福德一路208號","121.634626666667","25.0653383333333","6501100","汐止區"
"221018","753-BX","2019/10/01 18:09:37","新北市汐止區招商街19巷21號","121.667761666667","25.0684566666667","6501100","汐止區"
"233001","KEA-2870","2019/10/01 18:09:32","新北市烏來區新烏路五段121號","121.547663333333","24.8712616666667","6502900","烏來區"
"242046","281-VK","2019/10/01 18:09:25","新北市新莊區福營路184號","121.431265","25.0307983333333","6500500","新莊區"
"235068","KEA-2873","2019/10/01 18:09:23","新北市中和區員山路36巷16-3號","121.485088333333","24.991165","6500300","中和區"
"235061","KEA-2875","2019/10/01 18:09:19","新北市中和區國光街215巷24弄10號","121.466681666667","25.0000316666667","6500300","中和區"
