"lineid","car","time","location","longitude","latitude","cityid","cityname"
"234046","148-BY","2019/10/01 20:29:21","新北市永和區永元路118號","121.522743333333","25.00261","6500400","永和區"
"234013","207-UY","2019/10/01 20:29:19","新北市永和區保生路46號","121.505678333333","25.0085","6500400","永和區"
"234081","298-R6","2019/10/01 20:29:21","新北市永和區國中路146號","121.523075","25.006995","6500400","永和區"
"234038","336-UY","2019/10/01 20:29:21","新北市永和區成功路一段93巷18號","121.52778","25.0027083333333","6500400","永和區"
"234064","337-UY","2019/10/01 20:29:31","新北市永和區中正路446號","121.51747","25.0028733333333","6500400","永和區"
"234086","338-UY","2019/10/01 20:29:35","新北市永和區永和路二段297號","121.5161","25.0160266666667","6500400","永和區"
"234070","552-UM","2019/10/01 20:29:16","新北市永和區永寧街97號","121.518616666667","25.006655","6500400","永和區"
"234017","745-BX","2019/10/01 20:29:32","新北市永和區仁愛路33號","121.514271666667","25.0133616666667","6500400","永和區"
"234030","746-BX","2019/10/01 20:29:25","新北市中和區自強路19號","121.520411666667","24.9932366666667","6500400","永和區"
"234054","KEA-2590","2019/10/01 20:29:32","新北市永和區光復街2巷18號","121.517076666667","25.0165183333333","6500400","永和區"
"234007","KED-0605","2019/10/01 20:29:24","新北市永和區環河西路二段219號","121.501371666667","25.01017","6500400","永和區"
"234013","KEA-2591","2019/10/01 20:29:26","新北市永和區保生路62號","121.505223333333","25.0088233333333","6500400","永和區"
"234061","AAD-866","2019/10/01 20:29:17","新北市永和區得和路29號","121.515875","25.0002666666667","6500400","永和區"
"234040","862-TW","2019/10/01 20:29:13","新北市永和區安樂路250號","121.514628333333","25.0035433333333","6500400","永和區"
"234050","863-TW","2019/10/01 20:29:35","新北市永和區環河西路二段9號","121.508771666667","25.0166466666667","6500400","永和區"
"249005","172-UM","2019/10/01 20:29:24","新北市八里區中山路三段291號","121.37934","25.137945","6502300","八里區"
"249001","173-UM","2019/10/01 20:29:23","新北市八里區商港路30號","121.396683333333","25.14506","6502300","八里區"
"249004","303-UY","2019/10/01 20:29:22","新北市八里區中山路一段129巷29號","121.414043333333","25.1585616666667","6502300","八里區"
"249002","305-UY","2019/10/01 20:29:28","新北市八里區龍米路二段32巷18號","121.44901","25.1408533333333","6502300","八里區"
"249003","593-UM","2019/10/01 20:29:33","新北市八里區舊城路21號","121.399688333333","25.1468383333333","6502300","八里區"
"248002","678-BX","2019/10/01 20:29:28","新北市五股區成泰路三段46號","121.442558333333","25.0890083333333","6501500","五股區"
"248010","682-TV","2019/10/01 20:29:21","新北市五股區成泰路一段32巷45號","121.43517","25.0668566666667","6501500","五股區"
"234023","9380-KE","2019/10/01 20:29:27","新北市永和區復興街62號","121.516736666667","25.01324","6500400","永和區"
"234077","969-R7","2019/10/01 20:29:34","新北市永和區中正路98號","121.514191666667","24.9955566666667","6500400","永和區"
"234074","AAC-211","2019/10/01 20:29:26","新北市永和區豫溪街193-3號","121.522753333333","25.0100666666667","6500400","永和區"
"234067","AAC-212","2019/10/01 20:29:30","新北市永和區中山路一段281巷2弄1號","121.507293333333","25.00653","6500400","永和區"
"234003","AAC-295","2019/10/01 20:29:27","新北市永和區中正路638號","121.516916666667","25.0082166666667","6500400","永和區"
"244021","838-TS","2019/10/01 20:29:21","新北市林口區粉寮路二段160巷28號","121.40521","25.0907383333333","6501700","林口區"
"243012","AAD-798","2019/10/01 20:29:19","新北市泰山區仁愛路100巷58號","121.433865","25.0544016666667","6501600","泰山區"
"243010","297-R6","2019/10/01 20:29:27","新北市泰山區中華街35號","121.427266666667","25.0515716666667","6501600","泰山區"
"243014","KEA-2801","2019/10/01 20:29:22","新北市泰山區明志路一段195號","121.432845","25.06168","6501600","泰山區"
"243011","KEA-2216","2019/10/01 20:29:30","新北市泰山區壽山路160巷4號","121.417008333333","25.0310383333333","6501600","泰山區"
"243013","646-TV","2019/10/01 20:29:33","新北市泰山區新民路40號","121.42725","25.0443533333333","6501600","泰山區"
"243015","680-BX","2019/10/01 20:29:21","新北市泰山區明志路一段350號","121.430886666667","25.058375","6501600","泰山區"
"222002","016-RS","2019/10/01 20:29:33","新北市深坑區萬福路75巷46號","121.598323333333","25.0097883333333","6501800","深坑區"
"222003","436-BY","2019/10/01 20:29:22","新北市深坑區深坑街27號","121.615986666667","25.0022916666667","6501800","深坑區"
"231061","002-UM","2019/10/01 20:29:19","新北市新店區安興路33-1號","121.515806666667","24.97043","6500600","新店區"
"231055","0291-UT","2019/10/01 20:29:27","新北市新店區力行路5號","121.53938","24.9645966666667","6500600","新店區"
"231042","047-UY","2019/10/01 20:29:29","新北市新店區中興路二段226號","121.547975","24.97515","6500600","新店區"
"231060","106-UY","2019/10/01 20:29:25","新北市新店區錦秀路11巷6號","121.480721666667","24.9445483333333","6500600","新店區"
"231051","107-UY","2019/10/01 20:29:32","新北市新店區中央七街58號","121.528073333333","24.9762016666667","6500600","新店區"
"231049","108-UY","2019/10/01 20:29:24","新北市新店區北新路二段97巷12號","121.54218","24.9743083333333","6500600","新店區"
"231065","110-UY","2019/10/01 20:29:22","新北市新店區安祥路102巷42弄59號","121.485978333333","24.9633","6500600","新店區"
"231068","187-VK","2019/10/01 20:29:30","新北市新店區民權路13號","121.542323333333","24.9828133333333","6500600","新店區"
"231062","256-BX","2019/10/01 20:29:30","新北市新店區安泰路60巷1號","121.484083333333","24.946765","6500600","新店區"
"231054","260-TV","2019/10/01 20:29:31","新北市新店區檳榔路113號","121.544458333333","24.961465","6500600","新店區"
"231064","278-BY","2019/10/01 20:29:20","新北市新店區新和街59巷17號","121.51927","24.98598","6500600","新店區"
"231050","AAD-862","2019/10/01 20:29:25","新北市新店區建國路58號","121.54082","24.97561","6500600","新店區"
"231045","355-BY","2019/10/01 20:29:18","新北市新店區新坡一街72號","121.549026666667","24.96458","6500600","新店區"
"231058","3713-VJ","2019/10/01 20:29:20","新北市新店區安和路三段2-2號","121.517945","24.979905","6500600","新店區"
"231056","4715-K9","2019/10/01 20:29:28","新北市新店區民族路192號","121.536085","24.9753433333333","6500600","新店區"
"231053","515-UM","2019/10/01 20:29:32","新北市新店區松林路36號","121.546215","24.9102433333333","6500600","新店區"
"231040","617-UM","2019/10/01 20:29:16","新北市新店區三民路38號","121.536268333333","24.971435","6500600","新店區"
"231044","618-UM","2019/10/01 20:29:16","新北市新店區民族路6-1號","121.541926666667","24.9789333333333","6500600","新店區"
"231041","619-UM","2019/10/01 20:29:22","新北市新店區中正路501-2號","121.533678333333","24.9836783333333","6500600","新店區"
"231063","641-BX","2019/10/01 20:29:21","新北市新店區薏仁坑路自強巷6號","121.496976666667","24.9585683333333","6500600","新店區"
"231048","KED-0819","2019/10/01 20:29:29","新北市新店區寶橋路80號","121.5461","24.975515","6500600","新店區"
"231057","720-UM","2019/10/01 20:29:33","新北市新店區花園十二路6號","121.555226666667","24.9337783333333","6500600","新店區"
"231059","897-TW","2019/10/01 20:29:19","新北市新店區安成街38號","121.509973333333","24.9613216666667","6500600","新店區"
"231043","899-TW","2019/10/01 20:29:29","新北市新店區建國路92號","121.540333333333","24.9773616666667","6500600","新店區"
"231066","AKT-0513","2019/10/01 20:29:27","新北市新店區柴埕路60巷2-1號","121.509513333333","24.9645183333333","6500600","新店區"
"241028","022-UY","2019/10/01 20:29:25","新北市三重區大同南路143-2號","121.496578333333","25.0574","6500200","三重區"
"241008","059-VK","2019/10/01 20:29:29","新北市三重區永福街179巷28號","121.47803","25.0747616666667","6500200","三重區"
"241006","262-UM","2019/10/01 20:29:16","新北市三重區力行路二段76巷25號","121.480718333333","25.0736366666667","6500200","三重區"
"241016","266-UM","2019/10/01 20:29:13","新北市三重區大同北路54巷1號","121.494281666667","25.063565","6500200","三重區"
"241009","267-UM","2019/10/01 20:29:22","新北市三重區三和路四段197號","121.482031666667","25.0792266666667","6500200","三重區"
"241032","269-UM","2019/10/01 20:29:24","新北市三重區重陽路一段26巷33號","121.485435","25.057305","6500200","三重區"
"241013","270-UM","2019/10/01 20:29:23","新北市三重區三和路三段151巷37號","121.49361","25.074215","6500200","三重區"
"241025","271-UM","2019/10/01 20:29:24","新北市三重區頂崁街210巷23弄1號","121.475845","25.06807","6500200","三重區"
"241035","KEA-2210","2019/10/01 20:29:21","新北市三重區重新路二段9號","121.498953333333","25.062635","6500200","三重區"
"241011","462-BY","2019/10/01 20:29:15","新北市三重區三和路二段228號","121.49749","25.0696716666667","6500200","三重區"
"241004","475-VK","2019/10/01 20:29:33","新北市三重區仁愛街453號","121.490146666667","25.0815983333333","6500200","三重區"
"241014","543-UM","2019/10/01 20:29:23","新北市三重區長壽街120巷43號","121.502088333333","25.0696","6500200","三重區"
"241023","545-UM","2019/10/01 20:29:29","新北市三重區忠孝路三段84巷16號","121.480486666667","25.0648333333333","6500200","三重區"
"241001","547-UM","2019/10/01 20:29:28","新北市三重區自強路三段110巷21號","121.486165","25.0745616666667","6500200","三重區"
"241031","743-BX","2019/10/01 20:29:24","新北市三重區重新路四段184巷16號","121.487095","25.0548916666667","6500200","三重區"
"241029","942-UM","2019/10/01 20:29:19","新北市三重區光明路45號","121.491546666667","25.058075","6500200","三重區"
"241033","AAC-255","2019/10/01 20:29:18","新北市三重區五谷王北街77號","121.475753333333","25.050165","6500200","三重區"
"235066","003-UY","2019/10/01 20:29:30","新北市中和區南工路60號","121.50626","25.0018416666667","6500300","中和區"
"235063","006-UY","2019/10/01 20:29:18","新北市中和區連城路263巷23號","121.492645","24.9947766666667","6500300","中和區"
"235065","098-UM","2019/10/01 20:29:21","新北市中和區永和路128巷47號","121.497706666667","25.0068316666667","6500300","中和區"
"235055","183-VK","2019/10/01 20:29:24","新北市林口區太平里180號","121.366548333333","25.134405","6500300","中和區"
"235067","255-BX","2019/10/01 20:29:27","新北市中和區員山路148巷23弄6號","121.48224","24.9975033333333","6500300","中和區"
"247016","KEA-2869","2019/10/01 20:29:34","新北市蘆洲區光華路162巷8弄8號","121.46536","25.0827966666667","6501400","蘆洲區"
"247010","KED-0682","2019/10/01 20:29:34","新北市蘆洲區信義路222巷57號","121.481046666667","25.0854633333333","6501400","蘆洲區"
"235069","4980-A6","2019/10/01 20:29:15","新北市中和區圓通路198巷2弄3號","121.496208333333","24.9947016666667","6500300","中和區"
"235046","551-UM","2019/10/01 20:29:28","新北市中和區忠孝街31巷43號","121.509751666667","24.9852116666667","6500300","中和區"
"235047","732-UM","2019/10/01 20:29:22","新北市中和區興南路一段86號","121.509808333333","24.9894633333333","6500300","中和區"
"235037","AAC-213","2019/10/01 20:29:17","新北市中和區自立路99巷22弄7號","121.523308333333","24.9941633333333","6500300","中和區"
"235059","AAC-215","2019/10/01 20:29:17","新北市中和區圓通路268-2號","121.492428333333","24.9908083333333","6500300","中和區"
"220065","072-UY","2019/10/01 20:29:23","新北市板橋區區運路16號","121.46522","25.009265","6500100","板橋區"
"247020","546-UM","2019/10/01 20:29:31","新北市蘆洲區仁愛街138號","121.468836666667","25.0943866666667","6501400","蘆洲區"
"247006","341-TH","2019/10/01 20:29:31","新北市蘆洲區九芎街167巷10號","121.465068333333","25.0784833333333","6501400","蘆洲區"
"247012","337-TH","2019/10/01 20:29:32","新北市蘆洲區民族路234號","121.479353333333","25.0882866666667","6501400","蘆洲區"
"247004","336-TH","2019/10/01 20:29:24","新北市蘆洲區永康街1巷23號","121.4599","25.0853566666667","6501400","蘆洲區"
"247024","057-VK","2019/10/01 20:29:17","新北市蘆洲區長興路50巷16號","121.464843333333","25.0846166666667","6501400","蘆洲區"
"247014","056-VK","2019/10/01 20:29:23","新北市蘆洲區成功路62號","121.472588333333","25.0805116666667","6501400","蘆洲區"
"247018","053-VK","2019/10/01 20:29:21","新北市蘆洲區民族路327巷112弄1號","121.475206666667","25.0898083333333","6501400","蘆洲區"
"247022","007-UY","2019/10/01 20:29:25","新北市蘆洲區三民路229號","121.469573333333","25.0884866666667","6501400","蘆洲區"
"247008","002-UY","2019/10/01 20:29:26","新北市蘆洲區集賢路221巷14號","121.483116666667","25.0859833333333","6501400","蘆洲區"
"247002","001-UY","2019/10/01 20:29:21","新北市蘆洲區長安街347巷16號","121.456303333333","25.0870316666667","6501400","蘆洲區"
"235049","251-BX","2019/10/01 20:29:29","新北市中和區中正路60號","121.501538333333","24.99369","6500300","中和區"
"224002","639-TC","2019/10/01 20:29:33","新北市瑞芳區蛇子形路7號","121.825991666667","25.10495","6501200","瑞芳區"
"222001","KEA-2212","2019/10/01 20:29:21","新北市深坑區北深路三段329號","121.597256666667","25.0049783333333","6501800","深坑區"
"208003","665-BX","2019/10/01 20:29:26","新北市金山區永興里跳石4號","121.633446666667","25.255695","6502700","金山區"
"251015","KEA-2871","2019/10/01 20:29:16","新北市淡水區埤島3-20號","121.447038333333","25.1913766666667","6501000","淡水區"
"251016","179-VK","2019/10/01 20:29:24","新北市淡水區新埔子11-11號","121.447058333333","25.228675","6501000","淡水區"
"251013","180-VK","2019/10/01 20:29:37","新北市淡水區奎柔山路413號","121.463623333333","25.20479","6501000","淡水區"
"251008","181-VK","2019/10/01 20:29:24","新北市淡水區淡海路184巷20號","121.421141666667","25.1850833333333","6501000","淡水區"
"251010","413-VK","2019/10/01 20:29:24","新北市淡水區沙崙路218號","121.425121666667","25.184285","6501000","淡水區"
"251012","441-VK","2019/10/01 20:29:24","新北市淡水區淡金路三段306號","121.449048333333","25.2079766666667","6501000","淡水區"
"251001","559-UM","2019/10/01 20:29:29","新北市淡水區中山北路二段383號","121.444145","25.1876733333333","6501000","淡水區"
"251006","561-UM","2019/10/01 20:29:23","新北市淡水區北投子86-5號","121.468366666667","25.182965","6501000","淡水區"
"251014","577-R6","2019/10/01 20:29:33","新北市淡水區石頭厝14-31號","121.464815","25.236855","6501000","淡水區"
"251002","672-BX","2019/10/01 20:29:28","新北市淡水區中正路65號","121.4412","25.1695933333333","6501000","淡水區"
"251003","766-UM","2019/10/01 20:29:18","新北市淡水區新生街29號","121.439468333333","25.1750616666667","6501000","淡水區"
"207003","550-UM","2019/10/01 20:29:16","新北市萬里區大鵬里萬里加投19-10號","121.649633333333","25.209815","6502800","萬里區"
"207004","291-VK","2019/10/01 20:29:36","新北市萬里區北基里忠四街19號","121.684471666667","25.175965","6502800","萬里區"
"252002","178-VK","2019/10/01 20:29:30","新北市三芝區淡金路二段18-1號","121.502693333333","25.2594983333333","6502100","三芝區"
"252001","292-VK","2019/10/01 20:29:30","新北市三芝區中山路一段31號","121.500555","25.257995","6502100","三芝區"
"237007","153-BY","2019/10/01 20:29:32","新北市三峽區二鬮路136巷20弄59號","121.357673333333","24.9099366666667","6500900","三峽區"
"237012","275-BY","2019/10/01 20:29:19","新北市三峽區中華路72巷5號","121.371081666667","24.9297566666667","6500900","三峽區"
"237014","433-BY","2019/10/01 20:29:14","新北市三峽區嘉添185-1號","121.370021666667","24.9120033333333","6500900","三峽區"
"237006","5529-G3","2019/10/01 20:29:33","新北市三峽區嘉添225-1號","121.370033333333","24.9101333333333","6500900","三峽區"
"237011","KEA-2596","2019/10/01 20:29:33","新北市三峽區中正路一段328-1號","121.371328333333","24.9249333333333","6500900","三峽區"
"237015","649-BX","2019/10/01 20:29:33","新北市三峽區介壽路二段138巷45-2號","121.395183333333","24.933035","6500900","三峽區"
"237010","706-TV","2019/10/01 20:29:34","新北市三峽區民生街60號","121.375183333333","24.9362333333333","6500900","三峽區"
"236042","KED-0685","2019/10/01 20:29:33","新北市土城區金城路二段245巷36-1號","121.455685","24.9831033333333","6501300","土城區"
"236030","253-BX","2019/10/01 20:29:25","新北市土城區中央路一段45巷2弄1號","121.448545","24.9902283333333","6501300","土城區"
"236026","269-VK","2019/10/01 20:29:31","新北市土城區員林街24-1號","121.443821666667","24.977445","6501300","土城區"
"236014","270-VK","2019/10/01 20:29:37","新北市土城區德興街115號","121.454583333333","24.992135","6501300","土城區"
"236038","271-VK","2019/10/01 20:29:06","新北市土城區國際路108號","121.467391666667","24.9757033333333","6501300","土城區"
"247002","KED-0683","2019/10/01 20:29:22","新北市蘆洲區永康街30號","121.458588333333","25.085535","6501400","蘆洲區"
"236070","KEA-2877","2019/10/01 20:29:21","新北市土城區福安街100-8號","121.417393333333","24.9644733333333","6501300","土城區"
"236021","401-BY","2019/10/01 20:29:30","新北市土城區延吉街60號","121.471421666667","24.9868433333333","6501300","土城區"
"236063","915-UM","2019/10/01 20:29:27","新北市土城區金城路三段163巷16號","121.468956666667","24.9891633333333","6501300","土城區"
"236055","AAC-216","2019/10/01 20:29:30","新北市土城區延和路15號","121.464071666667","24.988095","6501300","土城區"
"242042","AAC-296","2019/10/01 20:29:34","新北市新莊區壽山路55-3號","121.412341666667","25.0315766666667","6500500","新莊區"
"242061","986-R7","2019/10/01 20:29:32","新北市新莊區新樹路168號","121.434888333333","25.02226","6500500","新莊區"
"242005","751-BX","2019/10/01 20:29:32","新北市新莊區頭前路2巷36號","121.468113333333","25.0541","6500500","新莊區"
"242029","615-BX","2019/10/01 20:29:14","新北市新莊區中原路263號","121.448398333333","25.05441","6500500","新莊區"
"242027","613-BX","2019/10/01 20:29:15","新北市新莊區幸福路706號","121.44986","25.0492433333333","6500500","新莊區"
"242058","612-BX","2019/10/01 20:29:27","新北市新莊區八德街99號","121.424325","25.02129","6500500","新莊區"
"242048","566-BX","2019/10/01 20:29:31","新北市新莊區四維路182巷8號","121.421903333333","25.021835","6500500","新莊區"
"242002","441-UM","2019/10/01 20:29:30","新北市新莊區中正路48號","121.464","25.041135","6500500","新莊區"
"242007","440-UM","2019/10/01 20:29:28","新北市新莊區福壽街94巷19弄12號","121.459323333333","25.050575","6500500","新莊區"
"242044","415-TV","2019/10/01 20:29:31","新北市新莊區中正路新建巷28弄14號","121.413826666667","25.02154","6500500","新莊區"
"242013","413-TV","2019/10/01 20:29:36","新北市新莊區中和街186巷23號","121.448473333333","25.0498733333333","6500500","新莊區"
"242051","400-BY","2019/10/01 20:29:30","新北市新莊區民安西路212巷3弄18號","121.425218333333","25.0141616666667","6500500","新莊區"
"242025","362-BY","2019/10/01 20:29:24","新北市新莊區五權一路12巷25弄1號","121.457988333333","25.0640783333333","6500500","新莊區"
"242023","353-BY","2019/10/01 20:29:26","新北市新莊區化成路752-1號","121.46547","25.0579716666667","6500500","新莊區"
"242015","132-UY","2019/10/01 20:29:32","新北市新莊區中平路32號","121.444825","25.0435083333333","6500500","新莊區"
"242039","135-UY","2019/10/01 20:29:35","新北市新莊區龍安路437號","121.424106666667","25.0186566666667","6500500","新莊區"
"242056","172-VK","2019/10/01 20:29:26","新北市新莊區新莊路649巷15弄1號","121.445041666667","25.03145","6500500","新莊區"
"242017","173-VK","2019/10/01 20:29:33","新北市新莊區中港一街45號","121.450665","25.045485","6500500","新莊區"
"242032","175-VK","2019/10/01 20:29:29","新北市新莊區公園一路38號","121.443365","25.0354916666667","6500500","新莊區"
"242021","KED-0687","2019/10/01 20:29:31","新北市新莊區和興街37-4號","121.447076666667","25.0397583333333","6500500","新莊區"
"242011","346-TH","2019/10/01 20:29:23","新北市新莊區幸福路678巷3弄3號","121.450351666667","25.0498716666667","6500500","新莊區"
"242054","347-TH","2019/10/01 20:29:15","新北市新莊區民安西路261巷18號","121.426848333333","25.01308","6500500","新莊區"
"242009","349-TH","2019/10/01 20:29:31","新北市新莊區昌盛街67號","121.454898333333","25.05003","6500500","新莊區"
"242034","350-TH","2019/10/01 20:29:33","新北市新莊區中正路318巷18號","121.446451666667","25.0360316666667","6500500","新莊區"
"242019","351-TH","2019/10/01 20:29:31","新北市新莊區銘德街25號","121.458676666667","25.043695","6500500","新莊區"
"239007","AAC-297","2019/10/01 20:29:19","新北市鶯歌區大湖路326巷2弄1號","121.345828333333","24.97036","6500800","鶯歌區"
"239006","891-R6","2019/10/01 20:29:36","新北市鶯歌區永昌街17號","121.342878333333","24.9497733333333","6500800","鶯歌區"
"239001","417-VK","2019/10/01 20:29:26","新北市鶯歌區尖山埔路114號","121.344333333333","24.95023","6500800","鶯歌區"
"239002","359-BY","2019/10/01 20:29:32","新北市鶯歌區中山路162號","121.349386666667","24.9570283333333","6500800","鶯歌區"
"221008","489-VK","2019/10/01 20:29:24","台北市內湖區康樂街219號","121.62206","25.07641","6501100","汐止區"
"221036","130-UY","2019/10/01 20:29:16","新北市汐止區福安街57巷2號","121.663868333333","25.0637833333333","6501100","汐止區"
"221010","269-BY","2019/10/01 20:29:23","新北市汐止區八連路一段530巷11號","121.637991666667","25.0937283333333","6501100","汐止區"
"221012","278-VK","2019/10/01 20:29:21","新北市汐止區汐平路一段182號","121.690873333333","25.0663783333333","6501100","汐止區"
"221023","279-VK","2019/10/01 20:29:30","新北市汐止區明峰街201號","121.62814","25.0695716666667","6501100","汐止區"
"221032","280-BY","2019/10/01 20:29:26","新北市汐止區民權街二段46號","121.619406666667","25.04917","6501100","汐止區"
"221027","281-BY","2019/10/01 20:29:31","新北市汐止區中正路251號","121.657363333333","25.0684166666667","6501100","汐止區"
"221029","298-VK","2019/10/01 20:29:28","新北市汐止區樟樹二路101-1號","121.63968","25.0631383333333","6501100","汐止區"
"221021","299-VK","2019/10/01 20:29:19","新北市汐止區水源路一段257號","121.654171666667","25.0596583333333","6501100","汐止區"
"221031","353-TW","2019/10/01 20:29:16","新北市汐止區中興路150巷13號","121.633003333333","25.064985","6501100","汐止區"
"221015","567-BX","2019/10/01 20:29:32","新北市汐止區建成路156號","121.661825","25.0734133333333","6501100","汐止區"
"221035","622-UM","2019/10/01 20:29:22","新北市汐止區長江街79巷4號","121.657356666667","25.0725716666667","6501100","汐止區"
"221025","623-UM","2019/10/01 20:29:16","新北市汐止區水源路二段90號","121.656515","25.0560133333333","6501100","汐止區"
"221038","646-BX","2019/10/01 20:29:33","新北市汐止區秀峰路57號","121.659858333333","25.0651533333333","6501100","汐止區"
"221033","647-BX","2019/10/01 20:29:28","新北市汐止區林森街132巷6弄19號","121.624211666667","25.0406233333333","6501100","汐止區"
"221002","707-TV","2019/10/01 20:29:32","新北市汐止區福德二路28號","121.634736666667","25.067645","6501100","汐止區"
"221018","753-BX","2019/10/01 20:28:37","新北市汐止區茄苳路225巷11弄2號","121.671436666667","25.06936","6501100","汐止區"
"220021","256-TC","2019/10/01 20:29:22","新北市板橋區忠孝路201巷1-1號","121.465033333333","25.0027666666667","6500100","板橋區"
"220083","286-VK","2019/10/01 20:29:34","新北市板橋區僑中二街90巷5號","121.446071666667","25.0091333333333","6500100","板橋區"
"220081","287-VK","2019/10/01 20:29:23","新北市板橋區僑中一街124巷18弄45號","121.44805","25.0136683333333","6500100","板橋區"
"242046","281-VK","2019/10/01 20:29:24","新北市新莊區裕民街132號","121.417868333333","25.0221033333333","6500500","新莊區"
"220055","461-BY","2019/10/01 20:29:30","新北市板橋區金華街10巷96號","121.458468333333","25.0204283333333","6500100","板橋區"
"220035","560-BX","2019/10/01 20:29:30","新北市板橋區新生街28號","121.456101666667","25.0211483333333","6500100","板橋區"
"220012","806-UM","2019/10/01 20:25:32","新北市板橋區四川路二段130巷25弄10號","121.448968333333","24.994715","6500100","板橋區"
"220055","827-TW","2019/10/01 20:29:16","新北市板橋區四川路一段371號","121.45838","24.999535","6500100","板橋區"
"220067","829-TW","2019/10/01 20:29:28","新北市板橋區四川路一段387號","121.457838333333","24.998925","6500100","板橋區"
"235068","KEA-2873","2019/10/01 20:29:23","新北市中和區中山路二段136巷3弄8號","121.501201666667","25.0039733333333","6500300","中和區"
