"lineid","car","time","location","longitude","latitude","cityid","cityname"
"234081","298-R6","2019/10/01 20:59:21","新北市永和區永元路122號","121.522783333333","25.0027783333333","6500400","永和區"
"234040","862-TW","2019/10/01 20:59:34","新北市新店區安民街133巷26號","121.51551","24.9696383333333","6500400","永和區"
"249004","303-UY","2019/10/01 20:59:22","新北市八里區中山路一段63號","121.418375","25.15947","6502300","八里區"
"243012","AAD-798","2019/10/01 20:59:19","新北市泰山區楓江路110號","121.438465","25.0639483333333","6501600","泰山區"
"243010","297-R6","2019/10/01 20:59:27","新北市泰山區文程路18巷6號","121.428251666667","25.049025","6501600","泰山區"
"243014","KEA-2801","2019/10/01 20:59:22","新北市泰山區泰林路二段517號","121.424038333333","25.0637783333333","6501600","泰山區"
"243016","421-VK","2019/10/01 20:59:26","新北市泰山區新生路10號","121.428166666667","25.044765","6501600","泰山區"
"243009","KEA-2215","2019/10/01 20:59:33","新北市泰山區泰林路二段154號","121.434033333333","25.060185","6501600","泰山區"
"222002","016-RS","2019/10/01 20:59:33","新北市深坑區北深路三段93巷11號","121.605438333333","25.0010333333333","6501800","深坑區"
"231061","002-UM","2019/10/01 20:59:21","新北市新店區永安街76號","121.519965","24.9863733333333","6500600","新店區"
"231042","047-UY","2019/10/01 20:59:29","新北市新店區寶興路60巷4號","121.549848333333","24.9718633333333","6500600","新店區"
"231060","106-UY","2019/10/01 20:59:25","新北市新店區安康路三段539-1號","121.47983","24.94686","6500600","新店區"
"231051","107-UY","2019/10/01 20:59:32","新北市新店區中正路663巷7弄15號","121.533015","24.990105","6500600","新店區"
"231065","110-UY","2019/10/01 20:59:22","新北市新店區安祥路69巷126號","121.483698333333","24.9591266666667","6500600","新店區"
"231068","187-VK","2019/10/01 20:59:30","新北市新店區寶元路二段11號","121.546116666667","24.9823716666667","6500600","新店區"
"231049","192-VK","2019/10/01 20:59:24","新北市新店區永業路81巷14號","121.531113333333","24.9481066666667","6500600","新店區"
"231062","256-BX","2019/10/01 20:59:30","新北市新店區裕合街143號","121.489093333333","24.9490483333333","6500600","新店區"
"231054","260-TV","2019/10/01 20:59:31","新北市新店區中興路一段268-2號","121.54512","24.9678466666667","6500600","新店區"
"231064","278-BY","2019/10/01 20:59:20","新北市新店區安民街251巷8號","121.516666666667","24.97265","6500600","新店區"
"231050","AAD-862","2019/10/01 20:59:25","新北市新店區三民路115號","121.534971666667","24.97222","6500600","新店區"
"231058","3713-VJ","2019/10/01 20:59:20","新北市新店區平等街67號","121.535948333333","24.972435","6500600","新店區"
"231056","4715-K9","2019/10/01 20:59:27","新北市新店區中正路468-2號","121.533865","24.9797933333333","6500600","新店區"
"231040","617-UM","2019/10/01 20:59:16","新北市新店區中正路232號","121.539968333333","24.972985","6500600","新店區"
"231063","641-BX","2019/10/01 20:59:21","新北市新店區富貴街12巷2號","121.494086666667","24.94942","6500600","新店區"
"231048","719-UM","2019/10/01 20:59:26","新北市新店區文化路67號","121.544708333333","24.9818183333333","6500600","新店區"
"231059","897-TW","2019/10/01 20:59:19","新北市新店區僑愛三路34號","121.498941666667","24.9447683333333","6500600","新店區"
"231043","899-TW","2019/10/01 20:59:29","新北市新店區中正路373號","121.534885","24.9765383333333","6500600","新店區"
"231066","AKT-0513","2019/10/01 20:59:27","新北市新店區柴埕路59號","121.513616666667","24.9648033333333","6500600","新店區"
"241028","022-UY","2019/10/01 20:59:25","新北市三重區重新路三段94號","121.49274","25.06084","6500200","三重區"
"241008","059-VK","2019/10/01 20:59:22","新北市三重區下竹圍街42-1號","121.481083333333","25.074855","6500200","三重區"
"241011","060-VK","2019/10/01 20:59:28","新北市三重區秀江街114號","121.499208333333","25.0719766666667","6500200","三重區"
"241015","062-VK","2019/10/01 20:59:27","新北市三重區福德北路52號","121.501785","25.0655266666667","6500200","三重區"
"241017","063-VK","2019/10/01 20:59:18","新北市三重區自強路一段215號","121.491315","25.0685316666667","6500200","三重區"
"241007","066-VK","2019/10/01 20:59:34","新北市三重區三和路四段111號","121.485971666667","25.0773383333333","6500200","三重區"
"241006","262-UM","2019/10/01 20:59:36","新北市三重區力行路二段166號","121.483071666667","25.0767866666667","6500200","三重區"
"241016","266-UM","2019/10/01 20:59:33","新北市三重區自強路一段226號","121.493711666667","25.06686","6500200","三重區"
"241009","267-UM","2019/10/01 20:59:22","新北市三重區永福街62-3號","121.480883333333","25.0777933333333","6500200","三重區"
"241032","269-UM","2019/10/01 20:59:19","新北市三重區三陽路135號","121.483008333333","25.0588333333333","6500200","三重區"
"241013","270-UM","2019/10/01 20:59:23","新北市三重區三和路四段12號","121.491426666667","25.073955","6500200","三重區"
"241025","271-UM","2019/10/01 20:59:24","新北市三重區貴陽街14號","121.484185","25.0618583333333","6500200","三重區"
"241030","KED-0822","2019/10/01 20:59:23","新北市三重區成功路145巷33號","121.487726666667","25.0532066666667","6500200","三重區"
"241004","475-VK","2019/10/01 20:59:27","新北市三重區仁愛街422巷1號","121.490093333333","25.0815816666667","6500200","三重區"
"241020","478-VK","2019/10/01 20:59:19","新北市三重區忠孝路一段34號","121.491413333333","25.0718716666667","6500200","三重區"
"241026","480-VK","2019/10/01 20:59:27","新北市三重區福德南路65巷2號","121.502405","25.0604116666667","6500200","三重區"
"241014","543-UM","2019/10/01 20:59:23","新北市三重區萬壽街23號","121.499718333333","25.0694","6500200","三重區"
"241023","545-UM","2019/10/01 20:59:29","新北市三重區忠孝路三段84巷1號","121.480248333333","25.064775","6500200","三重區"
"241001","547-UM","2019/10/01 20:59:21","新北市三重區自強路三段87巷11號","121.48786","25.0747966666667","6500200","三重區"
"241031","743-BX","2019/10/01 20:59:23","新北市三重區重陽路一段113巷1弄51號","121.488136666667","25.0584666666667","6500200","三重區"
"241022","KED-0820","2019/10/01 20:59:25","新北市三重區中正北路20巷12號","121.488011666667","25.06247","6500200","三重區"
"241029","942-UM","2019/10/01 20:59:19","新北市三重區集美街225號","121.491971666667","25.0551033333333","6500200","三重區"
"241033","AAC-255","2019/10/01 20:59:18","新北市三重區興德路100號","121.472383333333","25.0532333333333","6500200","三重區"
"235066","003-UY","2019/10/01 20:59:30","新北市中和區南工路97號","121.50735","25.0035633333333","6500300","中和區"
"235055","183-VK","2019/10/01 20:59:24","新北市中和區連城路270號","121.485133333333","24.9965016666667","6500300","中和區"
"247016","KEA-2869","2019/10/01 20:59:34","新北市蘆洲區正和街47號","121.469165","25.08147","6501400","蘆洲區"
"247010","KED-0682","2019/10/01 20:59:34","新北市蘆洲區鷺江街70號","121.47697","25.083715","6501400","蘆洲區"
"235050","4979-A6","2019/10/01 20:59:22","新北市中和區景平路476號","121.5053","24.993655","6500300","中和區"
"235069","4980-A6","2019/10/01 20:59:34","新北市中和區員山路375號","121.480918333333","25.0022933333333","6500300","中和區"
"235052","805-TS","2019/10/01 20:59:34","新北市中和區華新街192巷40號","121.506163333333","24.9837433333333","6500300","中和區"
"235059","AAC-215","2019/10/01 20:59:17","新北市中和區圓通路335巷33弄19號","121.49293","24.9887716666667","6500300","中和區"
"220035","015-TV","2019/10/01 20:59:23","新北市板橋區中正路417號","121.454083333333","25.0227683333333","6500100","板橋區"
"247006","341-TH","2019/10/01 20:59:31","新北市蘆洲區和平路122號","121.467525","25.08017","6501400","蘆洲區"
"247012","337-TH","2019/10/01 20:59:32","新北市蘆洲區復興路340巷15-1號","121.482721666667","25.0898266666667","6501400","蘆洲區"
"247004","336-TH","2019/10/01 20:59:24","新北市八里區中山路三段409號","121.368421666667","25.134905","6501400","蘆洲區"
"247024","057-VK","2019/10/01 20:59:17","新北市蘆洲區長興路213號","121.461161666667","25.086345","6501400","蘆洲區"
"247014","056-VK","2019/10/01 20:59:23","新北市蘆洲區三民路81號","121.474808333333","25.0840683333333","6501400","蘆洲區"
"247018","053-VK","2019/10/01 20:59:20","新北市蘆洲區民權路120號","121.473438333333","25.0885366666667","6501400","蘆洲區"
"247008","002-UY","2019/10/01 20:59:26","新北市蘆洲區中山一路198號","121.473668333333","25.0808083333333","6501400","蘆洲區"
"247002","001-UY","2019/10/01 20:59:21","新北市蘆洲區永樂街38巷41號","121.458338333333","25.0896466666667","6501400","蘆洲區"
"222001","KEA-2212","2019/10/01 20:59:21","新北市深坑區北深路三段200號","121.601476666667","25.00376","6501800","深坑區"
"251005","010-UM","2019/10/01 20:59:30","新北市淡水區學府路51巷2弄8號","121.447815","25.1697483333333","6501000","淡水區"
"251015","KEA-2871","2019/10/01 20:59:23","新北市淡水區淡金路四段542巷17號","121.452885","25.2270266666667","6501000","淡水區"
"251016","179-VK","2019/10/01 20:59:24","新北市淡水區牛埔子11-1號","121.450171666667","25.2184216666667","6501000","淡水區"
"251013","180-VK","2019/10/01 20:59:16","新北市淡水區番子厝13號","121.461366666667","25.2014083333333","6501000","淡水區"
"251010","413-VK","2019/10/01 20:59:24","新北市淡水區淡海路37號","121.423388333333","25.17953","6501000","淡水區"
"243003","549-UM","2019/10/01 20:59:26","新北市泰山區漢口街23號","121.424756666667","25.035995","6501600","泰山區"
"251012","441-VK","2019/10/01 20:59:24","新北市淡水區興仁路103巷37號","121.45041","25.2164783333333","6501000","淡水區"
"251007","442-VK","2019/10/01 20:59:25","新北市淡水區學府路104號","121.449825","25.171835","6501000","淡水區"
"251001","559-UM","2019/10/01 20:59:32","新北市淡水區新市一路三段104號","121.446478333333","25.18289","6501000","淡水區"
"251014","577-R6","2019/10/01 20:59:33","新北市淡水區溪口16號","121.45576","25.2365","6501000","淡水區"
"251011","650-BX","2019/10/01 20:59:34","新北市淡水區新民街226巷1號","121.436253333333","25.1806466666667","6501000","淡水區"
"251002","672-BX","2019/10/01 20:59:28","新北市淡水區英專路63號","121.445488333333","25.1710833333333","6501000","淡水區"
"251003","766-UM","2019/10/01 20:59:19","新北市淡水區中山北路一段261號","121.44452","25.180925","6501000","淡水區"
"236042","KED-0685","2019/10/01 20:59:33","新北市土城區裕民路10號","121.447318333333","24.98891","6501300","土城區"
"247004","KED-0683","2019/10/01 20:59:22","新北市蘆洲區長安街100號","121.461705","25.0809866666667","6501400","蘆洲區"
"242042","AAC-296","2019/10/01 20:59:34","新北市新莊區天祥街47巷27號","121.416255","25.0279566666667","6500500","新莊區"
"242061","986-R7","2019/10/01 20:59:32","新北市新莊區新樹路529號","121.432768333333","25.0096066666667","6500500","新莊區"
"242005","751-BX","2019/10/01 20:59:32","新北市新莊區化成路766號","121.465278333333","25.0587933333333","6500500","新莊區"
"242029","615-BX","2019/10/01 20:59:15","新北市新莊區中華路二段107號","121.452738333333","25.0497916666667","6500500","新莊區"
"242027","613-BX","2019/10/01 20:59:35","新北市新莊區幸福路85號","121.456301666667","25.0493283333333","6500500","新莊區"
"242058","612-BX","2019/10/01 20:59:27","新北市新莊區四維路215號","121.42167","25.0199516666667","6500500","新莊區"
"242048","566-BX","2019/10/01 20:59:31","新北市新莊區中正路871巷1號","121.418145","25.02702","6500500","新莊區"
"242013","442-UM","2019/10/01 20:59:30","新北市新莊區中榮街81巷3號","121.445473333333","25.0525566666667","6500500","新莊區"
"242002","441-UM","2019/10/01 20:59:30","新北市新莊區中港路59號","121.455036666667","25.03845","6500500","新莊區"
"242007","440-UM","2019/10/01 20:59:28","新北市新莊區思源路287巷2弄1號","121.459336666667","25.0482916666667","6500500","新莊區"
"242044","415-TV","2019/10/01 20:59:15","新北市新莊區龍安路108號","121.418371666667","25.0204166666667","6500500","新莊區"
"242051","400-BY","2019/10/01 20:59:30","新北市新莊區民安西路173巷5號","121.426635","25.0159566666667","6500500","新莊區"
"242025","362-BY","2019/10/01 20:59:24","新北市新莊區化成路579巷1號","121.464541666667","25.0660633333333","6500500","新莊區"
"242023","353-BY","2019/10/01 20:59:21","新北市新莊區化成路416號","121.465923333333","25.0509516666667","6500500","新莊區"
"242056","172-VK","2019/10/01 20:59:26","新北市新莊區瓊泰路85號","121.443081666667","25.0294716666667","6500500","新莊區"
"242017","173-VK","2019/10/01 20:59:33","新北市新莊區中港三街9巷1弄1號","121.45118","25.0463483333333","6500500","新莊區"
"242032","175-VK","2019/10/01 20:59:29","新北市新莊區三泰路46號","121.437668333333","25.03542","6500500","新莊區"
"242056","176-VK","2019/10/01 20:59:21","新北市新莊區瓊泰路107號","121.443188333333","25.0300616666667","6500500","新莊區"
"242011","346-TH","2019/10/01 20:59:23","新北市新莊區中榮街122巷1號","121.446538333333","25.0530833333333","6500500","新莊區"
"242054","347-TH","2019/10/01 20:59:35","新北市新莊區西盛街323巷6號","121.428503333333","25.014615","6500500","新莊區"
"242009","349-TH","2019/10/01 20:59:18","新北市新莊區幸福路555號","121.454483333333","25.0493016666667","6500500","新莊區"
"221036","130-UY","2019/10/01 20:59:16","新北市汐止區仁愛路317號","121.664538333333","25.0675933333333","6501100","汐止區"
"221023","279-VK","2019/10/01 20:59:30","新北市汐止區湖東街5巷12號","121.634083333333","25.0730016666667","6501100","汐止區"
"221015","567-BX","2019/10/01 20:59:32","新北市汐止區大同路二段607號","121.664101666667","25.0707133333333","6501100","汐止區"
"221035","622-UM","2019/10/01 20:59:18","新北市汐止區汐萬路一段115巷1號","121.654621666667","25.0700866666667","6501100","汐止區"
"220002","256-TC","2019/10/01 20:59:22","新北市板橋區忠孝路201巷53號","121.464826666667","25.0038866666667","6500100","板橋區"
"220072","277-BY","2019/10/01 20:59:24","新北市板橋區金門街51號","121.433318333333","24.99326","6500100","板橋區"
"220083","286-VK","2019/10/01 20:59:34","新北市板橋區僑中二街116巷17號","121.444933333333","25.006465","6500100","板橋區"
"220081","287-VK","2019/10/01 20:59:23","新北市板橋區大觀路二段142號","121.442761666667","24.9990283333333","6500100","板橋區"
"242046","281-VK","2019/10/01 20:59:24","新北市新莊區富國路22巷19號","121.418443333333","25.0257766666667","6500500","新莊區"
"220055","461-BY","2019/10/01 20:59:30","新北市板橋區光正街45巷28號","121.46141","25.016235","6500100","板橋區"
"220084","568-UM","2019/10/01 20:59:31","新北市板橋區溪崑二街112巷10號","121.426048333333","24.9888616666667","6500100","板橋區"
"235068","KEA-2873","2019/10/01 20:59:29","新北市中和區勝利路35巷1弄14號","121.499523333333","25.0075883333333","6500300","中和區"
